loggingTime(txt),locationTimestamp_since1970(s),locationLatitude(WGS84),locationLongitude(WGS84),locationAltitude(m),locationSpeed(m/s),locationSpeedAccuracy(m/s),locationCourse(°),locationCourseAccuracy(°),locationVerticalAccuracy(m),locationHorizontalAccuracy(m),locationFloor(Z),accelerometerTimestamp_sinceReboot(s),accelerometerAccelerationX(G),accelerometerAccelerationY(G),accelerometerAccelerationZ(G),motionTimestamp_sinceReboot(s),motionYaw(rad),motionRoll(rad),motionPitch(rad),motionRotationRateX(rad/s),motionRotationRateY(rad/s),motionRotationRateZ(rad/s),motionUserAccelerationX(G),motionUserAccelerationY(G),motionUserAccelerationZ(G),motionAttitudeReferenceFrame(txt),motionQuaternionX(R),motionQuaternionY(R),motionQuaternionZ(R),motionQuaternionW(R),motionGravityX(G),motionGravityY(G),motionGravityZ(G),motionMagneticFieldX(µT),motionMagneticFieldY(µT),motionMagneticFieldZ(µT),motionHeading(°),motionMagneticFieldCalibrationAccuracy(Z),activityTimestamp_sinceReboot(s),activity(txt),activityActivityConfidence(Z),activityActivityStartDate(txt),pedometerStartDate(txt),pedometerNumberofSteps(N),pedometerAverageActivePace(s/m),pedometerCurrentPace(s/m),pedometerCurrentCadence(steps/s),pedometerDistance(m),pedometerFloorAscended(N),pedometerFloorDescended(N),pedometerEndDate(txt),altimeterTimestamp_sinceReboot(s),altimeterReset(bool),altimeterRelativeAltitude(m),altimeterPressure(kPa),batteryState(N),batteryLevel(R)
2022-06-02T13:20:41.071+02:00,1654168840.176676,53.22899670524735,10.39847340447524,36.24324,-1,-1,-1,-1,14.57017517089844,32.01386601977254,-1,5404.011850000001,0.00830078125,-0.0686492919921875,-1.01885986328125,5404.001854,-0.5449045152323485,-0.006343942790444883,0.09265136280727015,-0.1712205111980438,0.08333625644445419,0.05553807318210602,-0.07394449412822723,0.003895744681358337,-0.03496402502059937,XArbitraryZVertical,0.04374808401122814,-0.01551312981767939,-0.2689454633707191,0.9620363080570462,-0.00631669070571661,-0.09251885861158371,-0.9956908822059631,0,0,0,-1,-1,5403.274548291667,unknown,2,2022-06-02T13:20:40.296+02:00,2022-06-02T11:15:15.986+02:00,710,1.094367,0,0,534.1945,0,0,2022-06-02T12:46:38.331+02:00,675861640.295807,0,-2.929688,101.3849,1,0.64
2022-06-02T13:20:41.085+02:00,1654168840.176676,53.22899670524735,10.39847340447524,36.24324,-1,-1,-1,-1,14.57017517089844,32.01386601977254,-1,5404.021845,0.051971435546875,-0.05889892578125,-1.014419555664062,5404.011850000001,-0.5443493750131623,-0.00554096780169003,0.09134455749734288,-0.08433803915977478,0.0759095698595047,0.04892511293292046,-0.02072723023593426,0.0160374641418457,-0.0291782021522522,XArbitraryZVertical,0.04323155244028575,-0.01493932481137109,-0.2686671734121456,0.9621464674593483,-0.00551783898845315,-0.09121758490800858,-0.9958156943321228,0,0,0,-1,-1,5403.274548291667,unknown,2,2022-06-02T13:20:40.296+02:00,2022-06-02T11:15:15.986+02:00,710,1.094367,0,0,534.1945,0,0,2022-06-02T12:46:38.331+02:00,675861640.295807,0,-2.929688,101.3849,1,0.64
2022-06-02T13:20:41.088+02:00,1654168840.176676,53.22899670524735,10.39847340447524,36.24324,-1,-1,-1,-1,14.57017517089844,32.01386601977254,-1,5404.031841,0.02978515625,-0.06610107421875,-1.021347045898438,5404.021845,-0.5440110756221761,-0.005239857279457119,0.09101769630662455,0.0152982734143734,-0.004508038982748985,0.02238830924034119,0.04235808551311493,0.0290939137339592,-0.01922857761383057,XArbitraryZVertical,0.04311723664206016,-0.01474330193079416,-0.2684994777645253,0.9622015303077189,-0.005218144506216049,-0.09089207649230957,-0.9958471059799194,0,0,0,-1,-1,5403.274548291667,unknown,2,2022-06-02T13:20:40.296+02:00,2022-06-02T11:15:15.986+02:00,710,1.094367,0,0,534.1945,0,0,2022-06-02T12:46:38.331+02:00,675861640.295807,0,-2.929688,101.3849,1,0.64
2022-06-02T13:20:41.090+02:00,1654168840.176676,53.22899670524735,10.39847340447524,36.24324,-1,-1,-1,-1,14.57017517089844,32.01386601977254,-1,5404.041837000001,-0.0167236328125,-0.09527587890625,-1.029556274414062,5404.041837000001,-0.5437105139975162,-0.006035601430265056,0.09247677345529411,0.09478946775197983,-0.03004009649157524,0.01657096482813358,0.01279998384416103,0.01278562843799591,-0.03236722946166992,XArbitraryZVertical,0.0437147094039089,-0.01531526232146327,-0.268365154396089,0.9622030657906345,-0.006009775213897228,-0.09234502166509628,-0.9957089424133301,0,0,0,-1,-1,5403.274548291667,unknown,2,2022-06-02T13:20:40.296+02:00,2022-06-02T11:15:15.986+02:00,710,1.094367,0,0,534.1945,0,0,2022-06-02T12:46:38.331+02:00,675861640.295807,0,-2.929688,101.3849,1,0.64
2022-06-02T13:20:41.092+02:00,1654168840.176676,53.22899670524735,10.39847340447524,36.24324,-1,-1,-1,-1,14.57017517089844,32.01386601977254,-1,5404.051833,-0.039031982421875,-0.1121673583984375,-1.021499633789062,5404.041837000001,-0.5437105139975162,-0.006035601430265056,0.09247677345529411,0.09478946775197983,-0.03004009649157524,0.01657096482813358,0.01279998384416103,0.01278562843799591,-0.03236722946166992,XArbitraryZVertical,0.0437147094039089,-0.01531526232146327,-0.268365154396089,0.9622030657906345,-0.006009775213897228,-0.09234502166509628,-0.9957089424133301,0,0,0,-1,-1,5403.274548291667,unknown,2,2022-06-02T13:20:40.296+02:00,2022-06-02T11:15:15.986+02:00,710,1.094367,0,0,534.1945,0,0,2022-06-02T12:46:38.331+02:00,675861640.295807,0,-2.929688,101.3849,1,0.64
2022-06-02T13:20:41.094+02:00,1654168840.176676,53.22899670524735,10.39847340447524,36.24324,-1,-1,-1,-1,14.57017517089844,32.01386601977254,-1,5404.061828,-0.025543212890625,-0.1125030517578125,-1.0135498046875,5404.051833,-0.5434903542777479,-0.006078803493955621,0.0933774904964343,0.06923288106918335,0.01100487355142832,0.02768427133560181,-0.02589957229793072,-0.01436319202184677,-0.03164231777191162,XArbitraryZVertical,0.04414397947957691,-0.01545192528900418,-0.2682558814866857,0.9622117486339348,-0.00605228403583169,-0.093241848051548,-0.9956250786781311,0,0,0,-1,-1,5403.274548291667,unknown,2,2022-06-02T13:20:40.296+02:00,2022-06-02T11:15:15.986+02:00,710,1.094367,0,0,534.1945,0,0,2022-06-02T12:46:38.331+02:00,675861640.295807,0,-2.929688,101.3849,1,0.64
2022-06-02T13:20:41.096+02:00,1654168840.176676,53.22899670524735,10.39847340447524,36.24324,-1,-1,-1,-1,14.57017517089844,32.01386601977254,-1,5404.071824000001,-0.003082275390625,-0.10479736328125,-1.006027221679688,5404.071824000001,-0.542847554045131,-0.005566118262298808,0.09407913960251521,0.002442629542201757,0.0207317378371954,0.03209719434380531,-0.008450785651803017,-0.01566353440284729,-0.01316559314727783,XArbitraryZVertical,0.04455524881757996,-0.01528496760989293,-0.2679318194012434,0.9622857499339132,-0.005541475489735603,-0.09394042193889618,-0.9955623745918274,0,0,0,-1,-1,5403.274548291667,unknown,2,2022-06-02T13:20:40.296+02:00,2022-06-02T11:15:15.986+02:00,710,1.094367,0,0,534.1945,0,0,2022-06-02T12:46:38.331+02:00,675861640.295807,0,-2.929688,101.3849,1,0.64
2022-06-02T13:20:41.105+02:00,1654168840.176676,53.22899670524735,10.39847340447524,36.24324,-1,-1,-1,-1,14.57017517089844,32.01386601977254,-1,5404.08182,0.01177978515625,-0.09649658203125,-1.008102416992188,5404.071824000001,-0.542847554045131,-0.005566118262298808,0.09407913960251521,0.002442629542201757,0.0207317378371954,0.03209719434380531,-0.008450785651803017,-0.01566353440284729,-0.01316559314727783,XArbitraryZVertical,0.04455524881757996,-0.01528496760989293,-0.2679318194012434,0.9622857499339132,-0.005541475489735603,-0.09394042193889618,-0.9955623745918274,0,0,0,-1,-1,5403.274548291667,unknown,2,2022-06-02T13:20:40.296+02:00,2022-06-02T11:15:15.986+02:00,710,1.094367,0,0,534.1945,0,0,2022-06-02T12:46:38.331+02:00,675861640.295807,0,-2.929688,101.3849,1,0.64
2022-06-02T13:20:41.116+02:00,1654168840.176676,53.22899670524735,10.39847340447524,36.24324,-1,-1,-1,-1,14.57017517089844,32.01386601977254,-1,5404.091816,0.0099029541015625,-0.087615966796875,-1.014556884765625,5404.08182,-0.5426146555675213,-0.005539335527753006,0.09401114224364404,-0.01023588143289089,-0.003112342907115817,0.01819176599383354,0.01161840930581093,-0.006057143211364746,-0.01120591163635254,XArbitraryZVertical,0.04452789661790549,-0.01525779705817303,-0.2678195112496546,0.962318664638697,-0.00551484664902091,-0.09387272596359253,-0.9955689311027527,0,0,0,-1,-1,5403.274548291667,unknown,2,2022-06-02T13:20:40.296+02:00,2022-06-02T11:15:15.986+02:00,710,1.094367,0,0,534.1945,0,0,2022-06-02T12:46:38.331+02:00,675861640.295807,0,-2.929688,101.3849,1,0.64
2022-06-02T13:20:41.125+02:00,1654168840.176676,53.22899670524735,10.39847340447524,36.24324,-1,-1,-1,-1,14.57017517089844,32.01386601977254,-1,5404.101811,0.0001983642578125,-0.0756378173828125,-1.01641845703125,5404.091816,-0.5425126037845984,-0.005709383411926217,0.09388949379331045,-0.008294170722365379,-0.02533615753054619,0.004948664456605911,0.0181201659142971,0.0002304241061210632,-0.01522380113601685,XArbitraryZVertical,0.04444737047838977,-0.0153210746473339,-0.2677747904720948,0.9623338290755021,-0.005684206262230873,-0.09375160932540894,-0.9955794215202332,0,0,0,-1,-1,5403.274548291667,unknown,2,2022-06-02T13:20:40.296+02:00,2022-06-02T11:15:15.986+02:00,710,1.094367,0,0,534.1945,0,0,2022-06-02T12:46:38.331+02:00,675861640.295807,0,-2.929688,101.3849,1,0.64
2022-06-02T13:20:41.135+02:00,1654168840.176676,53.22899670524735,10.39847340447524,36.24324,-1,-1,-1,-1,14.57017517089844,32.01386601977254,-1,5404.111807,-0.0096282958984375,-0.072723388671875,-1.011810302734375,5404.101811,-0.5424875707184651,-0.005981166900684376,0.09384115547260566,0.005051461979746819,-0.02731914445757866,0.003933466970920563,0.01062405295670033,0.01237408071756363,-0.02030199766159058,XArbitraryZVertical,0.04438791437432207,-0.01544482658093306,-0.2677690168749041,0.9623362031339823,-0.005954815074801445,-0.0937034860253334,-0.9955823421478271,0,0,0,-1,-1,5403.274548291667,unknown,2,2022-06-02T13:20:40.296+02:00,2022-06-02T11:15:15.986+02:00,710,1.094367,0,0,534.1945,0,0,2022-06-02T12:46:38.331+02:00,675861640.295807,0,-2.929688,101.3849,1,0.64
2022-06-02T13:20:41.145+02:00,1654168840.176676,53.22899670524735,10.39847340447524,36.24324,-1,-1,-1,-1,14.57017517089844,32.01386601977254,-1,5404.121803,-0.0146636962890625,-0.078369140625,-1.006744384765625,5404.121803,-0.5424359666678946,-0.006374954417967515,0.09421446609309661,0.02962341718375683,-0.01570823043584824,-0.0008283313363790512,-0.007264155428856611,0.01604163646697998,-0.0133509635925293,XArbitraryZVertical,0.0445152330210398,-0.01568308178293319,-0.267751131776961,0.9623314985625648,-0.00634663924574852,-0.09407515078783035,-0.9955448508262634,0,0,0,-1,-1,5403.274548291667,unknown,2,2022-06-02T13:20:40.296+02:00,2022-06-02T11:15:15.986+02:00,710,1.094367,0,0,534.1945,0,0,2022-06-02T12:46:38.331+02:00,675861640.295807,0,-2.929688,101.3849,1,0.64
2022-06-02T13:20:41.155+02:00,1654168840.176676,53.22899670524735,10.39847340447524,36.24324,-1,-1,-1,-1,14.57017517089844,32.01386601977254,-1,5404.131798,-0.014617919921875,-0.077667236328125,-1.005584716796875,5404.121803,-0.5424359666678946,-0.006374954417967515,0.09421446609309661,0.02962341718375683,-0.01570823043584824,-0.0008283313363790512,-0.007264155428856611,0.01604163646697998,-0.0133509635925293,XArbitraryZVertical,0.0445152330210398,-0.01568308178293319,-0.267751131776961,0.9623314985625648,-0.00634663924574852,-0.09407515078783035,-0.9955448508262634,0,0,0,-1,-1,5403.274548291667,unknown,2,2022-06-02T13:20:40.296+02:00,2022-06-02T11:15:15.986+02:00,710,1.094367,0,0,534.1945,0,0,2022-06-02T12:46:38.331+02:00,675861640.295807,0,-2.929688,101.3849,1,0.64
2022-06-02T13:20:41.165+02:00,1654168840.176676,53.22899670524735,10.39847340447524,36.24324,-1,-1,-1,-1,14.57017517089844,32.01386601977254,-1,5404.141794,-0.0186614990234375,-0.08123779296875,-1.00823974609375,5404.131798,-0.542475809657152,-0.006540414999355672,0.09457216355698385,0.03946060314774513,-0.01370313577353954,-0.006614048499614,-0.00685550831258297,0.01641299575567245,-0.01059341430664062,XArbitraryZVertical,0.04466489253519373,-0.01581141998621484,-0.2677722881223694,0.9623165711116453,-0.006511142011731863,-0.09443125128746033,-0.9955101013183594,0,0,0,-1,-1,5403.274548291667,unknown,2,2022-06-02T13:20:40.296+02:00,2022-06-02T11:15:15.986+02:00,710,1.094367,0,0,534.1945,0,0,2022-06-02T12:46:38.331+02:00,675861640.295807,0,-2.929688,101.3849,1,0.64
2022-06-02T13:20:41.175+02:00,1654168840.176676,53.22899670524735,10.39847340447524,36.24324,-1,-1,-1,-1,14.57017517089844,32.01386601977254,-1,5404.15179,-0.01629638671875,-0.089996337890625,-1.010498046875,5404.141794,-0.5425336799321887,-0.006645318474041156,0.09507703954492708,0.05379639938473701,0.004406359512358904,-0.006045197136700153,-0.01071867905557156,0.01709870994091034,-0.01155745983123779,XArbitraryZVertical,0.04489332876894372,-0.01593071106112617,-0.2678000609179103,0.9622963155368155,-0.006615256890654564,-0.09493386000394821,-0.9954615831375122,0,0,0,-1,-1,5403.274548291667,unknown,2,2022-06-02T13:20:40.296+02:00,2022-06-02T11:15:15.986+02:00,710,1.094367,0,0,534.1945,0,0,2022-06-02T12:46:38.331+02:00,675861640.295807,0,-2.929688,101.3849,1,0.64
2022-06-02T13:20:41.185+02:00,1654168840.176676,53.22899670524735,10.39847340447524,36.24324,-1,-1,-1,-1,14.57017517089844,32.01386601977254,-1,5404.161786000001,-0.0032196044921875,-0.0973052978515625,-1.003463745117188,5404.15179,-0.542611202386991,-0.006519649676292762,0.09564361781613918,0.05488436669111252,0.02126563340425491,-0.01196553744375706,-0.01179017685353756,0.01036901772022247,-0.01383835077285767,XArbitraryZVertical,0.04518216934697526,-0.01594777772835474,-0.2678318201428251,0.9622736269865165,-0.006489806342869997,-0.09549786150455475,-0.9954084753990173,0,0,0,-1,-1,5403.274548291667,unknown,2,2022-06-02T13:20:40.296+02:00,2022-06-02T11:15:15.986+02:00,710,1.094367,0,0,534.1945,0,0,2022-06-02T12:46:38.331+02:00,675861640.295807,0,-2.929688,101.3849,1,0.64
2022-06-02T13:20:41.195+02:00,1654168840.176676,53.22899670524735,10.39847340447524,36.24324,-1,-1,-1,-1,14.57017517089844,32.01386601977254,-1,5404.171781,0.0047149658203125,-0.1011505126953125,-0.9972686767578125,5404.161786000001,-0.5427435007602815,-0.006291873621625653,0.09617420169292419,0.04791860282421112,0.01561813428997993,-0.01401510648429394,-0.004891370888799429,0.001482494175434113,-0.01327729225158691,XArbitraryZVertical,0.04546692138345083,-0.01591216686349446,-0.2678877097403207,0.9622452931362891,-0.006262756418436766,-0.09602601081132889,-0.9953591227531433,0,0,0,-1,-1,5403.274548291667,unknown,2,2022-06-02T13:20:40.296+02:00,2022-06-02T11:15:15.986+02:00,710,1.094367,0,0,534.1945,0,0,2022-06-02T12:46:38.331+02:00,675861640.295807,0,-2.929688,101.3849,1,0.64
2022-06-02T13:20:41.205+02:00,1654168840.176676,53.22899670524735,10.39847340447524,36.24324,-1,-1,-1,-1,14.57017517089844,32.01386601977254,-1,5404.181777000001,0.0030364990234375,-0.107391357421875,-0.9958953857421875,5404.171781,-0.5428792730731521,-0.006176605125632236,0.09660707772802153,0.03573740273714066,-0.003643510397523642,-0.01204403303563595,0.007521104067564011,-0.002008154988288879,-0.004391908645629883,XArbitraryZVertical,0.04568956199628956,-0.01591772736398755,-0.2679482521964845,0.9622178283223887,-0.006147765554487705,-0.09645687788724899,-0.9953181743621826,0,0,0,-1,-1,5403.274548291667,unknown,2,2022-06-02T13:20:40.296+02:00,2022-06-02T11:15:15.986+02:00,710,1.094367,0,0,534.1945,0,0,2022-06-02T12:46:38.331+02:00,675861640.295807,0,-2.929688,101.3849,1,0.64
2022-06-02T13:20:41.215+02:00,1654168840.176676,53.22899670524735,10.39847340447524,36.24324,-1,-1,-1,-1,14.57017517089844,32.01386601977254,-1,5404.191773,-0.0019683837890625,-0.1040802001953125,-0.9979705810546875,5404.181777000001,-0.5430196905693297,-0.006243744456344073,0.09681762933325147,0.01631949655711651,-0.01817957684397697,-0.0135961240157485,0.01138723827898502,-0.007657967507839203,-0.0009336471557617188,XArbitraryZVertical,0.04578075204718077,-0.015981421414492,-0.2680162958529546,0.9621934733809552,-0.006214463617652655,-0.09666644781827927,-0.9952974319458008,0,0,0,-1,-1,5403.274548291667,unknown,2,2022-06-02T13:20:40.296+02:00,2022-06-02T11:15:15.986+02:00,710,1.094367,0,0,534.1945,0,0,2022-06-02T12:46:38.331+02:00,675861640.295807,0,-2.929688,101.3849,1,0.64
2022-06-02T13:20:41.225+02:00,1654168840.176676,53.22899670524735,10.39847340447524,36.24324,-1,-1,-1,-1,14.57017517089844,32.01386601977254,-1,5404.201769,-0.006622314453125,-0.1015472412109375,-1.002212524414062,5404.191773,-0.5431589401506659,-0.006478284249691536,0.09681172147958637,0.002409872598946095,-0.02868454903364182,-0.01419786550104618,0.00721089169383049,-0.01015102863311768,-0.00186532735824585,XArbitraryZVertical,0.04574535809475832,-0.0160966515087108,-0.26808868174205,0.9621730783634255,-0.00644790381193161,-0.0966605618596077,-0.9952965378761292,0,0,0,-1,-1,5403.274548291667,unknown,2,2022-06-02T13:20:40.296+02:00,2022-06-02T11:15:15.986+02:00,710,1.094367,0,0,534.1945,0,0,2022-06-02T12:46:38.331+02:00,675861640.295807,0,-2.929688,101.3849,1,0.64
2022-06-02T13:20:41.235+02:00,1654168840.176676,53.22899670524735,10.39847340447524,36.24324,-1,-1,-1,-1,14.57017517089844,32.01386601977254,-1,5404.211764000001,-0.0069122314453125,-0.104583740234375,-1.005050659179688,5404.201769,-0.5432791454608059,-0.006792751990895559,0.09678240618762805,0.004944669082760811,-0.03030428290367126,-0.01159356068819761,0.002961522433906794,-0.005831442773342133,-0.00503838062286377,XArbitraryZVertical,0.04568812769778424,-0.01624676231536111,-0.2681538642961886,0.9621550102687628,-0.006760911550372839,-0.09663138538599014,-0.9952972531318665,0,0,0,-1,-1,5403.274548291667,unknown,2,2022-06-02T13:20:40.296+02:00,2022-06-02T11:15:15.986+02:00,710,1.094367,0,0,534.1945,0,0,2022-06-02T12:46:38.331+02:00,675861640.295807,0,-2.929688,101.3849,1,0.64
2022-06-02T13:20:41.245+02:00,1654168840.176676,53.22899670524735,10.39847340447524,36.24324,-1,-1,-1,-1,14.57017517089844,32.01386601977254,-1,5404.22176,-0.0051727294921875,-0.1032257080078125,-1.002395629882812,5404.211764000001,-0.5433400280552479,-0.007088157944536046,0.09683583369511299,0.02062196657061577,-0.02429605834186077,-0.002464643213897943,-0.000482901930809021,-0.006007149815559387,-0.008616149425506592,XArbitraryZVertical,0.04567372731951544,-0.01639742172480765,-0.2681896505481328,0.9621431295162436,-0.007054891437292099,-0.09668456017971039,-0.9952900409698486,0,0,0,-1,-1,5403.274548291667,unknown,2,2022-06-02T13:20:40.296+02:00,2022-06-02T11:15:15.986+02:00,710,1.094367,0,0,534.1945,0,0,2022-06-02T12:46:38.331+02:00,675861640.295807,0,-2.929688,101.3849,1,0.64
2022-06-02T13:20:41.255+02:00,1654168840.176676,53.22899670524735,10.39847340447524,36.24324,-1,-1,-1,-1,14.57017517089844,32.01386601977254,-1,5404.231756,0.0034637451171875,-0.095428466796875,-0.99822998046875,5404.22176,-0.5433447151933066,-0.007347212351350898,0.09703000547431738,0.0300144013017416,-0.02260415256023407,0.002168724313378334,3.675464540719986e-06,-0.00872831791639328,-0.008163750171661377,XArbitraryZVertical,0.04573236990798631,-0.0165481574026619,-0.2681969016771305,0.9621357350211889,-0.007312587462365627,-0.096877820789814,-0.9952694177627563,0,0,0,-1,-1,5403.274548291667,unknown,2,2022-06-02T13:20:40.296+02:00,2022-06-02T11:15:15.986+02:00,710,1.094367,0,0,534.1945,0,0,2022-06-02T12:46:38.331+02:00,675861640.295807,0,-2.929688,101.3849,1,0.64
2022-06-02T13:20:41.265+02:00,1654168840.176676,53.22899670524735,10.39847340447524,36.24324,-1,-1,-1,-1,14.57017517089844,32.01386601977254,-1,5404.241751,0.0042572021484375,-0.09637451171875,-0.9938201904296875,5404.231756,-0.5433093907394356,-0.007659699203469142,0.0973351950453617,0.04117441177368164,-0.03200264647603035,0.003922082483768463,0.007592899724841118,-0.001466564834117889,-0.005617022514343262,XArbitraryZVertical,0.04583759169055283,-0.01673854620483138,-0.2681856209179047,0.9621305921664031,-0.007623368874192238,-0.09718157351016998,-0.9952374696731567,0,0,0,-1,-1,5403.274548291667,unknown,2,2022-06-02T13:20:40.296+02:00,2022-06-02T11:15:15.986+02:00,710,1.094367,0,0,534.1945,0,0,2022-06-02T12:46:38.331+02:00,675861640.295807,0,-2.929688,101.3849,1,0.64
2022-06-02T13:20:41.275+02:00,1654168840.176676,53.22899670524735,10.39847340447524,36.24324,-1,-1,-1,-1,14.57017517089844,32.01386601977254,-1,5404.251747,0.0003814697265625,-0.104736328125,-0.990234375,5404.241751,-0.54324912272723,-0.008022838195395055,0.09775514791120071,0.04670606553554535,-0.0367252305150032,0.01139704324305058,0.01382861472666264,0.003071263432502747,0.0003359317779541016,XArbitraryZVertical,0.04599145228900483,-0.01696808786361519,-0.2681630057147876,0.9621255527468112,-0.007984450086951256,-0.09759952872991562,-0.9951937198638916,0,0,0,-1,-1,5403.274548291667,unknown,2,2022-06-02T13:20:40.296+02:00,2022-06-02T11:15:15.986+02:00,710,1.094367,0,0,534.1945,0,0,2022-06-02T12:46:38.331+02:00,675861640.295807,0,-2.929688,101.3849,1,0.64
2022-06-02T13:20:41.285+02:00,1654168840.176676,53.22899670524735,10.39847340447524,36.24324,-1,-1,-1,-1,14.57017517089844,32.01386601977254,-1,5404.261743,-0.0023193359375,-0.116241455078125,-0.9829864501953125,5404.251747,-0.5431165223610523,-0.008393619342866046,0.09816437329737901,0.02984562516212463,-0.040420301258564,0.01463085319846869,0.01051990687847137,-0.002640247344970703,0.00181877613067627,XArbitraryZVertical,0.04613975887694122,-0.01719818535256434,-0.2681058644472943,0.9621303483295151,-0.008353112265467644,-0.09800679236650467,-0.9951506853103638,0,0,0,-1,-1,5403.274548291667,unknown,2,2022-06-02T13:20:40.296+02:00,2022-06-02T11:15:15.986+02:00,710,1.094367,0,0,534.1945,0,0,2022-06-02T12:46:38.331+02:00,675861640.295807,0,-2.929688,101.3849,1,0.64
2022-06-02T13:20:41.295+02:00,1654168840.176676,53.22899670524735,10.39847340447524,36.24324,-1,-1,-1,-1,14.57017517089844,32.01386601977254,-1,5404.271739000001,-0.0053863525390625,-0.104736328125,-0.9859466552734375,5404.261743,-0.542972314239227,-0.008773351500440082,0.0983282076987298,-0.004728331230580807,-0.04526379331946373,0.01059429999440908,0.007403392344713211,-0.01408913731575012,0.008665919303894043,XArbitraryZVertical,0.04616893338180423,-0.01739946205265602,-0.2680445180969279,0.9621424002801662,-0.008730861358344555,-0.09816984087228775,-0.9951313734054565,0,0,0,-1,-1,5403.274548291667,unknown,2,2022-06-02T13:20:40.296+02:00,2022-06-02T11:15:15.986+02:00,710,1.094367,0,0,534.1945,0,0,2022-06-02T12:46:38.331+02:00,675861640.295807,0,-2.929688,101.3849,1,0.64
2022-06-02T13:20:41.305+02:00,1654168840.176676,53.22899670524735,10.39847340447524,36.24324,-1,-1,-1,-1,14.57017517089844,32.01386601977254,-1,5404.281734,-0.00604248046875,-0.0894775390625,-0.9944305419921875,5404.271739000001,-0.5428916492414032,-0.009253203078736361,0.09823680625572057,-0.0174542460590601,-0.05333077162504196,0.002101212739944458,0.004737681709229946,-0.01485148072242737,0.0122259259223938,XArbitraryZVertical,0.04606135605853952,-0.01761621649799452,-0.2680171819558442,0.9621512199379278,-0.009208458475768566,-0.09807887673377991,-0.995136022567749,0,0,0,-1,-1,5403.274548291667,unknown,2,2022-06-02T13:20:40.296+02:00,2022-06-02T11:15:15.986+02:00,710,1.094367,0,0,534.1945,0,0,2022-06-02T12:46:38.331+02:00,675861640.295807,0,-2.929688,101.3849,1,0.64
2022-06-02T13:20:41.315+02:00,1654168840.176676,53.22899670524735,10.39847340447524,36.24324,-1,-1,-1,-1,14.57017517089844,32.01386601977254,-1,5404.29173,-0.01080322265625,-0.088470458984375,-0.997650146484375,5404.281734,-0.5428435712549287,-0.009730179765307564,0.09812889569082599,-0.004901170264929533,-0.04043867811560631,0.006232308223843575,0.004907265305519104,0.001383282244205475,0.005090832710266113,XArbitraryZVertical,0.04594594363013902,-0.01783013556966097,-0.2680054819017735,0.9621560822893518,-0.009683216921985149,-0.09797148406505585,-0.9951421022415161,0,0,0,-1,-1,5403.274548291667,unknown,2,2022-06-02T13:20:40.296+02:00,2022-06-02T11:15:15.986+02:00,710,1.094367,0,0,534.1945,0,0,2022-06-02T12:46:38.331+02:00,675861640.295807,0,-2.929688,101.3849,1,0.64
2022-06-02T13:20:41.325+02:00,1654168840.176676,53.22899670524735,10.39847340447524,36.24324,-1,-1,-1,-1,14.57017517089844,32.01386601977254,-1,5404.301726000001,-0.00408935546875,-0.0915679931640625,-0.9937286376953125,5404.29173,-0.5427848361753882,-0.01004537881236757,0.09809836710686483,-0.007196482736617327,-0.02118735201656818,0.008938480168581009,0.001207898370921612,0.01175940036773682,-0.003087937831878662,XArbitraryZVertical,0.04588954612261567,-0.01797634065102275,-0.2679845982216995,0.9621618346247877,-0.009996914304792881,-0.09794110804796219,-0.9951419830322266,0,0,0,-1,-1,5403.274548291667,unknown,2,2022-06-02T13:20:40.296+02:00,2022-06-02T11:15:15.986+02:00,710,1.094367,0,0,534.1945,0,0,2022-06-02T12:46:38.331+02:00,675861640.295807,0,-2.929688,101.3849,1,0.64
2022-06-02T13:20:41.335+02:00,1654168840.176676,53.22899670524735,10.39847340447524,36.24324,-1,-1,-1,-1,14.57017517089844,32.01386601977254,-1,5404.311721,0.003875732421875,-0.085601806640625,-0.991119384765625,5404.301726000001,-0.5427151468955774,-0.01025641384430263,0.09802504512348721,-0.01209962740540504,-0.0255751758813858,0.008280413225293159,0.001051770523190498,0.006773091852664948,-0.001724898815155029,XArbitraryZVertical,0.04582661814329842,-0.01806645993758663,-0.2679562038501918,0.9621710964900936,-0.01020699832588434,-0.09786813706159592,-0.9951470494270325,0,0,0,-1,-1,5403.274548291667,unknown,2,2022-06-02T13:20:40.296+02:00,2022-06-02T11:15:15.986+02:00,710,1.094367,0,0,534.1945,0,0,2022-06-02T12:46:38.331+02:00,675861640.295807,0,-2.929688,101.3849,1,0.64
2022-06-02T13:20:41.345+02:00,1654168840.176676,53.22899670524735,10.39847340447524,36.24324,-1,-1,-1,-1,14.57017517089844,32.01386601977254,-1,5404.321717000001,-0.000579833984375,-0.0888214111328125,-0.9930572509765625,5404.311721,-0.5426194929723204,-0.01053374033642728,0.09790275898792868,-0.01005768310278654,-0.03835122659802437,0.009709264151751995,0.0107578095048666,0.008863925933837891,0.002953410148620605,XArbitraryZVertical,0.04573149352522833,-0.01818133704335081,-0.2679170324613117,0.9621843565768544,-0.01048310380429029,-0.09774643182754517,-0.9951561093330383,0,0,0,-1,-1,5403.274548291667,unknown,2,2022-06-02T13:20:40.296+02:00,2022-06-02T11:15:15.986+02:00,710,1.094367,0,0,534.1945,0,0,2022-06-02T12:46:38.331+02:00,675861640.295807,0,-2.929688,101.3849,1,0.64
2022-06-02T13:20:41.355+02:00,1654168840.176676,53.22899670524735,10.39847340447524,36.24324,-1,-1,-1,-1,14.57017517089844,32.01386601977254,-1,5404.331713,-0.0137481689453125,-0.0934295654296875,-0.9929046630859375,5404.321717000001,-0.5425500779753688,-0.01089452449174609,0.09779510743498274,-0.008213176392018795,-0.04452762752771378,0.006584844551980495,0.01496217213571072,0.01197639107704163,0.002166569232940674,XArbitraryZVertical,0.04563199970042731,-0.0183389278443232,-0.2678922955682487,0.9621930233745811,-0.01084225438535213,-0.097639299929142,-0.9951627850532532,0,0,0,-1,-1,5403.274548291667,unknown,2,2022-06-02T13:20:40.296+02:00,2022-06-02T11:15:15.986+02:00,710,1.094367,0,0,534.1945,0,0,2022-06-02T12:46:38.331+02:00,675861640.295807,0,-2.929688,101.3849,1,0.64
2022-06-02T13:20:41.365+02:00,1654168840.176676,53.22899670524735,10.39847340447524,36.24324,-1,-1,-1,-1,14.57017517089844,32.01386601977254,-1,5404.341709,-0.0181732177734375,-0.087860107421875,-0.9919281005859375,5404.331713,-0.5424779847208239,-0.01127781082182414,0.09770130359172682,-0.0142340175807476,-0.04060525447130203,0.009164315648376942,0.004174275323748589,0.00652720034122467,0.002781867980957031,XArbitraryZVertical,0.04553619481190801,-0.01850914817557723,-0.2678667364470714,0.962201305243898,-0.01122378930449486,-0.09754594415426254,-0.9951677322387695,0,0,0,-1,-1,5403.274548291667,unknown,2,2022-06-02T13:20:40.296+02:00,2022-06-02T11:15:15.986+02:00,710,1.094367,0,0,534.1945,0,0,2022-06-02T12:46:38.331+02:00,675861640.295807,0,-2.929688,101.3849,1,0.64
2022-06-02T13:20:41.375+02:00,1654168840.176676,53.22899670524735,10.39847340447524,36.24324,-1,-1,-1,-1,14.57017517089844,32.01386601977254,-1,5404.351704000001,-0.012847900390625,-0.0809478759765625,-0.984954833984375,5404.341709,-0.5423921212360823,-0.01157151510042658,0.09762571010108731,-0.01241294853389263,-0.0241628997027874,0.009204528294503689,-0.006107695400714874,0.006375670433044434,0.0009853839874267578,XArbitraryZVertical,0.04546128370820694,-0.01863839303020853,-0.267832393359048,0.9622119215629031,-0.01151615940034389,-0.09747070819139481,-0.9951717853546143,0,0,0,-1,-1,5403.274548291667,unknown,2,2022-06-02T13:20:40.296+02:00,2022-06-02T11:15:15.986+02:00,710,1.094367,0,0,534.1945,0,0,2022-06-02T12:46:38.331+02:00,675861640.295807,0,-2.929688,101.3849,1,0.64
2022-06-02T13:20:41.385+02:00,1654168840.176676,53.22899670524735,10.39847340447524,36.24324,-1,-1,-1,-1,14.57017517089844,32.01386601977254,-1,5404.3617,-0.0072784423828125,-0.0833892822265625,-0.989593505859375,5404.351704000001,-0.5423025602623509,-0.01172665608388673,0.09762368214940183,-0.003110294230282307,-0.0109978960826993,0.01264566648751497,-0.004000177606940269,0.01452184468507767,0.007743418216705322,XArbitraryZVertical,0.04544036882291711,-0.01871072523610879,-0.2677928318026174,0.962222544754926,-0.01167055312544107,-0.09746868908405304,-0.9951701760292053,0,0,0,-1,-1,5403.274548291667,unknown,2,2022-06-02T13:20:40.296+02:00,2022-06-02T11:15:15.986+02:00,710,1.094367,0,0,534.1945,0,0,2022-06-02T12:46:38.331+02:00,675861640.295807,0,-2.929688,101.3849,1,0.64
2022-06-02T13:20:41.395+02:00,1654168840.176676,53.22899670524735,10.39847340447524,36.24324,-1,-1,-1,-1,14.57017517089844,32.01386601977254,-1,5404.371696,-0.0050506591796875,-0.0874481201171875,-0.9905548095703125,5404.3617,-0.5421965626584134,-0.01183099756523955,0.0976038882502477,-0.002074058167636395,-0.01127513125538826,0.008159038610756397,0.002069870010018349,0.0154329314827919,0.008842766284942627,XArbitraryZVertical,0.04541786824312776,-0.01875587423147959,-0.2677442839959792,0.9622362113732513,-0.01177441328763962,-0.09744898974895477,-0.9951708912849426,0,0,0,-1,-1,5403.274548291667,unknown,2,2022-06-02T13:20:40.296+02:00,2022-06-02T11:15:15.986+02:00,710,1.094367,0,0,534.1945,0,0,2022-06-02T12:46:38.331+02:00,675861640.295807,0,-2.929688,101.3849,1,0.64
2022-06-02T13:20:41.406+02:00,1654168840.176676,53.22899670524735,10.39847340447524,36.24324,-1,-1,-1,-1,14.57017517089844,32.01386601977254,-1,5404.381692,-0.004730224609375,-0.0899200439453125,-0.986846923828125,5404.371696,-0.5421632701536764,-0.01190404075123948,0.09746692549296165,-0.01837177202105522,-0.004275212530046701,-0.002990351058542728,0.00545387901365757,0.01146665960550308,0.006474852561950684,XArbitraryZVertical,0.04534249563164633,-0.01877196371769721,-0.2677304223129169,0.9622433283044668,-0.01184726227074862,-0.09731268137693405,-0.9951833486557007,0,0,0,-1,-1,5403.274548291667,unknown,2,2022-06-02T13:20:40.296+02:00,2022-06-02T11:15:15.986+02:00,710,1.094367,0,0,534.1945,0,0,2022-06-02T12:46:38.331+02:00,675861640.295807,0,-2.929688,101.3849,1,0.64
2022-06-02T13:20:41.421+02:00,1654168840.176676,53.22899670524735,10.39847340447524,36.24324,-1,-1,-1,-1,14.57017517089844,32.01386601977254,-1,5404.391687,-0.0109100341796875,-0.0868377685546875,-0.9878692626953125,5404.381692,-0.5422476954070699,-0.01194815574772164,0.09717763586911717,-0.03760538622736931,-0.01067931577563286,-0.01586620137095451,0.007634343579411507,0.009011991322040558,0.005815804004669189,XArbitraryZVertical,0.04519659292060633,-0.01875645233329911,-0.2677730996334975,0.9622385926271397,-0.01189150102436543,-0.09702476114034653,-0.9952109456062317,0,0,0,-1,-1,5403.274548291667,unknown,2,2022-06-02T13:20:40.296+02:00,2022-06-02T11:15:15.986+02:00,710,1.094367,0,0,534.1945,0,0,2022-06-02T12:46:38.331+02:00,675861640.295807,0,-2.929688,101.3849,1,0.64
2022-06-02T13:20:41.425+02:00,1654168840.176676,53.22899670524735,10.39847340447524,36.24324,-1,-1,-1,-1,14.57017517089844,32.01386601977254,-1,5404.401683,-0.0170135498046875,-0.0755462646484375,-0.9938507080078125,5404.391687,-0.5424200315867876,-0.01205160332260335,0.09671192480916969,-0.04675990343093872,-0.02096477523446083,-0.01753167808055878,0.004396166652441025,0.008502699434757233,0.008575677871704102,XArbitraryZVertical,0.04495702776264034,-0.01874787528017561,-0.2678600257393096,0.9622257737661025,-0.01199499610811472,-0.09656123071908951,-0.9952547550201416,0,0,0,-1,-1,5403.274548291667,unknown,2,2022-06-02T13:20:40.296+02:00,2022-06-02T11:15:15.986+02:00,710,1.094367,0,0,534.1945,0,0,2022-06-02T12:46:38.331+02:00,675861640.295807,0,-2.929688,101.3849,1,0.64
2022-06-02T13:20:41.435+02:00,1654168840.176676,53.22899670524735,10.39847340447524,36.24324,-1,-1,-1,-1,14.57017517089844,32.01386601977254,-1,5404.411679000001,-0.0191192626953125,-0.075653076171875,-0.9981689453125,5404.401683,-0.5426122597923174,-0.01214042809413441,0.09626177721177978,-0.03177456185221672,-0.008161630481481552,-0.01533883064985275,-0.002808608114719391,0.01560774445533752,0.004040360450744629,XArbitraryZVertical,0.04472672020454822,-0.01873474389560245,-0.2679560811332612,0.9622100951048939,-0.0120839262381196,-0.0961131826043129,-0.9952970743179321,0,0,0,-1,-1,5403.274548291667,unknown,2,2022-06-02T13:20:40.296+02:00,2022-06-02T11:15:15.986+02:00,710,1.094367,0,0,534.1945,0,0,2022-06-02T12:46:38.331+02:00,675861640.295807,0,-2.929688,101.3849,1,0.64
2022-06-02T13:20:41.445+02:00,1654168840.176676,53.22899670524735,10.39847340447524,36.24324,-1,-1,-1,-1,14.57017517089844,32.01386601977254,-1,5404.421674,-0.0132904052734375,-0.084228515625,-1.000457763671875,5404.411679000001,-0.5427530450814381,-0.01208944236435874,0.09600126215895095,-0.01678948849439621,0.01060779672116041,-0.01183144748210907,-0.006872111931443214,0.02075003832578659,-0.001808643341064453,XArbitraryZVertical,0.04460688248756454,-0.01867852637868297,-0.2680236050032022,0.9621978889887141,-0.01203348208218813,-0.09585386514663696,-0.9953227043151855,0,0,0,-1,-1,5403.274548291667,unknown,2,2022-06-02T13:20:40.296+02:00,2022-06-02T11:15:15.986+02:00,710,1.094367,0,0,534.1945,0,0,2022-06-02T12:46:38.331+02:00,675861640.295807,0,-2.929688,101.3849,1,0.64
2022-06-02T13:20:41.455+02:00,1654168840.176676,53.22899670524735,10.39847340447524,36.24324,-1,-1,-1,-1,14.57017517089844,32.01386601977254,-1,5404.43167,-0.0078582763671875,-0.0945281982421875,-1.001083374023438,5404.421674,-0.5428478734255824,-0.01196204622050589,0.09582750245333124,-0.01453086175024509,0.01522012520581484,-0.009207434952259064,-0.00426738616079092,0.0172964408993721,-0.005010068416595459,XArbitraryZVertical,0.04453946300991674,-0.01859610912237113,-0.2680669942426924,0.962190552748545,-0.01190688088536263,-0.09568090736865997,-0.9953408241271973,0,0,0,-1,-1,5403.274548291667,unknown,2,2022-06-02T13:20:40.296+02:00,2022-06-02T11:15:15.986+02:00,710,1.094367,0,0,534.1945,0,0,2022-06-02T12:46:38.331+02:00,675861640.295807,0,-2.929688,101.3849,1,0.64
2022-06-02T13:20:41.465+02:00,1654168840.176676,53.22899670524735,10.39847340447524,36.24324,-1,-1,-1,-1,14.57017517089844,32.01386601977254,-1,5404.441666000001,-0.0006561279296875,-0.09771728515625,-0.998199462890625,5404.43167,-0.5429194336903534,-0.01181943590987309,0.09560109879621005,-0.0219465009868145,0.01590335927903652,-0.007735638879239559,0.0006568413227796555,0.005565941333770752,-0.005856513977050781,XArbitraryZVertical,0.04444897648113574,-0.01849880690962954,-0.2680990546016635,0.9621876736323995,-0.0117651904001832,-0.09545554220676422,-0.9953641891479492,0,0,0,-1,-1,5403.274548291667,unknown,2,2022-06-02T13:20:40.296+02:00,2022-06-02T11:15:15.986+02:00,710,1.094367,0,0,534.1945,0,0,2022-06-02T12:46:38.331+02:00,675861640.295807,0,-2.929688,101.3849,1,0.64
2022-06-02T13:20:41.475+02:00,1654168840.176676,53.22899670524735,10.39847340447524,36.24324,-1,-1,-1,-1,14.57017517089844,32.01386601977254,-1,5404.451662,0.00421142578125,-0.096588134765625,-0.995574951171875,5404.441666000001,-0.543007661836392,-0.01166195998478567,0.09531224208076446,-0.02558384463191032,0.01454141922295094,-0.01016151253134012,0.007519456557929516,-0.002442531287670135,-0.003553569316864014,XArbitraryZVertical,0.04433028550736968,-0.01838635859805654,-0.2681390377463808,0.9621841611500517,-0.01160876546055079,-0.09516799449920654,-0.9953935146331787,0,0,0,-1,-1,5403.274548291667,unknown,2,2022-06-02T13:20:40.296+02:00,2022-06-02T11:15:15.986+02:00,710,1.094367,0,0,534.1945,0,0,2022-06-02T12:46:38.331+02:00,675861640.295807,0,-2.929688,101.3849,1,0.64
2022-06-02T13:20:41.485+02:00,1654168840.176676,53.22899670524735,10.39847340447524,36.24324,-1,-1,-1,-1,14.57017517089844,32.01386601977254,-1,5404.461657000001,0.003509521484375,-0.102264404296875,-0.997711181640625,5404.451662,-0.5431218588395271,-0.01150378012826852,0.09500237110820955,-0.03370904922485352,0.008898114785552025,-0.01512025110423565,0.01428983546793461,-0.0007063299417495728,-0.002667844295501709,XArbitraryZVertical,0.04420134848976968,-0.01827132025916434,-0.2681915834412463,0.9621776635035347,-0.0114516532048583,-0.0948595255613327,-0.9954248070716858,0,0,0,-1,-1,5403.274548291667,unknown,2,2022-06-02T13:20:40.296+02:00,2022-06-02T11:15:15.986+02:00,710,1.094367,0,0,534.1945,0,0,2022-06-02T12:46:38.331+02:00,675861640.295807,0,-2.929688,101.3849,1,0.64
2022-06-02T13:20:41.495+02:00,1654168840.176676,53.22899670524735,10.39847340447524,36.24324,-1,-1,-1,-1,14.57017517089844,32.01386601977254,-1,5404.471653000001,-0.002227783203125,-0.1009979248046875,-1.00738525390625,5404.461657000001,-0.5433183061611625,-0.01142209174850978,0.09461211226521703,-0.04397420212626457,-0.003882129676640034,-0.02439684048295021,0.01718440651893616,-0.004985824227333069,5.561113357543945e-05,XArbitraryZVertical,0.04402273820103431,-0.01818411504934037,-0.2682856945504121,0.9621612647360349,-0.01137076038867235,-0.09447102248668671,-0.9954626560211182,0,0,0,-1,-1,5403.274548291667,unknown,2,2022-06-02T13:20:40.296+02:00,2022-06-02T11:15:15.986+02:00,710,1.094367,0,0,534.1945,0,0,2022-06-02T12:46:38.331+02:00,675861640.295807,0,-2.929688,101.3849,1,0.64
2022-06-02T13:20:41.505+02:00,1654168840.176676,53.22899670524735,10.39847340447524,36.24324,-1,-1,-1,-1,14.57017517089844,32.01386601977254,-1,5404.481649,-0.00823974609375,-0.0928955078125,-1.01605224609375,5404.471653000001,-0.5435782978671275,-0.01146648438189455,0.09408548316561477,-0.05673600733280182,-0.01260571368038654,-0.02526649460196495,0.01182755269110203,-0.009462147951126099,-0.006441354751586914,XArbitraryZVertical,0.04376103450242606,-0.01814065334139166,-0.2684136260234776,0.9621383473786754,-0.01141552068293095,-0.09394673258066177,-0.9955117702484131,0,0,0,-1,-1,5403.274548291667,unknown,2,2022-06-02T13:20:40.296+02:00,2022-06-02T11:15:15.986+02:00,710,1.094367,0,0,534.1945,0,0,2022-06-02T12:46:38.331+02:00,675861640.295807,0,-2.929688,101.3849,1,0.64
2022-06-02T13:20:41.515+02:00,1654168840.176676,53.22899670524735,10.39847340447524,36.24324,-1,-1,-1,-1,14.57017517089844,32.01386601977254,-1,5404.491645,-0.0099639892578125,-0.0891571044921875,-1.016586303710938,5404.481649,-0.5438616579788561,-0.01156142801097265,0.0934631048806966,-0.05443583056330681,-0.006156336516141891,-0.02567236125469208,0.006063368171453476,-0.004710689187049866,-0.01807236671447754,XArbitraryZVertical,0.04344627044853381,-0.01810911456382218,-0.2685541861660993,0.9621140572382968,-0.01151071209460497,-0.09332709014415741,-0.9955689907073975,0,0,0,-1,-1,5403.274548291667,unknown,2,2022-06-02T13:20:40.296+02:00,2022-06-02T11:15:15.986+02:00,710,1.094367,0,0,534.1945,0,0,2022-06-02T12:46:38.331+02:00,675861640.295807,0,-2.929688,101.3849,1,0.64
2022-06-02T13:20:41.525+02:00,1654168840.176676,53.22899670524735,10.39847340447524,36.24324,-1,-1,-1,-1,14.57017517089844,32.01386601977254,-1,5404.50164,-0.0074615478515625,-0.085845947265625,-1.011489868164062,5404.491645,-0.5440692356093195,-0.01158516146022972,0.09289077295359849,-0.04229617863893509,0.0007897866889834404,-0.01432603038847446,0.0006707441061735153,0.002791360020637512,-0.02053713798522949,XArbitraryZVertical,0.04316584684001003,-0.01804831365401,-0.2686565683313745,0.9620991238848255,-0.01153495721518993,-0.09275723993778229,-0.995621919631958,0,0,0,-1,-1,5403.274548291667,unknown,2,2022-06-02T13:20:40.296+02:00,2022-06-02T11:15:15.986+02:00,710,1.094367,0,0,534.1945,0,0,2022-06-02T12:46:38.331+02:00,675861640.295807,0,-2.929688,101.3849,1,0.64
2022-06-02T13:20:41.535+02:00,1654168840.176676,53.22899670524735,10.39847340447524,36.24324,-1,-1,-1,-1,14.57017517089844,32.01386601977254,-1,5404.511636,-0.0091552734375,-0.0839080810546875,-1.009201049804688,5404.50164,-0.5441945588151286,-0.01160681546986626,0.09249153660588971,-0.02238239347934723,-0.004954917822033167,-0.01032116822898388,0.002600081264972687,0.004179112613201141,-0.01918816566467285,XArbitraryZVertical,0.04296972877059227,-0.0180078987265501,-0.2687187005835204,0.9620912724417147,-0.01155694480985403,-0.09235972166061401,-0.9956586360931396,0,0,0,-1,-1,5403.274548291667,unknown,2,2022-06-02T13:20:40.296+02:00,2022-06-02T11:15:15.986+02:00,710,1.094367,0,0,534.1945,0,0,2022-06-02T12:46:38.331+02:00,675861640.295807,0,-2.929688,101.3849,1,0.64
2022-06-02T13:20:41.545+02:00,1654168840.176676,53.22899670524735,10.39847340447524,36.24324,-1,-1,-1,-1,14.57017517089844,32.01386601977254,-1,5404.521632,-0.01446533203125,-0.0902252197265625,-1.012664794921875,5404.511636,-0.5442500018580139,-0.01166526836788937,0.09239179070317899,0.007816854864358902,-0.008069884032011032,-0.0008585583418607712,0.004596255719661713,0.00940510630607605,-0.01351863145828247,XArbitraryZVertical,0.04291338250720975,-0.01802382688919173,-0.2687469434098329,0.9620857030811462,-0.01161525119096041,-0.09226039797067642,-0.9956671595573425,0,0,0,-1,-1,5403.274548291667,unknown,2,2022-06-02T13:20:40.296+02:00,2022-06-02T11:15:15.986+02:00,710,1.094367,0,0,534.1945,0,0,2022-06-02T12:46:38.331+02:00,675861640.295807,0,-2.929688,101.3849,1,0.64
2022-06-02T13:20:41.555+02:00,1654168840.176676,53.22899670524735,10.39847340447524,36.24324,-1,-1,-1,-1,14.57017517089844,32.01386601977254,-1,5404.531627,-0.0208740234375,-0.097808837890625,-1.01336669921875,5404.521632,-0.5442329364114652,-0.01167444181977025,0.09260675985950426,0.02557774260640144,-0.000327009242027998,0.003370542079210281,-0.0004760175943374634,0.006964132189750671,-0.01480507850646973,XArbitraryZVertical,0.04301573005690507,-0.01805670468512291,-0.2687382091972697,0.9620829103840233,-0.01162415370345116,-0.09247445315122604,-0.9956471920013428,0,0,0,-1,-1,5403.274548291667,unknown,2,2022-06-02T13:20:40.296+02:00,2022-06-02T11:15:15.986+02:00,710,1.094367,0,0,534.1945,0,0,2022-06-02T12:46:38.331+02:00,675861640.295807,0,-2.929688,101.3849,1,0.64
2022-06-02T13:20:41.565+02:00,1654168840.176676,53.22899670524735,10.39847340447524,36.24324,-1,-1,-1,-1,14.57017517089844,32.01386601977254,-1,5404.541623,-0.018768310546875,-0.0942230224609375,-1.01470947265625,5404.531627,-0.5441992268555235,-0.01157666710986491,0.09287974465456433,0.02587608247995377,0.009453849866986275,0.001606596633791924,-0.007394338957965374,-0.002361826598644257,-0.01817083358764648,XArbitraryZVertical,0.04316050775555712,-0.01804555254031208,-0.2687189454188741,0.9620820367669384,-0.01152651198208332,-0.09274626523256302,-0.9956230521202087,0,0,0,-1,-1,5403.274548291667,unknown,2,2022-06-02T13:20:40.296+02:00,2022-06-02T11:15:15.986+02:00,710,1.094367,0,0,534.1945,0,0,2022-06-02T12:46:38.331+02:00,675861640.295807,0,-2.929688,101.3849,1,0.64
2022-06-02T13:20:41.575+02:00,1654168840.176676,53.22899670524735,10.39847340447524,36.24324,-1,-1,-1,-1,14.57017517089844,32.01386601977254,-1,5404.551619000001,-0.01287841796875,-0.0944671630859375,-1.014389038085938,5404.541623,-0.5441810109852911,-0.01139737653531176,0.09315136446252188,0.02596316859126091,0.01511066965758801,0.00366149190813303,-0.008625989779829979,-0.003159508109092712,-0.01698863506317139,XArbitraryZVertical,0.0433154405154333,-0.01799533695636123,-0.2687053622816962,0.9620797998586547,-0.01134771853685379,-0.09301670640707016,-0.9955998659133911,0,0,0,-1,-1,5403.274548291667,unknown,2,2022-06-02T13:20:40.296+02:00,2022-06-02T11:15:15.986+02:00,710,1.094367,0,0,534.1945,0,0,2022-06-02T12:46:38.331+02:00,675861640.295807,0,-2.929688,101.3849,1,0.64
2022-06-02T13:20:41.585+02:00,1654168840.176676,53.22899670524735,10.39847340447524,36.24324,-1,-1,-1,-1,14.57017517089844,32.01386601977254,-1,5404.561615000001,-0.0068817138671875,-0.0968017578125,-1.015548706054688,5404.551619000001,-0.5441070853384581,-0.01116630987444389,0.09340742587200572,0.01867872476577759,0.02208835259079933,0.007302632555365562,-0.004385480657219887,0.0002997815608978271,-0.01873409748077393,XArbitraryZVertical,0.04347033787243419,-0.01791691236178074,-0.2686638610199363,0.962085945957631,-0.01111740153282881,-0.0932716578245163,-0.9955786466598511,0,0,0,-1,-1,5403.274548291667,unknown,2,2022-06-02T13:20:40.296+02:00,2022-06-02T11:15:15.986+02:00,710,1.094367,0,0,534.1945,0,0,2022-06-02T12:46:38.331+02:00,675861640.295807,0,-2.929688,101.3849,1,0.64
2022-06-02T13:20:41.595+02:00,1654168840.176676,53.22899670524735,10.39847340447524,36.24324,-1,-1,-1,-1,14.57017517089844,32.01386601977254,-1,5404.57161,-0.00030517578125,-0.09521484375,-1.016845703125,5404.561615000001,-0.5440592457186796,-0.01092816345405978,0.0935374442425481,0.006313667632639408,0.0219554603099823,0.001821846701204777,0.001511326991021633,-0.003141306340694427,-0.01909452676773071,XArbitraryZVertical,0.04356530893242017,-0.01781874614357855,-0.2686352031488685,0.9620914419966659,-0.01088017504662275,-0.09340110421180725,-0.995569109916687,0,0,0,-1,-1,5403.274548291667,unknown,2,2022-06-02T13:20:40.296+02:00,2022-06-02T11:15:15.986+02:00,710,1.094367,0,0,534.1945,0,0,2022-06-02T12:46:38.331+02:00,675861640.295807,0,-2.929688,101.3849,1,0.64
2022-06-02T13:20:41.605+02:00,1654168840.176676,53.22899670524735,10.39847340447524,36.24324,-1,-1,-1,-1,14.57017517089844,32.01386601977254,-1,5404.581606000001,0.009063720703125,-0.09051513671875,-1.015640258789062,5404.57161,-0.5440573030160664,-0.01069802909915779,0.0935292561465617,-0.004650067072361708,0.02363904379308224,0.0006732922047376633,0.005218986421823502,-0.003897152841091156,-0.02205151319503784,XArbitraryZVertical,0.04359230143110405,-0.01770690532301309,-0.2686293103993358,0.9620938121226857,-0.01065106876194477,-0.09339295327663422,-0.9955723285675049,0,0,0,-1,-1,5403.274548291667,unknown,2,2022-06-02T13:20:40.296+02:00,2022-06-02T11:15:15.986+02:00,710,1.094367,0,0,534.1945,0,0,2022-06-02T12:46:38.331+02:00,675861640.295807,0,-2.929688,101.3849,1,0.64
2022-06-02T13:20:41.615+02:00,1654168840.176676,53.22899670524735,10.39847340447524,36.24324,-1,-1,-1,-1,14.57017517089844,32.01386601977254,-1,5404.591602,0.018035888671875,-0.09564208984375,-1.011825561523438,5404.581606000001,-0.5440288496878101,-0.01049711273663605,0.09343721585445953,-0.01089677773416042,0.01535661146044731,0.003356160596013069,0.01530347298830748,0.0008024796843528748,-0.02240699529647827,XArbitraryZVertical,0.04357525464671622,-0.01759729347894081,-0.2686115807690061,0.9621015768189407,-0.01045113150030375,-0.09330131858587265,-0.9955830574035645,0,0,0,-1,-1,5403.274548291667,unknown,2,2022-06-02T13:20:40.296+02:00,2022-06-02T11:15:15.986+02:00,710,1.094367,0,0,534.1945,0,0,2022-06-02T12:46:38.331+02:00,675861640.295807,0,-2.929688,101.3849,1,0.64
2022-06-02T13:20:41.625+02:00,1654168840.176676,53.22899670524735,10.39847340447524,36.24324,-1,-1,-1,-1,14.57017517089844,32.01386601977254,-1,5404.601598,0.0198974609375,-0.097198486328125,-1.004440307617188,5404.591602,-0.5439538622830573,-0.01039169483400436,0.09324456916069267,-0.02430992014706135,0.002886360511183739,0.00998237170279026,0.02420139312744141,0.0005954056978225708,-0.01971769332885742,XArbitraryZVertical,0.04349738594064718,-0.01751912506404875,-0.2685739490885088,0.9621169749591958,-0.01034636609256268,-0.09310951083898544,-0.9956021308898926,0,0,0,-1,-1,5403.274548291667,unknown,2,2022-06-02T13:20:40.296+02:00,2022-06-02T11:15:15.986+02:00,710,1.094367,0,0,534.1945,0,0,2022-06-02T12:46:38.331+02:00,675861640.295807,0,-2.929688,101.3849,1,0.64
2022-06-02T13:20:41.635+02:00,1654168840.176676,53.22899670524735,10.39847340447524,36.24324,-1,-1,-1,-1,14.57017517089844,32.01386601977254,-1,5404.611592791667,0.008209228515625,-0.09478759765625,-0.999969482421875,5404.601598,-0.5438492478741103,-0.01050693578694887,0.09285232054287522,-0.04885547608137131,-0.02235241793096066,0.008386872708797455,0.03043528273701668,-0.003731913864612579,-0.01280069351196289,XArbitraryZVertical,0.04329410265658203,-0.01751971199107435,-0.2685275648685315,0.9621391813683093,-0.0104614831507206,-0.09271895885467529,-0.9956373572349548,0,0,0,-1,-1,5403.274548291667,unknown,2,2022-06-02T13:20:40.296+02:00,2022-06-02T11:15:15.986+02:00,710,1.094367,0,0,534.1945,0,0,2022-06-02T12:46:38.331+02:00,675861640.295807,0,-2.929688,101.3849,1,0.64
2022-06-02T13:20:41.645+02:00,1654168840.176676,53.22899670524735,10.39847340447524,36.24324,-1,-1,-1,-1,14.57017517089844,32.01386601977254,-1,5404.621588791667,-0.008697509765625,-0.0860748291015625,-0.9986724853515625,5404.611592791667,-0.5437911689717839,-0.01088125867460297,0.0923062468407647,-0.05813533440232277,-0.04494281113147736,0.003893453627824783,0.02656657807528973,-0.005313247442245483,-0.006528675556182861,XArbitraryZVertical,0.04298161699876133,-0.01762534900415803,-0.2685096758417311,0.9621563038351841,-0.01083472091704607,-0.09217522293329239,-0.9956838488578796,0,0,0,-1,-1,5403.274548291667,unknown,2,2022-06-02T13:20:40.296+02:00,2022-06-02T11:15:15.986+02:00,710,1.094367,0,0,534.1945,0,0,2022-06-02T12:46:38.331+02:00,675861640.295807,0,-2.929688,101.3849,1,0.64
2022-06-02T13:20:41.655+02:00,1654168840.176676,53.22899670524735,10.39847340447524,36.24324,-1,-1,-1,-1,14.57017517089844,32.01386601977254,-1,5404.631584791667,-0.0218658447265625,-0.0721282958984375,-1.0018310546875,5404.621588791667,-0.543761961634545,-0.01136790758056692,0.09181659220674897,-0.03797200694680214,-0.04331668838858604,0.004956054501235485,0.01070947386324406,0.0001653581857681274,-0.004017114639282227,XArbitraryZVertical,0.04268094498457958,-0.01779322475898252,-0.268507769535805,0.9621670949415797,-0.0113197797909379,-0.0916876420378685,-0.9957234859466553,0,0,0,-1,-1,5403.274548291667,unknown,2,2022-06-02T13:20:40.296+02:00,2022-06-02T11:15:15.986+02:00,710,1.094367,0,0,534.1945,0,0,2022-06-02T12:46:38.331+02:00,675861640.295807,0,-2.929688,101.3849,1,0.64
2022-06-02T13:20:41.665+02:00,1654168840.176676,53.22899670524735,10.39847340447524,36.24324,-1,-1,-1,-1,14.57017517089844,32.01386601977254,-1,5404.641579791667,-0.02508544921875,-0.0610809326171875,-1.004013061523438,5404.631584791667,-0.5437404290650232,-0.01173355769631854,0.09160997228871062,-0.0007475381717085838,-0.02843254804611206,0.000232405960559845,-0.005070017650723457,0.01192249357700348,-0.003620922565460205,XArbitraryZVertical,0.04253263108113817,-0.01794098773330912,-0.2685058966148958,0.9621714463438172,-0.01168408803641796,-0.09148188680410385,-0.9957382082939148,0,0,0,-1,-1,5403.274548291667,unknown,2,2022-06-02T13:20:40.296+02:00,2022-06-02T11:15:15.986+02:00,710,1.094367,0,0,534.1945,0,0,2022-06-02T12:46:38.331+02:00,675861640.295807,0,-2.929688,101.3849,1,0.64
2022-06-02T13:20:41.675+02:00,1654168840.176676,53.22899670524735,10.39847340447524,36.24324,-1,-1,-1,-1,14.57017517089844,32.01386601977254,-1,5404.651575791667,-0.024139404296875,-0.06622314453125,-1.002120971679688,5404.641579791667,-0.5437374133046879,-0.01190957774901987,0.09182255126006328,0.04081321880221367,-0.006740034557878971,0.0009280238300561905,-0.0112273758277297,0.02777444571256638,-0.008448958396911621,XArbitraryZVertical,0.04261131224736614,-0.01805408971027453,-0.2685074988502067,0.9621653565480391,-0.01185912545770407,-0.09169357270002365,-0.9957166314125061,0,0,0,-1,-1,5403.274548291667,unknown,2,2022-06-02T13:20:40.296+02:00,2022-06-02T11:15:15.986+02:00,710,1.094367,0,0,534.1945,0,0,2022-06-02T12:46:38.331+02:00,675861640.295807,0,-2.929688,101.3849,1,0.64
2022-06-02T13:20:41.685+02:00,1654168840.176676,53.22899670524735,10.39847340447524,36.24324,-1,-1,-1,-1,14.57017517089844,32.01386601977254,-1,5404.661571791667,-0.019775390625,-0.081878662109375,-1.0010986328125,5404.651575791667,-0.543699619976176,-0.01182394918211462,0.09239932310818841,0.07009727507829666,0.02150611765682697,0.007045971229672432,-0.01357156317681074,0.03042396903038025,-0.008302628993988037,XArbitraryZVertical,0.04290066362446228,-0.01808936424349848,-0.2684855559562087,0.9621580134422048,-0.0117732360959053,-0.09226790070533752,-0.9956645965576172,0,0,0,-1,-1,5403.274548291667,unknown,2,2022-06-02T13:20:40.296+02:00,2022-06-02T11:15:15.986+02:00,710,1.094367,0,0,534.1945,0,0,2022-06-02T12:46:38.331+02:00,675861640.295807,0,-2.929688,101.3849,1,0.64
2022-06-02T13:20:41.695+02:00,1654168840.176676,53.22899670524735,10.39847340447524,36.24324,-1,-1,-1,-1,14.57017517089844,32.01386601977254,-1,5404.671567791667,-0.0050048828125,-0.090087890625,-0.9993133544921875,5404.661571791667,-0.5436566516516532,-0.01149747165995071,0.09311483739436394,0.07044827938079834,0.03302082419395447,0.0006645042449235916,-0.01090666744858027,0.0180901437997818,-0.005008161067962646,XArbitraryZVertical,0.04328914486932196,-0.01802723746561399,-0.2684553979756384,0.9621502205966788,-0.0114474119618535,-0.09298034012317657,-0.9956021308898926,0,0,0,-1,-1,5403.274548291667,unknown,2,2022-06-02T13:20:40.296+02:00,2022-06-02T11:15:15.986+02:00,710,1.094367,0,0,534.1945,0,0,2022-06-02T12:46:38.331+02:00,675861640.295807,0,-2.929688,101.3849,1,0.64
2022-06-02T13:20:41.705+02:00,1654168840.176676,53.22899670524735,10.39847340447524,36.24324,-1,-1,-1,-1,14.57017517089844,32.01386601977254,-1,5404.681562791667,0.0014190673828125,-0.095794677734375,-0.998931884765625,5404.671567791667,-0.5436404637065552,-0.01112652512665882,0.09366522064481222,0.03804419934749603,0.02748557925224304,0.001562388613820076,-0.0007632477208971977,0.00688885897397995,-0.00444495677947998,XArbitraryZVertical,0.0436038930469625,-0.01792216696394261,-0.268437597314631,0.9621429544079937,-0.0110775250941515,-0.09352832287549973,-0.9955549836158752,0,0,0,-1,-1,5403.274548291667,unknown,2,2022-06-02T13:20:40.296+02:00,2022-06-02T11:15:15.986+02:00,710,1.094367,0,0,534.1945,0,0,2022-06-02T12:46:38.331+02:00,675861640.295807,0,-2.929688,101.3849,1,0.64
2022-06-02T13:20:41.715+02:00,1654168840.176676,53.22899670524735,10.39847340447524,36.24324,-1,-1,-1,-1,14.57017517089844,32.01386601977254,-1,5404.691558791667,0.0038299560546875,-0.1022186279296875,-0.998504638671875,5404.681562791667,-0.5436142387371388,-0.01083331633561195,0.09385903260643561,-0.002069930545985699,0.01466139312833548,0.0007613096386194229,0.00925959087908268,0.0003832057118415833,-0.004612505435943604,XArbitraryZVertical,0.04373673469684083,-0.01780650864005505,-0.2684178975425988,0.9621444518986557,-0.01078542228788137,-0.09372128546237946,-0.9955400228500366,0,0,0,-1,-1,5403.274548291667,unknown,2,2022-06-02T13:20:40.296+02:00,2022-06-02T11:15:15.986+02:00,710,1.094367,0,0,534.1945,0,0,2022-06-02T12:46:38.331+02:00,675861640.295807,0,-2.929688,101.3849,1,0.64
2022-06-02T13:20:41.725+02:00,1654168840.176676,53.22899670524735,10.39847340447524,36.24324,-1,-1,-1,-1,14.57017517089844,32.01386601977254,-1,5404.701554791667,-0.0020294189453125,-0.09674072265625,-1.00140380859375,5404.691558791667,-0.5436828097791063,-0.0106971834398409,0.09367577658800115,-0.03617530316114426,-0.006223381496965885,-0.01047003921121359,0.01458689384162426,-0.005231380462646484,-0.001816809177398682,XArbitraryZVertical,0.04366622458163862,-0.01771796493009593,-0.2684485834840325,0.9621407521904117,-0.01065007969737053,-0.09353883564472198,-0.9955586791038513,0,0,0,-1,-1,5403.274548291667,unknown,2,2022-06-02T13:20:40.296+02:00,2022-06-02T11:15:15.986+02:00,710,1.094367,0,0,534.1945,0,0,2022-06-02T12:46:38.331+02:00,675861640.295807,0,-2.929688,101.3849,1,0.64
2022-06-02T13:20:41.735+02:00,1654168840.176676,53.22899670524735,10.39847340447524,36.24324,-1,-1,-1,-1,14.57017517089844,32.01386601977254,-1,5404.711550791667,-0.002960205078125,-0.0905914306640625,-1.009475708007812,5404.701554791667,-0.5438358332163987,-0.01074070647581431,0.09323679195294596,-0.04748921096324921,-0.0112599516287446,-0.01782675459980965,0.01186882238835096,-0.007438458502292633,-0.005285799503326416,XArbitraryZVertical,0.04344781653306547,-0.01768340988706465,-0.268524765629797,0.9621300242534853,-0.01069384999573231,-0.09310176223516464,-0.9955991506576538,0,0,0,-1,-1,5403.274548291667,unknown,2,2022-06-02T13:20:40.296+02:00,2022-06-02T11:15:15.986+02:00,710,1.094367,0,0,534.1945,0,0,2022-06-02T12:46:38.331+02:00,675861640.295807,0,-2.929688,101.3849,1,0.64
2022-06-02T13:20:41.745+02:00,1654168840.176676,53.22899670524735,10.39847340447524,36.24324,-1,-1,-1,-1,14.57017517089844,32.01386601977254,-1,5404.721545791667,0,-0.0919647216796875,-1.007644653320312,5404.711550791667,-0.5440239959867441,-0.01085081949803693,0.09270506464974598,-0.04823343083262444,-0.01103704515844584,-0.02131815999746323,0.008942488580942154,0.0003023669123649597,-0.0094643235206604,XArbitraryZVertical,0.04317553674055539,-0.01766917979839247,-0.2686196004467452,0.9621160944662284,-0.01080401334911585,-0.09257233142852783,-0.9956473708152771,0,0,0,-1,-1,5403.274548291667,unknown,2,2022-06-02T13:20:40.296+02:00,2022-06-02T11:15:15.986+02:00,710,1.094367,0,0,534.1945,0,0,2022-06-02T12:46:38.331+02:00,675861640.295807,0,-2.929688,101.3849,1,0.64
2022-06-02T13:20:41.755+02:00,1654168840.176676,53.22899670524735,10.39847340447524,36.24324,-1,-1,-1,-1,14.57017517089844,32.01386601977254,-1,5404.731541791667,-0.001739501953125,-0.0992584228515625,-1.006881713867188,5404.721545791667,-0.5442463642060736,-0.01098471985018368,0.09215202137217771,-0.03928467631340027,-0.01345146726816893,-0.025210902094841,0.009442577138543129,0.002772927284240723,-0.01374822854995728,XArbitraryZVertical,0.04288950300939149,-0.01766421636628288,-0.2687314274387618,0.9620977749824607,-0.0109378919005394,-0.09202165156602859,-0.9956969022750854,0,0,0,-1,-1,5403.274548291667,unknown,2,2022-06-02T13:20:40.296+02:00,2022-06-02T11:15:15.986+02:00,710,1.094367,0,0,534.1945,0,0,2022-06-02T12:46:38.331+02:00,675861640.295807,0,-2.929688,101.3849,1,0.64
2022-06-02T13:20:41.765+02:00,1654168840.176676,53.22899670524735,10.39847340447524,36.24324,-1,-1,-1,-1,14.57017517089844,32.01386601977254,-1,5404.741537791667,-0.0096893310546875,-0.1035919189453125,-1.000503540039062,5404.731541791667,-0.5445184175083769,-0.01118059360748859,0.09162742162049184,-0.04089339450001717,-0.02020477689802647,-0.03032303974032402,0.01047738082706928,-0.006126530468463898,-0.01069629192352295,XArbitraryZVertical,0.04260838279424756,-0.01769387797565344,-0.2688683271607989,0.9620714557841842,-0.0111334603279829,-0.09149926155805588,-0.9957429170608521,0,0,0,-1,-1,5403.274548291667,unknown,2,2022-06-02T13:20:40.296+02:00,2022-06-02T11:15:15.986+02:00,710,1.094367,0,0,534.1945,0,0,2022-06-02T12:46:38.331+02:00,675861640.295807,0,-2.929688,101.3849,1,0.64
