,loggingTime(txt),locationTimestamp_since1970(s),locationLatitude(WGS84),locationLongitude(WGS84),locationAltitude(m),locationSpeed(m/s),locationSpeedAccuracy(m/s),locationCourse(°),locationCourseAccuracy(°),locationVerticalAccuracy(m),locationHorizontalAccuracy(m),locationFloor(Z),accelerometerTimestamp_sinceReboot(s),accelerometerAccelerationX(G),accelerometerAccelerationY(G),accelerometerAccelerationZ(G),motionTimestamp_sinceReboot(s),motionYaw(rad),motionRoll(rad),motionPitch(rad),motionRotationRateX(rad/s),motionRotationRateY(rad/s),motionRotationRateZ(rad/s),motionUserAccelerationX(G),motionUserAccelerationY(G),motionUserAccelerationZ(G),motionAttitudeReferenceFrame(txt),motionQuaternionX(R),motionQuaternionY(R),motionQuaternionZ(R),motionQuaternionW(R),motionGravityX(G),motionGravityY(G),motionGravityZ(G),motionMagneticFieldX(µT),motionMagneticFieldY(µT),motionMagneticFieldZ(µT),motionHeading(°),motionMagneticFieldCalibrationAccuracy(Z),activityTimestamp_sinceReboot(s),activity(txt),activityActivityConfidence(Z),activityActivityStartDate(txt),pedometerStartDate(txt),pedometerNumberofSteps(N),pedometerAverageActivePace(s/m),pedometerCurrentPace(s/m),pedometerCurrentCadence(steps/s),pedometerDistance(m),pedometerFloorAscended(N),pedometerFloorDescended(N),pedometerEndDate(txt),altimeterTimestamp_sinceReboot(s),altimeterReset(bool),altimeterRelativeAltitude(m),altimeterPressure(kPa),batteryState(N),batteryLevel(R)
465,2022-06-30T09:13:19.952+02:00,1656573199.077722,53.2290640287597,10.39857063443437,39.58798,0,0.07,-1,103.9230494294148,4,5,-9999,2794.37110625,2.198777618408203,-0.7641609191894532,0.8175997924804688,2794.36613025,-2.840577709820532,1.184802775399898,0.4425729954188791,-4.198738098144531,7.378561973571777,-2.697119235992432,-0.5812914967536926,0.2672095596790314,0.301877349615097,XArbitraryZVertical,0.5658834512767252,-0.0983485073242585,-0.7818480770616565,0.2425223702621255,0.8371663689613342,-0.4282659888267517,-0.3402069807052612,0,0,0,-1,-1,2792.742448625,unknown,2,2022-06-30T09:13:18.323+02:00,2022-06-30T08:20:05.567+02:00,833,1.490593,0,0,651.261,0,0,2022-06-30T09:09:38.916+02:00,678265998.3226411,0,-0.9000006,100.9199,1,0.97
466,2022-06-30T09:13:19.962+02:00,1656573199.077722,53.2290640287597,10.39857063443437,39.58798,0,0.07,-1,103.9230494294148,4,5,-9999,2794.38105825,2.0749850463867188,-0.031734008789062504,1.9893630981445314,2794.37608225,-2.803121238544602,1.245699420053076,0.4003063980430849,-5.19349193572998,7.940281391143799,-2.885316848754883,-0.648565948009491,0.3118045032024384,0.3774933218955994,XArbitraryZVertical,0.5907373929197778,-0.0628861018888549,-0.7650977873882219,0.2483950601428206,0.8727025389671326,-0.3897005319595337,-0.2941493391990662,0,0,0,-1,-1,2792.742448625,unknown,2,2022-06-30T09:13:18.323+02:00,2022-06-30T08:20:05.567+02:00,833,1.490593,0,0,651.261,0,0,2022-06-30T09:09:38.916+02:00,678265998.3226411,0,-0.9000006,100.9199,1,0.97
467,2022-06-30T09:13:19.972+02:00,1656573199.077722,53.2290640287597,10.39857063443437,39.58798,0,0.07,-1,103.9230494294148,4,5,-9999,2794.39101025,1.9044895935058594,0.51971923828125,3.103496246337891,2794.38603425,-2.754190368565497,1.309488692510518,0.3556490044493214,-6.141988754272461,8.510518074035645,-3.06899094581604,-0.694080650806427,0.3449640274047852,0.4449667930603027,XArbitraryZVertical,0.6151532783035197,-0.0223139570886145,-0.7453606425695649,0.2559808661130335,0.9055982232093812,-0.3481988310813904,-0.2421770691871643,0,0,0,-1,-1,2792.742448625,unknown,2,2022-06-30T09:13:18.323+02:00,2022-06-30T08:20:05.567+02:00,833,1.490593,0,0,651.261,0,0,2022-06-30T09:09:38.916+02:00,678265998.3226411,0,-0.9000006,100.9199,1,0.97
468,2022-06-30T09:13:19.982+02:00,1656573199.077722,53.2290640287597,10.39857063443437,39.58798,0,0.07,-1,103.9230494294148,4,5,-9999,2794.40096225,1.914668426513672,1.3549822998046877,4.94616439819336,2794.39598625,-2.694198619520523,1.377689829570846,0.3104796965282948,-7.010725498199463,9.142544746398926,-3.201095104217529,-0.7403509616851807,0.3584940135478973,0.499093770980835,XArbitraryZVertical,0.6388332779064837,0.0229260705511106,-0.7218914995100434,0.2650266627002811,0.9344886541366576,-0.3055154383182526,-0.182732880115509,0,0,0,-1,-1,2792.742448625,unknown,2,2022-06-30T09:13:18.323+02:00,2022-06-30T08:20:05.567+02:00,833,1.490593,0,0,651.261,0,0,2022-06-30T09:09:38.916+02:00,678265998.3226411,0,-0.9000006,100.9199,1,0.97
469,2022-06-30T09:13:19.992+02:00,1656573199.077722,53.2290640287597,10.39857063443437,39.58798,0,0.07,-1,103.9230494294148,4,5,-9999,2794.41091425,2.0179536437988284,1.6525634765625001,7.054080963134766,2794.40593825,-2.622563319951837,1.451943189731487,0.2672304467777958,-7.984808444976807,9.87787628173828,-3.232205867767334,-0.7625263929367065,0.4021837711334229,0.6185615658760071,XArbitraryZVertical,0.6614792795609562,0.0725446713457014,-0.6936757227324306,0.2756746645434413,0.9577016830444336,-0.2640612125396729,-0.1143648698925972,0,0,0,-1,-1,2792.742448625,unknown,2,2022-06-30T09:13:18.323+02:00,2022-06-30T08:20:05.567+02:00,833,1.490593,0,0,651.261,0,0,2022-06-30T09:09:38.916+02:00,678265998.3226411,0,-0.9000006,100.9199,1,0.97
470,2022-06-30T09:13:20.002+02:00,1656573199.077722,53.2290640287597,10.39857063443437,39.58798,0,0.07,-1,103.9230494294148,4,5,-9999,2794.42086625,2.415227508544922,1.7970130920410157,8.956624603271486,2794.41589025,-2.538981399064974,1.533892366135136,0.2290219612622284,-8.865738868713379,10.72223472595215,-3.135965347290039,-0.7675220966339111,0.3954821228981018,0.7550031542778015,XArbitraryZVertical,0.6827530341599407,0.126024570503689,-0.659561698653676,0.2880009835978778,0.9732258915901184,-0.2270251363515854,-0.0359322056174278,0,0,0,-1,-1,2792.742448625,unknown,2,2022-06-30T09:13:18.323+02:00,2022-06-30T08:20:05.567+02:00,833,1.490593,0,0,651.261,0,0,2022-06-30T09:09:38.916+02:00,678265998.3226411,0,-0.9000006,100.9199,1,0.97
471,2022-06-30T09:13:20.012+02:00,1656573199.077722,53.2290640287597,10.39857063443437,39.58798,0,0.07,-1,103.9230494294148,4,5,-9999,2794.43081825,3.248694305419922,2.558629302978516,12.571756896972657,2794.42584225,-2.443627348406109,1.625462598384859,0.2001605653205727,-9.843311309814451,11.76711654663086,-2.794548034667969,-0.7323701977729797,0.3820083737373352,0.8594619035720825,XArbitraryZVertical,0.7024692042677398,0.1825132966288186,-0.6180328558078144,0.3020951795722556,0.9785708785057068,-0.1988266855478287,0.0535481721162796,0,0,0,-1,-1,2792.742448625,unknown,2,2022-06-30T09:13:18.323+02:00,2022-06-30T08:20:05.567+02:00,833,1.490593,0,0,651.261,0,0,2022-06-30T09:09:38.916+02:00,678265998.3226411,0,-0.9000006,100.9199,1,0.97
472,2022-06-30T09:13:20.022+02:00,1656573199.077722,53.2290640287597,10.39857063443437,39.58798,0,0.07,-1,103.9230494294148,4,5,-9999,2794.44077025,3.847149810791016,3.0591883850097656,17.015266571044926,2794.43579425,-2.335965237048785,1.727851081511194,0.1864208489350888,-11.04146766662598,12.94696044921875,-2.166483879089355,-0.6394180655479431,0.4461613297462463,1.127825260162354,XArbitraryZVertical,0.7201965852525903,0.2411780445478502,-0.5671382796067763,0.3185974241137646,0.9705795049667358,-0.1853429526090622,0.1536999344825745,0,0,0,-1,-1,2792.742448625,unknown,2,2022-06-30T09:13:18.323+02:00,2022-06-30T08:20:05.567+02:00,833,1.490593,0,0,651.261,0,0,2022-06-30T09:09:38.916+02:00,678265998.3226411,0,-0.9000006,100.9199,1,0.97
473,2022-06-30T09:13:20.032+02:00,1656573199.077722,53.2290640287597,10.39857063443437,39.58798,0,0.07,-1,103.9230494294148,4,5,-9999,2794.45072225,3.8974452209472656,2.835403747558594,22.185514984130865,2794.44574625,-2.215873114629145,1.84086758561092,0.1945016525479482,-12.53685474395752,14.32356929779053,-1.238382935523987,-0.5534135103225708,0.5051213502883911,1.472712874412537,XArbitraryZVertical,0.7350083488322059,0.3010770793594774,-0.504701876266311,0.338217887464936,0.945579469203949,-0.1932776123285294,0.2617693543434143,0,0,0,-1,-1,2792.742448625,unknown,2,2022-06-30T09:13:18.323+02:00,2022-06-30T08:20:05.567+02:00,833,1.490593,0,0,651.261,0,0,2022-06-30T09:09:38.916+02:00,678265998.3226411,0,-0.9000006,100.9199,1,0.97
474,2022-06-30T09:13:20.042+02:00,1656573199.077722,53.2290640287597,10.39857063443437,39.58798,0,0.07,-1,103.9230494294148,4,5,-9999,2794.46067425,2.2177880859375003,0.8794212341308594,26.551635589599616,2794.45569825,-2.085040637139898,1.963237662771632,0.2323436515296314,-14.3045768737793,15.77187252044678,0.1071815192699432,-0.5018574595451355,0.5192906260490417,1.889352083206177,XArbitraryZVertical,0.7456846432733283,0.3606089020507957,-0.4281172720655204,0.3614293480465355,0.8991502523422241,-0.2302588373422623,0.3721687495708466,0,0,0,-1,-1,2792.742448625,unknown,2,2022-06-30T09:13:18.323+02:00,2022-06-30T08:20:05.567+02:00,833,1.490593,0,0,651.261,0,0,2022-06-30T09:09:38.916+02:00,678265998.3226411,0,-0.9000006,100.9199,1,0.97
475,2022-06-30T09:13:20.052+02:00,1656573199.077722,53.2290640287597,10.39857063443437,39.58798,0,0.07,-1,103.9230494294148,4,5,-9999,2794.47062625,-3.6283049011230473,-4.1306602478027346,30.049112548828127,2794.46565025,-1.951633830955448,2.092145191389783,0.3054178725020775,-15.08635139465332,17.17389106750488,1.658498644828796,-0.6009438633918762,0.3903368711471558,2.231587886810303,XArbitraryZVertical,0.7511133154293498,0.4163284912085513,-0.3362692741825189,0.3865519906144873,0.8270178437232971,-0.3006917238235474,0.4750012457370758,0,0,0,-1,-1,2792.742448625,unknown,2,2022-06-30T09:13:18.323+02:00,2022-06-30T08:20:05.567+02:00,833,1.490593,0,0,651.261,0,0,2022-06-30T09:09:38.916+02:00,678265998.3226411,0,-0.9000006,100.9199,1,0.97
476,2022-06-30T09:13:20.062+02:00,1656573199.077722,53.2290640287597,10.39857063443437,39.58798,0,0.07,-1,103.9230494294148,4,5,-9999,2794.48057825,-14.632820892333989,-10.597063293457031,35.88472732543945,2794.47560225,-1.838779490870984,2.23210358036526,0.4048000167664969,-13.53255367279053,18.78668975830078,3.054417848587036,-1.095266819000244,-0.0272316038608551,2.498596429824829,XArbitraryZVertical,0.7533653131064758,0.4633550030749851,-0.232667977258511,0.4044854995690822,0.7254087328910828,-0.3938349485397339,0.5645142793655396,0,0,0,-1,-1,2792.742448625,unknown,2,2022-06-30T09:13:18.323+02:00,2022-06-30T08:20:05.567+02:00,833,1.490593,0,0,651.261,0,0,2022-06-30T09:09:38.916+02:00,678265998.3226411,0,-0.9000006,100.9199,1,0.97
477,2022-06-30T09:13:20.072+02:00,1656573199.077722,53.2290640287597,10.39857063443437,39.58798,0,0.07,-1,103.9230494294148,4,5,-9999,2794.49053025,-31.178064880371096,-25.081093597412114,40.270457153320315,2794.48555425,-1.764838811662588,2.39710939175975,0.5102818215879452,-10.6060266494751,20.90629577636719,3.424865245819092,-2.082894802093506,-0.5918078422546387,3.016226053237915,XArbitraryZVertical,0.7544142692680094,0.5017303518628246,-0.1224346229529996,0.4051365036071167,0.5912714004516602,-0.4884231984615326,0.6417484879493713,0,0,0,-1,-1,2792.742448625,unknown,2,2022-06-30T09:13:18.323+02:00,2022-06-30T08:20:05.567+02:00,833,1.490593,0,0,651.261,0,0,2022-06-30T09:09:38.916+02:00,678265998.3226411,0,-0.9000006,100.9199,1,0.97
478,2022-06-30T09:13:20.088+02:00,1656573199.077722,53.2290640287597,10.39857063443437,39.58798,0,0.07,-1,103.9230494294148,4,5,-9999,2794.50048225,-41.559576416015624,-43.08340759277344,47.8718000793457,2794.49550625,-1.729156133572489,2.594335054625546,0.5981358349475425,-7.01914119720459,22.3795166015625,2.320866107940674,-3.608200788497925,-1.993583679199219,3.399344444274902,XArbitraryZVertical,0.7516693819645185,0.536508797712032,-0.012378728020691,0.38340362011793,0.4300082623958588,-0.5631029605865479,0.7056971192359924,0,0,0,-1,-1,2792.742448625,unknown,2,2022-06-30T09:13:18.323+02:00,2022-06-30T08:20:05.567+02:00,833,1.490593,0,0,651.261,0,0,2022-06-30T09:09:38.916+02:00,678265998.3226411,0,-0.9000006,100.9199,1,0.97
479,2022-06-30T09:13:20.091+02:00,1656573199.077722,53.2290640287597,10.39857063443437,39.58798,0,0.07,-1,103.9230494294148,4,5,-9999,2794.51043425,-55.17211898803712,-53.875814666748056,60.172470703125,2794.50545825,-1.718900915979302,2.817248463989022,0.6472784801614224,-2.550057172775269,23.57116889953613,0.3011853992938995,-4.490676403045654,-3.788767337799072,4.123763561248779,XArbitraryZVertical,0.7422583757416684,0.5719438104873523,0.088940230448863,0.337672161823001,0.2542257308959961,-0.6030176281929016,0.7561344504356384,0,0,0,-1,-1,2792.742448625,unknown,2,2022-06-30T09:13:18.323+02:00,2022-06-30T08:20:05.567+02:00,833,1.490593,0,0,651.261,0,0,2022-06-30T09:09:38.916+02:00,678265998.3226411,0,-0.9000006,100.9199,1,0.97
480,2022-06-30T09:13:20.101+02:00,1656573199.077722,53.2290640287597,10.39857063443437,39.58798,0,0.07,-1,103.9230494294148,4,5,-9999,2794.52038625,-67.9368246459961,-59.22524047851563,82.2782015991211,2794.51541025,-1.698168192305075,3.040513300557026,0.6468305054548251,1.970167636871338,23.56763458251953,-3.66619086265564,-5.704593181610107,-4.889268398284912,5.339863777160645,XArbitraryZVertical,0.7214555189739158,0.6135669399590818,0.173740826483113,0.2699105642703817,0.0805238410830497,-0.6026601791381836,0.7939249277114868,0,0,0,-1,-1,2792.742448625,unknown,2,2022-06-30T09:13:18.323+02:00,2022-06-30T08:20:05.567+02:00,833,1.490593,0,0,651.261,0,0,2022-06-30T09:09:38.916+02:00,678265998.3226411,0,-0.9000006,100.9199,1,0.97
481,2022-06-30T09:13:20.112+02:00,1656573199.077722,53.2290640287597,10.39857063443437,39.58798,0,0.07,-1,103.9230494294148,4,5,-9999,2794.53033825,-85.66191513061524,-50.44120697021484,118.99804229736324,2794.52536225,-1.620713144608856,-3.063541085654924,0.613574084468779,4.32155179977417,21.26470756530762,-9.2286376953125,-6.861512660980225,-5.461438655853271,7.572070121765137,XArbitraryZVertical,0.6820566563830456,0.6650954393891795,0.2349385592593066,0.1930046097539011,-0.0637498423457145,-0.5757932662963867,0.8151064515113831,0,0,0,-1,-1,2792.742448625,unknown,2,2022-06-30T09:13:18.323+02:00,2022-06-30T08:20:05.567+02:00,833,1.490593,0,0,651.261,0,0,2022-06-30T09:09:38.916+02:00,678265998.3226411,0,-0.9000006,100.9199,1,0.97
482,2022-06-30T09:13:20.121+02:00,1656573199.077722,53.2290640287597,10.39857063443437,39.58798,0,0.07,-1,103.9230494294148,4,5,-9999,2794.54029025,-88.23880645751953,-33.726515350341806,152.89699905395506,2794.53531425,-1.457246502096087,-2.973244051113379,0.5923476358930213,3.049312829971313,14.76455593109131,-17.23434257507324,-8.593092918395996,-4.583505153656006,11.31237602233887,XArbitraryZVertical,0.6162897334518314,0.7274193293251174,0.2705287654544853,0.1336502288781951,-0.1390086859464645,-0.5583102107048035,0.8179038166999817,0,0,0,-1,-1,2792.742448625,unknown,2,2022-06-30T09:13:18.323+02:00,2022-06-30T08:20:05.567+02:00,833,1.490593,0,0,651.261,0,0,2022-06-30T09:09:38.916+02:00,678265998.3226411,0,-0.9000006,100.9199,1,0.97
483,2022-06-30T09:13:20.132+02:00,1656573199.077722,53.2290640287597,10.39857063443437,39.58798,0,0.07,-1,103.9230494294148,4,5,-9999,2794.55024225,-78.15906738281251,-17.85172714233399,163.4380787658691,2794.54526625,-1.214154626597346,-3.008231615442041,0.6100252555738914,-0.0954127982258796,5.727785110473633,-22.68209266662598,-8.885798454284668,-2.865085124969482,14.77347469329834,XArbitraryZVertical,0.52649479539144,0.7930833175761434,0.2823547498395605,0.1187347702398674,-0.1089834794402122,-0.5728881359100342,0.8123558163642883,0,0,0,-1,-1,2792.742448625,unknown,2,2022-06-30T09:13:18.323+02:00,2022-06-30T08:20:05.567+02:00,833,1.490593,0,0,651.261,0,0,2022-06-30T09:09:38.916+02:00,678265998.3226411,0,-0.9000006,100.9199,1,0.97
484,2022-06-30T09:13:20.141+02:00,1656573199.077722,53.2290640287597,10.39857063443437,39.58798,0,0.07,-1,103.9230494294148,4,5,-9999,2794.56019425,-84.7455207824707,-5.650150451660156,147.9916996765137,2794.55521825,-0.9129080076816188,3.108532891343274,0.6269776088320879,0.0041044759564101,-4.016035079956055,-26.55122947692871,-7.994052410125732,-1.233048677444458,15.85099220275879,XArbitraryZVertical,0.4238045072158638,0.8515109868671517,0.2698394669739229,0.1500188787300784,0.0267670825123786,-0.586699903011322,0.8093624711036682,0,0,0,-1,-1,2792.742448625,unknown,2,2022-06-30T09:13:18.323+02:00,2022-06-30T08:20:05.567+02:00,833,1.490593,0,0,651.261,0,0,2022-06-30T09:09:38.916+02:00,678265998.3226411,0,-0.9000006,100.9199,1,0.97
485,2022-06-30T09:13:20.151+02:00,1656573199.077722,53.2290640287597,10.39857063443437,39.58798,0,0.07,-1,103.9230494294148,4,5,-9999,2794.57014625,-108.09576370239256,3.975283355712891,117.5331884765625,2794.56517025,-0.5840393904523553,2.832688490844837,0.5657911410132309,3.514284133911133,-13.72579574584961,-29.18405342102051,-8.895325660705566,-0.0398747324943542,14.28159141540527,XArbitraryZVertical,0.314277185060214,0.8962889844006424,0.2216098862944338,0.2208732351929295,0.2566386461257935,-0.5360838174819946,0.8042081594467163,0,0,0,-1,-1,2792.742448625,unknown,2,2022-06-30T09:13:18.323+02:00,2022-06-30T08:20:05.567+02:00,833,1.490593,0,0,651.261,0,0,2022-06-30T09:09:38.916+02:00,678265998.3226411,0,-0.9000006,100.9199,1,0.97
486,2022-06-30T09:13:20.161+02:00,1656573199.077722,53.2290640287597,10.39857063443437,39.58798,0,0.07,-1,103.9230494294148,4,5,-9999,2794.58009825,-150.27909301757813,29.631630706787114,80.07942398071289,2794.57512225,-0.3196194274836244,2.514449818750349,0.3750773135475215,10.07875823974609,-25.72677803039551,-30.37723922729492,-11.56497287750244,0.7715717554092407,11.22754096984863,XArbitraryZVertical,0.205493183226148,0.9134991015178958,0.12686579895813,0.3274096006514637,0.5460366606712341,-0.3663444817066193,0.753416121006012,0,0,0,-1,-1,2792.742448625,unknown,2,2022-06-30T09:13:18.323+02:00,2022-06-30T08:20:05.567+02:00,833,1.490593,0,0,651.261,0,0,2022-06-30T09:09:38.916+02:00,678265998.3226411,0,-0.9000006,100.9199,1,0.97
487,2022-06-30T09:13:20.171+02:00,1656573199.077722,53.2290640287597,10.39857063443437,39.58798,0,0.07,-1,103.9230494294148,4,5,-9999,2794.59005025,-199.8446209716797,67.59373809814454,33.630864257812505,2794.58507425,-0.2141600863985166,2.180947279906974,0.0585920073001239,20.57442283630371,-34.58111572265625,-29.16702651977539,-16.13712501525879,3.079111814498901,7.591032028198242,XArbitraryZVertical,0.1081986623887532,0.8799414733423394,-0.023533753607259,0.4619980407828389,0.8181551098823547,-0.058558490127325,0.5720078945159912,0,0,0,-1,-1,2792.742448625,unknown,2,2022-06-30T09:13:18.323+02:00,2022-06-30T08:20:05.567+02:00,833,1.490593,0,0,651.261,0,0,2022-06-30T09:09:38.916+02:00,678265998.3226411,0,-0.9000006,100.9199,1,0.97
488,2022-06-30T09:13:20.181+02:00,1656573199.077722,53.2290640287597,10.39857063443437,39.58798,0,0.07,-1,103.9230494294148,4,5,-9999,2794.60000225,-307.549248046875,153.96472869873054,29.16579940795899,2794.59502625,-0.3646196398004655,1.809753623942851,-0.2881815320771715,34.63848495483398,-34.79682922363281,-21.37566375732422,-21.30303955078125,6.606079578399658,3.201293468475342,XArbitraryZVertical,0.0538499791034885,0.781386439380933,-0.2218869182938303,0.580776832085969,0.9315195083618164,0.2842092216014862,0.226929172873497,0,0,0,-1,-1,2792.742448625,unknown,2,2022-06-30T09:13:18.323+02:00,2022-06-30T08:20:05.567+02:00,833,1.490593,0,0,651.261,0,0,2022-06-30T09:09:38.916+02:00,678265998.3226411,0,-0.9000006,100.9199,1,0.97
489,2022-06-30T09:13:20.191+02:00,1656573199.077722,53.2290640287597,10.39857063443437,39.58798,0,0.07,-1,103.9230494294148,4,5,-9999,2794.60995425,-309.2637826538086,309.67437881469726,119.29218063354494,2794.60497825,-0.7282271433593039,1.328274765498887,-0.4168077245217696,34.90791320800781,-34.85428619384766,-3.124975681304932,-32.23821258544922,15.28982734680176,3.1926589012146,XArbitraryZVertical,0.0625155671440734,0.6215274572213044,-0.3935267560581129,0.6744865560959123,0.8876269459724426,0.4048435389995575,-0.2195908427238464,0,0,0,-1,-1,2792.742448625,unknown,2,2022-06-30T09:13:18.323+02:00,2022-06-30T08:20:05.567+02:00,833,1.490593,0,0,651.261,0,0,2022-06-30T09:09:38.916+02:00,678265998.3226411,0,-0.9000006,100.9199,1,0.97
490,2022-06-30T09:13:20.201+02:00,1656573199.077722,53.2290640287597,10.39857063443437,39.58798,0,0.07,-1,103.9230494294148,4,5,-9999,2794.61990625,-314.1030693054199,235.02970321655278,313.9792767333985,2794.61493025,-1.047346285547093,0.8838057837197497,-0.248858611414371,34.86494445800781,-29.84075546264648,2.268802881240845,-32.27470016479492,31.3209171295166,12.77493858337402,XArbitraryZVertical,0.1150520360429583,0.4235860061623857,-0.4944965990930197,0.7502074370759241,0.7493404150009155,0.2462978959083557,-0.6146758198738098,0,0,0,-1,-1,2792.742448625,unknown,2,2022-06-30T09:13:18.323+02:00,2022-06-30T08:20:05.567+02:00,833,1.490593,0,0,651.261,0,0,2022-06-30T09:09:38.916+02:00,678265998.3226411,0,-0.9000006,100.9199,1,0.97
491,2022-06-30T09:13:20.211+02:00,1656573199.077722,53.2290640287597,10.39857063443437,39.58798,0,0.07,-1,103.9230494294148,4,5,-9999,2794.62985825,-242.57401473999028,-310.59496444702154,264.9439462280274,2794.62488225,-1.266975678636875,0.7934355942338922,0.0229305636936077,34.59915924072266,10.6056432723999,12.29580402374268,-32.73123931884766,23.98110389709473,32.70726013183594,XArbitraryZVertical,0.2372367759559669,0.3051402171548385,-0.5423780947211767,0.7459452523832252,0.7125798463821411,-0.0229285545647144,-0.7012163400650024,0,0,0,-1,-1,2792.742448625,unknown,2,2022-06-30T09:13:18.323+02:00,2022-06-30T08:20:05.567+02:00,833,1.490593,0,0,651.261,0,0,2022-06-30T09:09:38.916+02:00,678265998.3226411,0,-0.9000006,100.9199,1,0.97
492,2022-06-30T09:13:20.221+02:00,1656573199.077722,53.2290640287597,10.39857063443437,39.58798,0,0.07,-1,103.9230494294148,4,5,-9999,2794.63981025,-60.41092483520507,-261.43988296508786,163.578337097168,2794.63483425,-1.369246482387628,1.009409928854079,0.2881556406163117,5.67135763168335,33.92562103271484,11.90212059020996,-25.53883361816406,-31.37687301635742,27.51794815063477,XArbitraryZVertical,0.3999763867786972,0.2912274362573015,-0.49401596409733,0.7149502045128009,0.8116156458854675,-0.2841843962669373,-0.5104109644889832,0,0,0,-1,-1,2792.742448625,unknown,2,2022-06-30T09:13:18.323+02:00,2022-06-30T08:20:05.567+02:00,833,1.490593,0,0,651.261,0,0,2022-06-30T09:09:38.916+02:00,678265998.3226411,0,-0.9000006,100.9199,1,0.97
493,2022-06-30T09:13:20.231+02:00,1656573199.077722,53.2290640287597,10.39857063443437,39.58798,0,0.07,-1,103.9230494294148,4,5,-9999,2794.64976225,119.3028085327149,-112.81006027221682,40.69362716674806,2794.64478625,-1.269100962347188,1.262760806798306,0.2821442759822887,-21.21685600280762,16.66422653198242,-4.625499248504639,-7.073348999023438,-26.37192916870117,16.96585083007812,XArbitraryZVertical,0.4378432074818984,0.4033529767243086,-0.4069372841700439,0.6928216530502246,0.9152528047561646,-0.2784157693386078,-0.2911994159221649,0,0,0,-1,-1,2792.742448625,unknown,2,2022-06-30T09:13:18.323+02:00,2022-06-30T08:20:05.567+02:00,833,1.490593,0,0,651.261,0,0,2022-06-30T09:09:38.916+02:00,678265998.3226411,0,-0.9000006,100.9199,1,0.97
494,2022-06-30T09:13:20.241+02:00,1656573199.077722,53.2290640287597,10.39857063443437,39.58798,0,0.07,-1,103.9230494294148,4,5,-9999,2794.65971425,31.863788909912117,-43.898462677001945,40.559506072998055,2794.65473825,-1.030759705603158,1.29080628657976,0.1944406010141655,-27.06720352172852,4.474167823791504,-0.0368817821145057,11.21839809417725,-11.30627918243408,4.41931676864624,XArbitraryZVertical,0.3625391460400979,0.4826966636017729,-0.3410662229801385,0.7205853065919481,0.9429479837417604,-0.1932177096605301,-0.271138608455658,0,0,0,-1,-1,2792.742448625,unknown,2,2022-06-30T09:13:18.323+02:00,2022-06-30T08:20:05.567+02:00,833,1.490593,0,0,651.261,0,0,2022-06-30T09:09:38.916+02:00,678265998.3226411,0,-0.9000006,100.9199,1,0.97
495,2022-06-30T09:13:20.251+02:00,1656573199.077722,53.2290640287597,10.39857063443437,39.58798,0,0.07,-1,103.9230494294148,4,5,-9999,2794.66966625,-47.94859039306641,-26.489215393066406,46.051734924316406,2794.66469025,-0.7860140067478173,1.275804441987628,0.1292407479058688,-23.61418342590332,-0.7114726305007935,0.7032618522644043,2.299267768859863,-4.345987796783447,4.422813415527344,XArbitraryZVertical,0.2755072319011401,0.529095509435499,-0.271490275514778,0.7552793229270973,0.9488248825073242,-0.1288812607526779,-0.2883074283599854,0,0,0,-1,-1,2792.742448625,unknown,2,2022-06-30T09:13:18.323+02:00,2022-06-30T08:20:05.567+02:00,833,1.490593,0,0,651.261,0,0,2022-06-30T09:09:38.916+02:00,678265998.3226411,0,-0.9000006,100.9199,1,0.97
496,2022-06-30T09:13:20.261+02:00,1656573199.077722,53.2290640287597,10.39857063443437,39.58798,0,0.07,-1,103.9230494294148,4,5,-9999,2794.67961825,-119.86354248046875,22.105880584716804,92.76973434448243,2794.67464225,-0.5641916766644343,1.169030199202982,0.0546411862088266,-25.02001571655273,-11.80291366577148,4.037507057189941,-5.806724071502686,-2.645612239837646,5.084827423095703,XArbitraryZVertical,0.1754269698829513,0.5234452861039448,-0.2175899873872393,0.8049130269560133,0.9189981818199158,-0.0546140000224113,-0.3904608190059662,0,0,0,-1,-1,2792.742448625,unknown,2,2022-06-30T09:13:18.323+02:00,2022-06-30T08:20:05.567+02:00,833,1.490593,0,0,651.261,0,0,2022-06-30T09:09:38.916+02:00,678265998.3226411,0,-0.9000006,100.9199,1,0.97
497,2022-06-30T09:13:20.271+02:00,1656573199.077722,53.2290640287597,10.39857063443437,39.58798,0,0.07,-1,103.9230494294148,4,5,-9999,2794.68957025,-107.12757705688476,18.49838241577149,51.336195831298824,2794.68459425,-0.3441886779661803,1.170877488534801,0.0213896595354368,-18.10868835449219,10.31610012054443,5.77974796295166,-13.13938808441162,2.274790287017822,9.845904350280762,XArbitraryZVertical,0.1034011824554184,0.5428452029804841,-0.1368981126100605,0.8221230742545256,0.920881986618042,-0.0213880278170108,-0.3892545700073242,0,0,0,-1,-1,2792.742448625,unknown,2,2022-06-30T09:13:18.323+02:00,2022-06-30T08:20:05.567+02:00,833,1.490593,0,0,651.261,0,0,2022-06-30T09:09:38.916+02:00,678265998.3226411,0,-0.9000006,100.9199,1,0.97
498,2022-06-30T09:13:20.281+02:00,1656573199.077722,53.2290640287597,10.39857063443437,39.58798,0,0.07,-1,103.9230494294148,4,5,-9999,2794.69952225,-5.961502990722656,14.151571655273438,15.209571533203126,2794.69454625,-0.1649375675300135,1.276982494524661,0.0461862043779613,-13.99367809295654,9.92505931854248,10.2888240814209,-11.87636756896973,1.931835412979126,5.522343158721924,XArbitraryZVertical,0.0675603294839679,0.5922732801729083,-0.0524142798643543,0.8011871864230052,0.956125795841217,-0.0461697839200496,-0.2892959415912628,0,0,0,-1,-1,2792.742448625,unknown,2,2022-06-30T09:13:18.323+02:00,2022-06-30T08:20:05.567+02:00,833,1.490593,0,0,651.261,0,0,2022-06-30T09:09:38.916+02:00,678265998.3226411,0,-0.9000006,100.9199,1,0.97
499,2022-06-30T09:13:20.291+02:00,1656573199.077722,53.2290640287597,10.39857063443437,39.58798,0,0.07,-1,103.9230494294148,4,5,-9999,2794.70947425,9.124425659179687,37.5157356262207,0.8656498718261719,2794.70449825,-0.0265526889213091,1.317957118663803,0.0877606652642996,-11.11394596099854,-1.184242010116577,4.645152568817139,-1.572176575660706,1.530213713645935,1.799605965614319,XArbitraryZVertical,0.0427995629015683,0.6112058476926996,0.0163712492031249,0.7901441402584308,0.9644801020622252,-0.0876480564475059,-0.2491912245750427,0,0,0,-1,-1,2792.742448625,unknown,2,2022-06-30T09:13:18.323+02:00,2022-06-30T08:20:05.567+02:00,833,1.490593,0,0,651.261,0,0,2022-06-30T09:09:38.916+02:00,678265998.3226411,0,-0.9000006,100.9199,1,0.97
500,2022-06-30T09:13:20.301+02:00,1656573199.077722,53.2290640287597,10.39857063443437,39.58798,0,0.07,-1,103.9230494294148,4,5,-9999,2794.71942625,-8.739575958251953,38.52658355712891,-14.286441192626949,2794.71445025,0.0676565564405022,1.246928128539856,0.1029342493566383,-4.975208759307861,-10.19649028778076,4.685244083404541,-0.0128790140151977,3.926986455917358,0.4047928750514984,XArbitraryZVertical,0.0220210430541407,0.5841569010551071,0.0574409429569189,0.8093060457029365,0.9429935812950134,-0.102752573788166,-0.3165515661239624,0,0,0,-1,-1,2792.742448625,unknown,2,2022-06-30T09:13:18.323+02:00,2022-06-30T08:20:05.567+02:00,833,1.490593,0,0,651.261,0,0,2022-06-30T09:09:38.916+02:00,678265998.3226411,0,-0.9000006,100.9199,1,0.97
501,2022-06-30T09:13:20.311+02:00,1656573199.077722,53.2290640287597,10.39857063443437,39.58798,0,0.07,-1,103.9230494294148,4,5,-9999,2794.72937825,-53.171978302001946,37.71467193603516,-11.5010334777832,2794.72440125,0.0766795793419735,1.128853918763138,0.1563951381030524,6.888857841491699,-13.47334671020508,5.148779392242432,-1.783775091171265,4.083034515380859,-1.033838272094727,XArbitraryZVertical,0.0455114537427566,0.5354349985622652,0.0740432342514998,0.8400927326509819,0.892890453338623,-0.1557583659887314,-0.4224761426448822,0,0,0,-1,-1,2792.742448625,unknown,2,2022-06-30T09:13:18.323+02:00,2022-06-30T08:20:05.567+02:00,833,1.490593,0,0,651.261,0,0,2022-06-30T09:09:38.916+02:00,678265998.3226411,0,-0.9000006,100.9199,1,0.97
502,2022-06-30T09:13:20.321+02:00,1656573199.077722,53.2290640287597,10.39857063443437,39.58798,0,0.07,-1,103.9230494294148,4,5,-9999,2794.73932925,-57.512202758789066,-6.182443542480469,1.244362335205078,2794.73435425,0.0367285261644792,1.003380096366544,0.2462343024278269,7.897049903869629,-12.78669452667236,7.336760997772217,-6.238038063049316,4.088266372680664,-0.6511349678039551,XArbitraryZVertical,0.0988907205439698,0.4791645843290866,0.0750270728633414,0.8689033170311903,0.8178564310073853,-0.243753582239151,-0.5212438702583313,0,0,0,-1,-1,2792.742448625,unknown,2,2022-06-30T09:13:18.323+02:00,2022-06-30T08:20:05.567+02:00,833,1.490593,0,0,651.261,0,0,2022-06-30T09:09:38.916+02:00,678265998.3226411,0,-0.9000006,100.9199,1,0.97
503,2022-06-30T09:13:20.331+02:00,1656573199.077722,53.2290640287597,10.39857063443437,39.58798,0,0.07,-1,103.9230494294148,4,5,-9999,2794.74928125,-69.33641418457032,-27.637627258300782,-1.3233979797363282,2794.74430525,0.0225230423616395,0.8956811543583446,0.3535135647046039,5.995580196380615,-9.358881950378418,8.705293655395508,-6.594972610473633,-0.2840225100517273,0.7131854891777039,XArbitraryZVertical,0.1536870026073945,0.4280310843389972,0.0861290448839924,0.8864263384109792,0.7323622107505798,-0.3461962342262268,-0.5863394141197205,0,0,0,-1,-1,2792.742448625,unknown,2,2022-06-30T09:13:18.323+02:00,2022-06-30T08:20:05.567+02:00,833,1.490593,0,0,651.261,0,0,2022-06-30T09:09:38.916+02:00,678265998.3226411,0,-0.9000006,100.9199,1,0.97
504,2022-06-30T09:13:20.340+02:00,1656573199.077722,53.2290640287597,10.39857063443437,39.58798,0,0.07,-1,103.9230494294148,4,5,-9999,2794.75923325,-59.469682159423826,-25.428670806884764,-6.774163055419923,2794.75425725,0.0629409253954442,0.8026500352350872,0.4414133931759704,0.565971851348877,-6.374949932098389,9.488278388977053,-7.718195915222168,-2.390073776245117,0.4933024048805237,XArbitraryZVertical,0.1894316456805473,0.3873149693027013,0.1137384546757654,0.8950790551408919,0.6502637267112732,-0.4272178113460541,-0.6282055377960205,0,0,0,-1,-1,2792.742448625,unknown,2,2022-06-30T09:13:18.323+02:00,2022-06-30T08:20:05.567+02:00,833,1.490593,0,0,651.261,0,0,2022-06-30T09:09:38.916+02:00,678265998.3226411,0,-0.9000006,100.9199,1,0.97
505,2022-06-30T09:13:20.350+02:00,1656573199.077722,53.2290640287597,10.39857063443437,39.58798,0,0.07,-1,103.9230494294148,4,5,-9999,2794.76918525,-46.4434703063965,-18.592087554931638,-14.713203735351563,2794.76420925,0.1469681825838748,0.7066847332871179,0.4984717868287535,-2.409022808074951,-5.471641063690186,9.214508056640623,-6.632452964782715,-2.114033699035645,-0.0225622057914733,XArbitraryZVertical,0.2061802061633574,0.3514292811764574,0.1518779580693245,0.9005110861776275,0.5703034996986389,-0.4780838489532471,-0.6679743528366089,0,0,0,-1,-1,2792.742448625,unknown,2,2022-06-30T09:13:18.323+02:00,2022-06-30T08:20:05.567+02:00,833,1.490593,0,0,651.261,0,0,2022-06-30T09:09:38.916+02:00,678265998.3226411,0,-0.9000006,100.9199,1,0.97
506,2022-06-30T09:13:20.360+02:00,1656573199.077722,53.2290640287597,10.39857063443437,39.58798,0,0.07,-1,103.9230494294148,4,5,-9999,2794.77913725,-41.49311462402344,-13.812526702880865,-17.127383422851562,2794.77416125,0.2513851726056556,0.5990687587586891,0.5253438488462661,-4.435641765594482,-5.916794776916504,8.61693286895752,-5.222135066986084,-1.393707513809204,-0.7853220701217651,XArbitraryZVertical,0.2104204221844194,0.3138084809365345,0.191686871233663,0.9058165076497828,0.4878361523151398,-0.501510500907898,-0.7144949436187744,0,0,0,-1,-1,2792.742448625,unknown,2,2022-06-30T09:13:18.323+02:00,2022-06-30T08:20:05.567+02:00,833,1.490593,0,0,651.261,0,0,2022-06-30T09:09:38.916+02:00,678265998.3226411,0,-0.9000006,100.9199,1,0.97
507,2022-06-30T09:13:20.371+02:00,1656573199.077722,53.2290640287597,10.39857063443437,39.58798,0,0.07,-1,103.9230494294148,4,5,-9999,2794.78908925,-41.3851890563965,-12.050989837646489,-18.692378997802738,2794.78411325,0.3635201301712132,0.4814832683817655,0.5213578622017482,-6.259007930755615,-6.306186199188232,7.726906776428223,-4.631245136260986,-0.9099467992782592,-0.9773534536361694,XArbitraryZVertical,0.204539090655796,0.2718181604766975,0.2300552048897017,0.9117858397486932,0.4015693366527557,-0.4980580508708954,-0.7685573101043701,0,0,0,-1,-1,2792.742448625,unknown,2,2022-06-30T09:13:18.323+02:00,2022-06-30T08:20:05.567+02:00,833,1.490593,0,0,651.261,0,0,2022-06-30T09:09:38.916+02:00,678265998.3226411,0,-0.9000006,100.9199,1,0.97
508,2022-06-30T09:13:20.380+02:00,1656573199.077722,53.2290640287597,10.39857063443437,39.58798,0,0.07,-1,103.9230494294148,4,5,-9999,2794.79904125,-40.88657592773438,-11.8745068359375,-23.04742263793945,2794.79406525,0.4717934004157511,0.3669146153262574,0.4877489335320842,-7.634381294250488,-6.0718674659729,6.879905223846436,-4.535578727722168,-0.759800910949707,-1.080851078033447,XArbitraryZVertical,0.1894621339946584,0.2276157063908756,0.2658236469479995,0.9174055676873858,0.3169048130512238,-0.4686385095119476,-0.8245903849601746,0,0,0,-1,-1,2792.742448625,unknown,2,2022-06-30T09:13:18.323+02:00,2022-06-30T08:20:05.567+02:00,833,1.490593,0,0,651.261,0,0,2022-06-30T09:09:38.916+02:00,678265998.3226411,0,-0.9000006,100.9199,1,0.97
509,2022-06-30T09:13:20.390+02:00,1656573199.077722,53.2290640287597,10.39857063443437,39.58798,0,0.07,-1,103.9230494294148,4,5,-9999,2794.80899325,-38.067937316894536,-9.544601898193362,-23.81367919921875,2794.80401725,0.5677328544412537,0.2654650410071113,0.4326740057487418,-8.291248321533203,-5.655313968658447,6.136444568634033,-4.406028270721436,-0.791149377822876,-1.473334074020386,XArbitraryZVertical,0.1680491555681771,0.1836743639742023,0.2984060257681092,0.9213994969847656,0.2381811738014221,-0.4192999005317688,-0.8760464191436768,0,0,0,-1,-1,2792.742448625,unknown,2,2022-06-30T09:13:18.323+02:00,2022-06-30T08:20:05.567+02:00,833,1.490593,0,0,651.261,0,0,2022-06-30T09:09:38.916+02:00,678265998.3226411,0,-0.9000006,100.9199,1,0.97
510,2022-06-30T09:13:20.400+02:00,1656573199.077722,53.2290640287597,10.39857063443437,39.58798,0,0.07,-1,103.9230494294148,4,5,-9999,2794.81894525,-35.076408233642574,-7.48488510131836,-22.903871154785158,2794.81396925,0.6471215791614472,0.1789807103473735,0.3638343287375999,-8.344125747680664,-5.529178142547607,5.097485542297363,-4.046896934509277,-0.6170859932899475,-1.507879734039307,XArbitraryZVertical,0.1428950926421415,0.1406261132068183,0.3267763549927443,0.9235922267468302,0.1663728952407837,-0.35586017370224,-0.919610559940338,0,0,0,-1,-1,2792.742448625,unknown,2,2022-06-30T09:13:18.323+02:00,2022-06-30T08:20:05.567+02:00,833,1.490593,0,0,651.261,0,0,2022-06-30T09:09:38.916+02:00,678265998.3226411,0,-0.9000006,100.9199,1,0.97
511,2022-06-30T09:13:20.410+02:00,1656573199.077722,53.2290640287597,10.39857063443437,39.58798,0,0.07,-1,103.9230494294148,4,5,-9999,2794.82889725,-32.58513885498047,-6.22031478881836,-20.948786773681636,2794.82392125,0.7057668638830568,0.1047690127989596,0.2903986639185499,-7.781918525695801,-5.573636054992676,3.877886295318604,-3.67577600479126,-0.4766509830951691,-1.381871223449707,XArbitraryZVertical,0.117682008787609,0.0985539402110066,0.3486083216571289,0.9246136027593268,0.1001987755298615,-0.286334216594696,-0.9528761506080629,0,0,0,-1,-1,2792.742448625,unknown,2,2022-06-30T09:13:18.323+02:00,2022-06-30T08:20:05.567+02:00,833,1.490593,0,0,651.261,0,0,2022-06-30T09:09:38.916+02:00,678265998.3226411,0,-0.9000006,100.9199,1,0.97
512,2022-06-30T09:13:20.420+02:00,1656573199.077722,53.2290640287597,10.39857063443437,39.58798,0,0.07,-1,103.9230494294148,4,5,-9999,2794.83884925,-30.69067840576172,-5.497767333984375,-18.130148162841802,2794.83387325,0.7463893935213777,0.0390474414019911,0.22022462721275,-6.820695400238037,-5.529955387115479,3.034432172775269,-3.35971999168396,-0.4156301021575928,-1.160347700119019,XArbitraryZVertical,0.0952317819296287,0.0581259669807184,0.3643126215134347,0.9245694048336676,0.0380946993827819,-0.2184488326311111,-0.975104570388794,0,0,0,-1,-1,2792.742448625,unknown,2,2022-06-30T09:13:18.323+02:00,2022-06-30T08:20:05.567+02:00,833,1.490593,0,0,651.261,0,0,2022-06-30T09:09:38.916+02:00,678265998.3226411,0,-0.9000006,100.9199,1,0.97
513,2022-06-30T09:13:20.430+02:00,1656573199.077722,53.2290640287597,10.39857063443437,39.58798,0,0.07,-1,103.9230494294148,4,5,-9999,2794.84880125,-29.171188201904304,-4.619244232177735,-14.377601623535156,2794.84382525,0.7752898223784569,-0.0204950060207829,0.1580155731144382,-5.74905252456665,-5.342902183532715,2.587392330169678,-3.108271598815918,-0.4030659198760986,-0.8607951402664185,XArbitraryZVertical,0.0769271424489877,0.0203756376099605,0.3760613667597138,0.9231711270249096,-0.0202382523566484,-0.1573588103055954,-0.9873340725898744,0,0,0,-1,-1,2792.742448625,unknown,2,2022-06-30T09:13:18.323+02:00,2022-06-30T08:20:05.567+02:00,833,1.490593,0,0,651.261,0,0,2022-06-30T09:09:38.916+02:00,678265998.3226411,0,-0.9000006,100.9199,1,0.97
514,2022-06-30T09:13:20.440+02:00,1656573199.077722,53.2290640287597,10.39857063443437,39.58798,0,0.07,-1,103.9230494294148,4,5,-9999,2794.85875325,-28.062144470214847,-0.2472857666015625,-9.101822662353515,2794.85377725,0.7987705535461339,-0.0756972604117554,0.102467953113991,-5.413856029510498,-5.108320713043213,2.694567918777466,-2.898389577865601,-0.368582159280777,-0.4737005233764648,XArbitraryZVertical,0.0618421282016908,-0.014916421927526,0.3862783738278142,0.920185959559954,-0.0752283185720443,-0.102288730442524,-0.9919061064720154,0,0,0,-1,-1,2792.742448625,unknown,2,2022-06-30T09:13:18.323+02:00,2022-06-30T08:20:05.567+02:00,833,1.490593,0,0,651.261,0,0,2022-06-30T09:09:38.916+02:00,678265998.3226411,0,-0.9000006,100.9199,1,0.97
515,2022-06-30T09:13:20.451+02:00,1656573199.077722,53.2290640287597,10.39857063443437,39.58798,0,0.07,-1,103.9230494294148,4,5,-9999,2794.86870525,-30.728699340820313,0.7821235656738281,-8.929980010986327,2794.86372925,0.8179127629205964,-0.1266505396190083,0.0422007812838331,-6.201114177703857,-4.822645664215088,2.128328084945679,-2.734365940093994,0.0169808268547058,0.0632967352867126,XArbitraryZVertical,0.0444791225247642,-0.0496783103216619,0.3955414969538967,0.9160243986188822,-0.1261997669935226,-0.0421882569789886,-0.9911073446273804,0,0,0,-1,-1,2792.742448625,unknown,2,2022-06-30T09:13:18.323+02:00,2022-06-30T08:20:05.567+02:00,833,1.490593,0,0,651.261,0,0,2022-06-30T09:09:38.916+02:00,678265998.3226411,0,-0.9000006,100.9199,1,0.97
516,2022-06-30T09:13:20.460+02:00,1656573200.075166,53.2290640287597,10.39857063443437,39.54104,0,0.07,-1,103.9230494294148,4,5,-9999,2794.87865725,-31.884745330810553,-0.3487747192382813,-10.995983734130863,2794.87368125,0.8219048423226937,-0.1718432656099499,-0.0205850061924964,-6.060673713684082,-4.203508377075195,0.561679482460022,-2.96142315864563,0.0591437183320522,0.0747690200805664,XArbitraryZVertical,0.0248795780372022,-0.0827632465113629,0.3987975532083251,0.9129577661577396,-0.1709625273942947,0.0205835532397031,-0.9850624799728394,0,0,0,-1,-1,2792.742448625,unknown,2,2022-06-30T09:13:18.323+02:00,2022-06-30T08:20:05.567+02:00,833,1.490593,0,0,651.261,0,0,2022-06-30T09:09:38.916+02:00,678265998.3226411,0,-0.9000006,100.9199,1,0.97
517,2022-06-30T09:13:20.470+02:00,1656573200.075166,53.2290640287597,10.39857063443437,39.54104,0,0.07,-1,103.9230494294148,4,5,-9999,2794.88860925,-31.125374450683594,0.48873367309570315,-12.408745880126949,2794.88363325,0.811221737128561,-0.2112739388537222,-0.0763401079135866,-5.27839183807373,-3.615606784820557,-0.4305807650089264,-3.041134357452393,-0.111818864941597,-0.1459784507751465,XArbitraryZVertical,0.0067054524595604,-0.11178830322143,0.3957920111019675,0.9114861790879556,-0.209094911813736,0.0762659832835197,-0.9749168157577516,0,0,0,-1,-1,2792.742448625,unknown,2,2022-06-30T09:13:18.323+02:00,2022-06-30T08:20:05.567+02:00,833,1.490593,0,0,651.261,0,0,2022-06-30T09:09:38.916+02:00,678265998.3226411,0,-0.9000006,100.9199,1,0.97
518,2022-06-30T09:13:20.480+02:00,1656573200.075166,53.2290640287597,10.39857063443437,39.54104,0,0.07,-1,103.9230494294148,4,5,-9999,2794.89856125,-31.087802581787116,0.8560697937011719,-13.802347869873051,2794.89358525,0.7941929932551957,-0.245874588163531,-0.1204577533888769,-4.113892078399658,-2.979034900665283,-0.8455542325973511,-2.931180477142334,-0.0703466162085533,-0.302011251449585,XArbitraryZVertical,-0.0077504175966872,-0.1359841562365122,0.3899345260805282,0.910713586673235,-0.2416409254074097,0.1201666593551636,-0.962896466255188,0,0,0,-1,-1,2792.742448625,unknown,2,2022-06-30T09:13:18.323+02:00,2022-06-30T08:20:05.567+02:00,833,1.490593,0,0,651.261,0,0,2022-06-30T09:09:38.916+02:00,678265998.3226411,0,-0.9000006,100.9199,1,0.97
519,2022-06-30T09:13:20.490+02:00,1656573200.075166,53.2290640287597,10.39857063443437,39.54104,0,0.07,-1,103.9230494294148,4,5,-9999,2794.90851325,-30.476473846435553,0.28919860839843753,-14.441069641113282,2794.90353725,0.7752726172295502,-0.274712646121658,-0.1522570527736374,-3.061960697174072,-2.302405834197998,-1.156972765922546,-2.900859355926514,-0.0644043684005737,-0.455598771572113,XArbitraryZVertical,-0.0181411098468935,-0.1548766485020906,0.3829975764944227,0.9104927057259355,-0.2681321203708649,0.1516694575548172,-0.9513682723045348,0,0,0,-1,-1,2792.742448625,unknown,2,2022-06-30T09:13:18.323+02:00,2022-06-30T08:20:05.567+02:00,833,1.490593,0,0,651.261,0,0,2022-06-30T09:09:38.916+02:00,678265998.3226411,0,-0.9000006,100.9199,1,0.97
520,2022-06-30T09:13:20.500+02:00,1656573200.075166,53.2290640287597,10.39857063443437,39.54104,0,0.07,-1,103.9230494294148,4,5,-9999,2794.91846525,-28.6013232421875,-0.9002279663085938,-14.903158721923825,2794.91348925,0.7551091152446361,-0.2976464288660672,-0.173831567032794,-2.250690937042236,-1.641133427619934,-1.448736429214478,-2.81782341003418,-0.1434773802757263,-0.5304549336433411,XArbitraryZVertical,-0.0253457717019102,-0.1689583387761059,0.375161857695008,0.911078662368497,-0.2888511419296265,0.1729574352502823,-0.9416213631629944,0,0,0,-1,-1,2792.742448625,unknown,2,2022-06-30T09:13:18.323+02:00,2022-06-30T08:20:05.567+02:00,833,1.490593,0,0,651.261,0,0,2022-06-30T09:09:38.916+02:00,678265998.3226411,0,-0.9000006,100.9199,1,0.97
521,2022-06-30T09:13:20.510+02:00,1656573200.075166,53.2290640287597,10.39857063443437,39.54104,0,0.07,-1,103.9230494294148,4,5,-9999,2794.92841725,-25.87279724121094,-1.0123448181152344,-15.659386138916012,2794.92344125,0.7345532762477972,-0.3141056754660893,-0.1868750948505714,-1.482200980186462,-0.9267537593841552,-1.614675283432007,-2.611940860748291,-0.2775555849075317,-0.5846655964851379,XArbitraryZVertical,-0.0300902990892857,-0.1784301259099933,0.3667285427784103,0.9125610131925648,-0.3035868108272552,0.1857893019914627,-0.9345145225524902,0,0,0,-1,-1,2792.742448625,unknown,2,2022-06-30T09:13:18.323+02:00,2022-06-30T08:20:05.567+02:00,833,1.490593,0,0,651.261,0,0,2022-06-30T09:09:38.916+02:00,678265998.3226411,0,-0.9000006,100.9199,1,0.97
522,2022-06-30T09:13:20.520+02:00,1656573200.075166,53.2290640287597,10.39857063443437,39.54104,0,0.07,-1,103.9230494294148,4,5,-9999,2794.93836925,-22.47800674438476,-0.08996292114257813,-16.7410368347168,2794.93339325,0.7149541761765476,-0.323917694001772,-0.1929598595841255,-0.9121457934379578,-0.3285098671913147,-1.677597999572754,-2.325014591217041,-0.2949597835540771,-0.6658656597137451,XArbitraryZVertical,-0.0328981267681779,-0.183621302662351,0.358278166320899,0.91478842091844,-0.3123759329319,0.1917646527290344,-0.9304018616676332,0,0,0,-1,-1,2792.742448625,unknown,2,2022-06-30T09:13:18.323+02:00,2022-06-30T08:20:05.567+02:00,833,1.490593,0,0,651.261,0,0,2022-06-30T09:09:38.916+02:00,678265998.3226411,0,-0.9000006,100.9199,1,0.97
523,2022-06-30T09:13:20.530+02:00,1656573200.075166,53.2290640287597,10.39857063443437,39.54104,0,0.07,-1,103.9230494294148,4,5,-9999,2794.94832125,-19.3279573059082,0.061671752929687504,-19.014509124755865,2794.94334525,0.6958424965978586,-0.3290868603958024,-0.1935452459479635,-0.4252767860889435,0.0166421793401241,-1.877082347869873,-1.974191665649414,-0.2015096247196198,-0.7778592109680176,XArbitraryZVertical,-0.0340195192024473,-0.1857646764781097,0.3496441442223402,0.9176508979882882,-0.3171447813510895,0.192339152097702,-0.9286683201789856,0,0,0,-1,-1,2792.742448625,unknown,2,2022-06-30T09:13:18.323+02:00,2022-06-30T08:20:05.567+02:00,833,1.490593,0,0,651.261,0,0,2022-06-30T09:09:38.916+02:00,678265998.3226411,0,-0.9000006,100.9199,1,0.97
524,2022-06-30T09:13:20.539+02:00,1656573200.075166,53.2290640287597,10.39857063443437,39.54104,0,0.07,-1,103.9230494294148,4,5,-9999,2794.95827325,-15.967595214843751,-0.35296600341796874,-19.4045979309082,2794.95329725,0.6752778438781127,-0.3311457226100294,-0.1896177827010575,-0.1872277408838272,0.3605505228042603,-2.230467081069946,-1.650931239128113,-0.1821968853473663,-1.009557485580444,XArbitraryZVertical,-0.033748164736644,-0.1857438118593918,0.3399844274413679,0.9212876554593008,-0.3192992508411407,0.1884835362434387,-0.9287205934524536,0,0,0,-1,-1,2792.742448625,unknown,2,2022-06-30T09:13:18.323+02:00,2022-06-30T08:20:05.567+02:00,833,1.490593,0,0,651.261,0,0,2022-06-30T09:09:38.916+02:00,678265998.3226411,0,-0.9000006,100.9199,1,0.97
