,loggingTime(txt),locationTimestamp_since1970(s),locationLatitude(WGS84),locationLongitude(WGS84),locationAltitude(m),locationSpeed(m/s),locationSpeedAccuracy(m/s),locationCourse(°),locationCourseAccuracy(°),locationVerticalAccuracy(m),locationHorizontalAccuracy(m),locationFloor(Z),accelerometerTimestamp_sinceReboot(s),accelerometerAccelerationX(G),accelerometerAccelerationY(G),accelerometerAccelerationZ(G),motionTimestamp_sinceReboot(s),motionYaw(rad),motionRoll(rad),motionPitch(rad),motionRotationRateX(rad/s),motionRotationRateY(rad/s),motionRotationRateZ(rad/s),motionUserAccelerationX(G),motionUserAccelerationY(G),motionUserAccelerationZ(G),motionAttitudeReferenceFrame(txt),motionQuaternionX(R),motionQuaternionY(R),motionQuaternionZ(R),motionQuaternionW(R),motionGravityX(G),motionGravityY(G),motionGravityZ(G),motionMagneticFieldX(µT),motionMagneticFieldY(µT),motionMagneticFieldZ(µT),motionHeading(°),motionMagneticFieldCalibrationAccuracy(Z),activityTimestamp_sinceReboot(s),activity(txt),activityActivityConfidence(Z),activityActivityStartDate(txt),pedometerStartDate(txt),pedometerNumberofSteps(N),pedometerAverageActivePace(s/m),pedometerCurrentPace(s/m),pedometerCurrentCadence(steps/s),pedometerDistance(m),pedometerFloorAscended(N),pedometerFloorDescended(N),pedometerEndDate(txt),altimeterTimestamp_sinceReboot(s),altimeterReset(bool),altimeterRelativeAltitude(m),altimeterPressure(kPa),batteryState(N),batteryLevel(R)
231,2022-06-30T09:13:33.368+02:00,1656573212.062313,53.2290640287597,10.39857063443437,40.38913,0,0.07,-1,103.9230494294148,4,5,-9999,2807.786324291667,5.336253204345703,-3.495381317138672,0.13217514038085937,2807.781348291667,-1.997362721009916,1.416791234425087,0.4804942972217369,-1.431965112686157,4.064763069152832,-0.9783750772476196,-0.2621967196464539,0.0714091360569,0.0661883205175399,XArbitraryZVertical,0.6291305291190495,0.1902132431848588,-0.536324051121618,0.5295001607163761,0.8762715458869934,-0.4622175693511963,-0.1360273957252502,0,0,0,-1,-1,2802.931880625,unknown,2,2022-06-30T09:13:28.512+02:00,2022-06-30T08:20:05.567+02:00,833,1.490593,0,0,651.261,0,0,2022-06-30T09:09:38.916+02:00,678266011.0612233,0,-1.21,100.9236,1,0.97
232,2022-06-30T09:13:33.377+02:00,1656573212.062313,53.2290640287597,10.39857063443437,40.38913,0,0.07,-1,103.9230494294148,4,5,-9999,2807.796276291667,4.62478271484375,-3.5009197998046875,1.2499008178710938,2807.791300291667,-1.981276031447772,1.452274679180767,0.4669481872388507,-1.811728358268738,4.541403293609619,-1.335674285888672,-0.3427213430404663,0.093855082988739,0.1190598085522652,XArbitraryZVertical,0.6351044292983489,0.2094025645754161,-0.5242205006055137,0.5272436190787814,0.886681854724884,-0.4501632750034332,-0.1055858582258224,0,0,0,-1,-1,2802.931880625,unknown,2,2022-06-30T09:13:28.512+02:00,2022-06-30T08:20:05.567+02:00,833,1.490593,0,0,651.261,0,0,2022-06-30T09:09:38.916+02:00,678266011.0612233,0,-1.21,100.9236,1,0.97
233,2022-06-30T09:13:33.388+02:00,1656573212.062313,53.2290640287597,10.39857063443437,40.38913,0,0.07,-1,103.9230494294148,4,5,-9999,2807.806228291667,4.189038848876954,-3.4849031066894534,2.2601499938964844,2807.801252291667,-1.960140253729421,1.49052704440372,0.4497594723807985,-2.332133293151855,5.031420707702637,-1.728668451309204,-0.4262166023254395,0.0778761506080627,0.1996203660964966,XArbitraryZVertical,0.6403327900353333,0.2320978318373454,-0.5107741977534452,0.524608545199147,0.8976519703865051,-0.4347489476203918,-0.0722090303897857,0,0,0,-1,-1,2802.931880625,unknown,2,2022-06-30T09:13:28.512+02:00,2022-06-30T08:20:05.567+02:00,833,1.490593,0,0,651.261,0,0,2022-06-30T09:09:38.916+02:00,678266011.0612233,0,-1.21,100.9236,1,0.97
234,2022-06-30T09:13:33.397+02:00,1656573212.062313,53.2290640287597,10.39857063443437,40.38913,0,0.07,-1,103.9230494294148,4,5,-9999,2807.816180291667,4.034111022949219,-2.727777557373047,3.4320629882812503,2807.811204291667,-1.932726107336697,1.53149716963943,0.4290041063402134,-2.897050857543945,5.538283824920654,-2.148860692977905,-0.4816612005233765,0.0607252418994903,0.2661215662956238,XArbitraryZVertical,0.6444124746751344,0.2585888982536683,-0.4957107299551172,0.5216658367661722,0.9086783528327942,-0.415965348482132,-0.0357286892831325,0,0,0,-1,-1,2802.931880625,unknown,2,2022-06-30T09:13:28.512+02:00,2022-06-30T08:20:05.567+02:00,833,1.490593,0,0,651.261,0,0,2022-06-30T09:09:38.916+02:00,678266011.0612233,0,-1.21,100.9236,1,0.97
235,2022-06-30T09:13:33.407+02:00,1656573212.062313,53.2290640287597,10.39857063443437,40.38913,0,0.07,-1,103.9230494294148,4,5,-9999,2807.826132291667,3.693718872070313,-2.0652552795410157,4.347708892822266,2807.821156291667,-1.89878345299691,1.575668000232396,0.4047000466619255,-3.415584325790405,6.111326694488525,-2.633983612060547,-0.5079854130744934,0.1156819462776184,0.3453757762908936,XArbitraryZVertical,0.6470920815137188,0.2889825262254199,-0.47888394499411,0.5181034186320003,0.9192096590995787,-0.3937430679798126,0.0044781249016523,0,0,0,-1,-1,2802.931880625,unknown,2,2022-06-30T09:13:28.512+02:00,2022-06-30T08:20:05.567+02:00,833,1.490593,0,0,651.261,0,0,2022-06-30T09:09:38.916+02:00,678266011.0612233,0,-1.21,100.9236,1,0.97
236,2022-06-30T09:13:33.417+02:00,1656573212.062313,53.2290640287597,10.39857063443437,40.38913,0,0.07,-1,103.9230494294148,4,5,-9999,2807.836084291667,3.686683502197266,-1.8462606811523439,5.558391265869141,2807.831108291667,-1.858356299306526,1.624472544147761,0.377093841546747,-3.937501430511475,6.811927795410156,-3.131273508071899,-0.5518739223480225,0.1576942205429077,0.3933110237121582,XArbitraryZVertical,0.6483391991380374,0.3234141855285986,-0.4598906523950607,0.5133812537620934,0.9283998608589172,-0.3682200610637665,0.0498809069395065,0,0,0,-1,-1,2802.931880625,unknown,2,2022-06-30T09:13:28.512+02:00,2022-06-30T08:20:05.567+02:00,833,1.490593,0,0,651.261,0,0,2022-06-30T09:09:38.916+02:00,678266011.0612233,0,-1.21,100.9236,1,0.97
237,2022-06-30T09:13:33.427+02:00,1656573212.062313,53.2290640287597,10.39857063443437,40.38913,0,0.07,-1,103.9230494294148,4,5,-9999,2807.846036291667,3.719165954589844,-2.072590026855469,7.174430694580079,2807.841060291667,-1.810276438755882,1.679485484976342,0.3469746485663435,-4.58879566192627,7.675584316253662,-3.635063409805298,-0.559048056602478,0.1518520414829254,0.4645941257476807,XArbitraryZVertical,0.6479203304153104,0.3622218281896857,-0.4378701619462397,0.5072124922346781,0.9348568320274352,-0.3400543034076691,0.1020108163356781,0,0,0,-1,-1,2802.931880625,unknown,2,2022-06-30T09:13:28.512+02:00,2022-06-30T08:20:05.567+02:00,833,1.490593,0,0,651.261,0,0,2022-06-30T09:09:38.916+02:00,678266011.0612233,0,-1.21,100.9236,1,0.97
238,2022-06-30T09:13:33.437+02:00,1656573212.062313,53.2290640287597,10.39857063443437,40.38913,0,0.07,-1,103.9230494294148,4,5,-9999,2807.855988291667,3.7907171630859375,-1.8303936767578126,9.964329071044927,2807.851012291667,-1.752972234241102,1.742498270085772,0.3158984737246925,-5.34197998046875,8.768624305725098,-4.050371170043945,-0.5574209690093994,0.0993970930576324,0.5689338445663452,XArbitraryZVertical,0.645484607220559,0.4056502559575085,-0.4116457631314073,0.4993450058849342,0.9365408420562744,-0.3106706142425537,0.1624050140380859,0,0,0,-1,-1,2802.931880625,unknown,2,2022-06-30T09:13:28.512+02:00,2022-06-30T08:20:05.567+02:00,833,1.490593,0,0,651.261,0,0,2022-06-30T09:09:38.916+02:00,678266011.0612233,0,-1.21,100.9236,1,0.97
239,2022-06-30T09:13:33.447+02:00,1656573213.060533,53.2290640287597,10.39857063443437,40.44503,0,0.07,-1,103.9230494294148,4,5,-9999,2807.865940291667,4.273463287353516,-0.8300239562988282,14.982344055175782,2807.860964291667,-1.684624358773541,1.81611407577852,0.2872111463668209,-6.352980613708496,10.11987972259521,-4.281789302825928,-0.5439108610153198,0.0966939032077789,0.7828159332275391,XArbitraryZVertical,0.6407905710164621,0.4537020857676325,-0.3792787055132974,0.4895810133348761,0.9303243160247804,-0.2832787036895752,0.2329162806272507,0,0,0,-1,-1,2802.931880625,unknown,2,2022-06-30T09:13:28.512+02:00,2022-06-30T08:20:05.567+02:00,833,1.490593,0,0,651.261,0,0,2022-06-30T09:09:38.916+02:00,678266011.0612233,0,-1.21,100.9236,1,0.97
240,2022-06-30T09:13:33.457+02:00,1656573213.060533,53.2290640287597,10.39857063443437,40.44503,0,0.07,-1,103.9230494294148,4,5,-9999,2807.875891291667,3.2495924377441407,-0.27333160400390627,22.410946197509762,2807.870916291667,-1.602116519958842,1.901551813581732,0.2658729945677216,-7.822287082672119,11.5759391784668,-4.343203544616699,-0.4769423007965088,0.1781413555145264,1.213905692100525,XArbitraryZVertical,0.6328742677644454,0.5061062728998876,-0.3384930516135087,0.4782771500551947,0.9125652313232422,-0.2627516984939575,0.313346803188324,0,0,0,-1,-1,2802.931880625,unknown,2,2022-06-30T09:13:28.512+02:00,2022-06-30T08:20:05.567+02:00,833,1.490593,0,0,651.261,0,0,2022-06-30T09:09:38.916+02:00,678266011.0612233,0,-1.21,100.9236,1,0.97
241,2022-06-30T09:13:33.467+02:00,1656573213.060533,53.2290640287597,10.39857063443437,40.44503,0,0.07,-1,103.9230494294148,4,5,-9999,2807.885843291667,0.38574783325195316,0.00449066162109375,32.05823455810547,2807.880867291667,-1.500937393864265,1.998260882308845,0.2590864719514967,-10.00200653076172,13.13838386535645,-4.19053840637207,-0.548394501209259,0.2283346951007843,1.883771896362305,XArbitraryZVertical,0.6198577922951894,0.5622638005873722,-0.2864264231299845,0.4664715408086685,0.879647433757782,-0.2561976313591003,0.4007285237312317,0,0,0,-1,-1,2802.931880625,unknown,2,2022-06-30T09:13:28.512+02:00,2022-06-30T08:20:05.567+02:00,833,1.490593,0,0,651.261,0,0,2022-06-30T09:09:38.916+02:00,678266011.0612233,0,-1.21,100.9236,1,0.97
242,2022-06-30T09:13:33.477+02:00,1656573213.060533,53.2290640287597,10.39857063443437,40.44503,0,0.07,-1,103.9230494294148,4,5,-9999,2807.895795291667,-3.1298414611816407,-1.1169772338867188,43.22561187744141,2807.890819291667,-1.378314855985137,2.105801128606771,0.2762070335444096,-12.73831939697266,14.94292449951172,-3.740683555603027,-0.7883376479148865,0.2731657326221466,2.777393579483032,XArbitraryZVertical,0.5998362845362567,0.62085157756834,-0.2194862434374347,0.4544949958854523,0.8276594877243042,-0.2727084159851074,0.4905205070972443,0,0,0,-1,-1,2802.931880625,unknown,2,2022-06-30T09:13:28.512+02:00,2022-06-30T08:20:05.567+02:00,833,1.490593,0,0,651.261,0,0,2022-06-30T09:09:38.916+02:00,678266011.0612233,0,-1.21,100.9236,1,0.97
243,2022-06-30T09:13:33.488+02:00,1656573213.060533,53.2290640287597,10.39857063443437,40.44503,0,0.07,-1,103.9230494294148,4,5,-9999,2807.905747291667,-7.652985534667969,-8.36715042114258,50.519793548584,2807.900771291667,-1.238312319232437,2.222458982389607,0.3261363910120417,-14.98350715637207,16.77968406677246,-3.004915475845337,-1.072211980819702,0.2065239250659943,3.83174204826355,XArbitraryZVertical,0.5718767602420233,0.6783997537679067,-0.135511874686862,0.4408711466479831,0.7531659603118896,-0.3203854858875275,0.57453852891922,0,0,0,-1,-1,2802.931880625,unknown,2,2022-06-30T09:13:28.512+02:00,2022-06-30T08:20:05.567+02:00,833,1.490593,0,0,651.261,0,0,2022-06-30T09:09:38.916+02:00,678266011.0612233,0,-1.21,100.9236,1,0.97
244,2022-06-30T09:13:33.497+02:00,1656573213.060533,53.2290640287597,10.39857063443437,40.44503,0,0.07,-1,103.9230494294148,4,5,-9999,2807.915699291667,-14.851815490722657,-22.94129333496094,52.49733123779297,2807.910723291667,-1.096986695903492,2.349251345292099,0.4042043670681842,-15.16577434539795,18.81527328491211,-2.625792503356934,-1.434744238853455,-0.4596336781978607,4.504230499267578,XArbitraryZVertical,0.537323606228419,0.7308085878103728,-0.0390903122213308,0.4191351674501403,0.6546234488487244,-0.3932873606681824,0.6455957293510437,0,0,0,-1,-1,2802.931880625,unknown,2,2022-06-30T09:13:28.512+02:00,2022-06-30T08:20:05.567+02:00,833,1.490593,0,0,651.261,0,0,2022-06-30T09:09:38.916+02:00,678266011.0612233,0,-1.21,100.9236,1,0.97
245,2022-06-30T09:13:33.507+02:00,1656573213.060533,53.2290640287597,10.39857063443437,40.44503,0,0.07,-1,103.9230494294148,4,5,-9999,2807.925651291667,-27.921736450195315,-45.56045654296875,49.88855621337891,2807.920675291667,-0.9673899641182804,2.491343218820175,0.4946037846486127,-13.66272830963135,20.97511863708496,-3.097324132919312,-2.046780347824097,-1.863879442214966,4.650864124298096,XArbitraryZVertical,0.4965045119740715,0.7770174439464064,0.0613230280286531,0.3820557746650946,0.5328336954116821,-0.4746829569339752,0.7005456686019897,0,0,0,-1,-1,2802.931880625,unknown,2,2022-06-30T09:13:28.512+02:00,2022-06-30T08:20:05.567+02:00,833,1.490593,0,0,651.261,0,0,2022-06-30T09:09:38.916+02:00,678266011.0612233,0,-1.21,100.9236,1,0.97
246,2022-06-30T09:13:33.517+02:00,1656573213.060533,53.2290640287597,10.39857063443437,40.44503,0,0.07,-1,103.9230494294148,4,5,-9999,2807.935603291667,-44.79988815307618,-61.40994735717775,57.02511566162109,2807.930627291667,-0.8565131874107063,2.652484853196825,0.5700271772102063,-9.19917106628418,22.83430290222168,-4.884639263153076,-3.241803169250488,-4.104632377624512,4.342302322387695,XArbitraryZVertical,0.4486037544409155,0.8187449282311696,0.1516737707346953,0.324663653727136,0.3955506086349487,-0.5396549105644226,0.7431771755218506,0,0,0,-1,-1,2802.931880625,unknown,2,2022-06-30T09:13:28.512+02:00,2022-06-30T08:20:05.567+02:00,833,1.490593,0,0,651.261,0,0,2022-06-30T09:09:38.916+02:00,678266011.0612233,0,-1.21,100.9236,1,0.97
247,2022-06-30T09:13:33.527+02:00,1656573213.060533,53.2290640287597,10.39857063443437,40.44503,0,0.07,-1,103.9230494294148,4,5,-9999,2807.945555291667,-64.30013717651369,-58.66540466308594,79.2607763671875,2807.940579291667,-0.7621537031672156,2.834997611385143,0.6057459773427625,-3.459591388702393,24.20487785339355,-6.810542583465576,-4.814871788024902,-5.690558433532715,5.029215812683105,XArbitraryZVertical,0.3931058183271045,0.8586843305277695,0.2194142592626235,0.2449217287743754,0.2481148540973663,-0.5693755149841309,0.7837419509887695,0,0,0,-1,-1,2802.931880625,unknown,2,2022-06-30T09:13:28.512+02:00,2022-06-30T08:20:05.567+02:00,833,1.490593,0,0,651.261,0,0,2022-06-30T09:09:38.916+02:00,678266011.0612233,0,-1.21,100.9236,1,0.97
248,2022-06-30T09:13:33.537+02:00,1656573213.060533,53.2290640287597,10.39857063443437,40.44503,0,0.07,-1,103.9230494294148,4,5,-9999,2807.955507291667,-86.90986999511719,-51.148037109375004,109.60911666870119,2807.950531291667,-0.656792234342814,3.010979645765077,0.5912323781518617,2.47454571723938,22.72262573242188,-11.1792049407959,-6.662683963775635,-5.422779560089111,7.256406784057617,XArbitraryZVertical,0.3258734897444871,0.8974396238834925,0.2550380836316293,0.1528539030302657,0.108134001493454,-0.5573846101760864,0.8231828212738037,0,0,0,-1,-1,2802.931880625,unknown,2,2022-06-30T09:13:28.512+02:00,2022-06-30T08:20:05.567+02:00,833,1.490593,0,0,651.261,0,0,2022-06-30T09:09:38.916+02:00,678266011.0612233,0,-1.21,100.9236,1,0.97
249,2022-06-30T09:13:33.547+02:00,1656573213.060533,53.2290640287597,10.39857063443437,40.44503,0,0.07,-1,103.9230494294148,4,5,-9999,2807.965459291667,-109.76060165405276,-32.35536666870118,146.93863952636718,2807.960483291667,-0.4871882358273623,3.119321042064722,0.5452292645429297,4.127223491668701,16.58156394958496,-18.48103332519531,-8.878355026245117,-4.695253372192383,10.3184061050415,XArbitraryZVertical,0.2351803354987491,0.933856787758087,0.258698606368403,0.0753447946426389,0.0190408453345298,-0.5186141133308411,0.8547965884208679,0,0,0,-1,-1,2802.931880625,unknown,2,2022-06-30T09:13:28.512+02:00,2022-06-30T08:20:05.567+02:00,833,1.490593,0,0,651.261,0,0,2022-06-30T09:09:38.916+02:00,678266011.0612233,0,-1.21,100.9236,1,0.97
250,2022-06-30T09:13:33.556+02:00,1656573213.060533,53.2290640287597,10.39857063443437,40.44503,0,0.07,-1,103.9230494294148,4,5,-9999,2807.975411291667,-101.00845184326178,-7.14673828125,164.40162506103513,2807.970435291667,-0.2359156449689375,3.108869677793393,0.5128406529453985,1.153845906257629,6.622570991516113,-24.63072776794434,-11.21715259552002,-2.80754828453064,14.10756683349609,XArbitraryZVertical,0.1179419957562246,0.95996543359271,0.2499609865089172,0.0455589398848514,0.0285082198679447,-0.4906544387340546,0.8708878755569458,0,0,0,-1,-1,2802.931880625,unknown,2,2022-06-30T09:13:28.512+02:00,2022-06-30T08:20:05.567+02:00,833,1.490593,0,0,651.261,0,0,2022-06-30T09:09:38.916+02:00,678266011.0612233,0,-1.21,100.9236,1,0.97
251,2022-06-30T09:13:33.566+02:00,1656573213.060533,53.2290640287597,10.39857063443437,40.44503,0,0.07,-1,103.9230494294148,4,5,-9999,2807.985363291667,-105.371279296875,9.751022644042969,152.32009872436527,2807.980387291667,0.0596923549168958,2.979207053248073,0.4868976649181064,-0.1415833532810211,-4.274429798126221,-27.65969848632812,-10.43936252593994,-0.2606297135353088,15.88641357421875,XArbitraryZVertical,-0.0093249520936544,0.967467939802362,0.2424989612853496,0.0715073561392536,0.1428847312927246,-0.4678863286972046,0.8721623420715332,0,0,0,-1,-1,2802.931880625,unknown,2,2022-06-30T09:13:28.512+02:00,2022-06-30T08:20:05.567+02:00,833,1.490593,0,0,651.261,0,0,2022-06-30T09:09:38.916+02:00,678266011.0612233,0,-1.21,100.9236,1,0.97
252,2022-06-30T09:13:33.576+02:00,1656573213.060533,53.2290640287597,10.39857063443437,40.44503,0,0.07,-1,103.9230494294148,4,5,-9999,2807.995314291667,-131.2114443969726,13.111384735107427,133.99670242309568,2807.990338291667,0.3673716319803153,2.747788659538523,0.4018216262022734,2.008571624755859,-15.17277240753174,-30.71209144592285,-11.09435272216797,1.385083436965942,14.67712020874023,XArbitraryZVertical,-0.1371382252798156,0.9519163086711792,0.2274278504240759,0.1527256005034612,0.3531420826911926,-0.3910955190658569,0.8499031066894531,0,0,0,-1,-1,2802.931880625,unknown,2,2022-06-30T09:13:28.512+02:00,2022-06-30T08:20:05.567+02:00,833,1.490593,0,0,651.261,0,0,2022-06-30T09:09:38.916+02:00,678266011.0612233,0,-1.21,100.9236,1,0.97
253,2022-06-30T09:13:33.586+02:00,1656573213.060533,53.2290640287597,10.39857063443437,40.44503,0,0.07,-1,103.9230494294148,4,5,-9999,2808.005266291667,-179.16078323364255,22.973476409912116,93.11551528930664,2808.000290291667,0.6188648887293936,2.465565668244353,0.1946036355694525,10.13129711151123,-26.18661117553711,-32.34601974487305,-13.98916244506836,1.529910206794739,12.89385414123535,XArbitraryZVertical,-0.2552424098297175,0.9041690768724008,0.1878031059182529,0.2864607307430045,0.6138885021209717,-0.193377673625946,0.7653408050537109,0,0,0,-1,-1,2802.931880625,unknown,2,2022-06-30T09:13:28.512+02:00,2022-06-30T08:20:05.567+02:00,833,1.490593,0,0,651.261,0,0,2022-06-30T09:09:38.916+02:00,678266011.0612233,0,-1.21,100.9236,1,0.97
254,2022-06-30T09:13:33.596+02:00,1656573213.060533,53.2290640287597,10.39857063443437,40.44503,0,0.07,-1,103.9230494294148,4,5,-9999,2808.015218291667,-282.31307693481443,68.92297393798829,-8.571924591064453,2808.010242291667,0.7039070785387112,2.151972615650267,-0.1583277114079332,26.97113037109375,-34.44705963134766,-31.19219779968262,-19.08843994140625,2.184175729751587,8.949756622314453,XArbitraryZVertical,-0.3376854186275974,0.810579413529643,0.0978584913222801,0.4683518968405161,0.8253635764122009,0.1576670557260513,0.5421408414840698,0,0,0,-1,-1,2802.931880625,unknown,2,2022-06-30T09:13:28.512+02:00,2022-06-30T08:20:05.567+02:00,833,1.490593,0,0,651.261,0,0,2022-06-30T09:09:38.916+02:00,678266011.0612233,0,-1.21,100.9236,1,0.97
255,2022-06-30T09:13:33.606+02:00,1656573213.060533,53.2290640287597,10.39857063443437,40.44503,0,0.07,-1,103.9230494294148,4,5,-9999,2808.025170291667,-297.1306137084961,284.50886077880864,-69.07999740600587,2808.020194291667,0.4829184401077992,1.724537659262328,-0.5097100835272239,34.93035125732422,-34.79558181762695,-20.86751747131348,-29.64068222045898,6.537863254547119,-1.007465481758118,XArbitraryZVertical,-0.3349938366928904,0.6742510186817234,-0.0353020949046161,0.6572050113010383,0.8625903129577637,0.4879242181777954,0.1336706131696701,0,0,0,-1,-1,2802.931880625,unknown,2,2022-06-30T09:13:28.512+02:00,2022-06-30T08:20:05.567+02:00,833,1.490593,0,0,651.261,0,0,2022-06-30T09:09:38.916+02:00,678266011.0612233,0,-1.21,100.9236,1,0.97
256,2022-06-30T09:13:33.616+02:00,1656573213.060533,53.2290640287597,10.39857063443437,40.44503,0,0.07,-1,103.9230494294148,4,5,-9999,2808.035122291667,-143.9510023498535,312.78985015869137,287.0484796142578,2808.030146291667,0.0580138329232674,1.142031202378571,-0.6104057418153637,34.91311645507812,-34.84895706176758,-5.039228439331055,-31.03378486633301,28.4287223815918,-6.701123714447021,XArbitraryZVertical,-0.2676600820859071,0.5079595311417275,-0.1390668344321863,0.8068430059021927,0.7452418804168701,0.573199987411499,-0.3406703770160675,0,0,0,-1,-1,2808.028334291667,unknown,2,2022-06-30T09:13:33.609+02:00,2022-06-30T08:20:05.567+02:00,833,1.490593,0,0,651.261,0,0,2022-06-30T09:09:38.916+02:00,678266013.6085478,0,-0.9900002,100.9235,1,0.97
257,2022-06-30T09:13:33.626+02:00,1656573213.060533,53.2290640287597,10.39857063443437,40.44503,0,0.07,-1,103.9230494294148,4,5,-9999,2808.045074291667,-287.11164825439454,1.299298095703125,313.97313949584964,2808.040098291667,-0.2329610531440824,0.674347151867982,-0.3774491485349212,34.84416198730469,-25.47441291809082,-0.1008964106440544,-15.25434017181396,31.51624488830566,29.9869327545166,XArbitraryZVertical,-0.1380786478470797,0.3433207140430195,-0.169369746012758,0.9134435313935552,0.5804354548454285,0.3685503900051117,-0.7261303663253784,0,0,0,-1,-1,2808.028334291667,unknown,2,2022-06-30T09:13:33.609+02:00,2022-06-30T08:20:05.567+02:00,833,1.490593,0,0,651.261,0,0,2022-06-30T09:09:38.916+02:00,678266013.6085478,0,-0.9900002,100.9235,1,0.97
258,2022-06-30T09:13:33.636+02:00,1656573213.060533,53.2290640287597,10.39857063443437,40.44503,0,0.07,-1,103.9230494294148,4,5,-9999,2808.055026291667,-166.49756652832033,-312.9414848327637,145.51480041503908,2808.050050291667,-0.3373410617205483,0.6762777289352636,-0.0547824089592571,23.82354545593262,13.44032001495361,24.73566436767578,-29.89219856262207,0.077690914273262,32.78415298461914,XArbitraryZVertical,0.0301973231784794,0.3312388743311622,-0.1672629940746157,0.9281120665496326,0.6249553561210632,0.054755013436079,-0.7787378430366516,0,0,0,-1,-1,2808.028334291667,unknown,2,2022-06-30T09:13:33.609+02:00,2022-06-30T08:20:05.567+02:00,833,1.490593,0,0,651.261,0,0,2022-06-30T09:09:38.916+02:00,678266013.6085478,0,-0.9900002,100.9235,1,0.97
259,2022-06-30T09:13:33.646+02:00,1656573213.060533,53.2290640287597,10.39857063443437,40.44503,0,0.07,-1,103.9230494294148,4,5,-9999,2808.064978291667,-7.714956665039063,-158.11050750732426,56.18057189941406,2808.060002291667,-0.2373872378868657,0.8692769832116684,0.1043309426650539,-10.62623405456543,21.90958213806152,8.169607162475586,-17.73193740844727,-31.79611206054688,15.47518253326416,XArbitraryZVertical,0.0967557500660375,0.4119507990681809,-0.0854575234004953,0.9020154505564636,0.7597090005874634,-0.1041417717933655,-0.6418697237968445,0,0,0,-1,-1,2808.028334291667,unknown,2,2022-06-30T09:13:33.609+02:00,2022-06-30T08:20:05.567+02:00,833,1.490593,0,0,651.261,0,0,2022-06-30T09:09:38.916+02:00,678266013.6085478,0,-0.9900002,100.9235,1,0.97
260,2022-06-30T09:13:33.656+02:00,1656573213.060533,53.2290640287597,10.39857063443437,40.44503,0,0.07,-1,103.9230494294148,4,5,-9999,2808.074930291667,17.642162933349613,-66.77404266357422,35.765575103759765,2808.069954291667,-0.0619477549855361,1.019000875326354,0.0403644384493109,-21.53981781005859,8.149931907653809,4.746054649353027,-1.63732922077179,-16.07692527770996,6.250657558441162,XArbitraryZVertical,0.0327109358073465,0.486862351643615,-0.0171916929726921,0.8726967478933169,0.85089111328125,-0.0403534770011901,-0.5237900614738464,0,0,0,-1,-1,2808.028334291667,unknown,2,2022-06-30T09:13:33.609+02:00,2022-06-30T08:20:05.567+02:00,833,1.490593,0,0,651.261,0,0,2022-06-30T09:09:38.916+02:00,678266013.6085478,0,-0.9900002,100.9235,1,0.97
261,2022-06-30T09:13:33.666+02:00,1656573213.060533,53.2290640287597,10.39857063443437,40.44503,0,0.07,-1,103.9230494294148,4,5,-9999,2808.084882291667,-39.76840118408203,-52.91301681518556,49.546517486572256,2808.079906291667,0.1307859832099004,1.090040593743592,-0.0045801309222408,-18.6662425994873,6.585556983947754,8.177873611450195,0.9117490649223328,-6.811312675476074,4.108272552490234,XArbitraryZVertical,-0.0358318834744628,0.5171980367586114,0.0546939391127992,0.8533644458845394,0.8866363763809204,0.004580114968121,-0.462444543838501,0,0,0,-1,-1,2808.028334291667,unknown,2,2022-06-30T09:13:33.609+02:00,2022-06-30T08:20:05.567+02:00,833,1.490593,0,0,651.261,0,0,2022-06-30T09:09:38.916+02:00,678266013.6085478,0,-0.9900002,100.9235,1,0.97
262,2022-06-30T09:13:33.676+02:00,1656573213.060533,53.2290640287597,10.39857063443437,40.44503,0,0.07,-1,103.9230494294148,4,5,-9999,2808.094834291667,-58.53337921142578,-35.5278694152832,33.40049331665039,2808.089858291667,0.3723337889806607,1.169352297650036,-0.0077297327726299,-26.4044017791748,7.73249626159668,11.16713047027588,-4.974333763122559,-5.40151309967041,5.441349506378174,XArbitraryZVertical,-0.1053248980111717,0.5417919523896312,0.1522502679225393,0.8198706995190533,0.9204701781272888,0.0077296555973589,-0.3907362818717957,0,0,0,-1,-1,2808.028334291667,unknown,2,2022-06-30T09:13:33.609+02:00,2022-06-30T08:20:05.567+02:00,833,1.490593,0,0,651.261,0,0,2022-06-30T09:09:38.916+02:00,678266013.6085478,0,-0.9900002,100.9235,1,0.97
263,2022-06-30T09:13:33.686+02:00,1656573213.060533,53.2290640287597,10.39857063443437,40.44503,0,0.07,-1,103.9230494294148,4,5,-9999,2808.104785291667,-44.45036499023438,-12.076736297607427,26.03326354980469,2808.099810291667,0.66278125147003,1.234181636131862,-0.0276202402394836,-28.21615028381348,3.436279773712158,6.851139068603516,-6.910223960876465,-3.649214029312134,3.734906673431396,XArbitraryZVertical,-0.1989053761153285,0.5434636945283419,0.2577692694055327,0.773717668038845,0.943518340587616,0.0276167280972003,-0.3301677405834198,0,0,0,-1,-1,2808.028334291667,unknown,2,2022-06-30T09:13:33.609+02:00,2022-06-30T08:20:05.567+02:00,833,1.490593,0,0,651.261,0,0,2022-06-30T09:09:38.916+02:00,678266013.6085478,0,-0.9900002,100.9235,1,0.97
264,2022-06-30T09:13:33.696+02:00,1656573213.060533,53.2290640287597,10.39857063443437,40.44503,0,0.07,-1,103.9230494294148,4,5,-9999,2808.114737291667,-21.999302215576176,27.517726593017574,31.048733825683595,2808.109761291667,0.948690333713182,1.258314896252589,-0.0551172845057811,-26.25555229187012,-0.3572249114513397,6.088979244232178,-5.481256484985352,-1.286153078079224,2.96070122718811,XArbitraryZVertical,-0.2885014995115621,0.513117804243237,0.354732869191476,0.726389437110116,0.9501286149024964,0.0550893805921077,-0.3069539964199066,0,0,0,-1,-1,2808.028334291667,unknown,2,2022-06-30T09:13:33.609+02:00,2022-06-30T08:20:05.567+02:00,833,1.490593,0,0,651.261,0,0,2022-06-30T09:09:38.916+02:00,678266013.6085478,0,-0.9900002,100.9235,1,0.97
265,2022-06-30T09:13:33.706+02:00,1656573213.060533,53.2290640287597,10.39857063443437,40.44503,0,0.07,-1,103.9230494294148,4,5,-9999,2808.124689291667,-20.75673614501953,33.68639877319337,-11.608360290527344,2808.119713291667,1.162492234045393,1.250557847492922,-0.0717295972048899,-15.83106136322021,-3.663185596466064,3.77179217338562,-3.189258098602295,2.73340106010437,3.478991746902466,XArbitraryZVertical,-0.3454730081848308,0.4729235483468563,0.4273548976936459,0.6887375876679586,0.9467195868492126,0.0716681033372879,-0.3139834403991699,0,0,0,-1,-1,2808.028334291667,unknown,2,2022-06-30T09:13:33.609+02:00,2022-06-30T08:20:05.567+02:00,833,1.490593,0,0,651.261,0,0,2022-06-30T09:09:38.916+02:00,678266013.6085478,0,-0.9900002,100.9235,1,0.97
266,2022-06-30T09:13:33.716+02:00,1656573213.060533,53.2290640287597,10.39857063443437,40.44503,0,0.07,-1,103.9230494294148,4,5,-9999,2808.134641291667,-26.61061294555664,20.412452087402343,-29.986842041015628,2808.129665291667,1.272684758614333,1.201720280746437,-0.0909561723382591,-5.933646202087402,-7.649993419647217,0.2343654632568359,-3.044681072235107,3.343053102493286,-0.8240567445755005,XArbitraryZVertical,-0.3657775368669552,0.4319438506480075,0.4689947350818139,0.6779935125023312,0.9288057088851928,0.090830810368061,-0.359262615442276,0,0,0,-1,-1,2808.028334291667,unknown,2,2022-06-30T09:13:33.609+02:00,2022-06-30T08:20:05.567+02:00,833,1.490593,0,0,651.261,0,0,2022-06-30T09:09:38.916+02:00,678266013.6085478,0,-0.9900002,100.9235,1,0.97
267,2022-06-30T09:13:33.726+02:00,1656573213.060533,53.2290640287597,10.39857063443437,40.44503,0,0.07,-1,103.9230494294148,4,5,-9999,2808.144593291667,-33.80285659790039,15.12065643310547,-15.924335174560552,2808.139617291667,1.292336903255536,1.113591857661155,-0.0990523616497623,1.206099271774292,-9.924760818481444,-0.151477575302124,-3.60549259185791,1.981889843940735,-2.617485284805298,XArbitraryZVertical,-0.3513728605724516,0.3961039074194917,0.4896666434004183,0.6927231212889516,0.8928918242454529,0.0988904684782028,-0.4392776191234589,0,0,0,-1,-1,2808.028334291667,unknown,2,2022-06-30T09:13:33.609+02:00,2022-06-30T08:20:05.567+02:00,833,1.490593,0,0,651.261,0,0,2022-06-30T09:09:38.916+02:00,678266013.6085478,0,-0.9900002,100.9235,1,0.97
268,2022-06-30T09:13:33.736+02:00,1656573213.060533,53.2290640287597,10.39857063443437,40.44503,0,0.07,-1,103.9230494294148,4,5,-9999,2808.154545291667,-37.38790145874024,1.3798306274414063,-14.789395294189449,2808.149569291667,1.260473218499661,1.013447413097333,-0.0862947654043888,5.156264305114746,-9.319991111755373,-0.6419354677200317,-4.291257858276367,1.455163955688477,-1.096306085586548,XArbitraryZVertical,-0.3162160121908262,0.369489446186743,0.4978879554894416,0.718047749839231,0.8455024361610413,0.0861877053976059,-0.5269699692726135,0,0,0,-1,-1,2808.028334291667,unknown,2,2022-06-30T09:13:33.609+02:00,2022-06-30T08:20:05.567+02:00,833,1.490593,0,0,651.261,0,0,2022-06-30T09:09:38.916+02:00,678266013.6085478,0,-0.9900002,100.9235,1,0.97
269,2022-06-30T09:13:33.746+02:00,1656573213.060533,53.2290640287597,10.39857063443437,40.44503,0,0.07,-1,103.9230494294148,4,5,-9999,2808.164497291667,-35.487303771972655,-8.40217758178711,-19.42705123901368,2808.159521291667,1.214377883083182,0.921481479981902,-0.0557379027383844,5.646681308746338,-8.425436019897461,0.453055739402771,-4.606464385986328,0.084946721792221,-0.9038820266723632,XArbitraryZVertical,-0.2740778894501529,0.3507568774249908,0.5006917524201456,0.7424006347518345,0.7952613234519958,0.0557090453803539,-0.6037018299102783,0,0,0,-1,-1,2808.028334291667,unknown,2,2022-06-30T09:13:33.609+02:00,2022-06-30T08:20:05.567+02:00,833,1.490593,0,0,651.261,0,0,2022-06-30T09:09:38.916+02:00,678266013.6085478,0,-0.9900002,100.9235,1,0.97
270,2022-06-30T09:13:33.756+02:00,1656573213.060533,53.2290640287597,10.39857063443437,40.44503,0,0.07,-1,103.9230494294148,4,5,-9999,2808.174449291667,-35.88727203369141,-16.120726776123053,-18.420394592285156,2808.169473291667,1.181252094807939,0.8417391836149967,-0.0180567637830625,4.136456489562988,-7.166170597076416,1.014483690261841,-4.363143444061279,-0.8745466470718384,-1.314273476600647,XArbitraryZVertical,-0.2343513068015899,0.334739276178066,0.505199955824325,0.7601329869083755,0.7456812858581543,0.0180557817220687,-0.6660581827163696,0,0,0,-1,-1,2808.028334291667,unknown,2,2022-06-30T09:13:33.609+02:00,2022-06-30T08:20:05.567+02:00,833,1.490593,0,0,651.261,0,0,2022-06-30T09:09:38.916+02:00,678266013.6085478,0,-0.9900002,100.9235,1,0.97
271,2022-06-30T09:13:33.766+02:00,1656573213.060533,53.2290640287597,10.39857063443437,40.44503,0,0.07,-1,103.9230494294148,4,5,-9999,2808.184401291667,-33.91961380004883,-19.056571655273437,-14.998660125732426,2808.179425291667,1.17053564950926,0.7789164080275641,0.0087324111235329,0.878268301486969,-5.502627372741699,1.409556984901428,-4.360715866088867,-1.634562730789185,-1.166068315505981,XArbitraryZVertical,-0.2063788662238628,0.3187220263322925,0.5124314296373399,0.7702195309417103,0.7024818658828735,-0.0087323002517223,-0.7116480469703674,0,0,0,-1,-1,2808.028334291667,unknown,2,2022-06-30T09:13:33.609+02:00,2022-06-30T08:20:05.567+02:00,833,1.490593,0,0,651.261,0,0,2022-06-30T09:09:38.916+02:00,678266013.6085478,0,-0.9900002,100.9235,1,0.97
272,2022-06-30T09:13:33.776+02:00,1656573213.060533,53.2290640287597,10.39857063443437,40.44503,0,0.07,-1,103.9230494294148,4,5,-9999,2808.194353291667,-29.994176788330076,-16.998052368164064,-12.478500823974615,2808.189377291667,1.189237321365189,0.7287170367191816,0.0107702843028777,-3.126779556274414,-4.591302871704102,1.59516453742981,-4.123531341552734,-1.931795597076416,-0.782929539680481,XArbitraryZVertical,-0.1954538455430851,0.2980012451223348,0.5249996930881432,0.7728961472678701,0.6658744215965271,-0.0107700759544968,-0.7459861040115356,0,0,0,-1,-1,2808.028334291667,unknown,2,2022-06-30T09:13:33.609+02:00,2022-06-30T08:20:05.567+02:00,833,1.490593,0,0,651.261,0,0,2022-06-30T09:09:38.916+02:00,678266013.6085478,0,-0.9900002,100.9235,1,0.97
273,2022-06-30T09:13:33.786+02:00,1656573213.060533,53.2290640287597,10.39857063443437,40.44503,0,0.07,-1,103.9230494294148,4,5,-9999,2808.204305291667,-25.810227355957032,-6.773564300537109,-13.965658264160156,2808.199329291667,1.233163570668335,0.6859733182936416,-0.01354286356467,-6.045400142669678,-4.006114959716797,1.976813435554504,-3.690878868103027,-1.746269226074219,-0.4982867240905762,XArbitraryZVertical,-0.1996643781904003,0.2706809243909452,0.5426989018682946,0.7696388640287453,0.6333683729171753,0.0135424500331282,-0.7737319469451904,0,0,0,-1,-1,2808.028334291667,unknown,2,2022-06-30T09:13:33.609+02:00,2022-06-30T08:20:05.567+02:00,833,1.490593,0,0,651.261,0,0,2022-06-30T09:09:38.916+02:00,678266013.6085478,0,-0.9900002,100.9235,1,0.97
274,2022-06-30T09:13:33.796+02:00,1656573213.060533,53.2290640287597,10.39857063443437,40.44503,0,0.07,-1,103.9230494294148,4,5,-9999,2808.214257291667,-24.658971405029302,6.251150665283204,-16.35169647216797,2808.209281291667,1.290753777356441,0.6485303130253037,-0.0531004991464366,-7.176916122436523,-3.97753643989563,2.113477945327759,-3.234176635742188,-0.7435507774353027,-0.6277656555175781,XArbitraryZVertical,-0.2116801766384789,0.2393052052438515,0.5631944790415904,0.7620607048189247,0.6031643748283386,0.053075548261404,-0.7958490252494812,0,0,0,-1,-1,2808.028334291667,unknown,2,2022-06-30T09:13:33.609+02:00,2022-06-30T08:20:05.567+02:00,833,1.490593,0,0,651.261,0,0,2022-06-30T09:09:38.916+02:00,678266013.6085478,0,-0.9900002,100.9235,1,0.97
275,2022-06-30T09:13:33.805+02:00,1656573213.060533,53.2290640287597,10.39857063443437,40.44503,0,0.07,-1,103.9230494294148,4,5,-9999,2808.224209291667,-25.97578308105469,13.540242919921877,-19.925514678955075,2808.219233291667,1.347981333441322,0.6127557293811007,-0.0986059787131598,-6.794945240020752,-4.017934799194336,1.690815448760986,-3.085987091064453,0.5387763381004333,-0.8527473211288452,XArbitraryZVertical,-0.2247204708720273,0.2060449205687626,0.5827087224698762,0.7533239109559344,0.5723302960395813,0.0984462648630142,-0.8140923976898193,0,0,0,-1,-1,2808.028334291667,unknown,2,2022-06-30T09:13:33.609+02:00,2022-06-30T08:20:05.567+02:00,833,1.490593,0,0,651.261,0,0,2022-06-30T09:09:38.916+02:00,678266013.6085478,0,-0.9900002,100.9235,1,0.97
276,2022-06-30T09:13:33.815+02:00,1656573213.060533,53.2290640287597,10.39857063443437,40.44503,0,0.07,-1,103.9230494294148,4,5,-9999,2808.234160291667,-25.264761657714846,15.18292694091797,-22.795496520996096,2808.229184291667,1.393956732028529,0.579385184535747,-0.1415480373093722,-5.425306797027588,-3.797536134719849,1.075535535812378,-3.189922332763672,1.239173531532288,-1.202712774276733,XArbitraryZVertical,-0.2348694335025733,0.1749889566808933,0.5981273928555156,0.7459617238972073,0.5420337915420532,0.1410758346319199,-0.8284304141998291,0,0,0,-1,-1,2808.028334291667,unknown,2,2022-06-30T09:13:33.609+02:00,2022-06-30T08:20:05.567+02:00,833,1.490593,0,0,651.261,0,0,2022-06-30T09:09:38.916+02:00,678266013.6085478,0,-0.9900002,100.9235,1,0.97
277,2022-06-30T09:13:33.825+02:00,1656573213.060533,53.2290640287597,10.39857063443437,40.44503,0,0.07,-1,103.9230494294148,4,5,-9999,2808.244112291667,-22.474414215087887,11.585757293701176,-20.571571197509762,2808.239136291667,1.42657201030924,0.5470656648150231,-0.1753929788075287,-3.808569431304932,-3.747947692871094,0.811947226524353,-3.08761191368103,1.373204231262207,-1.48274827003479,XArbitraryZVertical,-0.2398459537003627,0.1483173916461991,0.6096835229510859,0.740784730836334,0.512202799320221,0.1744951009750366,-0.8409517407417297,0,0,0,-1,-1,2808.028334291667,unknown,2,2022-06-30T09:13:33.609+02:00,2022-06-30T08:20:05.567+02:00,833,1.490593,0,0,651.261,0,0,2022-06-30T09:09:38.916+02:00,678266013.6085478,0,-0.9900002,100.9235,1,0.97
278,2022-06-30T09:13:33.835+02:00,1656573213.060533,53.2290640287597,10.39857063443437,40.44503,0,0.07,-1,103.9230494294148,4,5,-9999,2808.254064291667,-20.60046112060547,6.192921752929688,-15.682288513183595,2808.249088291667,1.450654150853953,0.5148379825641461,-0.1997928858513156,-2.969085693359375,-3.611085176467896,0.8148897886276245,-2.773569107055664,0.9825489521026612,-1.243941307067871,XArbitraryZVertical,-0.2402125223874425,0.1255728462282109,0.6193249074445881,0.7368623419331968,0.4825989902019501,0.1984663456678391,-0.8530588150024414,0,0,0,-1,-1,2808.028334291667,unknown,2,2022-06-30T09:13:33.609+02:00,2022-06-30T08:20:05.567+02:00,833,1.490593,0,0,651.261,0,0,2022-06-30T09:09:38.916+02:00,678266013.6085478,0,-0.9900002,100.9235,1,0.97
279,2022-06-30T09:13:33.845+02:00,1656573213.060533,53.2290640287597,10.39857063443437,40.44503,0,0.07,-1,103.9230494294148,4,5,-9999,2808.264016291667,-20.15588562011719,2.281256103515625,-11.642938385009762,2808.259040291667,1.472687081160154,0.4846208843941076,-0.2221682424491542,-3.163834810256958,-3.401986598968506,0.8282447457313538,-2.554368019104004,0.410941869020462,-0.7354986071586609,XArbitraryZVertical,-0.2398874129802441,0.1044134093523269,0.6282370521617017,0.732714216531777,0.4544227123260498,0.2203450947999954,-0.8631037473678589,0,0,0,-1,-1,2808.028334291667,unknown,2,2022-06-30T09:13:33.609+02:00,2022-06-30T08:20:05.567+02:00,833,1.490593,0,0,651.261,0,0,2022-06-30T09:09:38.916+02:00,678266013.6085478,0,-0.9900002,100.9235,1,0.97
280,2022-06-30T09:13:33.855+02:00,1656573213.060533,53.2290640287597,10.39857063443437,40.44503,0,0.07,-1,103.9230494294148,4,5,-9999,2808.273968291667,-20.6979084777832,1.4507830810546876,-9.28025161743164,2808.268992291667,1.496792629030699,0.457132368304555,-0.2500840642610354,-4.041446685791016,-3.263129234313965,0.8271545767784119,-2.482272863388062,-0.0149410963058471,-0.3174362182617188,XArbitraryZVertical,-0.2419896871237279,0.0820801623249331,0.6368853269116062,0.7273795745219923,0.4276462197303772,0.247485414147377,-0.8694076538085938,0,0,0,-1,-1,2808.028334291667,unknown,2,2022-06-30T09:13:33.609+02:00,2022-06-30T08:20:05.567+02:00,833,1.490593,0,0,651.261,0,0,2022-06-30T09:09:38.916+02:00,678266013.6085478,0,-0.9900002,100.9235,1,0.97
281,2022-06-30T09:13:33.865+02:00,1656573213.060533,53.2290640287597,10.39857063443437,40.44503,0,0.07,-1,103.9230494294148,4,5,-9999,2808.283920291667,-21.408929901123052,3.1115794372558594,-7.912096710205079,2808.278944291667,1.524446151877948,0.4325205806137523,-0.2878489878080491,-5.091162204742432,-3.16243314743042,0.7388649582862854,-2.511793851852417,-0.1360018253326416,-0.0754414796829223,XArbitraryZVertical,-0.2479665836581999,0.0568659616913022,0.6452123182720266,0.7204027324618237,0.4019149839878082,0.2838903665542603,-0.8705576658248901,0,0,0,-1,-1,2808.028334291667,unknown,2,2022-06-30T09:13:33.609+02:00,2022-06-30T08:20:05.567+02:00,833,1.490593,0,0,651.261,0,0,2022-06-30T09:09:38.916+02:00,678266013.6085478,0,-0.9900002,100.9235,1,0.97
282,2022-06-30T09:13:33.875+02:00,1656573213.060533,53.2290640287597,10.39857063443437,40.44503,0,0.07,-1,103.9230494294148,4,5,-9999,2808.293872291667,-21.298759002685554,6.222560119628906,-9.155560913085939,2808.288896291667,1.553993117880883,0.410472031479719,-0.3344113623136951,-5.663625240325928,-3.065993070602417,0.5911532044410706,-2.559294700622559,-0.011028379201889,0.0596041083335876,XArbitraryZVertical,-0.2570746855614407,0.0290458824760859,0.6526689757103312,0.7121041291503063,0.3769367337226868,0.3282131850719452,-0.8661378622055054,0,0,0,-1,-1,2808.028334291667,unknown,2,2022-06-30T09:13:33.609+02:00,2022-06-30T08:20:05.567+02:00,833,1.490593,0,0,651.261,0,0,2022-06-30T09:09:38.916+02:00,678266013.6085478,0,-0.9900002,100.9235,1,0.97
283,2022-06-30T09:13:33.885+02:00,1656573213.060533,53.2290640287597,10.39857063443437,40.44503,0,0.07,-1,103.9230494294148,4,5,-9999,2808.303824291667,-20.484302673339844,10.364746398925782,-12.559033355712886,2808.298848291667,1.582337989516064,0.3914245895933582,-0.3840913207612852,-5.550469398498535,-2.729283332824707,0.4246808588504791,-2.524836540222168,0.2595914006233215,-0.0762720108032226,XArbitraryZVertical,-0.2673773119344924,0.0010497451752866,0.6586802102978635,0.7033126882465929,0.3537088930606842,0.3747168183326721,-0.8570165634155273,0,0,0,-1,-1,2808.028334291667,unknown,2,2022-06-30T09:13:33.609+02:00,2022-06-30T08:20:05.567+02:00,833,1.490593,0,0,651.261,0,0,2022-06-30T09:09:38.916+02:00,678266013.6085478,0,-0.9900002,100.9235,1,0.97
284,2022-06-30T09:13:33.895+02:00,1656573213.060533,53.2290640287597,10.39857063443437,40.44503,0,0.07,-1,103.9230494294148,4,5,-9999,2808.313776291667,-19.12333282470703,13.810730438232428,-13.73947860717774,2808.308800291667,1.606903048214066,0.3757869853023694,-0.4318944807843739,-4.987551689147949,-2.399641275405884,0.1634884625673294,-2.421408891677856,0.6379573345184326,-0.4354264736175537,XArbitraryZVertical,-0.2774563877092482,-0.0248471733145394,0.662880073805907,0.694975312123756,0.3333042860031128,0.4185920655727386,-0.844801127910614,0,0,0,-1,-1,2808.028334291667,unknown,2,2022-06-30T09:13:33.609+02:00,2022-06-30T08:20:05.567+02:00,833,1.490593,0,0,651.261,0,0,2022-06-30T09:09:38.916+02:00,678266013.6085478,0,-0.9900002,100.9235,1,0.97
285,2022-06-30T09:13:33.905+02:00,1656573213.060533,53.2290640287597,10.39857063443437,40.44503,0,0.07,-1,103.9230494294148,4,5,-9999,2808.323728291667,-18.482066345214843,14.530134429931637,-15.02320907592774,2808.318752291667,1.624077068689487,0.3601510817360236,-0.4730925960651793,-3.782917976379395,-2.255879163742065,-0.2672501504421234,-2.263079166412354,0.9521806240081788,-0.5675046443939209,XArbitraryZVertical,-0.2849828071026761,-0.0475176428139683,0.6651976140553502,0.6885049216971333,0.3137075006961823,0.4556413888931274,-0.8330537676811218,0,0,0,-1,-1,2808.028334291667,unknown,2,2022-06-30T09:13:33.609+02:00,2022-06-30T08:20:05.567+02:00,833,1.490593,0,0,651.261,0,0,2022-06-30T09:09:38.916+02:00,678266013.6085478,0,-0.9900002,100.9235,1,0.97
286,2022-06-30T09:13:33.915+02:00,1656573213.060533,53.2290640287597,10.39857063443437,40.44503,0,0.07,-1,103.9230494294148,4,5,-9999,2808.333680291667,-18.08808563232422,13.164075164794927,-15.294445037841802,2808.328704291667,1.630337200739158,0.3417124443109567,-0.5031173644198118,-2.265075922012329,-2.017384052276611,-0.7614949345588684,-2.177579402923584,0.9989967942237854,-0.7059872150421143,XArbitraryZVertical,-0.288063300393128,-0.0656068913201015,0.6656466981443767,0.6852954326451358,0.293576568365097,0.4821589589118958,-0.8254305124282837,0,0,0,-1,-1,2808.028334291667,unknown,2,2022-06-30T09:13:33.609+02:00,2022-06-30T08:20:05.567+02:00,833,1.490593,0,0,651.261,0,0,2022-06-30T09:09:38.916+02:00,678266013.6085478,0,-0.9900002,100.9235,1,0.97
287,2022-06-30T09:13:33.925+02:00,1656573213.060533,53.2290640287597,10.39857063443437,40.44503,0,0.07,-1,103.9230494294148,4,5,-9999,2808.343631291667,-16.774267730712886,10.162816314697261,-12.921579437255865,2808.338655291667,1.626602682361528,0.3216213410686786,-0.5216390823715096,-1.142021179199219,-1.652745246887207,-1.032509326934814,-2.117906093597412,0.8436021208763123,-0.7365193963050842,XArbitraryZVertical,-0.2873000060527369,-0.0786452685481648,0.6645587326314418,0.6852994928396301,0.2740643322467804,0.4983018934726715,-0.8225472569465637,0,0,0,-1,-1,2808.028334291667,unknown,2,2022-06-30T09:13:33.609+02:00,2022-06-30T08:20:05.567+02:00,833,1.490593,0,0,651.261,0,0,2022-06-30T09:09:38.916+02:00,678266013.6085478,0,-0.9900002,100.9235,1,0.97
288,2022-06-30T09:13:33.935+02:00,1656573213.060533,53.2290640287597,10.39857063443437,40.44503,0,0.07,-1,103.9230494294148,4,5,-9999,2808.353583291667,-15.157479858398439,6.248456268310547,-9.654473419189452,2808.348607291667,1.618322638514645,0.3026323004090795,-0.5339269587191933,-0.8733392357826233,-1.333130121231079,-1.069407939910889,-1.966467618942261,0.5270476341247559,-0.4954886436462402,XArbitraryZVertical,-0.2851991793683163,-0.0883943940329133,0.6626533147656154,0.6868322110473992,0.256552129983902,0.5089176297187805,-0.8216957449913025,0,0,0,-1,-1,2808.028334291667,unknown,2,2022-06-30T09:13:33.609+02:00,2022-06-30T08:20:05.567+02:00,833,1.490593,0,0,651.261,0,0,2022-06-30T09:09:38.916+02:00,678266013.6085478,0,-0.9900002,100.9235,1,0.97
289,2022-06-30T09:13:33.945+02:00,1656573213.060533,53.2290640287597,10.39857063443437,40.44503,0,0.07,-1,103.9230494294148,4,5,-9999,2808.363535291667,-14.009517059326177,3.4646951293945314,-7.054230651855469,2808.358559291667,1.610458985921014,0.286386067447381,-0.5474811289676513,-1.433810114860535,-1.135662913322449,-1.017414212226868,-1.786303758621216,0.1164097785949707,-0.1650835275650024,XArbitraryZVertical,-0.2844673679951983,-0.0977092882316562,0.6603079783694129,0.6881311753407092,0.2411985248327255,0.5205381512641907,-0.8190624117851257,0,0,0,-1,-1,2808.028334291667,unknown,2,2022-06-30T09:13:33.609+02:00,2022-06-30T08:20:05.567+02:00,833,1.490593,0,0,651.261,0,0,2022-06-30T09:09:38.916+02:00,678266013.6085478,0,-0.9900002,100.9235,1,0.97
290,2022-06-30T09:13:33.955+02:00,1656573213.060533,53.2290640287597,10.39857063443437,40.44503,0,0.07,-1,103.9230494294148,4,5,-9999,2808.373487291667,-13.34759353637695,2.099384307861328,-5.656138000488282,2808.368511291667,1.605402059315712,0.2731499694170123,-0.5691927004552775,-2.574177026748657,-0.992183804512024,-1.022365093231201,-1.655319213867188,-0.1857719421386719,0.0920220017433166,XArbitraryZVertical,-0.2872386290572838,-0.1092712445595562,0.6573171967368586,0.6881046460701908,0.2272336781024933,0.5389522314071655,-0.8111075162887573,0,0,0,-1,-1,2808.028334291667,unknown,2,2022-06-30T09:13:33.609+02:00,2022-06-30T08:20:05.567+02:00,833,1.490593,0,0,651.261,0,0,2022-06-30T09:09:38.916+02:00,678266013.6085478,0,-0.9900002,100.9235,1,0.97
