loggingTime(txt),locationTimestamp_since1970(s),locationLatitude(WGS84),locationLongitude(WGS84),locationAltitude(m),locationSpeed(m/s),locationSpeedAccuracy(m/s),locationCourse(°),locationCourseAccuracy(°),locationVerticalAccuracy(m),locationHorizontalAccuracy(m),locationFloor(Z),accelerometerTimestamp_sinceReboot(s),accelerometerAccelerationX(G),accelerometerAccelerationY(G),accelerometerAccelerationZ(G),motionTimestamp_sinceReboot(s),motionYaw(rad),motionRoll(rad),motionPitch(rad),motionRotationRateX(rad/s),motionRotationRateY(rad/s),motionRotationRateZ(rad/s),motionUserAccelerationX(G),motionUserAccelerationY(G),motionUserAccelerationZ(G),motionAttitudeReferenceFrame(txt),motionQuaternionX(R),motionQuaternionY(R),motionQuaternionZ(R),motionQuaternionW(R),motionGravityX(G),motionGravityY(G),motionGravityZ(G),motionMagneticFieldX(µT),motionMagneticFieldY(µT),motionMagneticFieldZ(µT),motionHeading(°),motionMagneticFieldCalibrationAccuracy(Z),activityTimestamp_sinceReboot(s),activity(txt),activityActivityConfidence(Z),activityActivityStartDate(txt),pedometerStartDate(txt),pedometerNumberofSteps(N),pedometerAverageActivePace(s/m),pedometerCurrentPace(s/m),pedometerCurrentCadence(steps/s),pedometerDistance(m),pedometerFloorAscended(N),pedometerFloorDescended(N),pedometerEndDate(txt),altimeterTimestamp_sinceReboot(s),altimeterReset(bool),altimeterRelativeAltitude(m),altimeterPressure(kPa),batteryState(N),batteryLevel(R)
2022-06-02T10:46:07.597+02:00,1654159567.000225,53.2290694301776,10.39851503008445,36.8321,0.04273929,0.5901939,96.53810546482458,86.68254763100538,3,6.000906205260658,-9999,34136.995775125,-0.11541748046875,-0.5496826171875,-0.8404693603515625,34136.987039125,3.076170072410034,-0.1136250053633085,0.5717374694947922,-0.1537798196077347,-0.04039081558585167,0.07687833905220032,-0.02441740036010742,0.02537745237350464,-0.009568750858306885,XArbitraryZVertical,-0.06365618653915929,-0.2796037344898023,-0.9568330549919778,-0.04733098343637204,-0.09534884989261627,-0.5410940051078796,-0.8355392813682556,0,0,0,-1,-1,34136.559358125,unknown,2,2022-06-02T10:46:07.129+02:00,2022-06-02T10:32:51.428+02:00,64,2.379692,0,0,60.10083,0,0,2022-06-02T10:46:07.129+02:00,675852367.1291325,0,12.37891,101.0457,1,0.89
2022-06-02T10:46:07.601+02:00,1654159567.000225,53.2290694301776,10.39851503008445,36.8321,0.04273929,0.5901939,96.53810546482458,86.68254763100538,3,6.000906205260658,-9999,34137.005748125,-0.1207122802734375,-0.5311737060546875,-0.84686279296875,34136.997011125,3.076604453872005,-0.1145169595235233,0.5704897514707103,-0.1450406014919281,-0.07617189735174179,0.0332297720015049,-0.01865125447511673,-0.009104251861572266,-0.003124713897705078,XArbitraryZVertical,-0.06401281925093219,-0.278998894375759,-0.9569912868342395,-0.04721932578429743,-0.09617114067077637,-0.5400443077087402,-0.8361239433288574,0,0,0,-1,-1,34136.559358125,unknown,2,2022-06-02T10:46:07.129+02:00,2022-06-02T10:32:51.428+02:00,64,2.379692,0,0,60.10083,0,0,2022-06-02T10:46:07.129+02:00,675852367.1291325,0,12.37891,101.0457,1,0.89
2022-06-02T10:46:07.603+02:00,1654159567.000225,53.2290694301776,10.39851503008445,36.8321,0.04273929,0.5901939,96.53810546482458,86.68254763100538,3,6.000906205260658,-9999,34137.01572075,-0.1279449462890625,-0.5380706787109375,-0.84576416015625,34137.006984125,3.076815790199694,-0.1155939572724112,0.5692227003286529,-0.1010108292102814,-0.0846005380153656,0.01725826039910316,-0.02282943576574326,0.006155788898468018,-0.01019436120986938,XArbitraryZVertical,-0.0644892961901324,-0.2783732645865941,-0.9571404878711581,-0.04723909418843333,-0.09715043008327484,-0.5389775037765503,-0.8366988897323608,0,0,0,-1,-1,34136.559358125,unknown,2,2022-06-02T10:46:07.129+02:00,2022-06-02T10:32:51.428+02:00,64,2.379692,0,0,60.10083,0,0,2022-06-02T10:46:07.129+02:00,675852367.1291325,0,12.37891,101.0457,1,0.89
2022-06-02T10:46:07.605+02:00,1654159567.000225,53.2290694301776,10.39851503008445,36.8321,0.04273929,0.5901939,96.53810546482458,86.68254763100538,3,6.000906205260658,-9999,34137.02569375,-0.11810302734375,-0.561248779296875,-0.84417724609375,34137.01695675001,3.076836446634741,-0.1165658291697229,0.5682366391576964,-0.06164442747831345,-0.0987398773431778,-0.008446479216217995,-0.03004170954227448,0.002944588661193848,-0.0077781081199646,XArbitraryZVertical,-0.06494428219242625,-0.2778785090864376,-0.9572484238085953,-0.04734139357297816,-0.09802531450986862,-0.5381466150283813,-0.8371315598487854,0,0,0,-1,-1,34136.559358125,unknown,2,2022-06-02T10:46:07.129+02:00,2022-06-02T10:32:51.428+02:00,64,2.379692,0,0,60.10083,0,0,2022-06-02T10:46:07.129+02:00,675852367.1291325,0,12.37891,101.0457,1,0.89
2022-06-02T10:46:07.612+02:00,1654159567.000225,53.2290694301776,10.39851503008445,36.8321,0.04273929,0.5901939,96.53810546482458,86.68254763100538,3,6.000906205260658,-9999,34137.03566675,-0.1163330078125,-0.5635986328125,-0.844390869140625,34137.02692975001,3.076586747849296,-0.1178021029557496,0.5673112828405904,-0.06166014075279236,-0.1078492254018784,-0.06666956841945648,-0.02183778584003448,-0.02214282751083374,-0.007741451263427734,XArbitraryZVertical,-0.06556388047461291,-0.2773975799155763,-0.9573323937755689,-0.04761073359778235,-0.09911864995956421,-0.5373664498329163,-0.8375039100646973,0,0,0,-1,-1,34136.559358125,unknown,2,2022-06-02T10:46:07.129+02:00,2022-06-02T10:32:51.428+02:00,64,2.379692,0,0,60.10083,0,0,2022-06-02T10:46:07.129+02:00,675852367.1291325,0,12.37891,101.0457,1,0.89
2022-06-02T10:46:07.620+02:00,1654159567.000225,53.2290694301776,10.39851503008445,36.8321,0.04273929,0.5901939,96.53810546482458,86.68254763100538,3,6.000906205260658,-9999,34137.04563875,-0.1087493896484375,-0.5640411376953125,-0.84637451171875,34137.03690275001,3.075671109576818,-0.1186522333133011,0.5665657459018966,-0.06829842180013657,-0.1256872564554214,-0.1090730428695679,-0.0159667432308197,-0.02803599834442139,-0.006970643997192383,XArbitraryZVertical,-0.06609219343658065,-0.2769898359714415,-0.9573871288097123,-0.04814912652728255,-0.09987799078226089,-0.5367375612258911,-0.8378168940544128,0,0,0,-1,-1,34136.559358125,unknown,2,2022-06-02T10:46:07.129+02:00,2022-06-02T10:32:51.428+02:00,64,2.379692,0,0,60.10083,0,0,2022-06-02T10:46:07.129+02:00,675852367.1291325,0,12.37891,101.0457,1,0.89
2022-06-02T10:46:07.630+02:00,1654159567.000225,53.2290694301776,10.39851503008445,36.8321,0.04273929,0.5901939,96.53810546482458,86.68254763100538,3,6.000906205260658,-9999,34137.05561175,-0.1114044189453125,-0.5643463134765625,-0.8468170166015625,34137.04687475001,3.074339502692247,-0.1193692932944271,0.5659993773195967,-0.06402085721492767,-0.1579993814229965,-0.1049611270427704,-0.01014183461666107,-0.02802568674087524,-0.008266687393188477,XArbitraryZVertical,-0.06661542718320626,-0.2766568335419055,-0.957410501058431,-0.04887228242671975,-0.1005149185657501,-0.5362595915794373,-0.8380467891693115,0,0,0,-1,-1,34136.559358125,unknown,2,2022-06-02T10:46:07.129+02:00,2022-06-02T10:32:51.428+02:00,64,2.379692,0,0,60.10083,0,0,2022-06-02T10:46:07.129+02:00,675852367.1291325,0,12.37891,101.0457,1,0.89
2022-06-02T10:46:07.640+02:00,1654159567.000225,53.2290694301776,10.39851503008445,36.8321,0.04273929,0.5901939,96.53810546482458,86.68254763100538,3,6.000906205260658,-9999,34137.06558475,-0.121307373046875,-0.5468902587890625,-0.851348876953125,34137.05684775001,3.073522904993703,-0.1212407798326765,0.5650471543750268,-0.07187394052743912,-0.167253777384758,-0.1048543527722359,-0.007855772972106934,-0.02898222208023071,-0.007705628871917725,XArbitraryZVertical,-0.06761673751245376,-0.2761270243163485,-0.9574610479490965,-0.04949884874504755,-0.1021448448300362,-0.5354556441307068,-0.8383637070655823,0,0,0,-1,-1,34136.559358125,unknown,2,2022-06-02T10:46:07.129+02:00,2022-06-02T10:32:51.428+02:00,64,2.379692,0,0,60.10083,0,0,2022-06-02T10:46:07.129+02:00,675852367.1291325,0,12.37891,101.0457,1,0.89
2022-06-02T10:46:07.650+02:00,1654159567.000225,53.2290694301776,10.39851503008445,36.8321,0.04273929,0.5901939,96.53810546482458,86.68254763100538,3,6.000906205260658,-9999,34137.07555675,-0.133514404296875,-0.5353851318359375,-0.849029541015625,34137.06682075,3.072452294793202,-0.1225752021898022,0.5640232976855897,-0.06181864067912102,-0.1503206044435501,-0.09206505119800568,-0.01683251559734344,-0.01461893320083618,-0.01155620813369751,XArbitraryZVertical,-0.06839510327657111,-0.2755666099242962,-0.9575322465826025,-0.05017039689710069,-0.1033304631710052,-0.5345906615257263,-0.83877032995224,0,0,0,-1,-1,34136.559358125,unknown,2,2022-06-02T10:46:07.129+02:00,2022-06-02T10:32:51.428+02:00,64,2.379692,0,0,60.10083,0,0,2022-06-02T10:46:07.129+02:00,675852367.1291325,0,12.37891,101.0457,1,0.89
2022-06-02T10:46:07.660+02:00,1654159567.000225,53.2290694301776,10.39851503008445,36.8321,0.04273929,0.5901939,96.53810546482458,86.68254763100538,3,6.000906205260658,-9999,34137.08552975,-0.1355133056640625,-0.5302581787109375,-0.8455963134765625,34137.07679275001,3.071564632330245,-0.1236754817181403,0.5639860979582524,-0.01176745817065239,-0.1250732988119125,-0.07853619754314423,-0.02819055318832397,-0.001314222812652588,-0.011147141456604,XArbitraryZVertical,-0.06904384605407951,-0.2754904916007558,-0.9574773438228404,-0.05074603282042904,-0.104255735874176,-0.5345591902732849,-0.838675856590271,0,0,0,-1,-1,34136.559358125,unknown,2,2022-06-02T10:46:07.129+02:00,2022-06-02T10:32:51.428+02:00,64,2.379692,0,0,60.10083,0,0,2022-06-02T10:46:07.129+02:00,675852367.1291325,0,12.37891,101.0457,1,0.89
2022-06-02T10:46:07.669+02:00,1654159567.000225,53.2290694301776,10.39851503008445,36.8321,0.04273929,0.5901939,96.53810546482458,86.68254763100538,3,6.000906205260658,-9999,34137.09550175,-0.1393585205078125,-0.5247802734375,-0.8456878662109375,34137.08676575,3.070958091888771,-0.1247184684617231,0.564004527199427,0.02029460296034813,-0.1009418740868568,-0.05862081050872803,-0.0299721360206604,0.004331886768341064,-0.007008850574493408,XArbitraryZVertical,-0.06962684418433152,-0.2754517235467391,-0.9574231443605061,-0.05118051384795409,-0.1051291823387146,-0.5345748066902161,-0.8385568857192993,0,0,0,-1,-1,34136.559358125,unknown,2,2022-06-02T10:46:07.129+02:00,2022-06-02T10:32:51.428+02:00,64,2.379692,0,0,60.10083,0,0,2022-06-02T10:46:07.129+02:00,675852367.1291325,0,12.37891,101.0457,1,0.89
2022-06-02T10:46:07.680+02:00,1654159567.000225,53.2290694301776,10.39851503008445,36.8321,0.04273929,0.5901939,96.53810546482458,86.68254763100538,3,6.000906205260658,-9999,34137.10547475,-0.142608642578125,-0.51898193359375,-0.8477935791015625,34137.09673775001,3.070618478682213,-0.1258678036193658,0.5642607775514067,0.03222978487610817,-0.09401614218950272,-0.04533108323812485,-0.03293187916278839,0.008347868919372559,-0.006808459758758545,XArbitraryZVertical,-0.07022591947555856,-0.2755331844128329,-0.957338336010336,-0.05150783654423374,-0.1060756966471672,-0.5347913503646851,-0.838299572467804,0,0,0,-1,-1,34136.559358125,unknown,2,2022-06-02T10:46:07.129+02:00,2022-06-02T10:32:51.428+02:00,64,2.379692,0,0,60.10083,0,0,2022-06-02T10:46:07.129+02:00,675852367.1291325,0,12.37891,101.0457,1,0.89
2022-06-02T10:46:07.689+02:00,1654159567.000225,53.2290694301776,10.39851503008445,36.8321,0.04273929,0.5901939,96.53810546482458,86.68254763100538,3,6.000906205260658,-9999,34137.11544775,-0.13751220703125,-0.5321044921875,-0.8525238037109375,34137.10671075,3.070512730753373,-0.1268986859997573,0.5649524419585208,0.03627485781908035,-0.07081681489944458,-0.01187698729336262,-0.03544100373983383,0.01787376403808594,-0.009833574295043945,XArbitraryZVertical,-0.0707396006805194,-0.2758343324628549,-0.9572024778983894,-0.05171809926715409,-0.1068929880857468,-0.5353756546974182,-0.8378226757049561,0,0,0,-1,-1,34136.559358125,unknown,2,2022-06-02T10:46:07.129+02:00,2022-06-02T10:32:51.428+02:00,64,2.379692,0,0,60.10083,0,0,2022-06-02T10:46:07.129+02:00,675852367.1291325,0,12.37891,101.0457,1,0.89
2022-06-02T10:46:07.699+02:00,1654159567.000225,53.2290694301776,10.39851503008445,36.8321,0.04273929,0.5901939,96.53810546482458,86.68254763100538,3,6.000906205260658,-9999,34137.12541975,-0.1326751708984375,-0.5324859619140625,-0.85504150390625,34137.11668375,3.070603952759447,-0.1277782979484688,0.5658118071102828,0.05018379166722298,-0.06442353874444962,0.0008008359000086784,-0.03023089468479156,0.005583703517913818,-0.01461124420166016,XArbitraryZVertical,-0.07115496418760822,-0.2762266120218255,-0.9570531360270136,-0.05181783199668655,-0.1075712367892265,-0.5361012816429138,-0.8372716307640076,0,0,0,-1,-1,34136.559358125,unknown,2,2022-06-02T10:46:07.129+02:00,2022-06-02T10:32:51.428+02:00,64,2.379692,0,0,60.10083,0,0,2022-06-02T10:46:07.129+02:00,675852367.1291325,0,12.37891,101.0457,1,0.89
2022-06-02T10:46:07.709+02:00,1654159567.000225,53.2290694301776,10.39851503008445,36.8321,0.04273929,0.5901939,96.53810546482458,86.68254763100538,3,6.000906205260658,-9999,34137.13539275,-0.1299896240234375,-0.533233642578125,-0.857696533203125,34137.12665575,3.070705818361785,-0.1285980984938609,0.5665584656434246,0.02949262782931328,-0.08014684170484543,0.002574767917394638,-0.02514032274484634,0.004443824291229248,-0.01705002784729004,XArbitraryZVertical,-0.07153916663024057,-0.2765667334030125,-0.9569217180900446,-0.05190164033716606,-0.1082062274217606,-0.5367314219474792,-0.8367859721183777,0,0,0,-1,-1,34136.559358125,unknown,2,2022-06-02T10:46:07.129+02:00,2022-06-02T10:32:51.428+02:00,64,2.379692,0,0,60.10083,0,0,2022-06-02T10:46:07.129+02:00,675852367.1291325,0,12.37891,101.0457,1,0.89
2022-06-02T10:46:07.719+02:00,1654159567.000225,53.2290694301776,10.39851503008445,36.8321,0.04273929,0.5901939,96.53810546482458,86.68254763100538,3,6.000906205260658,-9999,34137.14536575,-0.1332244873046875,-0.534423828125,-0.8571014404296875,34137.13662875,3.070784103312465,-0.1294486185429337,0.5671142180691808,0.02304032258689404,-0.08020250499248505,0.008443442173302174,-0.02088137716054916,0.004363358020782471,-0.02129882574081421,XArbitraryZVertical,-0.07193967767845956,-0.2768136988617482,-0.9568151280117302,-0.05199629291368922,-0.1088793724775314,-0.5372002720832825,-0.8363977074623108,0,0,0,-1,-1,34136.559358125,unknown,2,2022-06-02T10:46:07.129+02:00,2022-06-02T10:32:51.428+02:00,64,2.379692,0,0,60.10083,0,0,2022-06-02T10:46:07.129+02:00,675852367.1291325,0,12.37891,101.0457,1,0.89
2022-06-02T10:46:07.729+02:00,1654159567.000225,53.2290694301776,10.39851503008445,36.8321,0.04273929,0.5901939,96.53810546482458,86.68254763100538,3,6.000906205260658,-9999,34137.15533775,-0.1326141357421875,-0.5352630615234375,-0.8575439453125,34137.14660175,3.071036344286266,-0.1305792436944912,0.567375754102096,0.02625316008925438,-0.09823956340551376,0.008911625482141972,-0.02389085292816162,0.001349031925201416,-0.02116501331329346,XArbitraryZVertical,-0.07244768661524062,-0.2769186655593547,-0.9567441512823771,-0.05203900220973222,-0.1098066568374634,-0.5374208092689514,-0.8361347913742065,0,0,0,-1,-1,34136.559358125,unknown,2,2022-06-02T10:46:07.129+02:00,2022-06-02T10:32:51.428+02:00,64,2.379692,0,0,60.10083,0,0,2022-06-02T10:46:07.129+02:00,675852367.1291325,0,12.37891,101.0457,1,0.89
2022-06-02T10:46:07.739+02:00,1654159567.000225,53.2290694301776,10.39851503008445,36.8321,0.04273929,0.5901939,96.53810546482458,86.68254763100538,3,6.000906205260658,-9999,34137.16531075,-0.135467529296875,-0.5336456298828125,-0.856781005859375,34137.15657375,3.071330839270675,-0.1319914615223717,0.5674823989835123,0.02663829736411572,-0.1026438027620316,0.008192950859665871,-0.02096295356750488,0.00400245189666748,-0.02166765928268433,XArbitraryZVertical,-0.07308327694702868,-0.2769437164243844,-0.9566853708527272,-0.05209650043548235,-0.1109798103570938,-0.5375107526779175,-0.8359220027923584,0,0,0,-1,-1,34136.559358125,unknown,2,2022-06-02T10:46:07.129+02:00,2022-06-02T10:32:51.428+02:00,64,2.379692,0,0,60.10083,0,0,2022-06-02T10:46:07.129+02:00,675852367.1291325,0,12.37891,101.0457,1,0.89
2022-06-02T10:46:07.749+02:00,1654159567.000225,53.2290694301776,10.39851503008445,36.8321,0.04273929,0.5901939,96.53810546482458,86.68254763100538,3,6.000906205260658,-9999,34137.17528375,-0.1381378173828125,-0.5267791748046875,-0.85565185546875,34137.16654675,3.071635034380338,-0.1334583718441362,0.5675845967180191,0.02937043458223343,-0.1119187921285629,0.006125271320343018,-0.0225975513458252,0.002898454666137695,-0.02058881521224976,XArbitraryZVertical,-0.07374358328039063,-0.2769655966703896,-0.9566250862940865,-0.05215688068971383,-0.1121985986828804,-0.5375969409942627,-0.8357039093971252,0,0,0,-1,-1,34136.559358125,unknown,2,2022-06-02T10:46:07.129+02:00,2022-06-02T10:32:51.428+02:00,64,2.379692,0,0,60.10083,0,0,2022-06-02T10:46:07.129+02:00,675852367.1291325,0,12.37891,101.0457,1,0.89
2022-06-02T10:46:07.759+02:00,1654159567.000225,53.2290694301776,10.39851503008445,36.8321,0.04273929,0.5901939,96.53810546482458,86.68254763100538,3,6.000906205260658,-9999,34137.18525575,-0.1355133056640625,-0.531280517578125,-0.8538055419921875,34137.17651975,3.071855865567574,-0.1350127338975683,0.5676992583389125,0.02755935303866863,-0.1183913424611092,-0.01298923324793577,-0.02445030212402344,0.01050245761871338,-0.02007758617401123,XArbitraryZVertical,-0.07445728644551158,-0.2769881160138936,-0.9565571272704444,-0.05226964904957962,-0.1134891510009766,-0.5376936197280884,-0.8354673981666565,0,0,0,-1,-1,34136.559358125,unknown,2,2022-06-02T10:46:07.129+02:00,2022-06-02T10:32:51.428+02:00,64,2.379692,0,0,60.10083,0,0,2022-06-02T10:46:07.129+02:00,675852367.1291325,0,12.37891,101.0457,1,0.89
2022-06-02T10:46:07.769+02:00,1654159567.000225,53.2290694301776,10.39851503008445,36.8321,0.04273929,0.5901939,96.53810546482458,86.68254763100538,3,6.000906205260658,-9999,34137.19522875,-0.1370391845703125,-0.5267486572265625,-0.8519439697265625,34137.18649175,3.071829672240891,-0.1365350922656814,0.5676621153805249,0.03660557791590691,-0.1320855915546417,-0.03475311771035194,-0.02085649222135544,0.006473362445831299,-0.01843100786209106,XArbitraryZVertical,-0.07518873511969933,-0.2769294637493854,-0.9565047579998922,-0.05249196589201185,-0.1147636249661446,-0.5376623272895813,-0.8353134393692017,0,0,0,-1,-1,34136.559358125,unknown,2,2022-06-02T10:46:07.129+02:00,2022-06-02T10:32:51.428+02:00,64,2.379692,0,0,60.10083,0,0,2022-06-02T10:46:07.129+02:00,675852367.1291325,0,12.37891,101.0457,1,0.89
2022-06-02T10:46:07.779+02:00,1654159567.000225,53.2290694301776,10.39851503008445,36.8321,0.04273929,0.5901939,96.53810546482458,86.68254763100538,3,6.000906205260658,-9999,34137.20520075,-0.1372528076171875,-0.5301361083984375,-0.85601806640625,34137.19646475,3.071599630406442,-0.1380323632589205,0.5678749757772859,0.04129717871546745,-0.1434878259897232,-0.04195599257946014,-0.02088817209005356,0.01116937398910522,-0.01751172542572021,XArbitraryZVertical,-0.0759381470801458,-0.2769832936816461,-0.9564121635062898,-0.05281528242330977,-0.1159984320402145,-0.537841796875,-0.835027277469635,0,0,0,-1,-1,34136.559358125,unknown,2,2022-06-02T10:46:07.129+02:00,2022-06-02T10:32:51.428+02:00,64,2.379692,0,0,60.10083,0,0,2022-06-02T10:46:07.129+02:00,675852367.1291325,0,12.37891,101.0457,1,0.89
2022-06-02T10:46:07.789+02:00,1654159567.000225,53.2290694301776,10.39851503008445,36.8321,0.04273929,0.5901939,96.53810546482458,86.68254763100538,3,6.000906205260658,-9999,34137.21517375,-0.1360321044921875,-0.525604248046875,-0.85369873046875,34137.20643675,3.071214262373738,-0.139489988754541,0.5681815459759391,0.05385584756731987,-0.1573594361543655,-0.06353132426738739,-0.02070114761590958,0.007994592189788818,-0.0208815336227417,XArbitraryZVertical,-0.0766907084411499,-0.2770767671235006,-0.9563031149489537,-0.05321014987634276,-0.1171925365924835,-0.5381001830101013,-0.8346940279006958,0,0,0,-1,-1,34136.559358125,unknown,2,2022-06-02T10:46:07.129+02:00,2022-06-02T10:32:51.428+02:00,64,2.379692,0,0,60.10083,0,0,2022-06-02T10:46:07.129+02:00,675852367.1291325,0,12.37891,101.0457,1,0.89
2022-06-02T10:46:07.799+02:00,1654159567.000225,53.2290694301776,10.39851503008445,36.8321,0.04273929,0.5901939,96.53810546482458,86.68254763100538,3,6.000906205260658,-9999,34137.22514675,-0.1431884765625,-0.524505615234375,-0.8517303466796875,34137.21640975,3.070609649829648,-0.1409503188769511,0.5686172181095588,0.06847793608903885,-0.1736851334571838,-0.06698411703109741,-0.01711966097354889,0.01196283102035522,-0.0195157527923584,XArbitraryZVertical,-0.07747579169798784,-0.2772230084533792,-0.9561693468744116,-0.05371408104652196,-0.1183783933520317,-0.5384673476219177,-0.8342897891998291,0,0,0,-1,-1,34136.559358125,unknown,2,2022-06-02T10:46:07.129+02:00,2022-06-02T10:32:51.428+02:00,64,2.379692,0,0,60.10083,0,0,2022-06-02T10:46:07.129+02:00,675852367.1291325,0,12.37891,101.0457,1,0.89
2022-06-02T10:46:07.809+02:00,1654159567.000225,53.2290694301776,10.39851503008445,36.8321,0.04273929,0.5901939,96.53810546482458,86.68254763100538,3,6.000906205260658,-9999,34137.23511875,-0.1441650390625,-0.5313568115234375,-0.84906005859375,34137.22638275,3.070026018311645,-0.1425247505151823,0.5692254756107179,0.07924802601337433,-0.1723445057868958,-0.0723932608962059,-0.02320755273103714,0.01419955492019653,-0.01851683855056763,XArbitraryZVertical,-0.0783137097073608,-0.2774490180792735,-0.9560063781131841,-0.05422902556163958,-0.1196452304720879,-0.5389798283576965,-0.8337780237197876,0,0,0,-1,-1,34136.559358125,unknown,2,2022-06-02T10:46:07.129+02:00,2022-06-02T10:32:51.428+02:00,64,2.379692,0,0,60.10083,0,0,2022-06-02T10:46:07.129+02:00,675852367.1291325,0,12.37891,101.0457,1,0.89
2022-06-02T10:46:07.819+02:00,1654159567.000225,53.2290694301776,10.39851503008445,36.8321,0.04273929,0.5901939,96.53810546482458,86.68254763100538,3,6.000906205260658,-9999,34137.24509175,-0.147857666015625,-0.52557373046875,-0.847991943359375,34137.23635475,3.069305088688221,-0.1439984003156345,0.569899460627934,0.09917734563350677,-0.1749084144830704,-0.08539885282516479,-0.02299244701862335,0.008511006832122803,-0.01635295152664185,XArbitraryZVertical,-0.07912293663617732,-0.2777030889696884,-0.9558335628403224,-0.05479786454296419,-0.1208216473460197,-0.5395473837852478,-0.8332411050796509,0,0,0,-1,-1,34136.559358125,unknown,2,2022-06-02T10:46:07.129+02:00,2022-06-02T10:32:51.428+02:00,64,2.379692,0,0,60.10083,0,0,2022-06-02T10:46:07.129+02:00,675852367.1291325,0,12.37891,101.0457,1,0.89
2022-06-02T10:46:07.829+02:00,1654159567.000225,53.2290694301776,10.39851503008445,36.8321,0.04273929,0.5901939,96.53810546482458,86.68254763100538,3,6.000906205260658,-9999,34137.25506475,-0.15179443359375,-0.527862548828125,-0.85357666015625,34137.24632775,3.068600621224574,-0.1453987528119071,0.5707518177481115,0.1062757298350334,-0.1589411646127701,-0.07960807532072067,-0.02511201798915863,0.0148894190788269,-0.01481157541275024,XArbitraryZVertical,-0.07989614386701946,-0.2780444460520947,-0.955637981852278,-0.05535427151116305,-0.121921680867672,-0.5402648448944092,-0.8326157927513123,0,0,0,-1,-1,34136.559358125,unknown,2,2022-06-02T10:46:07.129+02:00,2022-06-02T10:32:51.428+02:00,64,2.379692,0,0,60.10083,0,0,2022-06-02T10:46:07.129+02:00,675852367.1291325,0,12.37891,101.0457,1,0.89
2022-06-02T10:46:07.839+02:00,1654159567.000225,53.2290694301776,10.39851503008445,36.8321,0.04273929,0.5901939,96.53810546482458,86.68254763100538,3,6.000906205260658,-9999,34137.26503675,-0.151123046875,-0.5204315185546875,-0.8553619384765625,34137.25630075,3.067968864878274,-0.1467545711699217,0.5716149770508038,0.1286816596984863,-0.1505072861909866,-0.07947742193937302,-0.0290105938911438,0.01318943500518799,-0.02064251899719238,XArbitraryZVertical,-0.08063806355026147,-0.2783944265528846,-0.9554437366706191,-0.05587046880527426,-0.1229822114109993,-0.5409910082817078,-0.8319880962371826,0,0,0,-1,-1,34136.559358125,unknown,2,2022-06-02T10:46:07.129+02:00,2022-06-02T10:32:51.428+02:00,64,2.379692,0,0,60.10083,0,0,2022-06-02T10:46:07.129+02:00,675852367.1291325,0,12.37891,101.0457,1,0.89
2022-06-02T10:46:07.849+02:00,1654159567.000225,53.2290694301776,10.39851503008445,36.8321,0.04273929,0.5901939,96.53810546482458,86.68254763100538,3,6.000906205260658,-9999,34137.27500975,-0.1474456787109375,-0.5323333740234375,-0.8622283935546875,34137.26627275,3.067391580087156,-0.1478960843510453,0.5726718554897141,0.1271993517875671,-0.118033766746521,-0.07393698394298553,-0.02756544202566147,0.02178364992141724,-0.02199029922485352,XArbitraryZVertical,-0.08127147082501407,-0.278844721420227,-0.9552312279076222,-0.05633702864390291,-0.1238475292921066,-0.5418795347213745,-0.8312811255455017,0,0,0,-1,-1,34136.559358125,unknown,2,2022-06-02T10:46:07.129+02:00,2022-06-02T10:32:51.428+02:00,64,2.379692,0,0,60.10083,0,0,2022-06-02T10:46:07.129+02:00,675852367.1291325,0,12.37891,101.0457,1,0.89
2022-06-02T10:46:07.859+02:00,1654159567.000225,53.2290694301776,10.39851503008445,36.8321,0.04273929,0.5901939,96.53810546482458,86.68254763100538,3,6.000906205260658,-9999,34137.28498175,-0.141357421875,-0.540374755859375,-0.8629150390625,34137.27624575,3.066817433269879,-0.1487903502966758,0.5737852505537037,0.1446380317211151,-0.1080803871154785,-0.07177837938070297,-0.02356995642185211,0.01205325126647949,-0.03188437223434448,XArbitraryZVertical,-0.08178683187906212,-0.2793286159166395,-0.9550202196863447,-0.05676970739574044,-0.1245013475418091,-0.5428149700164795,-0.8305729031562805,0,0,0,-1,-1,34136.559358125,unknown,2,2022-06-02T10:46:07.129+02:00,2022-06-02T10:32:51.428+02:00,64,2.379692,0,0,60.10083,0,0,2022-06-02T10:46:07.129+02:00,675852367.1291325,0,12.37891,101.0457,1,0.89
2022-06-02T10:46:07.869+02:00,1654159567.000225,53.2290694301776,10.39851503008445,36.8321,0.04273929,0.5901939,96.53810546482458,86.68254763100538,3,6.000906205260658,-9999,34137.29495475,-0.140167236328125,-0.548675537109375,-0.85748291015625,34137.28621775,3.066370813828973,-0.1496807804134264,0.5750707806903516,0.1592936813831329,-0.1012664213776588,-0.07024812698364258,-0.01747192442417145,0.004038214683532715,-0.03398317098617554,XArbitraryZVertical,-0.08228389062119915,-0.2798997295399704,-0.9547878230468271,-0.05714655069837295,-0.1251367032527924,-0.5438941717147827,-0.8297709822654724,0,0,0,-1,-1,34136.559358125,unknown,2,2022-06-02T10:46:07.129+02:00,2022-06-02T10:32:51.428+02:00,64,2.379692,0,0,60.10083,0,0,2022-06-02T10:46:07.129+02:00,675852367.1291325,0,12.37891,101.0457,1,0.89
2022-06-02T10:46:07.879+02:00,1654159567.000225,53.2290694301776,10.39851503008445,36.8321,0.04273929,0.5901939,96.53810546482458,86.68254763100538,3,6.000906205260658,-9999,34137.30492775,-0.14166259765625,-0.54931640625,-0.8560028076171875,34137.29619075,3.06578166245294,-0.1504426222738627,0.5763403297709948,0.1399964988231659,-0.09978499263525009,-0.08588691800832748,-0.01425787806510925,-0.004769325256347656,-0.02989464998245239,XArbitraryZVertical,-0.08273949164021935,-0.2804605914116902,-0.9545582156409423,-0.05757331050916962,-0.1256652325391769,-0.5449590682983398,-0.8289920687675476,0,0,0,-1,-1,34136.559358125,unknown,2,2022-06-02T10:46:07.129+02:00,2022-06-02T10:32:51.428+02:00,64,2.379692,0,0,60.10083,0,0,2022-06-02T10:46:07.129+02:00,675852367.1291325,0,12.37891,101.0457,1,0.89
2022-06-02T10:46:07.889+02:00,1654159567.000225,53.2290694301776,10.39851503008445,36.8321,0.04273929,0.5901939,96.53810546482458,86.68254763100538,3,6.000906205260658,-9999,34137.31489975,-0.142578125,-0.5495147705078125,-0.85601806640625,34137.30616375,3.064926948484457,-0.1511213358904059,0.5773556440115477,0.1143228337168694,-0.1026127338409424,-0.1145055145025253,-0.01602165400981903,-0.002941727638244629,-0.02752161026000977,XArbitraryZVertical,-0.08319097248414317,-0.280890888561279,-0.9543600120304438,-0.05810759527359207,-0.1261444836854935,-0.5458101034164429,-0.8283591270446777,0,0,0,-1,-1,34136.559358125,unknown,2,2022-06-02T10:46:07.129+02:00,2022-06-02T10:32:51.428+02:00,64,2.379692,0,0,60.10083,0,0,2022-06-02T10:46:07.129+02:00,675852367.1291325,0,12.37891,101.0457,1,0.89
2022-06-02T10:46:07.899+02:00,1654159567.000225,53.2290694301776,10.39851503008445,36.8321,0.04273929,0.5901939,96.53810546482458,86.68254763100538,3,6.000906205260658,-9999,34137.32487275,-0.145751953125,-0.551849365234375,-0.8527679443359375,34137.31613575,3.063960237011313,-0.1516560856336259,0.5782836254082635,0.09758957475423813,-0.08444163203239441,-0.1026139259338379,-0.0151669830083847,-0.002393245697021484,-0.02813595533370972,XArbitraryZVertical,-0.08358909889320892,-0.2812785189428267,-0.9541764546999253,-0.05867252541350744,-0.1265108585357666,-0.5465874671936035,-0.8277904987335205,0,0,0,-1,-1,34136.559358125,unknown,2,2022-06-02T10:46:07.129+02:00,2022-06-02T10:32:51.428+02:00,64,2.379692,0,0,60.10083,0,0,2022-06-02T10:46:07.129+02:00,675852367.1291325,0,12.37891,101.0457,1,0.89
2022-06-02T10:46:07.909+02:00,1654159567.000225,53.2290694301776,10.39851503008445,36.8321,0.04273929,0.5901939,96.53810546482458,86.68254763100538,3,6.000906205260658,-9999,34137.33484575,-0.145721435546875,-0.5450286865234375,-0.8512420654296875,34137.32610875,3.063038824060788,-0.1521717342688643,0.5790332018057951,0.09081768244504929,-0.08378889411687851,-0.09800399094820023,-0.01921209692955017,-0.004344463348388672,-0.02587521076202393,XArbitraryZVertical,-0.08397061729643156,-0.2815829332244617,-0.9540201287150029,-0.05920772135789001,-0.1268755495548248,-0.5472149848937988,-0.8273199796676636,0,0,0,-1,-1,34136.559358125,unknown,2,2022-06-02T10:46:07.129+02:00,2022-06-02T10:32:51.428+02:00,64,2.379692,0,0,60.10083,0,0,2022-06-02T10:46:07.129+02:00,675852367.1291325,0,12.37891,101.0457,1,0.89
2022-06-02T10:46:07.919+02:00,1654159567.000225,53.2290694301776,10.39851503008445,36.8321,0.04273929,0.5901939,96.53810546482458,86.68254763100538,3,6.000906205260658,-9999,34137.34481775,-0.14447021484375,-0.538818359375,-0.84576416015625,34137.33608175,3.062211079832624,-0.1527134197377902,0.5796517312831776,0.07616537064313889,-0.077438585460186,-0.09034866839647293,-0.01889176666736603,0.00227665901184082,-0.02527159452438354,XArbitraryZVertical,-0.0843505182372119,-0.2818275363230515,-0.9538838848614435,-0.05969791046777106,-0.1272721737623215,-0.5477325916290283,-0.8269164562225342,0,0,0,-1,-1,34136.559358125,unknown,2,2022-06-02T10:46:07.129+02:00,2022-06-02T10:32:51.428+02:00,64,2.379692,0,0,60.10083,0,0,2022-06-02T10:46:07.129+02:00,675852367.1291325,0,12.37891,101.0457,1,0.89
2022-06-02T10:46:07.929+02:00,1654159567.000225,53.2290694301776,10.39851503008445,36.8321,0.04273929,0.5901939,96.53810546482458,86.68254763100538,3,6.000906205260658,-9999,34137.35479075,-0.1405029296875,-0.5351104736328125,-0.841400146484375,34137.34605375,3.061470357782514,-0.1532303871380762,0.5801176433713962,0.07744821906089783,-0.07215487211942673,-0.08479145169258118,-0.01682481169700623,0.0079306960105896,-0.01998984813690186,XArbitraryZVertical,-0.08470526952021973,-0.2820033649477676,-0.9537727547785825,-0.06013843564335466,-0.1276606768369675,-0.5481223464012146,-0.8265982270240784,0,0,0,-1,-1,34136.559358125,unknown,2,2022-06-02T10:46:07.129+02:00,2022-06-02T10:32:51.428+02:00,64,2.379692,0,0,60.10083,0,0,2022-06-02T10:46:07.129+02:00,675852367.1291325,0,12.37891,101.0457,1,0.89
2022-06-02T10:46:07.939+02:00,1654159567.000225,53.2290694301776,10.39851503008445,36.8321,0.04273929,0.5901939,96.53810546482458,86.68254763100538,3,6.000906205260658,-9999,34137.36476375,-0.1450347900390625,-0.5402374267578125,-0.8319244384765625,34137.35602675,3.060805469153579,-0.1535594847223668,0.5807048796815014,0.09932719171047211,-0.04218729957938194,-0.07230138033628464,-0.0129857063293457,0.01347237825393677,-0.01473492383956909,XArbitraryZVertical,-0.084960839716748,-0.2822457730275705,-0.953654195514786,-0.0605200874377494,-0.1278834491968155,-0.548613429069519,-0.8262379765510559,0,0,0,-1,-1,34136.559358125,unknown,2,2022-06-02T10:46:07.129+02:00,2022-06-02T10:32:51.428+02:00,64,2.379692,0,0,60.10083,0,0,2022-06-02T10:46:07.129+02:00,675852367.1291325,0,12.37891,101.0457,1,0.89
2022-06-02T10:46:07.949+02:00,1654159567.000225,53.2290694301776,10.39851503008445,36.8321,0.04273929,0.5901939,96.53810546482458,86.68254763100538,3,6.000906205260658,-9999,34137.37473575,-0.1345672607421875,-0.5428009033203125,-0.8240509033203125,34137.36599975,3.060216923038535,-0.1536186739340489,0.5814505994594127,0.09895221889019012,-0.02381867729127407,-0.06881104409694672,-0.01731768250465393,0.009914815425872803,-0.007410824298858643,XArbitraryZVertical,-0.08507841394911073,-0.282575174810794,-0.9535263142078316,-0.06083212955674702,-0.1278697103261948,-0.5492367148399353,-0.8258258700370789,0,0,0,-1,-1,34136.559358125,unknown,2,2022-06-02T10:46:07.129+02:00,2022-06-02T10:32:51.428+02:00,64,2.379692,0,0,60.10083,0,0,2022-06-02T10:46:07.129+02:00,675852367.1291325,0,12.37891,101.0457,1,0.89
2022-06-02T10:46:07.965+02:00,1654159567.000225,53.2290694301776,10.39851503008445,36.8321,0.04273929,0.5901939,96.53810546482458,86.68254763100538,3,6.000906205260658,-9999,34137.38470875,-0.127197265625,-0.544036865234375,-0.8237457275390625,34137.37597175,3.059595734549324,-0.153532042656789,0.5821975569047093,0.08169746398925781,-0.01836638897657394,-0.07385513931512833,-0.008617132902145386,0.006342709064483643,0.001151561737060547,XArbitraryZVertical,-0.08513128721503407,-0.2829081536171907,-0.953403218156863,-0.06113908557222146,-0.1277353912591934,-0.5498607754707336,-0.8254312872886658,0,0,0,-1,-1,34136.559358125,unknown,2,2022-06-02T10:46:07.129+02:00,2022-06-02T10:32:51.428+02:00,64,2.379692,0,0,60.10083,0,0,2022-06-02T10:46:07.129+02:00,675852367.1291325,0,12.37891,101.0457,1,0.89
2022-06-02T10:46:07.969+02:00,1654159567.000225,53.2290694301776,10.39851503008445,36.8321,0.04273929,0.5901939,96.53810546482458,86.68254763100538,3,6.000906205260658,-9999,34137.39468075,-0.1297454833984375,-0.546173095703125,-0.826385498046875,34137.38594475,3.058946005310753,-0.1535495659813782,0.5828017377116574,0.06989113986492157,-0.0306938961148262,-0.07305219769477844,0.0004102140665054321,0.007427096366882324,0.001812636852264404,XArbitraryZVertical,-0.08523681944041797,-0.2831685130308575,-0.9532951437393283,-0.06146988567364576,-0.1276990175247192,-0.5503653287887573,-0.8251005411148071,0,0,0,-1,-1,34136.559358125,unknown,2,2022-06-02T10:46:07.129+02:00,2022-06-02T10:32:51.428+02:00,64,2.379692,0,0,60.10083,0,0,2022-06-02T10:46:07.129+02:00,675852367.1291325,0,12.37891,101.0457,1,0.89
2022-06-02T10:46:07.979+02:00,1654159567.000225,53.2290694301776,10.39851503008445,36.8321,0.04273929,0.5901939,96.53810546482458,86.68254763100538,3,6.000906205260658,-9999,34137.40465375,-0.1279754638671875,-0.551239013671875,-0.831573486328125,34137.39591675,3.058328424839297,-0.1536299166616807,0.5832984709130129,0.07535652816295624,-0.02596083655953407,-0.06916812807321548,-0.0008623450994491577,0.003828704357147217,-0.0006499290466308594,XArbitraryZVertical,-0.08536694541627325,-0.2833768763841358,-0.9532009154569319,-0.06179090898501473,-0.1277234703302383,-0.5507799983024597,-0.8248200416564941,0,0,0,-1,-1,34136.559358125,unknown,2,2022-06-02T10:46:07.129+02:00,2022-06-02T10:32:51.428+02:00,64,2.379692,0,0,60.10083,0,0,2022-06-02T10:46:07.129+02:00,675852367.1291325,0,12.37891,101.0457,1,0.89
2022-06-02T10:46:07.989+02:00,1654159567.000225,53.2290694301776,10.39851503008445,36.8321,0.04273929,0.5901939,96.53810546482458,86.68254763100538,3,6.000906205260658,-9999,34137.41462675,-0.126953125,-0.5583953857421875,-0.8309783935546875,34137.40588975,3.057738197946355,-0.1538023804109552,0.5839301875149112,0.08071534335613251,-0.04141995310783386,-0.08438143879175186,-0.001658424735069275,0.001670300960540771,-0.006814241409301758,XArbitraryZVertical,-0.08553843634038269,-0.2836479785182642,-0.9530836996482089,-0.06211606052777465,-0.127812385559082,-0.5513071417808533,-0.8244540095329285,0,0,0,-1,-1,34136.559358125,unknown,2,2022-06-02T10:46:07.129+02:00,2022-06-02T10:32:51.428+02:00,64,2.379692,0,0,60.10083,0,0,2022-06-02T10:46:07.129+02:00,675852367.1291325,0,12.37891,101.0457,1,0.89
2022-06-02T10:46:07.999+02:00,1654159567.000225,53.2290694301776,10.39851503008445,36.8321,0.04273929,0.5901939,96.53810546482458,86.68254763100538,3,6.000906205260658,-9999,34137.42459875,-0.1277008056640625,-0.549224853515625,-0.8336639404296875,34137.41586275,3.056930049836149,-0.1539337921463993,0.5844614408484626,0.06590044498443604,-0.03268851339817047,-0.09981711208820343,0.001929759979248047,-0.007255494594573975,-0.006708621978759766,XArbitraryZVertical,-0.08572052248894244,-0.2838629289572301,-0.9529758659995706,-0.06253612080895954,-0.127875804901123,-0.5517503023147583,-0.824147641658783,0,0,0,-1,-1,34136.559358125,unknown,2,2022-06-02T10:46:07.129+02:00,2022-06-02T10:32:51.428+02:00,64,2.379692,0,0,60.10083,0,0,2022-06-02T10:46:07.129+02:00,675852367.1291325,0,12.37891,101.0457,1,0.89
2022-06-02T10:46:08.009+02:00,1654159567.000225,53.2290694301776,10.39851503008445,36.8321,0.04273929,0.5901939,96.53810546482458,86.68254763100538,3,6.000906205260658,-9999,34137.43457175,-0.1293487548828125,-0.5429229736328125,-0.8248291015625,34137.42583475,3.056078102014281,-0.1538354028700354,0.5849026117166852,0.08102346956729889,0.006585123017430305,-0.09152109920978546,-8.07344913482666e-05,0.001932024955749512,-0.00888979434967041,XArbitraryZVertical,-0.08579867506375466,-0.2840401062521341,-0.9528893314713943,-0.06294160136812135,-0.1277574002742767,-0.552118182182312,-0.8239195942878723,0,0,0,-1,-1,34136.559358125,unknown,2,2022-06-02T10:46:07.129+02:00,2022-06-02T10:32:51.428+02:00,64,2.379692,0,0,60.10083,0,0,2022-06-02T10:46:07.129+02:00,675852367.1291325,0,12.37891,101.0457,1,0.89
2022-06-02T10:46:08.019+02:00,1654159567.000225,53.2290694301776,10.39851503008445,36.8321,0.04273929,0.5901939,96.53810546482458,86.68254763100538,3,6.000906205260658,-9999,34137.44454475,-0.1200103759765625,-0.54193115234375,-0.8209075927734375,34137.43580775,3.055248528564992,-0.1535244436653898,0.5853683796525125,0.0768621414899826,0.002969349035993218,-0.08965829014778137,-0.003534853458404541,0.008881568908691406,-0.002619326114654541,XArbitraryZVertical,-0.08577277562378997,-0.2842366564605586,-0.9528089372979304,-0.06330688367304893,-0.1274618655443192,-0.5525064468383789,-0.8237051367759705,0,0,0,-1,-1,34136.559358125,unknown,2,2022-06-02T10:46:07.129+02:00,2022-06-02T10:32:51.428+02:00,64,2.379692,0,0,60.10083,0,0,2022-06-02T10:46:07.129+02:00,675852367.1291325,0,12.37891,101.0457,1,0.89
2022-06-02T10:46:08.028+02:00,1654159567.000225,53.2290694301776,10.39851503008445,36.8321,0.04273929,0.5901939,96.53810546482458,86.68254763100538,3,6.000906205260658,-9999,34137.45451675,-0.121978759765625,-0.5408935546875,-0.8232421875,34137.44578075,3.054633815835904,-0.1534707041895346,0.5857174492091136,0.0621657520532608,-0.00321957073174417,-0.07408785820007324,0.007118314504623413,0.01191908121109009,0.002903640270233154,XArbitraryZVertical,-0.08583791648380257,-0.2843786153975092,-0.9527410087291031,-0.06360271133961506,-0.1273881047964096,-0.5527973771095276,-0.8235213160514832,0,0,0,-1,-1,34136.559358125,unknown,2,2022-06-02T10:46:07.129+02:00,2022-06-02T10:32:51.428+02:00,64,2.379692,0,0,60.10083,0,0,2022-06-02T10:46:07.129+02:00,675852367.1291325,0,12.37891,101.0457,1,0.89
2022-06-02T10:46:08.038+02:00,1654159567.000225,53.2290694301776,10.39851503008445,36.8321,0.04273929,0.5901939,96.53810546482458,86.68254763100538,3,6.000906205260658,-9999,34137.46448975,-0.1262054443359375,-0.5436248779296875,-0.8254547119140625,34137.45575275,3.054012231695854,-0.153331918551797,0.5862346740072201,0.06198252737522125,0.004189609549939632,-0.06898630410432816,0.00528186559677124,0.01199907064437866,0.001036524772644043,XArbitraryZVertical,-0.08586527051106196,-0.2846032168626824,-0.9526519877164017,-0.0638947693525839,-0.1272301226854324,-0.5532283186912537,-0.8232563138008118,0,0,0,-1,-1,34136.559358125,unknown,2,2022-06-02T10:46:07.129+02:00,2022-06-02T10:32:51.428+02:00,64,2.379692,0,0,60.10083,0,0,2022-06-02T10:46:07.129+02:00,675852367.1291325,0,12.37891,101.0457,1,0.89
2022-06-02T10:46:08.048+02:00,1654159567.000225,53.2290694301776,10.39851503008445,36.8321,0.04273929,0.5901939,96.53810546482458,86.68254763100538,3,6.000906205260658,-9999,34137.47446275,-0.1187744140625,-0.5539398193359375,-0.8234710693359375,34137.46572575,3.053381739610422,-0.152927769663735,0.5868946508962809,0.08954545110464096,0.005871395580470562,-0.06611807644367218,0.0002853423357009888,0.01112967729568481,-0.001394152641296387,XArbitraryZVertical,-0.08576909148862311,-0.2849041007798272,-0.9525530217682185,-0.06415749080263727,-0.1268417537212372,-0.5537779927253723,-0.8229466080665588,0,0,0,-1,-1,34136.559358125,unknown,2,2022-06-02T10:46:07.129+02:00,2022-06-02T10:32:51.428+02:00,64,2.379692,0,0,60.10083,0,0,2022-06-02T10:46:07.129+02:00,675852367.1291325,0,12.37891,101.0457,1,0.89
2022-06-02T10:46:08.058+02:00,1654159567.000225,53.2290694301776,10.39851503008445,36.8321,0.04273929,0.5901939,96.53810546482458,86.68254763100538,3,6.000906205260658,-9999,34137.48443475,-0.1073150634765625,-0.562744140625,-0.8269805908203125,34137.47569875,3.052849011362698,-0.15259612771434,0.5877818153537018,0.09990798681974411,-0.004095396026968956,-0.05832988396286964,0.006666809320449829,0.001049637794494629,-0.001593947410583496,XArbitraryZVertical,-0.0856960306023918,-0.2853153162777616,-0.9524207134815166,-0.06439062319694752,-0.1264940798282623,-0.5545164942741394,-0.8225027322769165,0,0,0,-1,-1,34136.559358125,unknown,2,2022-06-02T10:46:07.129+02:00,2022-06-02T10:32:51.428+02:00,64,2.379692,0,0,60.10083,0,0,2022-06-02T10:46:07.129+02:00,675852367.1291325,0,12.37891,101.0457,1,0.89
2022-06-02T10:46:08.068+02:00,1654159567.000225,53.2290694301776,10.39851503008445,36.8321,0.04273929,0.5901939,96.53810546482458,86.68254763100538,3,6.000906205260658,-9999,34137.49440775,-0.1141510009765625,-0.5565338134765625,-0.8280029296875,34137.48567075,3.05239859845974,-0.1525038981861351,0.5885300800793091,0.07558533549308777,-0.02280090749263763,-0.05879353731870651,0.01879595220088959,-0.007162690162658691,-0.004327178001403809,XArbitraryZVertical,-0.0857240253428842,-0.2856560218055996,-0.9523009382585363,-0.06461438801538855,-0.1263551563024521,-0.5551390051841736,-0.8221040368080139,0,0,0,-1,-1,34136.559358125,unknown,2,2022-06-02T10:46:07.129+02:00,2022-06-02T10:32:51.428+02:00,64,2.379692,0,0,60.10083,0,0,2022-06-02T10:46:07.129+02:00,675852367.1291325,0,12.37891,101.0457,1,0.89
2022-06-02T10:46:08.078+02:00,1654159567.000225,53.2290694301776,10.39851503008445,36.8321,0.04273929,0.5901939,96.53810546482458,86.68254763100538,3,6.000906205260658,-9999,34137.50437975,-0.1215667724609375,-0.547393798828125,-0.8207855224609375,34137.49564375,3.051741533892661,-0.1523762118850122,0.5892562164099011,0.06221373751759529,-0.02910327725112438,-0.07122471183538437,0.0139300525188446,-0.002652585506439209,-0.006174564361572266,XArbitraryZVertical,-0.08576461357466,-0.2859784115879652,-0.9521790657566169,-0.06493071574605999,-0.1261889785528183,-0.5557428002357483,-0.8217215538024902,0,0,0,-1,-1,34136.559358125,unknown,2,2022-06-02T10:46:07.129+02:00,2022-06-02T10:32:51.428+02:00,64,2.379692,0,0,60.10083,0,0,2022-06-02T10:46:07.129+02:00,675852367.1291325,0,12.37891,101.0457,1,0.89
2022-06-02T10:46:08.088+02:00,1654159567.000225,53.2290694301776,10.39851503008445,36.8321,0.04273929,0.5901939,96.53810546482458,86.68254763100538,3,6.000906205260658,-9999,34137.51435275,-0.1241302490234375,-0.5435943603515625,-0.8136444091796875,34137.50561575,3.050920917095231,-0.1521943173606049,0.589782313658198,0.06985114514827728,-0.02834108099341393,-0.08409923315048218,0.004138469696044922,0.007001042366027832,-0.0006728768348693848,XArbitraryZVertical,-0.08580092557124448,-0.2862001435103211,-0.9520830804264652,-0.06531104831950332,-0.1259951591491699,-0.5561801195144653,-0.8214553594589233,0,0,0,-1,-1,34136.559358125,unknown,2,2022-06-02T10:46:07.129+02:00,2022-06-02T10:32:51.428+02:00,64,2.379692,0,0,60.10083,0,0,2022-06-02T10:46:07.129+02:00,675852367.1291325,0,12.37891,101.0457,1,0.89
2022-06-02T10:46:08.099+02:00,1654159567.000225,53.2290694301776,10.39851503008445,36.8321,0.04273929,0.5901939,96.53810546482458,86.68254763100538,3,6.000906205260658,-9999,34137.52432575,-0.1275177001953125,-0.5475006103515625,-0.8141021728515625,34137.51558875,3.050123498682502,-0.1520627134938364,0.5903409117672604,0.08079567551612854,-0.02125147916376591,-0.08643016219139099,0.002777829766273499,0.0133092999458313,0.006406426429748535,XArbitraryZVertical,-0.08585840150238361,-0.2864366936931402,-0.9519808028819496,-0.06568839252335817,-0.125839963555336,-0.5566442608833313,-0.8211647272109985,0,0,0,-1,-1,34136.559358125,unknown,2,2022-06-02T10:46:07.129+02:00,2022-06-02T10:32:51.428+02:00,64,2.379692,0,0,60.10083,0,0,2022-06-02T10:46:07.129+02:00,675852367.1291325,0,12.37891,101.0457,1,0.89
2022-06-02T10:46:08.108+02:00,1654159567.000225,53.2290694301776,10.39851503008445,36.8321,0.04273929,0.5901939,96.53810546482458,86.68254763100538,3,6.000906205260658,-9999,34137.53429775,-0.1195220947265625,-0.54315185546875,-0.8162384033203125,34137.52556175,3.049161671687043,-0.1514906960331887,0.5910125635756915,0.08846345543861389,0.01218850258737803,-0.08482560515403748,-0.002280235290527344,0.01089167594909668,0.006856203079223633,XArbitraryZVertical,-0.08573128750976339,-0.2867346523290562,-0.9518751364271963,-0.06608407234292828,-0.1253137737512589,-0.5572021007537842,-0.8208667635917664,0,0,0,-1,-1,34136.559358125,unknown,2,2022-06-02T10:46:07.129+02:00,2022-06-02T10:32:51.428+02:00,64,2.379692,0,0,60.10083,0,0,2022-06-02T10:46:07.129+02:00,675852367.1291325,0,12.37891,101.0457,1,0.89
2022-06-02T10:46:08.118+02:00,1654159567.000225,53.2290694301776,10.39851503008445,36.8321,0.04273929,0.5901939,96.53810546482458,86.68254763100538,3,6.000906205260658,-9999,34137.54427075,-0.1110992431640625,-0.55023193359375,-0.82861328125,34137.53553375,3.048427577287658,-0.1507501111321345,0.5918100493181704,0.1078001707792282,0.03122779540717602,-0.05955316126346588,0.003652095794677734,0.01544469594955444,0.004296660423278809,XArbitraryZVertical,-0.08549302684460701,-0.2871080855086484,-0.9517654811139453,-0.06635058116200523,-0.1246390491724014,-0.5578641295433044,-0.8205198049545288,0,0,0,-1,-1,34136.559358125,unknown,2,2022-06-02T10:46:07.129+02:00,2022-06-02T10:32:51.428+02:00,64,2.379692,0,0,60.10083,0,0,2022-06-02T10:46:07.129+02:00,675852367.1291325,0,12.37891,101.0457,1,0.89
2022-06-02T10:46:08.128+02:00,1654159567.000225,53.2290694301776,10.39851503008445,36.8321,0.04273929,0.5901939,96.53810546482458,86.68254763100538,3,6.000906205260658,-9999,34137.55424375,-0.112640380859375,-0.560455322265625,-0.8381805419921875,34137.54550675,3.048097397197056,-0.1502689217023097,0.5925130390359578,0.08215659111738205,0.0317620262503624,-0.0330488532781601,0.01258267462253571,0.009863495826721191,-0.006621003150939941,XArbitraryZVertical,-0.08531941755364489,-0.2874452371677338,-0.9516716296888207,-0.06645905462754373,-0.1241854578256607,-0.5584474205970764,-0.8201916813850403,0,0,0,-1,-1,34136.559358125,unknown,2,2022-06-02T10:46:07.129+02:00,2022-06-02T10:32:51.428+02:00,64,2.379692,0,0,60.10083,0,0,2022-06-02T10:46:07.129+02:00,675852367.1291325,0,12.37891,101.0457,1,0.89
2022-06-02T10:46:08.138+02:00,1654159567.000225,53.2290694301776,10.39851503008445,36.8321,0.04273929,0.5901939,96.53810546482458,86.68254763100538,3,6.000906205260658,-9999,34137.56421575,-0.1158294677734375,-0.5585479736328125,-0.8402099609375,34137.55547975,3.04776855275419,-0.149625868462514,0.5931479720014615,0.0665803849697113,0.04661545157432556,-0.03480831161141396,0.01136147230863571,-0.001862764358520508,-0.01688659191131592,XArbitraryZVertical,-0.08506796267571116,-0.2877553599421607,-0.9515946978660098,-0.06654144481237416,-0.1236051321029663,-0.558974027633667,-0.8199205994606018,0,0,0,-1,-1,34136.559358125,unknown,2,2022-06-02T10:46:07.129+02:00,2022-06-02T10:32:51.428+02:00,64,2.379692,0,0,60.10083,0,0,2022-06-02T10:46:07.129+02:00,675852367.1291325,0,12.37891,101.0457,1,0.89
2022-06-02T10:46:08.148+02:00,1654159567.000225,53.2290694301776,10.39851503008445,36.8321,0.04273929,0.5901939,96.53810546482458,86.68254763100538,3,6.000906205260658,-9999,34137.57418875,-0.1060028076171875,-0.56048583984375,-0.8341064453125,34137.56545175,3.047248765252645,-0.1486280450844958,0.593762385295022,0.050995834171772,0.03400778025388718,-0.02995656430721283,0.007059171795845032,0.002720654010772705,-0.02108603715896606,XArbitraryZVertical,-0.08467512916579295,-0.2880594557548455,-0.9515293270975493,-0.06666276539366492,-0.1227360591292381,-0.5594834089279175,-0.8197037577629089,0,0,0,-1,-1,34136.559358125,unknown,2,2022-06-02T10:46:07.129+02:00,2022-06-02T10:32:51.428+02:00,64,2.379692,0,0,60.10083,0,0,2022-06-02T10:46:07.129+02:00,675852367.1291325,0,12.37891,101.0457,1,0.89
2022-06-02T10:46:08.159+02:00,1654159567.000225,53.2290694301776,10.39851503008445,36.8321,0.04273929,0.5901939,96.53810546482458,86.68254763100538,3,6.000906205260658,-9999,34137.58416075,-0.1051177978515625,-0.5590972900390625,-0.824493408203125,34137.57542475,3.046724408405771,-0.1478561459638709,0.5940811878688973,0.02473604679107666,0.02849059924483299,-0.04194334521889687,0.01496030390262604,-0.0006161928176879883,-0.01466774940490723,XArbitraryZVertical,-0.08438717094041259,-0.2882150343358216,-0.9514975077417814,-0.06681010436438437,-0.1220770105719566,-0.559747576713562,-0.8196218013763428,0,0,0,-1,-1,34136.559358125,unknown,2,2022-06-02T10:46:07.129+02:00,2022-06-02T10:32:51.428+02:00,64,2.379692,0,0,60.10083,0,0,2022-06-02T10:46:07.129+02:00,675852367.1291325,0,12.37891,101.0457,1,0.89
2022-06-02T10:46:08.168+02:00,1654159567.000225,53.2290694301776,10.39851503008445,36.8321,0.04273929,0.5901939,96.53810546482458,86.68254763100538,3,6.000906205260658,-9999,34137.59413375,-0.1081390380859375,-0.5584716796875,-0.8098602294921875,34137.58539675,3.04618778688471,-0.1473586275953218,0.5942452940626302,0.03621959686279297,0.01159976609051228,-0.06136710941791534,0.01655317842960358,0.0004200935363769531,-0.006015777587890625,XArbitraryZVertical,-0.08422978179028248,-0.2882873473769517,-0.9514761633399128,-0.06699832089188419,-0.1216557249426842,-0.5598835945129395,-0.8195915222167969,0,0,0,-1,-1,34136.559358125,unknown,2,2022-06-02T10:46:07.129+02:00,2022-06-02T10:32:51.428+02:00,64,2.379692,0,0,60.10083,0,0,2022-06-02T10:46:07.129+02:00,675852367.1291325,0,12.37891,101.0457,1,0.89
2022-06-02T10:46:08.178+02:00,1654159567.000225,53.2290694301776,10.39851503008445,36.8321,0.04273929,0.5901939,96.53810546482458,86.68254763100538,3,6.000906205260658,-9999,34137.60410675,-0.1108245849609375,-0.54779052734375,-0.8042755126953125,34137.59536975,3.045396845089359,-0.1468666755999289,0.594407614057608,0.02699436247348785,0.0009289238951168954,-0.08524658530950546,0.01288654655218124,0.0006918907165527344,0.008236289024353027,XArbitraryZVertical,-0.0841117249349497,-0.2883479519756771,-0.9514464108289847,-0.06730824213748154,-0.1212392076849937,-0.5600180625915527,-0.8195613622665405,0,0,0,-1,-1,34136.559358125,unknown,2,2022-06-02T10:46:07.129+02:00,2022-06-02T10:32:51.428+02:00,64,2.379692,0,0,60.10083,0,0,2022-06-02T10:46:07.129+02:00,675852367.1291325,0,12.37891,101.0457,1,0.89
2022-06-02T10:46:08.188+02:00,1654159567.000225,53.2290694301776,10.39851503008445,36.8321,0.04273929,0.5901939,96.53810546482458,86.68254763100538,3,6.000906205260658,-9999,34137.61407875,-0.1153717041015625,-0.547088623046875,-0.7965240478515625,34137.60534275,3.04452101251767,-0.1464316062957453,0.5946111571382475,0.03417743742465973,0.02329574897885323,-0.08219540119171143,0.01048391312360764,0.009908974170684814,0.01560723781585693,XArbitraryZVertical,-0.08403355077502167,-0.2884228513340384,-0.9514051200244195,-0.06766783869726409,-0.1208660006523132,-0.5601866841316223,-0.8195012211799622,0,0,0,-1,-1,34136.559358125,unknown,2,2022-06-02T10:46:07.129+02:00,2022-06-02T10:32:51.428+02:00,64,2.379692,0,0,60.10083,0,0,2022-06-02T10:46:07.129+02:00,675852367.1291325,0,12.37891,101.0457,1,0.89
2022-06-02T10:46:08.198+02:00,1654159568.000221,53.22907386360832,10.3985093027528,36.8321,0.07557984,0.5068492,88.89103250026747,180,3,6.000906205260658,-9999,34137.62405175,-0.100830078125,-0.5488433837890625,-0.7984771728515625,34137.61531475,3.043563318387028,-0.1457107426546096,0.5948757913099226,0.04273666441440582,0.02308660000562668,-0.09504719823598862,0.003279797732830048,0.01472103595733643,0.02255117893218994,XArbitraryZVertical,-0.08383210883853889,-0.2885332990704105,-0.9513637341395598,-0.06802675871230579,-0.1202536895871162,-0.5604059100151062,-0.8194414377212524,0,0,0,-1,-1,34136.559358125,unknown,2,2022-06-02T10:46:07.129+02:00,2022-06-02T10:32:51.428+02:00,64,2.379692,0,0,60.10083,0,0,2022-06-02T10:46:07.129+02:00,675852367.1291325,0,12.37891,101.0457,1,0.89
2022-06-02T10:46:08.208+02:00,1654159568.000221,53.22907386360832,10.3985093027528,36.8321,0.07557984,0.5068492,88.89103250026747,180,3,6.000906205260658,-9999,34137.63402475,-0.101593017578125,-0.5550079345703125,-0.8055267333984375,34137.62528775,3.042541687556586,-0.1446918997586242,0.5951401882660333,0.05054451897740364,0.03367320075631142,-0.07044597715139389,0.0166599452495575,0.01149153709411621,0.02153486013412476,XArbitraryZVertical,-0.08349828221376687,-0.2886513062745779,-0.9513325982799534,-0.0683729712740665,-0.1193973794579506,-0.5606248378753662,-0.8194169402122498,0,0,0,-1,-1,34136.559358125,unknown,2,2022-06-02T10:46:07.129+02:00,2022-06-02T10:32:51.428+02:00,64,2.379692,0,0,60.10083,0,0,2022-06-02T10:46:07.129+02:00,675852367.1291325,0,12.37891,101.0457,1,0.89
2022-06-02T10:46:08.218+02:00,1654159568.000221,53.22907386360832,10.3985093027528,36.8321,0.07557984,0.5068492,88.89103250026747,180,3,6.000906205260658,-9999,34137.64399675,-0.0993194580078125,-0.5625152587890625,-0.802703857421875,34137.63526075,3.041781154136202,-0.1437018847576519,0.5956547588074325,0.07664429396390915,0.05305755138397217,-0.05170078948140144,0.01707380264997482,0.006393849849700928,0.01375287771224976,XArbitraryZVertical,-0.08314395603352462,-0.2888988314667991,-0.9512717062402205,-0.06860572734129658,-0.1185447573661804,-0.5610508918762207,-0.8192490935325623,0,0,0,-1,-1,34136.559358125,unknown,2,2022-06-02T10:46:07.129+02:00,2022-06-02T10:32:51.428+02:00,64,2.379692,0,0,60.10083,0,0,2022-06-02T10:46:07.129+02:00,675852367.1291325,0,12.37891,101.0457,1,0.89
2022-06-02T10:46:08.228+02:00,1654159568.000221,53.22907386360832,10.3985093027528,36.8321,0.07557984,0.5068492,88.89103250026747,180,3,6.000906205260658,-9999,34137.65396975,-0.1055450439453125,-0.5610809326171875,-0.8014984130859375,34137.64523275,3.041290218690809,-0.1427569863558471,0.5961585682259389,0.07926084846258163,0.06196875497698784,-0.03857486695051193,0.01807520538568497,0.0005547404289245605,0.01642274856567383,XArbitraryZVertical,-0.08277221578287307,-0.2891510713868298,-0.9512194760108509,-0.06871619485241162,-0.1177303642034531,-0.5614678263664246,-0.8190808296203613,0,0,0,-1,-1,34136.559358125,unknown,2,2022-06-02T10:46:07.129+02:00,2022-06-02T10:32:51.428+02:00,64,2.379692,0,0,60.10083,0,0,2022-06-02T10:46:07.129+02:00,675852367.1291325,0,12.37891,101.0457,1,0.89
2022-06-02T10:46:08.238+02:00,1654159568.000221,53.22907386360832,10.3985093027528,36.8321,0.07557984,0.5068492,88.89103250026747,180,3,6.000906205260658,-9999,34137.66394275,-0.1096343994140625,-0.56805419921875,-0.8003997802734375,34137.65520575,3.040775476504346,-0.141636774781276,0.5967314144345607,0.06115410849452019,0.06508243829011917,-0.03646448999643326,0.01250401884317398,0.0006319880485534668,0.0172731876373291,XArbitraryZVertical,-0.08232165687550105,-0.2894413757998205,-0.9511632302710008,-0.06881417583356314,-0.1167673245072365,-0.5619418025016785,-0.8188936710357666,0,0,0,-1,-1,34136.559358125,unknown,2,2022-06-02T10:46:07.129+02:00,2022-06-02T10:32:51.428+02:00,64,2.379692,0,0,60.10083,0,0,2022-06-02T10:46:07.129+02:00,675852367.1291325,0,12.37891,101.0457,1,0.89
2022-06-02T10:46:08.248+02:00,1654159568.000221,53.22907386360832,10.3985093027528,36.8321,0.07557984,0.5068492,88.89103250026747,180,3,6.000906205260658,-9999,34137.67391475,-0.1050872802734375,-0.58062744140625,-0.799957275390625,34137.66517875,3.040241243710379,-0.1404180629506913,0.5972341415717655,0.05015392228960991,0.07608208805322647,-0.03588631749153137,0.005408637225627899,-0.004353880882263184,0.01922553777694702,XArbitraryZVertical,-0.08182632954255017,-0.2897010291933914,-0.9511203248462479,-0.06890496716721184,-0.1157296895980835,-0.5623575448989868,-0.8187555074691772,0,0,0,-1,-1,34136.559358125,unknown,2,2022-06-02T10:46:07.129+02:00,2022-06-02T10:32:51.428+02:00,64,2.379692,0,0,60.10083,0,0,2022-06-02T10:46:07.129+02:00,675852367.1291325,0,12.37891,101.0457,1,0.89
2022-06-02T10:46:08.258+02:00,1654159568.000221,53.22907386360832,10.3985093027528,36.8321,0.07557984,0.5068492,88.89103250026747,180,3,6.000906205260658,-9999,34137.68388775,-0.1029815673828125,-0.5824737548828125,-0.796417236328125,34137.67515075,3.039793121154431,-0.1393326031753435,0.5977493939605665,0.03612776100635529,0.07667126506567001,-0.03411473706364632,0.009530246257781982,-0.01697415113449097,0.01929247379302979,XArbitraryZVertical,-0.08138225503685709,-0.2899657066353563,-0.9510728136705028,-0.06897411888255692,-0.1148006394505501,-0.5627835392951965,-0.8185936212539673,0,0,0,-1,-1,34136.559358125,unknown,2,2022-06-02T10:46:07.129+02:00,2022-06-02T10:32:51.428+02:00,64,2.379692,0,0,60.10083,0,0,2022-06-02T10:46:07.129+02:00,675852367.1291325,0,12.37891,101.0457,1,0.89
2022-06-02T10:46:08.268+02:00,1654159568.000221,53.22907386360832,10.3985093027528,36.8321,0.07557984,0.5068492,88.89103250026747,180,3,6.000906205260658,-9999,34137.69385975,-0.1102294921875,-0.574798583984375,-0.7932586669921875,34137.68512375,3.039522905924023,-0.1384454421887456,0.5980455814930179,0.02250835672020912,0.0664396733045578,-0.01894590258598328,0.01048995554447174,-0.01952171325683594,0.02144140005111694,XArbitraryZVertical,-0.08100374002517691,-0.290126494211119,-0.9510555386690061,-0.06898154550226442,-0.1140513643622398,-0.5630283355712891,-0.8185300230979919,0,0,0,-1,-1,34136.559358125,unknown,2,2022-06-02T10:46:07.129+02:00,2022-06-02T10:32:51.428+02:00,64,2.379692,0,0,60.10083,0,0,2022-06-02T10:46:07.129+02:00,675852367.1291325,0,12.37891,101.0457,1,0.89
2022-06-02T10:46:08.278+02:00,1654159568.000221,53.22907386360832,10.3985093027528,36.8321,0.07557984,0.5068492,88.89103250026747,180,3,6.000906205260658,-9999,34137.70383275,-0.1218414306640625,-0.5700531005859375,-0.7891845703125,34137.69509575,3.039371768820694,-0.1378703560447669,0.5982338458287209,0.01905090734362602,0.06012105196714401,-0.02585447579622269,0.004908204078674316,-0.01303380727767944,0.02466726303100586,XArbitraryZVertical,-0.08075486950494359,-0.2902299347413411,-0.9510456385911484,-0.06897476516843237,-0.1135660484433174,-0.5631839036941528,-0.8184904456138611,0,0,0,-1,-1,34136.559358125,unknown,2,2022-06-02T10:46:07.129+02:00,2022-06-02T10:32:51.428+02:00,64,2.379692,0,0,60.10083,0,0,2022-06-02T10:46:07.129+02:00,675852367.1291325,0,12.37891,101.0457,1,0.89
