loggingTime(txt),locationTimestamp_since1970(s),locationLatitude(WGS84),locationLongitude(WGS84),locationAltitude(m),locationSpeed(m/s),locationSpeedAccuracy(m/s),locationCourse(°),locationCourseAccuracy(°),locationVerticalAccuracy(m),locationHorizontalAccuracy(m),locationFloor(Z),accelerometerTimestamp_sinceReboot(s),accelerometerAccelerationX(G),accelerometerAccelerationY(G),accelerometerAccelerationZ(G),motionTimestamp_sinceReboot(s),motionYaw(rad),motionRoll(rad),motionPitch(rad),motionRotationRateX(rad/s),motionRotationRateY(rad/s),motionRotationRateZ(rad/s),motionUserAccelerationX(G),motionUserAccelerationY(G),motionUserAccelerationZ(G),motionAttitudeReferenceFrame(txt),motionQuaternionX(R),motionQuaternionY(R),motionQuaternionZ(R),motionQuaternionW(R),motionGravityX(G),motionGravityY(G),motionGravityZ(G),motionMagneticFieldX(µT),motionMagneticFieldY(µT),motionMagneticFieldZ(µT),motionHeading(°),motionMagneticFieldCalibrationAccuracy(Z),activityTimestamp_sinceReboot(s),activity(txt),activityActivityConfidence(Z),activityActivityStartDate(txt),pedometerStartDate(txt),pedometerNumberofSteps(N),pedometerAverageActivePace(s/m),pedometerCurrentPace(s/m),pedometerCurrentCadence(steps/s),pedometerDistance(m),pedometerFloorAscended(N),pedometerFloorDescended(N),pedometerEndDate(txt),altimeterTimestamp_sinceReboot(s),altimeterReset(bool),altimeterRelativeAltitude(m),altimeterPressure(kPa),batteryState(N),batteryLevel(R)
2022-06-02T10:49:43.393+02:00,1654159781.967906,53.22896961682616,10.39893408719131,42.38089,-1,-1,-1,-1,39.47640991210938,40,-9999,34335.12658866667,0.0089111328125,-0.3092498779296875,-0.934051513671875,34335.11785166667,-2.496784691072624,0.05553817614055398,0.369783852508021,-0.2516091763973236,0.01014346070587635,-0.04375074058771133,-0.04980437457561493,-0.0009823441505432129,0.003630220890045166,XArbitraryZVertical,0.08411299345301793,-0.1656534654581585,-0.9303340346437924,0.3161686879368112,0.05175748467445374,-0.3614138960838318,-0.9309678673744202,0,0,0,-1,-1,34325.84144204167,unknown,2,2022-06-02T10:49:33.916+02:00,2022-06-02T10:32:51.428+02:00,114,2.435923,0,0,97.87743,0,0,2022-06-02T10:49:41.582+02:00,675852581.5816828,0,14.55078,101.0232,1,0.88
2022-06-02T10:49:43.395+02:00,1654159781.967906,53.22896961682616,10.39893408719131,42.38089,-1,-1,-1,-1,39.47640991210938,40,-9999,34335.13656066667,0.0185089111328125,-0.344940185546875,-0.9404296875,34335.12782466667,-2.49729272920873,0.05563897319053117,0.3684648122689786,-0.02581647597253323,-0.000830804230645299,-0.08291681110858917,-0.04908544197678566,0.045013427734375,0.002955794334411621,XArbitraryZVertical,0.08391581309808595,-0.1650431157990484,-0.9305305237824166,0.3159618727211334,0.05187778547406197,-0.3601837158203125,-0.9314377903938293,0,0,0,-1,-1,34325.84144204167,unknown,2,2022-06-02T10:49:33.916+02:00,2022-06-02T10:32:51.428+02:00,114,2.435923,0,0,97.87743,0,0,2022-06-02T10:49:41.582+02:00,675852581.5816828,0,14.55078,101.0232,1,0.88
2022-06-02T10:49:43.401+02:00,1654159781.967906,53.22896961682616,10.39893408719131,42.38089,-1,-1,-1,-1,39.47640991210938,40,-9999,34335.14653366667,0.0285797119140625,-0.3932952880859375,-0.9472503662109375,34335.13779666667,-2.498317984046498,0.0559068379293687,0.3686117123099504,0.08803392201662064,0.007120329421013594,-0.11150211840868,-0.04037508368492126,0.04202237725257874,-0.006357848644256592,XArbitraryZVertical,0.08397830571956021,-0.1651124521446434,-0.9306677361954139,0.3155045863395817,0.05212432891130447,-0.3603207468986511,-0.9313710331916809,0,0,0,-1,-1,34325.84144204167,unknown,2,2022-06-02T10:49:33.916+02:00,2022-06-02T10:32:51.428+02:00,114,2.435923,0,0,97.87743,0,0,2022-06-02T10:49:41.582+02:00,675852581.5816828,0,14.55078,101.0232,1,0.88
2022-06-02T10:49:43.411+02:00,1654159781.967906,53.22896961682616,10.39893408719131,42.38089,-1,-1,-1,-1,39.47640991210938,40,-9999,34335.15650566667,0.0373687744140625,-0.400482177734375,-0.954803466796875,34335.14776966667,-2.499528754938835,0.05633515588313709,0.3688785288434246,0.03156381472945213,0.009895254857838154,-0.109062172472477,-0.03013318777084351,-0.004680037498474121,-0.01084029674530029,XArbitraryZVertical,0.08411839666972323,-0.1652204203013303,-0.930816234060188,0.3149722880165843,0.05251783132553101,-0.3605696260929108,-0.9312525987625122,0,0,0,-1,-1,34325.84144204167,unknown,2,2022-06-02T10:49:33.916+02:00,2022-06-02T10:32:51.428+02:00,114,2.435923,0,0,97.87743,0,0,2022-06-02T10:49:41.582+02:00,675852581.5816828,0,14.55078,101.0232,1,0.88
2022-06-02T10:49:43.421+02:00,1654159781.967906,53.22896961682616,10.39893408719131,42.38089,-1,-1,-1,-1,39.47640991210938,40,-9999,34335.16647866667,0.037872314453125,-0.3735504150390625,-0.9558563232421875,34335.15774166667,-2.500541742558185,0.05671781625683395,0.3683765574364889,-0.08107325434684753,0.01449986081570387,-0.08589719235897064,-0.02157340943813324,-0.04225766658782959,-0.02105581760406494,XArbitraryZVertical,0.0841363568408941,-0.1649683388570594,-0.9310054075239311,0.3145402718772425,0.05288443341851234,-0.3601013720035553,-0.9314130544662476,0,0,0,-1,-1,34325.84144204167,unknown,2,2022-06-02T10:49:33.916+02:00,2022-06-02T10:32:51.428+02:00,114,2.435923,0,0,97.87743,0,0,2022-06-02T10:49:41.582+02:00,675852581.5816828,0,14.55078,101.0232,1,0.88
2022-06-02T10:49:43.431+02:00,1654159781.967906,53.22896961682616,10.39893408719131,42.38089,-1,-1,-1,-1,39.47640991210938,40,-9999,34335.17645066667,0.0325775146484375,-0.3623046875,-0.95758056640625,34335.16771466667,-2.501293240577282,0.05709174645962264,0.3671628045264976,-0.1518444418907166,0.01828669756650925,-0.075748510658741,-0.01352374628186226,-0.03241917490959167,-0.02353912591934204,XArbitraryZVertical,0.08406376357799514,-0.1643741042047481,-0.9312184305060797,0.3142400020567268,0.05325761437416077,-0.3589687943458557,-0.9318288564682007,0,0,0,-1,-1,34325.84144204167,unknown,2,2022-06-02T10:49:33.916+02:00,2022-06-02T10:32:51.428+02:00,114,2.435923,0,0,97.87743,0,0,2022-06-02T10:49:41.582+02:00,675852581.5816828,0,14.55078,101.0232,1,0.88
2022-06-02T10:49:43.441+02:00,1654159781.967906,53.22896961682616,10.39893408719131,42.38089,-1,-1,-1,-1,39.47640991210938,40,-9999,34335.18642366667,0.028533935546875,-0.3572235107421875,-0.9582366943359375,34335.17768666667,-2.50207854762492,0.05758800603131713,0.3659527079144861,-0.1193626746535301,0.03322596475481987,-0.09229153394699097,-0.01802417635917664,-0.009760439395904541,-0.02627605199813843,XArbitraryZVertical,0.0840463933061892,-0.1637637056588042,-0.9314308419851466,0.3139334412644548,0.05374499782919884,-0.3578390777111053,-0.9322353005409241,0,0,0,-1,-1,34325.84144204167,unknown,2,2022-06-02T10:49:33.916+02:00,2022-06-02T10:32:51.428+02:00,114,2.435923,0,0,97.87743,0,0,2022-06-02T10:49:41.582+02:00,675852581.5816828,0,14.55078,101.0232,1,0.88
2022-06-02T10:49:43.451+02:00,1654159781.967906,53.22896961682616,10.39893408719131,42.38089,-1,-1,-1,-1,39.47640991210938,40,-9999,34335.19639566667,0.0275115966796875,-0.3596038818359375,-0.957305908203125,34335.18765966667,-2.503012587831006,0.05825060206928773,0.3652722232045459,-0.04625605791807175,0.04231249168515205,-0.1018232107162476,-0.02285219728946686,-0.002278268337249756,-0.02507716417312622,XArbitraryZVertical,0.08417526261250946,-0.1633809822012146,-0.9316112174072755,0.3135627874141276,0.05437684431672096,-0.3572035729885101,-0.9324423670768738,0,0,0,-1,-1,34325.84144204167,unknown,2,2022-06-02T10:49:33.916+02:00,2022-06-02T10:32:51.428+02:00,114,2.435923,0,0,97.87743,0,0,2022-06-02T10:49:41.582+02:00,675852581.5816828,0,14.55078,101.0232,1,0.88
2022-06-02T10:49:43.460+02:00,1654159781.967906,53.22896961682616,10.39893408719131,42.38089,-1,-1,-1,-1,39.47640991210938,40,-9999,34335.20636725,0.034881591796875,-0.3776397705078125,-0.94964599609375,34335.19763166667,-2.504050993623224,0.05895788308991823,0.3649926714409108,-0.01384352520108223,0.06107233092188835,-0.1099860668182373,-0.02864453196525574,-0.0004336833953857422,-0.026023268699646,XArbitraryZVertical,0.08437758393173975,-0.1631832066081933,-0.9317695408770925,0.3131410217230201,0.05504221469163895,-0.3569424450397491,-0.932503342628479,0,0,0,-1,-1,34325.84144204167,unknown,2,2022-06-02T10:49:33.916+02:00,2022-06-02T10:32:51.428+02:00,114,2.435923,0,0,97.87743,0,0,2022-06-02T10:49:41.582+02:00,675852581.5816828,0,14.55078,101.0232,1,0.88
2022-06-02T10:49:43.470+02:00,1654159781.967906,53.22896961682616,10.39893408719131,42.38089,-1,-1,-1,-1,39.47640991210938,40,-9999,34335.21633925,0.045745849609375,-0.390411376953125,-0.943603515625,34335.20760325,-2.505202971150279,0.0599199406059845,0.3645776569877803,-0.03061979822814465,0.07737230509519577,-0.1229142695665359,-0.02599518001079559,-0.008633881807327271,-0.02196156978607178,XArbitraryZVertical,0.08466911994974068,-0.1628873076258041,-0.9319467279805274,0.312688706927478,0.0559481754899025,-0.3565547466278076,-0.9325977563858032,0,0,0,-1,-1,34325.84144204167,unknown,2,2022-06-02T10:49:33.916+02:00,2022-06-02T10:32:51.428+02:00,114,2.435923,0,0,97.87743,0,0,2022-06-02T10:49:41.582+02:00,675852581.5816828,0,14.55078,101.0232,1,0.88
2022-06-02T10:49:43.480+02:00,1654159781.967906,53.22896961682616,10.39893408719131,42.38089,-1,-1,-1,-1,39.47640991210938,40,-9999,34335.22631225,0.059112548828125,-0.3900299072265625,-0.9417877197265625,34335.21757525,-2.506437842845756,0.0610241526994317,0.3639180649225597,-0.05867087468504906,0.08031509816646576,-0.1301617920398712,-0.01896736025810242,-0.02740815281867981,-0.01394635438919067,XArbitraryZVertical,0.08498365612829262,-0.1624586543081021,-0.9321526169813749,0.312212414593615,0.05699225887656212,-0.3559384346008301,-0.9327699542045593,0,0,0,-1,-1,34325.84144204167,unknown,2,2022-06-02T10:49:33.916+02:00,2022-06-02T10:32:51.428+02:00,114,2.435923,0,0,97.87743,0,0,2022-06-02T10:49:41.582+02:00,675852581.5816828,0,14.55078,101.0232,1,0.88
2022-06-02T10:49:43.490+02:00,1654159781.967906,53.22896961682616,10.39893408719131,42.38089,-1,-1,-1,-1,39.47640991210938,40,-9999,34335.23628425,0.0615997314453125,-0.3796539306640625,-0.9424591064453125,34335.22754825,-2.507705709594536,0.06206782329988968,0.3630537811879042,-0.100415475666523,0.07842140644788742,-0.130938857793808,-0.005143612623214722,-0.03814944624900818,-0.008832097053527832,XArbitraryZVertical,0.08523707461671234,-0.1619454435123342,-0.9323842185920075,0.3117179877354397,0.05798479169607162,-0.3551306128501892,-0.9330166578292847,0,0,0,-1,-1,34325.84144204167,unknown,2,2022-06-02T10:49:33.916+02:00,2022-06-02T10:32:51.428+02:00,114,2.435923,0,0,97.87743,0,0,2022-06-02T10:49:41.582+02:00,675852581.5816828,0,14.55078,101.0232,1,0.88
2022-06-02T10:49:43.501+02:00,1654159781.967906,53.22896961682616,10.39893408719131,42.38089,-1,-1,-1,-1,39.47640991210938,40,-9999,34335.24625725,0.0514373779296875,-0.372314453125,-0.9398040771484375,34335.23752025,-2.508991334246286,0.06302027693031505,0.3621828008981891,-0.1201753318309784,0.06474953889846802,-0.1399448812007904,0.002340629696846008,-0.03157851099967957,-0.007724940776824951,XArbitraryZVertical,0.08544624477332231,-0.1614443710532884,-0.9326224713170156,0.3112071944842506,0.0588928759098053,-0.3543162643909454,-0.9332693219184875,0,0,0,-1,-1,34325.84144204167,unknown,2,2022-06-02T10:49:33.916+02:00,2022-06-02T10:32:51.428+02:00,114,2.435923,0,0,97.87743,0,0,2022-06-02T10:49:41.582+02:00,675852581.5816828,0,14.55078,101.0232,1,0.88
2022-06-02T10:49:43.511+02:00,1654159781.967906,53.22896961682616,10.39893408719131,42.38089,-1,-1,-1,-1,39.47640991210938,40,-9999,34335.25623025,0.06256103515625,-0.3451995849609375,-0.9459381103515625,34335.24749325,-2.510451114957339,0.06403027089908611,0.3611715446285214,-0.09689118713140488,0.07400935143232346,-0.141324058175087,-0.002454787492752075,-0.02405571937561035,-0.007443070411682129,XArbitraryZVertical,0.0856479393553997,-0.1608763806142396,-0.9328974892913483,0.310620976100675,0.05985833704471588,-0.3533704280853271,-0.9335664510726929,0,0,0,-1,-1,34325.84144204167,unknown,2,2022-06-02T10:49:33.916+02:00,2022-06-02T10:32:51.428+02:00,114,2.435923,0,0,97.87743,0,0,2022-06-02T10:49:41.582+02:00,675852581.5816828,0,14.55078,101.0232,1,0.88
2022-06-02T10:49:43.520+02:00,1654159781.967906,53.22896961682616,10.39893408719131,42.38089,-1,-1,-1,-1,39.47640991210938,40,-9999,34335.26620225,0.0618133544921875,-0.3369903564453125,-0.945648193359375,34335.25746625,-2.511694424068334,0.06496145698635714,0.3604633844746921,-0.05104300379753113,0.07371347397565842,-0.1329204589128494,-0.006620943546295166,-0.006941795349121094,-0.01002681255340576,XArbitraryZVertical,0.08587646178770836,-0.1604535280493494,-0.9331144660723785,0.3101249054588521,0.06074386835098267,-0.3527078628540039,-0.9337598085403442,0,0,0,-1,-1,34325.84144204167,unknown,2,2022-06-02T10:49:33.916+02:00,2022-06-02T10:32:51.428+02:00,114,2.435923,0,0,97.87743,0,0,2022-06-02T10:49:41.582+02:00,675852581.5816828,0,14.55078,101.0232,1,0.88
2022-06-02T10:49:43.530+02:00,1654159781.967906,53.22896961682616,10.39893408719131,42.38089,-1,-1,-1,-1,39.47640991210938,40,-9999,34335.27617525,0.0616302490234375,-0.3505706787109375,-0.947723388671875,34335.26743825,-2.512865721333762,0.06561485438315411,0.3600968115140403,-0.001255828654393554,0.06908152252435684,-0.1363275349140167,0.001686856150627136,0.01307037472724915,-0.01305055618286133,XArbitraryZVertical,0.08603267684100452,-0.1602309212185547,-0.9333009002109467,0.3096353219442595,0.06136244535446167,-0.3523648381233215,-0.9338488578796387,0,0,0,-1,-1,34325.84144204167,unknown,2,2022-06-02T10:49:33.916+02:00,2022-06-02T10:32:51.428+02:00,114,2.435923,0,0,97.87743,0,0,2022-06-02T10:49:41.582+02:00,675852581.5816828,0,14.55078,101.0232,1,0.88
2022-06-02T10:49:43.540+02:00,1654159781.967906,53.22896961682616,10.39893408719131,42.38089,-1,-1,-1,-1,39.47640991210938,40,-9999,34335.28614725,0.064361572265625,-0.359466552734375,-0.9431610107421875,34335.27741125,-2.514218336948089,0.06624995261116051,0.3601863927764682,0.0421086885035038,0.06736005842685699,-0.1488063037395477,-0.001131907105445862,0.01118585467338562,-0.01106125116348267,XArbitraryZVertical,0.08623405998316029,-0.1602329114929067,-0.9334746891424661,0.309053853431419,0.06195342540740967,-0.3524486720561981,-0.9337782263755798,0,0,0,-1,-1,34325.84144204167,unknown,2,2022-06-02T10:49:33.916+02:00,2022-06-02T10:32:51.428+02:00,114,2.435923,0,0,97.87743,0,0,2022-06-02T10:49:41.582+02:00,675852581.5816828,0,14.55078,101.0232,1,0.88
2022-06-02T10:49:43.550+02:00,1654159781.967906,53.22896961682616,10.39893408719131,42.38089,-1,-1,-1,-1,39.47640991210938,40,-9999,34335.29612025,0.0714874267578125,-0.364410400390625,-0.931732177734375,34335.28738325,-2.515642003702862,0.06712163527612404,0.3607002074804852,0.05903045833110809,0.08605100959539413,-0.1400506496429443,-0.0009113401174545288,-0.001562744379043579,-0.01434820890426636,XArbitraryZVertical,0.08660321695556976,-0.1604006614865994,-0.9336103469125582,0.3084529435926221,0.06275520473718643,-0.3529294729232788,-0.9335430264472961,0,0,0,-1,-1,34325.84144204167,unknown,2,2022-06-02T10:49:33.916+02:00,2022-06-02T10:32:51.428+02:00,114,2.435923,0,0,97.87743,0,0,2022-06-02T10:49:41.582+02:00,675852581.5816828,0,14.55078,101.0232,1,0.88
2022-06-02T10:49:43.560+02:00,1654159781.967906,53.22896961682616,10.39893408719131,42.38089,-1,-1,-1,-1,39.47640991210938,40,-9999,34335.30609225,0.0779571533203125,-0.3710784912109375,-0.923126220703125,34335.29735625,-2.517013637376851,0.06810594025309528,0.3614513784264649,0.03744873404502869,0.07386438548564911,-0.1340076625347137,0.003024891018867493,-0.007604390382766724,-0.00483328104019165,XArbitraryZVertical,0.08706403144139825,-0.1606606121709885,-0.9337110096078342,0.3078828107801356,0.06365600973367691,-0.3536322116851807,-0.9332160353660583,0,0,0,-1,-1,34325.84144204167,unknown,2,2022-06-02T10:49:33.916+02:00,2022-06-02T10:32:51.428+02:00,114,2.435923,0,0,97.87743,0,0,2022-06-02T10:49:41.582+02:00,675852581.5816828,0,14.55078,101.0232,1,0.88
2022-06-02T10:49:43.570+02:00,1654159781.967906,53.22896961682616,10.39893408719131,42.38089,-1,-1,-1,-1,39.47640991210938,40,-9999,34335.31606525,0.0786590576171875,-0.368499755859375,-0.9246826171875,34335.30732825,-2.518408300089574,0.06926273731062242,0.3621448811971409,0.02707146108150482,0.08109752833843231,-0.1319121569395065,0.009423911571502686,-0.01244896650314331,0.004964172840118408,XArbitraryZVertical,0.08759459476750472,-0.1608686953181881,-0.9338120526830689,0.3073166551095072,0.06471851468086243,-0.3542807996273041,-0.9328969120979309,0,0,0,-1,-1,34325.84144204167,unknown,2,2022-06-02T10:49:33.916+02:00,2022-06-02T10:32:51.428+02:00,114,2.435923,0,0,97.87743,0,0,2022-06-02T10:49:41.582+02:00,675852581.5816828,0,14.55078,101.0232,1,0.88
2022-06-02T10:49:43.580+02:00,1654159781.967906,53.22896961682616,10.39893408719131,42.38089,-1,-1,-1,-1,39.47640991210938,40,-9999,34335.32603725,0.0769805908203125,-0.362396240234375,-0.917694091796875,34335.31730125,-2.519740066142562,0.07046925874434723,0.3627141933359029,0.02285860665142536,0.07911693304777145,-0.1193484291434288,0.01299707591533661,-0.0161433219909668,0.008971810340881348,XArbitraryZVertical,0.08813478345526969,-0.161008888771581,-0.9339117389377999,0.3067855436283593,0.06582982093095779,-0.3548131287097931,-0.9326167702674866,0,0,0,-1,-1,34325.84144204167,unknown,2,2022-06-02T10:49:33.916+02:00,2022-06-02T10:32:51.428+02:00,114,2.435923,0,0,97.87743,0,0,2022-06-02T10:49:41.582+02:00,675852581.5816828,0,14.55078,101.0232,1,0.88
2022-06-02T10:49:43.590+02:00,1654159781.967906,53.22896961682616,10.39893408719131,42.38089,-1,-1,-1,-1,39.47640991210938,40,-9999,34335.33601025,0.0692138671875,-0.359405517578125,-0.91058349609375,34335.32727325,-2.520894687942522,0.07146096664355191,0.3632308887226685,0.02120615914463997,0.07330147922039032,-0.1096315160393715,0.01124607771635056,-0.01077744364738464,0.01099663972854614,XArbitraryZVertical,0.08858094271632264,-0.1611501946099025,-0.9339977591181163,0.3063205522462629,0.06674157083034515,-0.3552961647510529,-0.9323680400848389,0,0,0,-1,-1,34325.84144204167,unknown,2,2022-06-02T10:49:33.916+02:00,2022-06-02T10:32:51.428+02:00,114,2.435923,0,0,97.87743,0,0,2022-06-02T10:49:41.582+02:00,675852581.5816828,0,14.55078,101.0232,1,0.88
2022-06-02T10:49:43.600+02:00,1654159781.967906,53.22896961682616,10.39893408719131,42.38089,-1,-1,-1,-1,39.47640991210938,40,-9999,34335.34598225,0.0613861083984375,-0.3603057861328125,-0.9073333740234375,34335.33724625,-2.521963382128649,0.07218540393151433,0.3633929041434287,0.02635937556624413,0.06053748354315758,-0.1082219034433365,0.007462024688720703,-0.006078898906707764,0.01667368412017822,XArbitraryZVertical,0.08885695725043063,-0.1611627187725601,-0.9341143647150804,0.3058780544516145,0.0674128457903862,-0.3554476201534271,-0.9322620630264282,0,0,0,-1,-1,34325.84144204167,unknown,2,2022-06-02T10:49:33.916+02:00,2022-06-02T10:32:51.428+02:00,114,2.435923,0,0,97.87743,0,0,2022-06-02T10:49:41.582+02:00,675852581.5816828,0,14.55078,101.0232,1,0.88
2022-06-02T10:49:43.610+02:00,1654159781.967906,53.22896961682616,10.39893408719131,42.38089,-1,-1,-1,-1,39.47640991210938,40,-9999,34335.35595525,0.060333251953125,-0.3629608154296875,-0.9077606201171875,34335.34721825,-2.523126120088505,0.07310945992418422,0.363004009931481,0.02139946073293686,0.06572816520929337,-0.1159106940031052,-0.003037802875041962,-0.004947066307067871,0.02225720882415771,XArbitraryZVertical,0.08913796579515149,-0.160890801409599,-0.9342865216418234,0.3054134566251497,0.06828437000513077,-0.355084091424942,-0.9323371648788452,0,0,0,-1,-1,34325.84144204167,unknown,2,2022-06-02T10:49:33.916+02:00,2022-06-02T10:32:51.428+02:00,114,2.435923,0,0,97.87743,0,0,2022-06-02T10:49:41.582+02:00,675852581.5816828,0,14.55078,101.0232,1,0.88
2022-06-02T10:49:43.620+02:00,1654159781.967906,53.22896961682616,10.39893408719131,42.38089,-1,-1,-1,-1,39.47640991210938,40,-9999,34335.36592825,0.07110595703125,-0.356781005859375,-0.90447998046875,34335.35719125,-2.524360274923775,0.07404242234286201,0.3626571170953768,0.01827424019575119,0.06363305449485779,-0.1275335252285004,-0.009303070604801178,-0.007193982601165771,0.0243910551071167,XArbitraryZVertical,0.08942389269059181,-0.1606407845324883,-0.9344648569616411,0.3049153705008308,0.06916328519582748,-0.3547597825527191,-0.9323958158493042,0,0,0,-1,-1,34325.84144204167,unknown,2,2022-06-02T10:49:33.916+02:00,2022-06-02T10:32:51.428+02:00,114,2.435923,0,0,97.87743,0,0,2022-06-02T10:49:41.582+02:00,675852581.5816828,0,14.55078,101.0232,1,0.88
2022-06-02T10:49:43.630+02:00,1654159781.967906,53.22896961682616,10.39893408719131,42.38089,-1,-1,-1,-1,39.47640991210938,40,-9999,34335.37590025,0.0827484130859375,-0.3467254638671875,-0.9048614501953125,34335.36716425,-2.52566799719988,0.07493840572662518,0.3625650183274916,0.01023682113736868,0.05763188377022743,-0.1328559815883636,-0.005624294281005859,-0.006837606430053711,0.02549046277999878,XArbitraryZVertical,0.08972412615580887,-0.1605196414161991,-0.9346323796091164,0.30437719354293,0.07000111043453217,-0.3546736538410187,-0.9323660731315613,0,0,0,-1,-1,34325.84144204167,unknown,2,2022-06-02T10:49:33.916+02:00,2022-06-02T10:32:51.428+02:00,114,2.435923,0,0,97.87743,0,0,2022-06-02T10:49:41.582+02:00,675852581.5816828,0,14.55078,101.0232,1,0.88
2022-06-02T10:49:43.640+02:00,1654159781.967906,53.22896961682616,10.39893408719131,42.38089,-1,-1,-1,-1,39.47640991210938,40,-9999,34335.38587325,0.0901641845703125,-0.342926025390625,-0.9135589599609375,34335.37713625,-2.527074691079409,0.07591006840238847,0.362585175810914,-0.004231334198266268,0.05732375755906105,-0.1379567235708237,0.005753666162490845,0.0017414391040802,0.02875655889511108,XArbitraryZVertical,0.09006830038224711,-0.1604445938285341,-0.9348007509651144,0.3037975482622108,0.07090648263692856,-0.3546925187110901,-0.9322904944419861,0,0,0,-1,-1,34325.84144204167,unknown,2,2022-06-02T10:49:33.916+02:00,2022-06-02T10:32:51.428+02:00,114,2.435923,0,0,97.87743,0,0,2022-06-02T10:49:41.582+02:00,675852581.5816828,0,14.55078,101.0232,1,0.88
2022-06-02T10:49:43.650+02:00,1654159781.967906,53.22896961682616,10.39893408719131,42.38089,-1,-1,-1,-1,39.47640991210938,40,-9999,34335.39584525,0.096466064453125,-0.3380889892578125,-0.91064453125,34335.38710925,-2.528541455223674,0.07698801645692448,0.3627486983907569,-0.009229022078216076,0.04194506630301476,-0.1344651877880096,0.01451882719993591,0.009706854820251465,0.02270132303237915,XArbitraryZVertical,0.09047825665272603,-0.1604240225402628,-0.9349596156376397,0.3031967816170512,0.07190693914890289,-0.354845404624939,-0.9321556091308594,0,0,0,-1,-1,34325.84144204167,unknown,2,2022-06-02T10:49:33.916+02:00,2022-06-02T10:32:51.428+02:00,114,2.435923,0,0,97.87743,0,0,2022-06-02T10:49:41.582+02:00,675852581.5816828,0,14.55078,101.0232,1,0.88
2022-06-02T10:49:43.660+02:00,1654159781.967906,53.22896961682616,10.39893408719131,42.38089,-1,-1,-1,-1,39.47640991210938,40,-9999,34335.40581825,0.0923309326171875,-0.3301544189453125,-0.9124298095703125,34335.39708125,-2.529965221799797,0.07799595420733559,0.3630569110000104,0.004732333123683929,0.02734402008354664,-0.1238088235259056,0.0206679105758667,0.0142521858215332,0.01897925138473511,XArbitraryZVertical,0.09087988461805382,-0.1604806655916702,-0.9351012803717311,0.3026092333754029,0.07283793389797211,-0.3551335334777832,-0.9319735765457153,0,0,0,-1,-1,34325.84144204167,unknown,2,2022-06-02T10:49:33.916+02:00,2022-06-02T10:32:51.428+02:00,114,2.435923,0,0,97.87743,0,0,2022-06-02T10:49:41.582+02:00,675852581.5816828,0,14.55078,101.0232,1,0.88
2022-06-02T10:49:43.670+02:00,1654159781.967906,53.22896961682616,10.39893408719131,42.38089,-1,-1,-1,-1,39.47640991210938,40,-9999,34335.41579025,0.084747314453125,-0.3320770263671875,-0.913665771484375,34335.40705425,-2.531301969095142,0.07881118816038661,0.3634286755551471,0.02026877179741859,0.01425529271364212,-0.1236223131418228,0.02199376374483109,0.02045905590057373,0.02191591262817383,XArbitraryZVertical,0.09120746339888244,-0.1605929153064023,-0.9352320499311743,0.3020463352985681,0.07358728349208832,-0.3554810285568237,-0.9317822456359863,0,0,0,-1,-1,34325.84144204167,unknown,2,2022-06-02T10:49:33.916+02:00,2022-06-02T10:32:51.428+02:00,114,2.435923,0,0,97.87743,0,0,2022-06-02T10:49:41.582+02:00,675852581.5816828,0,14.55078,101.0232,1,0.88
2022-06-02T10:49:43.680+02:00,1654159781.967906,53.22896961682616,10.39893408719131,42.38089,-1,-1,-1,-1,39.47640991210938,40,-9999,34335.42576325,0.085662841796875,-0.3426666259765625,-0.91192626953125,34335.41702625,-2.532646393450839,0.07945232106152635,0.3638076805324859,0.0208141878247261,0.01092474348843098,-0.121401235461235,0.01502890884876251,0.02655059099197388,0.01878923177719116,XArbitraryZVertical,0.09145388719025332,-0.160735607182566,-0.9353708336979272,0.3014659681215966,0.07417396456003189,-0.3558352589607239,-0.9316005110740662,0,0,0,-1,-1,34325.84144204167,unknown,2,2022-06-02T10:49:33.916+02:00,2022-06-02T10:32:51.428+02:00,114,2.435923,0,0,97.87743,0,0,2022-06-02T10:49:41.582+02:00,675852581.5816828,0,14.55078,101.0232,1,0.88
2022-06-02T10:49:43.690+02:00,1654159781.967906,53.22896961682616,10.39893408719131,42.38089,-1,-1,-1,-1,39.47640991210938,40,-9999,34335.43573525,0.08935546875,-0.3509979248046875,-0.912994384765625,34335.42699925,-2.533878649459011,0.07987566969131614,0.3641396680394708,0.02238602936267853,0.01129128411412239,-0.1187195926904678,0.008952416479587555,0.02097094058990479,0.01806008815765381,XArbitraryZVertical,0.09160052940825925,-0.160884244448579,-0.935506423639169,0.3009208462857247,0.07455892115831375,-0.3561455011367798,-0.9314512014389038,0,0,0,-1,-1,34325.84144204167,unknown,2,2022-06-02T10:49:33.916+02:00,2022-06-02T10:32:51.428+02:00,114,2.435923,0,0,97.87743,0,0,2022-06-02T10:49:41.582+02:00,675852581.5816828,0,14.55078,101.0232,1,0.88
2022-06-02T10:49:43.700+02:00,1654159781.967906,53.22896961682616,10.39893408719131,42.38089,-1,-1,-1,-1,39.47640991210938,40,-9999,34335.44570825,0.0909881591796875,-0.3554840087890625,-0.910400390625,34335.43697125,-2.535051759432164,0.08020446947513984,0.3644734760931673,0.01276003289967775,0.01130566466599703,-0.1171416640281677,0.01231779903173447,0.01018968224525452,0.0189545750617981,XArbitraryZVertical,0.09170779495065828,-0.1610454529315839,-0.9356369070013875,0.3003957712860283,0.07485564798116684,-0.3564574122428894,-0.9313080906867981,0,0,0,-1,-1,34325.84144204167,unknown,2,2022-06-02T10:49:33.916+02:00,2022-06-02T10:32:51.428+02:00,114,2.435923,0,0,97.87743,0,0,2022-06-02T10:49:41.582+02:00,675852581.5816828,0,14.55078,101.0232,1,0.88
2022-06-02T10:49:43.710+02:00,1654159781.967906,53.22896961682616,10.39893408719131,42.38089,-1,-1,-1,-1,39.47640991210938,40,-9999,34335.45568025,0.0863494873046875,-0.3477630615234375,-0.9135284423828125,34335.44694425,-2.536250360226749,0.0805553532624935,0.3646686265801068,0.006661971099674702,-0.003198087913915515,-0.1147198081016541,0.01573502272367477,0.002712100744247437,0.02036952972412109,XArbitraryZVertical,0.09180334336449282,-0.1611394949839772,-0.9357827234313881,0.2998617378438297,0.07517682760953903,-0.3566397428512573,-0.9312124252319336,0,0,0,-1,-1,34325.84144204167,unknown,2,2022-06-02T10:49:33.916+02:00,2022-06-02T10:32:51.428+02:00,114,2.435923,0,0,97.87743,0,0,2022-06-02T10:49:41.582+02:00,675852581.5816828,0,14.55078,101.0232,1,0.88
2022-06-02T10:49:43.727+02:00,1654159781.967906,53.22896961682616,10.39893408719131,42.38089,-1,-1,-1,-1,39.47640991210938,40,-9999,34335.46565325,0.078338623046875,-0.3354339599609375,-0.9285430908203125,34335.45691625,-2.537420737657686,0.08096303352631321,0.364664372597914,-0.006629865616559982,-0.005734482780098915,-0.1044424027204514,0.01430241763591766,0.002799689769744873,0.02043187618255615,XArbitraryZVertical,0.09189920759452366,-0.1611301880207721,-0.9359396677135094,0.2993469096077675,0.07555658370256424,-0.3566357493400574,-0.9311832189559937,0,0,0,-1,-1,34325.84144204167,unknown,2,2022-06-02T10:49:33.916+02:00,2022-06-02T10:32:51.428+02:00,114,2.435923,0,0,97.87743,0,0,2022-06-02T10:49:41.582+02:00,675852581.5816828,0,14.55078,101.0232,1,0.88
2022-06-02T10:49:43.730+02:00,1654159781.967906,53.22896961682616,10.39893408719131,42.38089,-1,-1,-1,-1,39.47640991210938,40,-9999,34335.47562525,0.0746612548828125,-0.32403564453125,-0.93292236328125,34335.46688925,-2.53853312128214,0.08144585473298054,0.3644784940175084,-0.0008951921481639147,-0.004069030284881592,-0.0966096967458725,0.00707254558801651,0.01274257898330688,0.0108025074005127,XArbitraryZVertical,0.09200909084325251,-0.1610217196770717,-0.9361010250680465,0.2988666697485315,0.07601156085729599,-0.3564620912075043,-0.9312126636505127,0,0,0,-1,-1,34325.84144204167,unknown,2,2022-06-02T10:49:33.916+02:00,2022-06-02T10:32:51.428+02:00,114,2.435923,0,0,97.87743,0,0,2022-06-02T10:49:41.582+02:00,675852581.5816828,0,14.55078,101.0232,1,0.88
2022-06-02T10:49:43.740+02:00,1654159781.967906,53.22896961682616,10.39893408719131,42.38089,-1,-1,-1,-1,39.47640991210938,40,-9999,34335.48559825,0.0774688720703125,-0.3250579833984375,-0.9311065673828125,34335.47686125,-2.539676699246902,0.08210097957863188,0.3643562357793011,0.0185589324682951,0.01689191162586212,-0.09996980428695679,-0.0007127150893211365,0.02735310792922974,0.0002826452255249023,XArbitraryZVertical,0.09220631622183928,-0.160919092049821,-0.9362528256742819,0.2983849592910765,0.07662517577409744,-0.3563478589057922,-0.9312061071395874,0,0,0,-1,-1,34325.84144204167,unknown,2,2022-06-02T10:49:33.916+02:00,2022-06-02T10:32:51.428+02:00,114,2.435923,0,0,97.87743,0,0,2022-06-02T10:49:41.582+02:00,675852581.5816828,0,14.55078,101.0232,1,0.88
2022-06-02T10:49:43.750+02:00,1654159781.967906,53.22896961682616,10.39893408719131,42.38089,-1,-1,-1,-1,39.47640991210938,40,-9999,34335.49557125,0.0866546630859375,-0.338775634765625,-0.9225921630859375,34335.48683425,-2.540854835731601,0.08292732939780921,0.3644024511183631,0.03328315168619156,0.02331838570535183,-0.1034297123551369,-0.002747304737567902,0.03310304880142212,-0.002055704593658447,XArbitraryZVertical,0.09250496092277261,-0.1608720314971598,-0.9363860851554873,0.2978996048173412,0.07739328593015671,-0.356391042470932,-0.9311260581016541,0,0,0,-1,-1,34325.84144204167,unknown,2,2022-06-02T10:49:33.916+02:00,2022-06-02T10:32:51.428+02:00,114,2.435923,0,0,97.87743,0,0,2022-06-02T10:49:41.582+02:00,675852581.5816828,0,14.55078,101.0232,1,0.88
2022-06-02T10:49:43.760+02:00,1654159781.967906,53.22896961682616,10.39893408719131,42.38089,-1,-1,-1,-1,39.47640991210938,40,-9999,34335.50554325,0.0926513671875,-0.355194091796875,-0.9083404541015625,34335.49680725001,-2.542077050012142,0.08379848600776231,0.3644008950936161,0.02651526033878326,0.0327712744474411,-0.1104623228311539,0.002621330320835114,0.02792888879776001,0.001539170742034912,XArbitraryZVertical,0.09281435346015708,-0.1607982836539803,-0.9365277326830485,0.2973973649814642,0.07820446044206619,-0.356389582157135,-0.9310588240623474,0,0,0,-1,-1,34325.84144204167,unknown,2,2022-06-02T10:49:33.916+02:00,2022-06-02T10:32:51.428+02:00,114,2.435923,0,0,97.87743,0,0,2022-06-02T10:49:41.582+02:00,675852581.5816828,0,14.55078,101.0232,1,0.88
2022-06-02T10:49:43.770+02:00,1654159781.967906,53.22896961682616,10.39893408719131,42.38089,-1,-1,-1,-1,39.47640991210938,40,-9999,34335.51551625,0.09478759765625,-0.36297607421875,-0.8965301513671875,34335.50677925,-2.543351510401652,0.08465033081982834,0.3642898003326264,0.002240590984001756,0.02832415141165257,-0.1190294697880745,0.009851016104221344,0.01117774844169617,0.01335251331329346,XArbitraryZVertical,0.0930951529974034,-0.1606786897253193,-0.9366877528413143,0.2968697441932854,0.07900089770555496,-0.3562857806682587,-0.9310312867164612,0,0,0,-1,-1,34325.84144204167,unknown,2,2022-06-02T10:49:33.916+02:00,2022-06-02T10:32:51.428+02:00,114,2.435923,0,0,97.87743,0,0,2022-06-02T10:49:41.582+02:00,675852581.5816828,0,14.55078,101.0232,1,0.88
2022-06-02T10:49:43.780+02:00,1654159781.967906,53.22896961682616,10.39893408719131,42.38089,-1,-1,-1,-1,39.47640991210938,40,-9999,34335.52548825,0.096466064453125,-0.36102294921875,-0.8991546630859375,34335.51675225001,-2.544656554515969,0.0854240667822104,0.3639739000130465,-0.0375177413225174,0.01331723853945732,-0.123187467455864,0.01377499848604202,-0.003277599811553955,0.02681565284729004,XArbitraryZVertical,0.09330825929284667,-0.1604760687126088,-0.9368745306839029,0.2963227459724875,0.07973084598779678,-0.3559905886650085,-0.931082010269165,0,0,0,-1,-1,34325.84144204167,unknown,2,2022-06-02T10:49:33.916+02:00,2022-06-02T10:32:51.428+02:00,114,2.435923,0,0,97.87743,0,0,2022-06-02T10:49:41.582+02:00,675852581.5816828,0,14.55078,101.0232,1,0.88
2022-06-02T10:49:43.790+02:00,1654159781.967906,53.22896961682616,10.39893408719131,42.38089,-1,-1,-1,-1,39.47640991210938,40,-9999,34335.53546125,0.09686279296875,-0.355865478515625,-0.9072723388671875,34335.52672425,-2.545901527832411,0.08605033251599187,0.3634071159536245,-0.06583783775568008,-0.003931344952434301,-0.114581972360611,0.01544814556837082,-0.008354425430297852,0.03709828853607178,XArbitraryZVertical,0.09342215604791615,-0.1601746645613772,-0.9370820200775573,0.2957932962736683,0.08033125847578049,-0.3554608821868896,-0.931232750415802,0,0,0,-1,-1,34325.84144204167,unknown,2,2022-06-02T10:49:33.916+02:00,2022-06-02T10:32:51.428+02:00,114,2.435923,0,0,97.87743,0,0,2022-06-02T10:49:41.582+02:00,675852581.5816828,0,14.55078,101.0232,1,0.88
2022-06-02T10:49:43.800+02:00,1654159781.967906,53.22896961682616,10.39893408719131,42.38089,-1,-1,-1,-1,39.47640991210938,40,-9999,34335.54543325,0.0977020263671875,-0.3480224609375,-0.9174346923828125,34335.53669725001,-2.547116167268171,0.08653966900999936,0.3626492828867618,-0.07354475557804108,-0.01326519157737494,-0.1174430027604103,0.01617465913295746,-0.005446553230285645,0.02835476398468018,XArbitraryZVertical,0.09344795391549074,-0.1598022484082733,-0.9373087089615306,0.295267948408342,0.08081019669771194,-0.3547524511814117,-0.9314614534378052,0,0,0,-1,-1,34325.84144204167,unknown,2,2022-06-02T10:49:33.916+02:00,2022-06-02T10:32:51.428+02:00,114,2.435923,0,0,97.87743,0,0,2022-06-02T10:49:41.582+02:00,675852581.5816828,0,14.55078,101.0232,1,0.88
2022-06-02T10:49:43.810+02:00,1654159781.967906,53.22896961682616,10.39893408719131,42.38089,-1,-1,-1,-1,39.47640991210938,40,-9999,34335.55540625,0.097198486328125,-0.3408966064453125,-0.930389404296875,34335.54666925,-2.548336354277982,0.08688088837658815,0.3617286882425133,-0.07385661453008652,-0.008160444907844067,-0.1234652101993561,0.01668301224708557,0.001764506101608276,0.0213584303855896,XArbitraryZVertical,0.09338160985934423,-0.1593753126049257,-0.9375576799432865,0.2947287125043175,0.08115632832050323,-0.3538915812969208,-0.9317587614059448,0,0,0,-1,-1,34325.84144204167,unknown,2,2022-06-02T10:49:33.916+02:00,2022-06-02T10:32:51.428+02:00,114,2.435923,0,0,97.87743,0,0,2022-06-02T10:49:41.582+02:00,675852581.5816828,0,14.55078,101.0232,1,0.88
2022-06-02T10:49:43.820+02:00,1654159781.967906,53.22896961682616,10.39893408719131,42.38089,-1,-1,-1,-1,39.47640991210938,40,-9999,34335.56537825,0.09918212890625,-0.3311920166015625,-0.9425811767578125,34335.55664225001,-2.549548416280937,0.08714058280316186,0.3606649478024762,-0.06097357720136642,-0.01764662377536297,-0.1180059984326363,0.01649988442659378,0.007040739059448242,0.009855687618255615,XArbitraryZVertical,0.09325826049760204,-0.1588924819250458,-0.9378219230512449,0.2941871941318269,0.08143101632595062,-0.3528964817523956,-0.9321121573448181,0,0,0,-1,-1,34325.84144204167,unknown,2,2022-06-02T10:49:33.916+02:00,2022-06-02T10:32:51.428+02:00,114,2.435923,0,0,97.87743,0,0,2022-06-02T10:49:41.582+02:00,675852581.5816828,0,14.55078,101.0232,1,0.88
2022-06-02T10:49:43.830+02:00,1654159781.967906,53.22896961682616,10.39893408719131,42.38089,-1,-1,-1,-1,39.47640991210938,40,-9999,34335.57535125,0.1045684814453125,-0.33111572265625,-0.9419097900390625,34335.56661425,-2.550691228446264,0.08736780901826179,0.3595326063403254,-0.0633009597659111,-0.00632801279425621,-0.1133138909935951,0.0154445543885231,0.01621967554092407,-0.003086268901824951,XArbitraryZVertical,0.09311622340935249,-0.1583787187733128,-0.9380832561514141,0.2936755387233311,0.0816776305437088,-0.351836770772934,-0.9324911236763,0,0,0,-1,-1,34325.84144204167,unknown,2,2022-06-02T10:49:33.916+02:00,2022-06-02T10:32:51.428+02:00,114,2.435923,0,0,97.87743,0,0,2022-06-02T10:49:41.582+02:00,675852581.5816828,0,14.55078,101.0232,1,0.88
2022-06-02T10:49:43.839+02:00,1654159781.967906,53.22896961682616,10.39893408719131,42.38089,-1,-1,-1,-1,39.47640991210938,40,-9999,34335.58532325,0.10394287109375,-0.3326263427734375,-0.931549072265625,34335.57658725001,-2.551792708633821,0.08764260596035772,0.3586155891197444,-0.03612819314002991,-0.01435930747538805,-0.1066213622689247,0.01941730082035065,0.02042704820632935,-0.01079863309860229,XArbitraryZVertical,0.09303033297764583,-0.1579573880746456,-0.9383161367785243,0.2931855466201932,0.08196207880973816,-0.3509782254695892,-0.9327896237373352,0,0,0,-1,-1,34325.84144204167,unknown,2,2022-06-02T10:49:33.916+02:00,2022-06-02T10:32:51.428+02:00,114,2.435923,0,0,97.87743,0,0,2022-06-02T10:49:41.582+02:00,675852581.5816828,0,14.55078,101.0232,1,0.88
2022-06-02T10:49:43.850+02:00,1654159781.967906,53.22896961682616,10.39893408719131,42.38089,-1,-1,-1,-1,39.47640991210938,40,-9999,34335.59529625,0.0924072265625,-0.3455657958984375,-0.92718505859375,34335.58655925,-2.552842147079117,0.08797152067605091,0.3582881351032441,-0.01296215318143368,-0.02033810503780842,-0.08939723670482635,0.02291510254144669,0.01926594972610474,-0.003615856170654297,XArbitraryZVertical,0.09305630425274751,-0.1578036510628557,-0.9384844898522915,0.2927207967267539,0.08227897435426712,-0.3506715893745422,-0.9328770637512207,0,0,0,-1,-1,34325.84144204167,unknown,2,2022-06-02T10:49:33.916+02:00,2022-06-02T10:32:51.428+02:00,114,2.435923,0,0,97.87743,0,0,2022-06-02T10:49:41.582+02:00,675852581.5816828,0,14.55078,101.0232,1,0.88
2022-06-02T10:49:43.859+02:00,1654159781.967906,53.22896961682616,10.39893408719131,42.38089,-1,-1,-1,-1,39.47640991210938,40,-9999,34335.60526925,0.083099365234375,-0.3625946044921875,-0.91998291015625,34335.59653225001,-2.553856625623536,0.08835828850917396,0.3584869259235768,0.002827462973073125,-0.01837002858519554,-0.08561608195304871,0.01692996919155121,0.01514911651611328,0.003286600112915039,XArbitraryZVertical,0.09318531612566072,-0.1578880723121981,-0.9385966155269233,0.2922742069373742,0.08263362199068069,-0.3508577346801758,-0.9327757358551025,0,0,0,-1,-1,34325.84144204167,unknown,2,2022-06-02T10:49:33.916+02:00,2022-06-02T10:32:51.428+02:00,114,2.435923,0,0,97.87743,0,0,2022-06-02T10:49:41.582+02:00,675852581.5816828,0,14.55078,101.0232,1,0.88
2022-06-02T10:49:43.869+02:00,1654159781.967906,53.22896961682616,10.39893408719131,42.38089,-1,-1,-1,-1,39.47640991210938,40,-9999,34335.61524125,0.078826904296875,-0.37646484375,-0.923004150390625,34335.60650525001,-2.554916713207232,0.0888978056346611,0.3588888593847611,-0.009906929917633533,-0.007801450323313475,-0.08993041515350342,0.005513958632946014,-0.001549124717712402,0.008152008056640625,XArbitraryZVertical,0.09341044432597512,-0.1580482992832505,-0.9386894219196095,0.2918173126468759,0.08312433212995529,-0.35123410820961,-0.9325904250144958,0,0,0,-1,-1,34325.84144204167,unknown,2,2022-06-02T10:49:33.916+02:00,2022-06-02T10:32:51.428+02:00,114,2.435923,0,0,97.87743,0,0,2022-06-02T10:49:41.582+02:00,675852581.5816828,0,14.55078,101.0232,1,0.88
2022-06-02T10:49:43.879+02:00,1654159781.967906,53.22896961682616,10.39893408719131,42.38089,-1,-1,-1,-1,39.47640991210938,40,-9999,34335.62521425,0.0858612060546875,-0.383056640625,-0.9228668212890625,34335.61647725001,-2.556022331992141,0.0896243859106618,0.3589930824610172,-0.03560270741581917,0.008271525613963604,-0.09753800183534622,-0.00434613972902298,-0.01794624328613281,0.01136606931686401,XArbitraryZVertical,0.09367851314418212,-0.158043227797802,-0.9388071201436633,0.2913553332520792,0.08379863202571869,-0.3513316810131073,-0.9324933290481567,0,0,0,-1,-1,34325.84144204167,unknown,2,2022-06-02T10:49:33.916+02:00,2022-06-02T10:32:51.428+02:00,114,2.435923,0,0,97.87743,0,0,2022-06-02T10:49:41.582+02:00,675852581.5816828,0,14.55078,101.0232,1,0.88
2022-06-02T10:49:43.889+02:00,1654159781.967906,53.22896961682616,10.39893408719131,42.38089,-1,-1,-1,-1,39.47640991210938,40,-9999,34335.63518625,0.093658447265625,-0.3744964599609375,-0.92578125,34335.62645025001,-2.557184280332816,0.09048926747220871,0.3585016054193441,-0.08008152991533279,0.01885883323848248,-0.1083128675818443,-0.00374913215637207,-0.0294232964515686,0.01000022888183594,XArbitraryZVertical,0.09392503904528149,-0.1577399821328563,-0.9389807284586407,0.2908803100095225,0.08462069183588028,-0.3508715033531189,-0.9325923919677734,0,0,0,-1,-1,34325.84144204167,unknown,2,2022-06-02T10:49:33.916+02:00,2022-06-02T10:32:51.428+02:00,114,2.435923,0,0,97.87743,0,0,2022-06-02T10:49:41.582+02:00,675852581.5816828,0,14.55078,101.0232,1,0.88
2022-06-02T10:49:43.899+02:00,1654159781.967906,53.22896961682616,10.39893408719131,42.38089,-1,-1,-1,-1,39.47640991210938,40,-9999,34335.64515925,0.0950927734375,-0.35638427734375,-0.9285736083984375,34335.63642225001,-2.558322513238583,0.0913645166306645,0.3573878060275263,-0.1192672848701477,0.01608888059854507,-0.1046571433544159,0.003501467406749725,-0.03226703405380249,0.008086621761322021,XArbitraryZVertical,0.09409317506688838,-0.1571407196134415,-0.9392069944957878,0.2904193855279766,0.08547251671552658,-0.34982830286026,-0.9329065084457397,0,0,0,-1,-1,34325.84144204167,unknown,2,2022-06-02T10:49:33.916+02:00,2022-06-02T10:32:51.428+02:00,114,2.435923,0,0,97.87743,0,0,2022-06-02T10:49:41.582+02:00,675852581.5816828,0,14.55078,101.0232,1,0.88
2022-06-02T10:49:43.910+02:00,1654159781.967906,53.22896961682616,10.39893408719131,42.38089,-1,-1,-1,-1,39.47640991210938,40,-9999,34335.65513125,0.0940704345703125,-0.34002685546875,-0.935943603515625,34335.64639525001,-2.559456196807061,0.09216382146932843,0.3555829728196853,-0.1517335772514343,0.01745383813977242,-0.1125286743044853,0.009671121835708618,-0.01982879638671875,0.006264805793762207,XArbitraryZVertical,0.09413196228854459,-0.1562261709755418,-0.9394987354285156,0.2899564987536529,0.08627612888813019,-0.3481369316577911,-0.9334651231765747,0,0,0,-1,-1,34325.84144204167,unknown,2,2022-06-02T10:49:33.916+02:00,2022-06-02T10:32:51.428+02:00,114,2.435923,0,0,97.87743,0,0,2022-06-02T10:49:41.582+02:00,675852581.5816828,0,14.55078,101.0232,1,0.88
2022-06-02T10:49:43.919+02:00,1654159781.967906,53.22896961682616,10.39893408719131,42.38089,-1,-1,-1,-1,39.47640991210938,40,-9999,34335.66510425,0.0872955322265625,-0.3220977783203125,-0.9257354736328125,34335.65636725001,-2.560702562016233,0.09302106026513783,0.3535947432332286,-0.1283867061138153,0.01464260555803776,-0.1277555674314499,0.007952339947223663,-0.003138631582260132,0.0032309889793396,XArbitraryZVertical,0.09416522632393044,-0.1552219113757158,-0.9398196080891021,0.2894444089974256,0.08714042603969574,-0.3462723791599274,-0.9340781569480896,0,0,0,-1,-1,34325.84144204167,unknown,2,2022-06-02T10:49:33.916+02:00,2022-06-02T10:32:51.428+02:00,114,2.435923,0,0,97.87743,0,0,2022-06-02T10:49:41.582+02:00,675852581.5816828,0,14.55078,101.0232,1,0.88
2022-06-02T10:49:43.929+02:00,1654159781.967906,53.22896961682616,10.39893408719131,42.38089,-1,-1,-1,-1,39.47640991210938,40,-9999,34335.67507625,0.0703125,-0.32196044921875,-0.91802978515625,34335.66634025001,-2.562117378739985,0.09401152569223348,0.3520590657617721,-0.08658701181411743,0.01646323129534721,-0.132598802447319,0.003818824887275696,0.01170140504837036,0.001780450344085693,XArbitraryZVertical,0.0943112551001398,-0.1544200127283259,-0.94011664849558,0.2888608558291871,0.08811537176370621,-0.3448313176631927,-0.9345197081565857,0,0,0,-1,-1,34325.84144204167,unknown,2,2022-06-02T10:49:33.916+02:00,2022-06-02T10:32:51.428+02:00,114,2.435923,0,0,97.87743,0,0,2022-06-02T10:49:41.582+02:00,675852581.5816828,0,14.55078,101.0232,1,0.88
2022-06-02T10:49:43.939+02:00,1654159781.967906,53.22896961682616,10.39893408719131,42.38089,-1,-1,-1,-1,39.47640991210938,40,-9999,34335.68504925,0.0595855712890625,-0.339874267578125,-0.904144287109375,34335.67631225001,-2.56367409551303,0.09496119390721357,0.3510956700153309,-0.04871739819645882,0.01745366118848324,-0.1537102162837982,-0.007918559014797211,0.0238889753818512,0.01035791635513306,XArbitraryZVertical,0.09450636553087582,-0.15390129606262,-0.9403834755579087,0.2882047799986053,0.08903427422046661,-0.3439268469810486,-0.9347658753395081,0,0,0,-1,-1,34325.84144204167,unknown,2,2022-06-02T10:49:33.916+02:00,2022-06-02T10:32:51.428+02:00,114,2.435923,0,0,97.87743,0,0,2022-06-02T10:49:41.582+02:00,675852581.5816828,0,14.55078,101.0232,1,0.88
2022-06-02T10:49:43.949+02:00,1654159781.967906,53.22896961682616,10.39893408719131,42.38089,-1,-1,-1,-1,39.47640991210938,40,-9999,34335.69502125,0.0501708984375,-0.35797119140625,-0.8958282470703125,34335.68628525001,-2.565278030654784,0.09574380990166091,0.3507803927710872,-0.04079542681574821,0.02850071899592876,-0.1590583026409149,-0.0244685634970665,0.01669597625732422,0.02158057689666748,XArbitraryZVertical,0.09470817591750072,-0.1537155161888991,-0.9406057874331053,0.2875114731238601,0.0897761657834053,-0.3436307907104492,-0.9348037838935852,0,0,0,-1,-1,34325.84144204167,unknown,2,2022-06-02T10:49:33.916+02:00,2022-06-02T10:32:51.428+02:00,114,2.435923,0,0,97.87743,0,0,2022-06-02T10:49:41.582+02:00,675852581.5816828,0,14.55078,101.0232,1,0.88
2022-06-02T10:49:43.959+02:00,1654159781.967906,53.22896961682616,10.39893408719131,42.38089,-1,-1,-1,-1,39.47640991210938,40,-9999,34335.70499425,0.04083251953125,-0.3700103759765625,-0.8850860595703125,34335.69625725001,-2.566892962686865,0.09645775821892497,0.3507350854897469,-0.06841320544481277,0.03969185426831245,-0.1717900931835175,-0.03490306437015533,-0.00388491153717041,0.03383028507232666,XArbitraryZVertical,0.09491374238415183,-0.153668155823637,-0.9408078660984494,0.2868068053076075,0.09044504165649414,-0.3435882329940796,-0.9347549676895142,0,0,0,-1,-1,34325.84144204167,unknown,2,2022-06-02T10:49:33.916+02:00,2022-06-02T10:32:51.428+02:00,114,2.435923,0,0,97.87743,0,0,2022-06-02T10:49:41.582+02:00,675852581.5816828,0,14.55078,101.0232,1,0.88
2022-06-02T10:49:43.969+02:00,1654159781.967906,53.22896961682616,10.39893408719131,42.38089,-1,-1,-1,-1,39.47640991210938,40,-9999,34335.71496725,0.0235595703125,-0.3761749267578125,-0.8771820068359375,34335.70623025001,-2.568602308838721,0.09730591073798939,0.3505169428279785,-0.1150342375040054,0.04707147553563118,-0.1835749745368958,-0.04444640874862671,-0.02090498805046082,0.04133510589599609,XArbitraryZVertical,0.09515201487182742,-0.1535247668368412,-0.9410320362508613,0.2860681183407826,0.09124510735273361,-0.3433833718299866,-0.9347524642944336,0,0,0,-1,-1,34325.84144204167,unknown,2,2022-06-02T10:49:33.916+02:00,2022-06-02T10:32:51.428+02:00,114,2.435923,0,0,97.87743,0,0,2022-06-02T10:49:41.582+02:00,675852581.5816828,0,14.55078,101.0232,1,0.88
2022-06-02T10:49:43.979+02:00,1654159781.967906,53.22896961682616,10.39893408719131,42.38089,-1,-1,-1,-1,39.47640991210938,40,-9999,34335.72493925,-0.0050048828125,-0.37921142578125,-0.8726348876953125,34335.71620325001,-2.570490749635724,0.09838605806019794,0.3497021190370189,-0.1696647256612778,0.05168220400810242,-0.2059457898139954,-0.05602730065584183,-0.02987959980964661,0.05648303031921387,XArbitraryZVertical,0.09540584590347145,-0.1530750469691849,-0.9413238307215345,0.285263399117857,0.09228217601776123,-0.3426179587841034,-0.9349315166473389,0,0,0,-1,-1,34325.84144204167,unknown,2,2022-06-02T10:49:33.916+02:00,2022-06-02T10:32:51.428+02:00,114,2.435923,0,0,97.87743,0,0,2022-06-02T10:49:41.582+02:00,675852581.5816828,0,14.55078,101.0232,1,0.88
2022-06-02T10:49:43.989+02:00,1654159781.967906,53.22896961682616,10.39893408719131,42.38089,-1,-1,-1,-1,39.47640991210938,40,-9999,34335.73491225,-0.0395965576171875,-0.3738250732421875,-0.8754119873046875,34335.72617525001,-2.572703382979044,0.09970700116380317,0.3479921099314691,-0.209079384803772,0.05412778258323669,-0.2492632418870926,-0.07968977838754654,-0.0363999605178833,0.0584525465965271,XArbitraryZVertical,0.09562943824854764,-0.1521834709675474,-0.9417297942886077,0.2843242820631172,0.09357526898384094,-0.3410109579563141,-0.9353904128074646,0,0,0,-1,-1,34325.84144204167,unknown,2,2022-06-02T10:49:33.916+02:00,2022-06-02T10:32:51.428+02:00,114,2.435923,0,0,97.87743,0,0,2022-06-02T10:49:41.582+02:00,675852581.5816828,0,14.55078,101.0232,1,0.88
2022-06-02T10:49:43.999+02:00,1654159781.967906,53.22896961682616,10.39893408719131,42.38089,-1,-1,-1,-1,39.47640991210938,40,-9999,34335.74488425,-0.0665435791015625,-0.3595428466796875,-0.8688201904296875,34335.73614825001,-2.575367703963529,0.1012979135690902,0.3454771122262903,-0.2563486099243164,0.08109442144632339,-0.3026926219463348,-0.1128651723265648,-0.03919249773025513,0.06443232297897339,XArbitraryZVertical,0.09584097468175666,-0.150894649869573,-0.9422569777050097,0.2831907962460905,0.09514970332384109,-0.3386456370353699,-0.9360906481742859,0,0,0,-1,-1,34325.84144204167,unknown,2,2022-06-02T10:49:33.916+02:00,2022-06-02T10:32:51.428+02:00,114,2.435923,0,0,97.87743,0,0,2022-06-02T10:49:41.582+02:00,675852581.5816828,0,14.55078,101.0232,1,0.88
2022-06-02T10:49:44.009+02:00,1654159781.967906,53.22896961682616,10.39893408719131,42.38089,-1,-1,-1,-1,39.47640991210938,40,-9999,34335.75485725,-0.09930419921875,-0.38970947265625,-0.8744659423828125,34335.74612025001,-2.578565514975705,0.103240014290954,0.3422662366666785,-0.3190838098526001,0.09722217172384262,-0.3675827383995056,-0.1482265293598175,-0.03363996744155884,0.06326258182525635,XArbitraryZVertical,0.0960897261955439,-0.1492526616729661,-0.9429015592804973,0.2818282788640206,0.09707906097173691,-0.3356227278709412,-0.9369808435440063,0,0,0,-1,-1,34325.84144204167,unknown,2,2022-06-02T10:49:33.916+02:00,2022-06-02T10:32:51.428+02:00,114,2.435923,0,0,97.87743,0,0,2022-06-02T10:49:41.582+02:00,675852581.5816828,0,14.55078,101.0232,1,0.88
2022-06-02T10:49:44.019+02:00,1654159781.967906,53.22896961682616,10.39893408719131,42.38089,-1,-1,-1,-1,39.47640991210938,40,-9999,34335.76482925,-0.1410064697265625,-0.5113372802734375,-0.8821563720703125,34335.75609325001,-2.582832195735273,0.1055148839819758,0.337902896798367,-0.4898236095905304,0.05809500813484192,-0.5862200260162354,-0.1735213398933411,-0.0258820652961731,0.06845396757125854,XArbitraryZVertical,0.09627080799453513,-0.1470696239258909,-0.9437767319954119,0.2799785806563042,0.09936361014842987,-0.3315092921257019,-0.9382049441337585,0,0,0,-1,-1,34325.84144204167,unknown,2,2022-06-02T10:49:33.916+02:00,2022-06-02T10:32:51.428+02:00,114,2.435923,0,0,97.87743,0,0,2022-06-02T10:49:41.582+02:00,675852581.5816828,0,14.55078,101.0232,1,0.88
2022-06-02T10:49:44.029+02:00,1654159781.967906,53.22896961682616,10.39893408719131,42.38089,-1,-1,-1,-1,39.47640991210938,40,-9999,34335.77480225,-0.149322509765625,-0.4692535400390625,-0.8686370849609375,34335.76606525001,-2.589355673838318,0.1086026147758547,0.3318018549655867,-0.580049455165863,0.1490170210599899,-0.7128411531448364,-0.2268670201301575,-0.1236242353916168,0.06502413749694824,XArbitraryZVertical,0.09645668565911025,-0.1440579920589515,-0.9450688147818154,0.2771072867548737,0.1024773716926575,-0.3257471323013306,-0.9398868083953857,0,0,0,-1,-1,34325.84144204167,unknown,2,2022-06-02T10:49:33.916+02:00,2022-06-02T10:32:51.428+02:00,114,2.435923,0,0,97.87743,0,0,2022-06-02T10:49:41.582+02:00,675852581.5816828,0,14.55078,101.0232,1,0.88
2022-06-02T10:49:44.039+02:00,1654159781.967906,53.22896961682616,10.39893408719131,42.38089,-1,-1,-1,-1,39.47640991210938,40,-9999,34335.78477425,-0.157135009765625,-0.475738525390625,-0.860260009765625,34335.77603825001,-2.596091388158703,0.1125570832486076,0.3241416823869884,-0.8539340496063232,0.1836652755737305,-0.7326635718345642,-0.2503455877304077,-0.1804823875427246,0.06269943714141846,XArbitraryZVertical,0.0968588100643825,-0.1401973989551123,-0.9464635956500084,0.2741713136966792,0.1064704656600952,-0.3184952735900879,-0.941926121711731,0,0,0,-1,-1,34325.84144204167,unknown,2,2022-06-02T10:49:33.916+02:00,2022-06-02T10:32:51.428+02:00,114,2.435923,0,0,97.87743,0,0,2022-06-02T10:49:41.582+02:00,675852581.5816828,0,14.55078,101.0232,1,0.88
2022-06-02T10:49:44.049+02:00,1654159781.967906,53.22896961682616,10.39893408719131,42.38089,-1,-1,-1,-1,39.47640991210938,40,-9999,34335.79474725,-0.1735687255859375,-0.487945556640625,-0.8663482666015625,34335.78601025001,-2.603246055493156,0.1166965280278249,0.3133629455526713,-1.14967155456543,0.183486744761467,-0.8813551068305969,-0.2624189853668213,-0.1542953848838806,0.0817188024520874,XArbitraryZVertical,0.09695282285607866,-0.1348482815332734,-0.9481424103288044,0.2710019183820432,0.1107618808746338,-0.3082595467567444,-0.9448322057723999,0,0,0,-1,-1,34325.84144204167,unknown,2,2022-06-02T10:49:33.916+02:00,2022-06-02T10:32:51.428+02:00,114,2.435923,0,0,97.87743,0,0,2022-06-02T10:49:41.582+02:00,675852581.5816828,0,14.55078,101.0232,1,0.88
2022-06-02T10:49:44.059+02:00,1654159781.967906,53.22896961682616,10.39893408719131,42.38089,-1,-1,-1,-1,39.47640991210938,40,-9999,34335.80471925,-0.1906890869140625,-0.4543304443359375,-0.8778533935546875,34335.79598325001,-2.611816939605938,0.1211916702859881,0.2998077165701215,-1.370027661323547,0.1915886104106903,-1.055787920951843,-0.2764827311038971,-0.1913273334503174,0.08803421258926392,XArbitraryZVertical,0.09681754080409713,-0.1281931764784632,-0.9501792263613913,0.2671185349820031,0.1155024841427803,-0.29533651471138,-0.9483857750892639,0,0,0,-1,-1,34325.84144204167,unknown,2,2022-06-02T10:49:33.916+02:00,2022-06-02T10:32:51.428+02:00,114,2.435923,0,0,97.87743,0,0,2022-06-02T10:49:41.582+02:00,675852581.5816828,0,14.55078,101.0232,1,0.88
2022-06-02T10:49:44.069+02:00,1654159781.967906,53.22896961682616,10.39893408719131,42.38089,-1,-1,-1,-1,39.47640991210938,40,-9999,34335.81469225,-0.1960296630859375,-0.432037353515625,-0.8878021240234375,34335.80595525001,-2.621348613669213,0.1261117374302894,0.2839331052053277,-1.587157607078552,0.2407156825065613,-1.146467685699463,-0.300047755241394,-0.1968410611152649,0.08199143409729004,XArbitraryZVertical,0.09660032180312236,-0.1204144154728174,-0.9524423857191142,0.2627209009693983,0.1207417175173759,-0.2801334261894226,-0.9523375034332275,0,0,0,-1,-1,34325.84144204167,unknown,2,2022-06-02T10:49:33.916+02:00,2022-06-02T10:32:51.428+02:00,114,2.435923,0,0,97.87743,0,0,2022-06-02T10:49:41.582+02:00,675852581.5816828,0,14.55078,101.0232,1,0.88
2022-06-02T10:49:44.079+02:00,1654159781.967906,53.22896961682616,10.39893408719131,42.38089,-1,-1,-1,-1,39.47640991210938,40,-9999,34335.82466525,-0.176605224609375,-0.4259033203125,-0.8925628662109375,34335.81592825001,-2.631399294993299,0.1315519889990809,0.2657603396779045,-1.785552144050598,0.3028067350387573,-1.24928891658783,-0.3210258185863495,-0.1783818006515503,0.07348406314849854,XArbitraryZVertical,0.09640079683651891,-0.1114850530430106,-0.9548371773340845,0.2580001690876391,0.1265678107738495,-0.2626429796218872,-0.956555962562561,0,0,0,-1,-1,34325.84144204167,unknown,2,2022-06-02T10:49:33.916+02:00,2022-06-02T10:32:51.428+02:00,114,2.435923,0,0,97.87743,0,0,2022-06-02T10:49:41.582+02:00,675852581.5816828,0,14.55078,101.0232,1,0.88
2022-06-02T10:49:44.089+02:00,1654159781.967906,53.22896961682616,10.39893408719131,42.38089,-1,-1,-1,-1,39.47640991210938,40,-9999,34335.83463725,-0.1502838134765625,-0.4019012451171875,-0.8853607177734375,34335.82590125001,-2.642128769492477,0.1373871200712204,0.2455725189768017,-1.958086967468262,0.3164197504520416,-1.355855584144592,-0.3264347016811371,-0.1896733492612839,0.07044684886932373,XArbitraryZVertical,0.09620784698215386,-0.1015624751098191,-0.9573377445401082,0.2528511283518532,0.1328464299440384,-0.2431116998195648,-0.9608582258224487,0,0,0,-1,-1,34325.84144204167,unknown,2,2022-06-02T10:49:33.916+02:00,2022-06-02T10:32:51.428+02:00,114,2.435923,0,0,97.87743,0,0,2022-06-02T10:49:41.582+02:00,675852581.5816828,0,14.55078,101.0232,1,0.88
2022-06-02T10:49:44.099+02:00,1654159781.967906,53.22896961682616,10.39893408719131,42.38089,-1,-1,-1,-1,39.47640991210938,40,-9999,34335.84461025,-0.14581298828125,-0.3980255126953125,-0.8974456787109375,34335.83587325001,-2.653381499221145,0.1430892756137209,0.223628287106793,-2.09624981880188,0.298911064863205,-1.438074827194214,-0.3038913011550903,-0.1959403455257416,0.0730593204498291,XArbitraryZVertical,0.0958301724895587,-0.09082746896348448,-0.9598997290202893,0.2473046227796163,0.1390506029129028,-0.2217690199613571,-0.9651339054107666,0,0,0,-1,-1,34325.84144204167,unknown,2,2022-06-02T10:49:33.916+02:00,2022-06-02T10:32:51.428+02:00,114,2.435923,0,0,97.87743,0,0,2022-06-02T10:49:41.582+02:00,675852581.5816828,0,14.55078,101.0232,1,0.88
2022-06-02T10:49:44.109+02:00,1654159781.967906,53.22896961682616,10.39893408719131,42.38089,-1,-1,-1,-1,39.47640991210938,40,-9999,34335.85458225,-0.1549224853515625,-0.377288818359375,-0.9342193603515625,34335.84584625001,-2.665333364638804,0.1486624168654745,0.200390075007678,-2.174091339111328,0.3184360265731812,-1.560016632080078,-0.2916816473007202,-0.1977837383747101,0.08392590284347534,XArbitraryZVertical,0.09533507910704274,-0.07950671939533326,-0.9624849535762839,0.241273061957262,0.1451514959335327,-0.1990516185760498,-0.9691798090934753,0,0,0,-1,-1,34325.84144204167,unknown,2,2022-06-02T10:49:33.916+02:00,2022-06-02T10:32:51.428+02:00,114,2.435923,0,0,97.87743,0,0,2022-06-02T10:49:41.582+02:00,675852581.5816828,0,14.55078,101.0232,1,0.88
2022-06-02T10:49:44.119+02:00,1654159781.967906,53.22896961682616,10.39893408719131,42.38089,-1,-1,-1,-1,39.47640991210938,40,-9999,34335.86455525,-0.1511077880859375,-0.3465118408203125,-0.9793853759765625,34335.85581825001,-2.678239111979796,0.1545864948870897,0.176134357226687,-2.261376857757568,0.3872920572757721,-1.689023971557617,-0.3013391196727753,-0.2200386226177216,0.06304395198822021,XArbitraryZVertical,0.09499671475124426,-0.06768701217829462,-0.9650569527764529,0.2346471332593253,0.1515893489122391,-0.1752250641584396,-0.9727882146835327,0,0,0,-1,-1,34325.84144204167,unknown,2,2022-06-02T10:49:33.916+02:00,2022-06-02T10:32:51.428+02:00,114,2.435923,0,0,97.87743,0,0,2022-06-02T10:49:41.582+02:00,675852581.5816828,0,14.55078,101.0232,1,0.88
2022-06-02T10:49:44.129+02:00,1654159781.967906,53.22896961682616,10.39893408719131,42.38089,-1,-1,-1,-1,39.47640991210938,40,-9999,34335.87452725,-0.122406005859375,-0.2967071533203125,-1.023330688476562,34335.86579125001,-2.691880647239304,0.1611041830914884,0.1505748220192515,-2.387784004211426,0.4758948981761932,-1.780015110969543,-0.3142175674438477,-0.2163418084383011,0.02896761894226074,XArbitraryZVertical,0.09493349647194255,-0.05519493448641691,-0.9675633602760372,0.2275133866483923,0.1585931777954102,-0.1500064730644226,-0.9758822917938232,0,0,0,-1,-1,34325.84144204167,unknown,2,2022-06-02T10:49:33.916+02:00,2022-06-02T10:32:51.428+02:00,114,2.435923,0,0,97.87743,0,0,2022-06-02T10:49:41.582+02:00,675852581.5816828,0,14.55078,101.0232,1,0.88
