loggingTime(txt),locationTimestamp_since1970(s),locationLatitude(WGS84),locationLongitude(WGS84),locationAltitude(m),locationSpeed(m/s),locationSpeedAccuracy(m/s),locationCourse(°),locationCourseAccuracy(°),locationVerticalAccuracy(m),locationHorizontalAccuracy(m),locationFloor(Z),accelerometerTimestamp_sinceReboot(s),accelerometerAccelerationX(G),accelerometerAccelerationY(G),accelerometerAccelerationZ(G),motionTimestamp_sinceReboot(s),motionYaw(rad),motionRoll(rad),motionPitch(rad),motionRotationRateX(rad/s),motionRotationRateY(rad/s),motionRotationRateZ(rad/s),motionUserAccelerationX(G),motionUserAccelerationY(G),motionUserAccelerationZ(G),motionAttitudeReferenceFrame(txt),motionQuaternionX(R),motionQuaternionY(R),motionQuaternionZ(R),motionQuaternionW(R),motionGravityX(G),motionGravityY(G),motionGravityZ(G),motionMagneticFieldX(µT),motionMagneticFieldY(µT),motionMagneticFieldZ(µT),motionHeading(°),motionMagneticFieldCalibrationAccuracy(Z),activityTimestamp_sinceReboot(s),activity(txt),activityActivityConfidence(Z),activityActivityStartDate(txt),pedometerStartDate(txt),pedometerNumberofSteps(N),pedometerAverageActivePace(s/m),pedometerCurrentPace(s/m),pedometerCurrentCadence(steps/s),pedometerDistance(m),pedometerFloorAscended(N),pedometerFloorDescended(N),pedometerEndDate(txt),altimeterTimestamp_sinceReboot(s),altimeterReset(bool),altimeterRelativeAltitude(m),altimeterPressure(kPa),batteryState(N),batteryLevel(R)
2022-06-02T10:51:22.629+02:00,1654159882.238837,53.22895223888472,10.39876643403945,34.92013,-1,-1,-1,-1,22.9221019744873,40,-9999,34413.34588366667,0.107757568359375,-0.398773193359375,-0.86285400390625,34413.33714666667,-2.102847985555999,0.06315353127675589,0.4783132636145081,-0.1390777379274368,0.006447437684983015,0.07752517610788345,0.008073434233665466,0.01644998788833618,0.03088498115539551,XArbitraryZVertical,0.1441430853315278,-0.1903191773757292,-0.8392897967763797,0.4884608408835073,0.05602871254086494,-0.4602823853492737,-0.886002779006958,0,0,0,-1,-1,34409.33442916667,unknown,2,2022-06-02T10:51:18.591+02:00,2022-06-02T10:32:51.428+02:00,137,2.25677,0.5971239,2.005515,117.0835,0,0,2022-06-02T10:51:21.147+02:00,675852668.3826994,0,15.39844,101.0076,1,0.88
2022-06-02T10:51:22.632+02:00,1654159882.238837,53.22895223888472,10.39876643403945,34.92013,-1,-1,-1,-1,22.9221019744873,40,-9999,34413.35585566667,0.0626220703125,-0.443115234375,-0.866790771484375,34413.34711966667,-2.102486868791418,0.06273420529217312,0.4786015850052672,0.1608211845159531,-0.04440011829137802,-0.007791099138557911,0.06159967184066772,0.06594604253768921,0.03237807750701904,XArbitraryZVertical,0.1440700678937465,-0.1905176065961863,-0.8392000169045863,0.4885594285192743,0.05564885959029198,-0.4605383276939392,-0.885893702507019,0,0,0,-1,-1,34409.33442916667,unknown,2,2022-06-02T10:51:18.591+02:00,2022-06-02T10:32:51.428+02:00,137,2.25677,0.5971239,2.005515,117.0835,0,0,2022-06-02T10:51:21.147+02:00,675852668.3826994,0,15.39844,101.0076,1,0.88
2022-06-02T10:51:22.634+02:00,1654159882.238837,53.22895223888472,10.39876643403945,34.92013,-1,-1,-1,-1,22.9221019744873,40,-9999,34413.36582866667,0.02685546875,-0.4825592041015625,-0.87188720703125,34413.35709166667,-2.102957600302809,0.06248972193097017,0.4810244079712002,0.2858006656169891,-0.04955147206783295,-0.02951556816697121,0.03380991518497467,0.04452043771743774,0.01963299512863159,XArbitraryZVertical,0.1444985199063033,-0.1916367595472805,-0.8390645495191673,0.4882276828975256,0.05536242946982384,-0.4626875817775726,-0.8847910761833191,0,0,0,-1,-1,34409.33442916667,unknown,2,2022-06-02T10:51:18.591+02:00,2022-06-02T10:32:51.428+02:00,137,2.25677,0.5971239,2.005515,117.0835,0,0,2022-06-02T10:51:21.147+02:00,675852668.3826994,0,15.39844,101.0076,1,0.88
2022-06-02T10:51:22.647+02:00,1654159882.238837,53.22895223888472,10.39876643403945,34.92013,-1,-1,-1,-1,22.9221019744873,40,-9999,34413.37580066667,0.0224609375,-0.5011444091796875,-0.877838134765625,34413.36706466667,-2.103264044315623,0.06219448678925381,0.4836144016391116,0.2104615718126297,-0.03853690624237061,0.009864794090390205,-0.01323272660374641,0.002564519643783569,0.01506286859512329,XArbitraryZVertical,0.1449605562330207,-0.1928270174228233,-0.8388728601061901,0.4879513731273188,0.05502653867006302,-0.4649821221828461,-0.883608341217041,0,0,0,-1,-1,34409.33442916667,unknown,2,2022-06-02T10:51:18.591+02:00,2022-06-02T10:32:51.428+02:00,137,2.25677,0.5971239,2.005515,117.0835,0,0,2022-06-02T10:51:21.147+02:00,675852668.3826994,0,15.39844,101.0076,1,0.88
2022-06-02T10:51:22.649+02:00,1654159882.238837,53.22895223888472,10.39876643403945,34.92013,-1,-1,-1,-1,22.9221019744873,40,-9999,34413.38577266667,0.0377197265625,-0.4836578369140625,-0.8905792236328125,34413.37703666667,-2.103171084877077,0.06189450617612254,0.4852033926069801,0.08785922080278397,-0.008282328024506569,0.02448581345379353,-0.03283461928367615,-0.0292171835899353,0.008572936058044434,XArbitraryZVertical,0.1452211130995565,-0.1935657330425632,-0.8386947081323801,0.4878876465235756,0.05471569672226906,-0.4663882851600647,-0.8828862905502319,0,0,0,-1,-1,34409.33442916667,unknown,2,2022-06-02T10:51:18.591+02:00,2022-06-02T10:32:51.428+02:00,137,2.25677,0.5971239,2.005515,117.0835,0,0,2022-06-02T10:51:21.147+02:00,675852668.3826994,0,15.39844,101.0076,1,0.88
2022-06-02T10:51:22.657+02:00,1654159882.238837,53.22895223888472,10.39876643403945,34.92013,-1,-1,-1,-1,22.9221019744873,40,-9999,34413.39574566667,0.0470428466796875,-0.454559326171875,-0.8986663818359375,34413.38700866667,-2.103024402470034,0.06178447538080127,0.4857016118721022,0.00495532900094986,-0.005832931026816368,0.009346121922135353,-0.02399507164955139,-0.02917325496673584,-0.0003048181533813477,XArbitraryZVertical,0.1453075065684893,-0.1937926648661214,-0.838611263812813,0.4879153295099101,0.05460419878363609,-0.4668289422988892,-0.8826602697372437,0,0,0,-1,-1,34409.33442916667,unknown,2,2022-06-02T10:51:18.591+02:00,2022-06-02T10:32:51.428+02:00,137,2.25677,0.5971239,2.005515,117.0835,0,0,2022-06-02T10:51:21.147+02:00,675852668.3826994,0,15.39844,101.0076,1,0.88
2022-06-02T10:51:22.668+02:00,1654159882.238837,53.22895223888472,10.39876643403945,34.92013,-1,-1,-1,-1,22.9221019744873,40,-9999,34413.40571766667,0.0438690185546875,-0.445281982421875,-0.9072265625,34413.39698166667,-2.103072198865275,0.06182803608492767,0.4857856629364373,0.00534921046346426,0.001875855145044625,-0.01561941578984261,-0.01118320226669312,-0.001831471920013428,-0.01198881864547729,XArbitraryZVertical,0.1453411007852774,-0.1938210878793677,-0.8386103304544296,0.4878955021352079,0.05464022234082222,-0.4669032692909241,-0.8826187252998352,0,0,0,-1,-1,34409.33442916667,unknown,2,2022-06-02T10:51:18.591+02:00,2022-06-02T10:32:51.428+02:00,137,2.25677,0.5971239,2.005515,117.0835,0,0,2022-06-02T10:51:21.147+02:00,675852668.3826994,0,15.39844,101.0076,1,0.88
2022-06-02T10:51:22.677+02:00,1654159882.238837,53.22895223888472,10.39876643403945,34.92013,-1,-1,-1,-1,22.9221019744873,40,-9999,34413.41569066667,0.0426025390625,-0.45098876953125,-0.9098052978515625,34413.40695366667,-2.103377935347042,0.06205123386034156,0.4860817988721639,0.04030985757708549,0.008965455926954746,-0.03262170404195786,-0.007495909929275513,0.01999104022979736,-0.02051615715026855,XArbitraryZVertical,0.145475371115502,-0.1939141458436305,-0.8386355507390626,0.4877751221579047,0.05482864379882812,-0.4671651124954224,-0.8824684619903564,0,0,0,-1,-1,34409.33442916667,unknown,2,2022-06-02T10:51:18.591+02:00,2022-06-02T10:32:51.428+02:00,137,2.25677,0.5971239,2.005515,117.0835,0,0,2022-06-02T10:51:21.147+02:00,675852668.3826994,0,15.39844,101.0076,1,0.88
2022-06-02T10:51:22.687+02:00,1654159882.238837,53.22895223888472,10.39876643403945,34.92013,-1,-1,-1,-1,22.9221019744873,40,-9999,34413.42566266667,0.0415496826171875,-0.459442138671875,-0.9069976806640625,34413.41692666667,-2.103919577327789,0.06251198488095731,0.4866550704106838,0.06500375270843506,0.02972532995045185,-0.05224147439002991,-0.01269225776195526,0.02116921544075012,-0.02827048301696777,XArbitraryZVertical,0.1457520912650623,-0.1940837192881393,-0.8386699232628206,0.4875661214247113,0.05521849915385246,-0.4676719307899475,-0.8821756839752197,0,0,0,-1,-1,34409.33442916667,unknown,2,2022-06-02T10:51:18.591+02:00,2022-06-02T10:32:51.428+02:00,137,2.25677,0.5971239,2.005515,117.0835,0,0,2022-06-02T10:51:21.147+02:00,675852668.3826994,0,15.39844,101.0076,1,0.88
2022-06-02T10:51:22.697+02:00,1654159882.238837,53.22895223888472,10.39876643403945,34.92013,-1,-1,-1,-1,22.9221019744873,40,-9999,34413.43563566667,0.043853759765625,-0.45611572265625,-0.902313232421875,34413.42689866667,-2.104595676067841,0.06320941710914092,0.4873270018840876,0.0552874282002449,0.04557770863175392,-0.05398156493902206,-0.01380644738674164,0.01204317808151245,-0.02538818120956421,XArbitraryZVertical,0.1461382593618062,-0.1942473924108565,-0.8387083891527631,0.4873189987003913,0.05581387877464294,-0.4682657420635223,-0.8818231225013733,0,0,0,-1,-1,34409.33442916667,unknown,2,2022-06-02T10:51:18.591+02:00,2022-06-02T10:32:51.428+02:00,137,2.25677,0.5971239,2.005515,117.0835,0,0,2022-06-02T10:51:21.147+02:00,675852668.3826994,0,15.39844,101.0076,1,0.88
2022-06-02T10:51:22.707+02:00,1654159882.238837,53.22895223888472,10.39876643403945,34.92013,-1,-1,-1,-1,22.9221019744873,40,-9999,34413.44560766667,0.0424041748046875,-0.446990966796875,-0.8898468017578125,34413.43687166667,-2.105226320507239,0.06409002682811685,0.4877555878996092,0.01821862533688545,0.06057104095816612,-0.0455678403377533,-0.01348674297332764,0.008454561233520508,-0.02563804388046265,XArbitraryZVertical,0.146547851109398,-0.1942603871054772,-0.8387493869735169,0.4871201578564086,0.05657754093408585,-0.468644380569458,-0.8815732598304749,0,0,0,-1,-1,34409.33442916667,unknown,2,2022-06-02T10:51:18.591+02:00,2022-06-02T10:32:51.428+02:00,137,2.25677,0.5971239,2.005515,117.0835,0,0,2022-06-02T10:51:21.147+02:00,675852668.3826994,0,15.39844,101.0076,1,0.88
2022-06-02T10:51:22.717+02:00,1654159882.238837,53.22895223888472,10.39876643403945,34.92013,-1,-1,-1,-1,22.9221019744873,40,-9999,34413.45558066667,0.037322998046875,-0.4477996826171875,-0.8823089599609375,34413.44684366667,-2.105782249507611,0.06498752010254487,0.48781206055268,-0.01074817776679993,0.06898076832294464,-0.05208253115415573,-0.01258246600627899,0.01874306797981262,-0.01486659049987793,XArbitraryZVertical,0.1468836448462824,-0.1941065179675076,-0.8388125616597384,0.4869715120104825,0.05736700445413589,-0.468694269657135,-0.8814957141876221,0,0,0,-1,-1,34409.33442916667,unknown,2,2022-06-02T10:51:18.591+02:00,2022-06-02T10:32:51.428+02:00,137,2.25677,0.5971239,2.005515,117.0835,0,0,2022-06-02T10:51:21.147+02:00,675852668.3826994,0,15.39844,101.0076,1,0.88
2022-06-02T10:51:22.726+02:00,1654159882.238837,53.22895223888472,10.39876643403945,34.92013,-1,-1,-1,-1,22.9221019744873,40,-9999,34413.46555266667,0.0381317138671875,-0.4539642333984375,-0.8717498779296875,34413.45681666667,-2.106333772384218,0.06584029189924044,0.4877347022902842,-0.007268225774168968,0.06851578503847122,-0.06350669264793396,-0.01733435690402985,0.02354228496551514,-0.00277942419052124,XArbitraryZVertical,0.1471695204424407,-0.1939066721242413,-0.8388929061296412,0.4868265926543193,0.05812108516693115,-0.4686259329319,-0.8814826607704163,0,0,0,-1,-1,34409.33442916667,unknown,2,2022-06-02T10:51:18.591+02:00,2022-06-02T10:32:51.428+02:00,137,2.25677,0.5971239,2.005515,117.0835,0,0,2022-06-02T10:51:21.147+02:00,675852668.3826994,0,15.39844,101.0076,1,0.88
2022-06-02T10:51:22.736+02:00,1654159882.238837,53.22895223888472,10.39876643403945,34.92013,-1,-1,-1,-1,22.9221019744873,40,-9999,34413.47552566667,0.0476837158203125,-0.4510040283203125,-0.8607940673828125,34413.46678866667,-2.107014444010627,0.0668184991101831,0.4877857513818221,0.007379293441772461,0.08145954459905624,-0.06686859577894211,-0.02300150692462921,0.01716345548629761,0.002052783966064453,XArbitraryZVertical,0.1475259493379243,-0.193740396265088,-0.8389806993410686,0.4866334569823503,0.05898173153400421,-0.4686710238456726,-0.8814014792442322,0,0,0,-1,-1,34409.33442916667,unknown,2,2022-06-02T10:51:18.591+02:00,2022-06-02T10:32:51.428+02:00,137,2.25677,0.5971239,2.005515,117.0835,0,0,2022-06-02T10:51:21.147+02:00,675852668.3826994,0,15.39844,101.0076,1,0.88
2022-06-02T10:51:22.746+02:00,1654159882.238837,53.22895223888472,10.39876643403945,34.92013,-1,-1,-1,-1,22.9221019744873,40,-9999,34413.48549766667,0.058380126953125,-0.4518890380859375,-0.8629608154296875,34413.47676166667,-2.107681947402922,0.06779403861715305,0.4877930454191173,0.003845811123028398,0.07491935044527054,-0.0620056688785553,-0.01734559237957001,0.01588815450668335,0.0169144868850708,XArbitraryZVertical,0.147872294995788,-0.1935554297188487,-0.8390702582570323,0.4864476685208592,0.05984131619334221,-0.4686774611473083,-0.8813401460647583,0,0,0,-1,-1,34409.33442916667,unknown,2,2022-06-02T10:51:18.591+02:00,2022-06-02T10:32:51.428+02:00,137,2.25677,0.5971239,2.005515,117.0835,0,0,2022-06-02T10:51:21.147+02:00,675852668.3826994,0,15.39844,101.0076,1,0.88
2022-06-02T10:51:22.757+02:00,1654159882.238837,53.22895223888472,10.39876643403945,34.92013,-1,-1,-1,-1,22.9221019744873,40,-9999,34413.49547066667,0.0728912353515625,-0.4512176513671875,-0.873687744140625,34413.48673366667,-2.108260934114195,0.0685798248528712,0.4871558047265411,-0.01358972676098347,0.07695569097995758,-0.06454361230134964,-0.007774163037538528,0.0179344117641449,0.01878243684768677,XArbitraryZVertical,0.1479956030381919,-0.1931372380665796,-0.8392249084267864,0.4863093775856224,0.06055429205298424,-0.4681144654750824,-0.8815906047821045,0,0,0,-1,-1,34409.33442916667,unknown,2,2022-06-02T10:51:18.591+02:00,2022-06-02T10:32:51.428+02:00,137,2.25677,0.5971239,2.005515,117.0835,0,0,2022-06-02T10:51:21.147+02:00,675852668.3826994,0,15.39844,101.0076,1,0.88
2022-06-02T10:51:22.766+02:00,1654159882.238837,53.22895223888472,10.39876643403945,34.92013,-1,-1,-1,-1,22.9221019744873,40,-9999,34413.50544266667,0.0729217529296875,-0.4465179443359375,-0.880126953125,34413.49670666667,-2.108827302137148,0.0692457446675066,0.4863078694401211,-0.01890246570110321,0.06539198011159897,-0.07155012339353561,0.005863070487976074,0.01572006940841675,0.01555174589157104,XArbitraryZVertical,0.1480204074364728,-0.1926579138938269,-0.8394091333127536,0.4861740930086429,0.06116878986358643,-0.4673649966716766,-0.881945788860321,0,0,0,-1,-1,34409.33442916667,unknown,2,2022-06-02T10:51:18.591+02:00,2022-06-02T10:32:51.428+02:00,137,2.25677,0.5971239,2.005515,117.0835,0,0,2022-06-02T10:51:21.147+02:00,675852668.3826994,0,15.39844,101.0076,1,0.88
2022-06-02T10:51:22.776+02:00,1654159882.238837,53.22895223888472,10.39876643403945,34.92013,-1,-1,-1,-1,22.9221019744873,40,-9999,34413.51541566667,0.0619049072265625,-0.4481048583984375,-0.8860321044921875,34413.50667866667,-2.109386741588193,0.06962454136920654,0.4856040565901741,-0.006508692167699337,0.05710706487298012,-0.07470181584358215,0.01273879408836365,0.01636424660682678,0.003527343273162842,XArbitraryZVertical,0.1479596204707552,-0.192308903635191,-0.8395965329172218,0.4860072300579693,0.06152573227882385,-0.4667426645755768,-0.8822504878044128,0,0,0,-1,-1,34409.33442916667,unknown,2,2022-06-02T10:51:18.591+02:00,2022-06-02T10:32:51.428+02:00,137,2.25677,0.5971239,2.005515,117.0835,0,0,2022-06-02T10:51:21.147+02:00,675852668.3826994,0,15.39844,101.0076,1,0.88
2022-06-02T10:51:22.786+02:00,1654159882.238837,53.22895223888472,10.39876643403945,34.92013,-1,-1,-1,-1,22.9221019744873,40,-9999,34413.52538766667,0.0514068603515625,-0.4507598876953125,-0.900909423828125,34413.51665166667,-2.110013190339494,0.07000896342408471,0.4851188503028278,-0.0008124569430947304,0.0542372427880764,-0.07979272305965424,0.006066635251045227,0.01916992664337158,0.001257479190826416,XArbitraryZVertical,0.1479464767841998,-0.1920561667840673,-0.8397749774744139,0.4858026257062891,0.06188071891665459,-0.466313511133194,-0.8824525475502014,0,0,0,-1,-1,34409.33442916667,unknown,2,2022-06-02T10:51:18.591+02:00,2022-06-02T10:32:51.428+02:00,137,2.25677,0.5971239,2.005515,117.0835,0,0,2022-06-02T10:51:21.147+02:00,675852668.3826994,0,15.39844,101.0076,1,0.88
2022-06-02T10:51:22.796+02:00,1654159882.238837,53.22895223888472,10.39876643403945,34.92013,-1,-1,-1,-1,22.9221019744873,40,-9999,34413.53535966667,0.052093505859375,-0.445343017578125,-0.89276123046875,34413.52662366667,-2.110742829070806,0.07061943586354254,0.4845589632067313,-0.002513329032808542,0.08150499314069748,-0.08704295009374619,-0.007750347256660461,0.01516503095626831,-0.0120089054107666,XArbitraryZVertical,0.1480009754719214,-0.1917244438505899,-0.8399701518766689,0.4855796356043362,0.06243783235549927,-0.4658181369304657,-0.8826748728752136,0,0,0,-1,-1,34409.33442916667,unknown,2,2022-06-02T10:51:18.591+02:00,2022-06-02T10:32:51.428+02:00,137,2.25677,0.5971239,2.005515,117.0835,0,0,2022-06-02T10:51:21.147+02:00,675852668.3826994,0,15.39844,101.0076,1,0.88
2022-06-02T10:51:22.806+02:00,1654159882.238837,53.22895223888472,10.39876643403945,34.92013,-1,-1,-1,-1,22.9221019744873,40,-9999,34413.54533266667,0.06170654296875,-0.4400634765625,-0.8839874267578125,34413.53659566667,-2.111382356004876,0.07132053268779157,0.4839483391783407,-0.01957673393189907,0.0890132412314415,-0.07853015512228012,-0.0137147456407547,0.01512819528579712,-0.01694208383560181,XArbitraryZVertical,0.148090503818103,-0.1913425514774617,-0.8401423449201705,0.4854050744513995,0.06307691335678101,-0.4652777314186096,-0.8829144835472107,0,0,0,-1,-1,34409.33442916667,unknown,2,2022-06-02T10:51:18.591+02:00,2022-06-02T10:32:51.428+02:00,137,2.25677,0.5971239,2.005515,117.0835,0,0,2022-06-02T10:51:21.147+02:00,675852668.3826994,0,15.39844,101.0076,1,0.88
2022-06-02T10:51:22.816+02:00,1654159882.238837,53.22895223888472,10.39876643403945,34.92013,-1,-1,-1,-1,22.9221019744873,40,-9999,34413.55530466667,0.0700225830078125,-0.4365386962890625,-0.8844451904296875,34413.54656866667,-2.111861818055459,0.07187691584298533,0.4833991955545659,-0.02981823123991489,0.09331841766834259,-0.07131510227918625,-0.007846146821975708,0.02262234687805176,-0.002989709377288818,XArbitraryZVertical,0.1481492467755327,-0.1910100410446937,-0.8402793596619251,0.4852808376988642,0.06358648091554642,-0.4647915661334991,-0.8831339478492737,0,0,0,-1,-1,34409.33442916667,unknown,2,2022-06-02T10:51:18.591+02:00,2022-06-02T10:32:51.428+02:00,137,2.25677,0.5971239,2.005515,117.0835,0,0,2022-06-02T10:51:21.147+02:00,675852668.3826994,0,15.39844,101.0076,1,0.88
2022-06-02T10:51:22.826+02:00,1654159882.238837,53.22895223888472,10.39876643403945,34.92013,-1,-1,-1,-1,22.9221019744873,40,-9999,34413.56527766667,0.069793701171875,-0.430908203125,-0.8809356689453125,34413.55654066667,-2.112386581659041,0.07258849502392195,0.4830561791715052,-0.01971552893519402,0.08358403295278549,-0.07424138486385345,0.002820655703544617,0.02651479840278625,-0.0004958510398864746,XArbitraryZVertical,0.1483175101311673,-0.1907307229912896,-0.8403925797276268,0.4851431951161282,0.06422644853591919,-0.4644878208637238,-0.883247435092926,0,0,0,-1,-1,34409.33442916667,unknown,2,2022-06-02T10:51:18.591+02:00,2022-06-02T10:32:51.428+02:00,137,2.25677,0.5971239,2.005515,117.0835,0,0,2022-06-02T10:51:21.147+02:00,675852668.3826994,0,15.39844,101.0076,1,0.88
2022-06-02T10:51:22.836+02:00,1654159882.238837,53.22895223888472,10.39876643403945,34.92013,-1,-1,-1,-1,22.9221019744873,40,-9999,34413.57524966667,0.061737060546875,-0.433349609375,-0.894439697265625,34413.56651366667,-2.113071224392095,0.07344058471782738,0.4829065943157427,0.00757752126082778,0.06700620800256729,-0.06882806122303009,0.006838992238044739,0.03137195110321045,0.0009679794311523438,XArbitraryZVertical,0.1485751865008278,-0.1905113783712864,-0.8405122534294633,0.4849432237214082,0.06498412787914276,-0.4643553495407104,-0.8832616806030273,0,0,0,-1,-1,34409.33442916667,unknown,2,2022-06-02T10:51:18.591+02:00,2022-06-02T10:32:51.428+02:00,137,2.25677,0.5971239,2.005515,117.0835,0,0,2022-06-02T10:51:21.147+02:00,675852668.3826994,0,15.39844,101.0076,1,0.88
2022-06-02T10:51:22.846+02:00,1654159882.238837,53.22895223888472,10.39876643403945,34.92013,-1,-1,-1,-1,22.9221019744873,40,-9999,34413.58522266667,0.05230712890625,-0.4406585693359375,-0.901458740234375,34413.57648566667,-2.113917644045296,0.07456073795224356,0.482953659048132,0.03224345296621323,0.07364440709352493,-0.0749320313334465,0.001319408416748047,0.03327518701553345,-0.00187373161315918,XArbitraryZVertical,0.1489764304299193,-0.1903227927396717,-0.8406287939609264,0.48469210244816,0.06597184389829636,-0.4643970429897308,-0.883166491985321,0,0,0,-1,-1,34409.33442916667,unknown,2,2022-06-02T10:51:18.591+02:00,2022-06-02T10:32:51.428+02:00,137,2.25677,0.5971239,2.005515,117.0835,0,0,2022-06-02T10:51:21.147+02:00,675852668.3826994,0,15.39844,101.0076,1,0.88
2022-06-02T10:51:22.856+02:00,1654159882.238837,53.22895223888472,10.39876643403945,34.92013,-1,-1,-1,-1,22.9221019744873,40,-9999,34413.59519466667,0.05157470703125,-0.4496002197265625,-0.8996124267578125,34413.58645866667,-2.114859411215198,0.07597060632072325,0.4830414932747747,0.04821522906422615,0.0897112637758255,-0.06894191354513168,-0.01080210506916046,0.02778351306915283,-0.01682460308074951,XArbitraryZVertical,0.1495000858760289,-0.1900887870197341,-0.8407418402974089,0.4844265824452016,0.06721383333206177,-0.4644748270511627,-0.883031964302063,0,0,0,-1,-1,34409.33442916667,unknown,2,2022-06-02T10:51:18.591+02:00,2022-06-02T10:32:51.428+02:00,137,2.25677,0.5971239,2.005515,117.0835,0,0,2022-06-02T10:51:21.147+02:00,675852668.3826994,0,15.39844,101.0076,1,0.88
2022-06-02T10:51:22.866+02:00,1654159882.238837,53.22895223888472,10.39876643403945,34.92013,-1,-1,-1,-1,22.9221019744873,40,-9999,34413.60516766667,0.060699462890625,-0.4508056640625,-0.891082763671875,34413.59643066667,-2.115662521679468,0.07733919460559086,0.4831501025770495,0.0503620021045208,0.1035945862531662,-0.06179532408714294,-0.01814068853855133,0.01918220520019531,-0.01783746480941772,XArbitraryZVertical,0.1500245748284716,-0.1898636721394721,-0.8408215146645492,0.4842142834038016,0.06841837614774704,-0.4645709991455078,-0.8828888535499573,0,0,0,-1,-1,34409.33442916667,unknown,2,2022-06-02T10:51:18.591+02:00,2022-06-02T10:32:51.428+02:00,137,2.25677,0.5971239,2.005515,117.0835,0,0,2022-06-02T10:51:21.147+02:00,675852668.3826994,0,15.39844,101.0076,1,0.88
2022-06-02T10:51:22.876+02:00,1654159882.238837,53.22895223888472,10.39876643403945,34.92013,-1,-1,-1,-1,22.9221019744873,40,-9999,34413.61513966667,0.0678558349609375,-0.450775146484375,-0.879180908203125,34413.60640366667,-2.116248245386466,0.07838258644734437,0.4830991935639606,0.02874649874866009,0.10835000872612,-0.06543228775262833,-0.01463865488767624,0.013079434633255,-0.01266723871231079,XArbitraryZVertical,0.1503957658039334,-0.189633442145978,-0.8408907250684647,0.4840692033411303,0.06934139132499695,-0.4645259082317352,-0.8828405141830444,0,0,0,-1,-1,34409.33442916667,unknown,2,2022-06-02T10:51:18.591+02:00,2022-06-02T10:32:51.428+02:00,137,2.25677,0.5971239,2.005515,117.0835,0,0,2022-06-02T10:51:21.147+02:00,675852668.3826994,0,15.39844,101.0076,1,0.88
2022-06-02T10:51:22.886+02:00,1654159882.238837,53.22895223888472,10.39876643403945,34.92013,-1,-1,-1,-1,22.9221019744873,40,-9999,34413.62511266667,0.0688323974609375,-0.4496002197265625,-0.8662109375,34413.61637566667,-2.116776199443642,0.07924443820290249,0.4828254489677685,0.02004328928887844,0.09714049845933914,-0.06886004656553268,-0.005155675113201141,0.01294377446174622,-0.002346694469451904,XArbitraryZVertical,0.1506441266760628,-0.1893482546154379,-0.8409846787757557,0.4839402933136996,0.07011230289936066,-0.4642834961414337,-0.8829071521759033,0,0,0,-1,-1,34409.33442916667,unknown,2,2022-06-02T10:51:18.591+02:00,2022-06-02T10:32:51.428+02:00,137,2.25677,0.5971239,2.005515,117.0835,0,0,2022-06-02T10:51:21.147+02:00,675852668.3826994,0,15.39844,101.0076,1,0.88
2022-06-02T10:51:22.896+02:00,1654159882.238837,53.22895223888472,10.39876643403945,34.92013,-1,-1,-1,-1,22.9221019744873,40,-9999,34413.63508466667,0.06982421875,-0.4508056640625,-0.862060546875,34413.62634866667,-2.117388891941958,0.08009675677487396,0.482394778706409,0.008088981732726097,0.08278623968362808,-0.06554605066776276,-0.001727983355522156,0.01396608352661133,0.01060986518859863,XArbitraryZVertical,0.1508439767680007,-0.1890050723101738,-0.84111762783277,0.4837813643912396,0.07088079303503036,-0.4639019966125488,-0.8830463290214539,0,0,0,-1,-1,34409.33442916667,unknown,2,2022-06-02T10:51:18.591+02:00,2022-06-02T10:32:51.428+02:00,137,2.25677,0.5971239,2.005515,117.0835,0,0,2022-06-02T10:51:21.147+02:00,675852668.3826994,0,15.39844,101.0076,1,0.88
2022-06-02T10:51:22.906+02:00,1654159882.238837,53.22895223888472,10.39876643403945,34.92013,-1,-1,-1,-1,22.9221019744873,40,-9999,34413.64505766667,0.0726165771484375,-0.44610595703125,-0.860626220703125,34413.63632066667,-2.118106677034776,0.0811357314870528,0.4819194258680117,0.01385286170989275,0.06927815824747086,-0.07197146117687225,-0.003838188946247101,0.01276674866676331,0.01840007305145264,XArbitraryZVertical,0.1511022290227571,-0.1886058460493927,-0.8412667316387155,0.4835970933414734,0.07181607931852341,-0.4634808301925659,-0.8831918835639954,0,0,0,-1,-1,34409.33442916667,unknown,2,2022-06-02T10:51:18.591+02:00,2022-06-02T10:32:51.428+02:00,137,2.25677,0.5971239,2.005515,117.0835,0,0,2022-06-02T10:51:21.147+02:00,675852668.3826994,0,15.39844,101.0076,1,0.88
2022-06-02T10:51:22.916+02:00,1654159882.238837,53.22895223888472,10.39876643403945,34.92013,-1,-1,-1,-1,22.9221019744873,40,-9999,34413.65502966667,0.07843017578125,-0.444793701171875,-0.8683929443359375,34413.64629366667,-2.118935569864622,0.08218424703854899,0.4813438243113202,0.006998416967689991,0.06000662595033646,-0.0764201432466507,-0.002054736018180847,0.01462173461914062,0.02446466684341431,XArbitraryZVertical,0.1513309821862667,-0.1881701214542761,-0.8414532756892535,0.4833709240707014,0.07276397198438644,-0.4629707336425781,-0.8833819031715393,0,0,0,-1,-1,34409.33442916667,unknown,2,2022-06-02T10:51:18.591+02:00,2022-06-02T10:32:51.428+02:00,137,2.25677,0.5971239,2.005515,117.0835,0,0,2022-06-02T10:51:21.147+02:00,675852668.3826994,0,15.39844,101.0076,1,0.88
2022-06-02T10:51:22.926+02:00,1654159882.238837,53.22895223888472,10.39876643403945,34.92013,-1,-1,-1,-1,22.9221019744873,40,-9999,34413.66500166667,0.081298828125,-0.439605712890625,-0.8745269775390625,34413.65626566667,-2.119718904446962,0.08297332485489187,0.4806796052657579,0.001955721760168672,0.04798511788249016,-0.07818208634853363,0.001647785305976868,0.01671838760375977,0.01825875043869019,XArbitraryZVertical,0.1514345916853813,-0.1877560589427182,-0.8416582857282643,0.4831425509775204,0.07348647713661194,-0.4623818695545197,-0.8836304545402527,0,0,0,-1,-1,34409.33442916667,unknown,2,2022-06-02T10:51:18.591+02:00,2022-06-02T10:32:51.428+02:00,137,2.25677,0.5971239,2.005515,117.0835,0,0,2022-06-02T10:51:21.147+02:00,675852668.3826994,0,15.39844,101.0076,1,0.88
2022-06-02T10:51:22.936+02:00,1654159882.238837,53.22895223888472,10.39876643403945,34.92013,-1,-1,-1,-1,22.9221019744873,40,-9999,34413.67497466667,0.0853271484375,-0.44036865234375,-0.8782196044921875,34413.66623766667,-2.120381634310688,0.08333859295892745,0.4799694412575162,0.0005366562400013208,0.03189429640769958,-0.08189086616039276,0.005585446953773499,0.01947605609893799,0.01253163814544678,XArbitraryZVertical,0.1513607746024179,-0.1874157116567587,-0.8418712758104274,0.4829265101928182,0.0738365426659584,-0.4617520570755005,-0.883930504322052,0,0,0,-1,-1,34409.33442916667,unknown,2,2022-06-02T10:51:18.591+02:00,2022-06-02T10:32:51.428+02:00,137,2.25677,0.5971239,2.005515,117.0835,0,0,2022-06-02T10:51:21.147+02:00,675852668.3826994,0,15.39844,101.0076,1,0.88
2022-06-02T10:51:22.946+02:00,1654159882.238837,53.22895223888472,10.39876643403945,34.92013,-1,-1,-1,-1,22.9221019744873,40,-9999,34413.68494666667,0.0847015380859375,-0.4412689208984375,-0.872650146484375,34413.67621066667,-2.120990060798217,0.08341245068530682,0.4794611653196529,0.007229979149997234,0.02077879570424557,-0.07639037072658539,0.01012402772903442,0.02158862352371216,0.006015539169311523,XArbitraryZVertical,0.151216572031681,-0.1872274617120454,-0.8420702380643432,0.4826978168739358,0.07392137497663498,-0.461301177740097,-0.8841588497161865,0,0,0,-1,-1,34409.33442916667,unknown,2,2022-06-02T10:51:18.591+02:00,2022-06-02T10:32:51.428+02:00,137,2.25677,0.5971239,2.005515,117.0835,0,0,2022-06-02T10:51:21.147+02:00,675852668.3826994,0,15.39844,101.0076,1,0.88
2022-06-02T10:51:22.956+02:00,1654159882.238837,53.22895223888472,10.39876643403945,34.92013,-1,-1,-1,-1,22.9221019744873,40,-9999,34413.69491966667,0.08172607421875,-0.4446563720703125,-0.876190185546875,34413.68618266667,-2.121626375983678,0.08351688940208152,0.4792535342250906,0.01264325249940157,0.007261121645569801,-0.07268185913562775,0.01023730635643005,0.01975643634796143,0.007430791854858398,XArbitraryZVertical,0.1511526882052701,-0.1871619002048664,-0.8422394626504912,0.4824481152591347,0.07402170449495316,-0.4611169397830963,-0.8842465877532959,0,0,0,-1,-1,34409.33442916667,unknown,2,2022-06-02T10:51:18.591+02:00,2022-06-02T10:32:51.428+02:00,137,2.25677,0.5971239,2.005515,117.0835,0,0,2022-06-02T10:51:21.147+02:00,675852668.3826994,0,15.39844,101.0076,1,0.88
2022-06-02T10:51:22.966+02:00,1654159882.238837,53.22895223888472,10.39876643403945,34.92013,-1,-1,-1,-1,22.9221019744873,40,-9999,34413.70489166667,0.082855224609375,-0.443206787109375,-0.87744140625,34413.69615566667,-2.122360742299662,0.08378011196054129,0.4791258327000995,0.006099067628383636,-0.002537712920457125,-0.06993081420660019,0.009160399436950684,0.01837664842605591,0.01096415519714355,XArbitraryZVertical,0.1511651460091118,-0.1870995484332026,-0.8424111092543722,0.4821684919453399,0.07425938546657562,-0.4610036313533783,-0.8842856884002686,0,0,0,-1,-1,34409.33442916667,unknown,2,2022-06-02T10:51:18.591+02:00,2022-06-02T10:32:51.428+02:00,137,2.25677,0.5971239,2.005515,117.0835,0,0,2022-06-02T10:51:21.147+02:00,675852668.3826994,0,15.39844,101.0076,1,0.88
2022-06-02T10:51:22.976+02:00,1654159882.238837,53.22895223888472,10.39876643403945,34.92013,-1,-1,-1,-1,22.9221019744873,40,-9999,34413.71486466667,0.0889129638671875,-0.4410552978515625,-0.881500244140625,34413.70612766667,-2.123015714584207,0.08404288307267602,0.4790947545197273,0.009148209355771542,-0.0008469608146697283,-0.05327757820487022,0.007965534925460815,0.0162891149520874,0.00859379768371582,XArbitraryZVertical,0.1512073479065443,-0.1870724642586854,-0.8425526614049352,0.4819184882336174,0.07449294626712799,-0.4609760344028473,-0.8842804431915283,0,0,0,-1,-1,34409.33442916667,unknown,2,2022-06-02T10:51:18.591+02:00,2022-06-02T10:32:51.428+02:00,137,2.25677,0.5971239,2.005515,117.0835,0,0,2022-06-02T10:51:21.147+02:00,675852668.3826994,0,15.39844,101.0076,1,0.88
2022-06-02T10:51:22.986+02:00,1654159882.238837,53.22895223888472,10.39876643403945,34.92013,-1,-1,-1,-1,22.9221019744873,40,-9999,34413.72483666667,0.092620849609375,-0.4443359375,-0.88543701171875,34413.71610066667,-2.123464652248725,0.08413216677008822,0.4791308085253656,0.002394166542217135,-0.00168585660867393,-0.03479204326868057,0.01037514954805374,0.01868626475334167,0.003230035305023193,XArbitraryZVertical,0.1512113389995089,-0.1871003005868322,-0.8426499193459908,0.481736116298309,0.07457049936056137,-0.4610080420970917,-0.8842571973800659,0,0,0,-1,-1,34409.33442916667,unknown,2,2022-06-02T10:51:18.591+02:00,2022-06-02T10:32:51.428+02:00,137,2.25677,0.5971239,2.005515,117.0835,0,0,2022-06-02T10:51:21.147+02:00,675852668.3826994,0,15.39844,101.0076,1,0.88
2022-06-02T10:51:22.996+02:00,1654159882.238837,53.22895223888472,10.39876643403945,34.92013,-1,-1,-1,-1,22.9221019744873,40,-9999,34413.73480966667,0.0931396484375,-0.4472198486328125,-0.8828277587890625,34413.72607266667,-2.123814175536799,0.0841800650567502,0.4792199399464768,0.0161142386496067,-0.01450018864125013,-0.02927757054567337,0.01566158980131149,0.01904001832008362,-0.001010656356811523,XArbitraryZVertical,0.151219506496853,-0.1871531880655417,-0.8427203485142089,0.4815897414286954,0.07460939884185791,-0.4610871374607086,-0.8842126727104187,0,0,0,-1,-1,34409.33442916667,unknown,2,2022-06-02T10:51:18.591+02:00,2022-06-02T10:32:51.428+02:00,137,2.25677,0.5971239,2.005515,117.0835,0,0,2022-06-02T10:51:21.147+02:00,675852668.3826994,0,15.39844,101.0076,1,0.88
2022-06-02T10:51:23.006+02:00,1654159882.238837,53.22895223888472,10.39876643403945,34.92013,-1,-1,-1,-1,22.9221019744873,40,-9999,34413.74478166667,0.089996337890625,-0.4510345458984375,-0.8841400146484375,34413.73604566667,-2.124122343287428,0.08421881303834643,0.4793233577698434,0.02825558930635452,-0.01893648132681847,-0.02458694577217102,0.01866783201694489,0.01595792174339294,0.0004495382308959961,XArbitraryZVertical,0.1512309891451506,-0.1872112386712307,-0.8427798789790347,0.4814593964321159,0.07463964819908142,-0.4611788988113403,-0.8841623067855835,0,0,0,-1,-1,34409.33442916667,unknown,2,2022-06-02T10:51:18.591+02:00,2022-06-02T10:32:51.428+02:00,137,2.25677,0.5971239,2.005515,117.0835,0,0,2022-06-02T10:51:21.147+02:00,675852668.3826994,0,15.39844,101.0076,1,0.88
2022-06-02T10:51:23.016+02:00,1654159882.238837,53.22895223888472,10.39876643403945,34.92013,-1,-1,-1,-1,22.9221019744873,40,-9999,34413.75475466667,0.081573486328125,-0.4503173828125,-0.8745880126953125,34413.74601766667,-2.124454716097919,0.08423089012218372,0.4793956481587391,0.03456688299775124,-0.02584552019834518,-0.02098442055284977,0.01623381674289703,0.01254308223724365,-0.0008358359336853027,XArbitraryZVertical,0.1512217311003032,-0.1872642760383832,-0.8428507629527241,0.4813175900854196,0.07464752346277237,-0.4612430334091187,-0.8841281533241272,0,0,0,-1,-1,34409.33442916667,unknown,2,2022-06-02T10:51:18.591+02:00,2022-06-02T10:32:51.428+02:00,137,2.25677,0.5971239,2.005515,117.0835,0,0,2022-06-02T10:51:21.147+02:00,675852668.3826994,0,15.39844,101.0076,1,0.88
2022-06-02T10:51:23.026+02:00,1654159882.238837,53.22895223888472,10.39876643403945,34.92013,-1,-1,-1,-1,22.9221019744873,40,-9999,34413.76472666667,0.07763671875,-0.448974609375,-0.872467041015625,34413.75599066667,-2.124752018720345,0.08425200012951913,0.4793513339262293,0.01946542784571648,-0.02560450509190559,-0.01394009310752153,0.009926795959472656,0.009772419929504395,0.004508316516876221,XArbitraryZVertical,0.1511925150405379,-0.1872627618497682,-0.8429257671083343,0.481196111169428,0.07466790825128555,-0.4612037241458893,-0.8841469883918762,0,0,0,-1,-1,34409.33442916667,unknown,2,2022-06-02T10:51:18.591+02:00,2022-06-02T10:32:51.428+02:00,137,2.25677,0.5971239,2.005515,117.0835,0,0,2022-06-02T10:51:21.147+02:00,675852668.3826994,0,15.39844,101.0076,1,0.88
2022-06-02T10:51:23.036+02:00,1654159882.238837,53.22895223888472,10.39876643403945,34.92013,-1,-1,-1,-1,22.9221019744873,40,-9999,34413.77469966667,0.0859375,-0.451812744140625,-0.867584228515625,34413.76596266667,-2.124986645036345,0.08436188041195045,0.479277622408591,0.009416523389518261,-0.004049145616590977,-0.008981021121144295,0.003479123115539551,0.0139031708240509,0.01104944944381714,XArbitraryZVertical,0.151199771678472,-0.1872226440081129,-0.8429822668917114,0.4811104227289348,0.07476792484521866,-0.4611383080482483,-0.8841726183891296,0,0,0,-1,-1,34409.33442916667,unknown,2,2022-06-02T10:51:18.591+02:00,2022-06-02T10:32:51.428+02:00,137,2.25677,0.5971239,2.005515,117.0835,0,0,2022-06-02T10:51:21.147+02:00,675852668.3826994,0,15.39844,101.0076,1,0.88
2022-06-02T10:51:23.046+02:00,1654159882.238837,53.22895223888472,10.39876643403945,34.92013,-1,-1,-1,-1,22.9221019744873,40,-9999,34413.78467166667,0.1030120849609375,-0.45098876953125,-0.85931396484375,34413.77593566667,-2.12519314336524,0.08456537077820653,0.479223496319803,0.01860123313963413,-0.008367195725440979,-0.009852141141891479,0.004685670137405396,0.01019304990768433,0.01308852434158325,XArbitraryZVertical,0.151253669937877,-0.1871662284733563,-0.8430227034445285,0.4810445980902558,0.0749499499797821,-0.4610902667045593,-0.8841822743415833,0,0,0,-1,-1,34409.33442916667,unknown,2,2022-06-02T10:51:18.591+02:00,2022-06-02T10:32:51.428+02:00,137,2.25677,0.5971239,2.005515,117.0835,0,0,2022-06-02T10:51:21.147+02:00,675852668.3826994,0,15.39844,101.0076,1,0.88
2022-06-02T10:51:23.056+02:00,1654159882.238837,53.22895223888472,10.39876643403945,34.92013,-1,-1,-1,-1,22.9221019744873,40,-9999,34413.79464366667,0.1175994873046875,-0.4586334228515625,-0.861358642578125,34413.78590766667,-2.125447379373707,0.084679644452856,0.4792317039904628,0.01909822411835194,-0.01456135232001543,-0.01715708151459694,0.01874509453773499,0.009605228900909424,0.02363526821136475,XArbitraryZVertical,0.151279948810225,-0.1871614856821513,-0.8430742553228837,0.4809477576866377,0.07505066692829132,-0.4610975682735443,-0.8841699361801147,0,0,0,-1,-1,34409.33442916667,unknown,2,2022-06-02T10:51:18.591+02:00,2022-06-02T10:32:51.428+02:00,137,2.25677,0.5971239,2.005515,117.0835,0,0,2022-06-02T10:51:21.147+02:00,675852668.3826994,0,15.39844,101.0076,1,0.88
2022-06-02T10:51:23.071+02:00,1654159882.238837,53.22895223888472,10.39876643403945,34.92013,-1,-1,-1,-1,22.9221019744873,40,-9999,34413.80461666667,0.1233673095703125,-0.4636383056640625,-0.868988037109375,34413.79587966667,-2.125792375631788,0.08475677616682697,0.4791830820275254,0.02150998264551163,-0.02758767269551754,-0.03136983886361122,0.03426948934793472,0.007929414510726929,0.0237433910369873,XArbitraryZVertical,0.1512689164905044,-0.1871483075669164,-0.843156884061349,0.4808114419231586,0.07512076199054718,-0.4610544145107269,-0.8841864466667175,0,0,0,-1,-1,34409.33442916667,unknown,2,2022-06-02T10:51:18.591+02:00,2022-06-02T10:32:51.428+02:00,137,2.25677,0.5971239,2.005515,117.0835,0,0,2022-06-02T10:51:21.147+02:00,675852668.3826994,0,15.39844,101.0076,1,0.88
2022-06-02T10:51:23.087+02:00,1654159882.238837,53.22895223888472,10.39876643403945,34.92013,-1,-1,-1,-1,22.9221019744873,40,-9999,34413.81458866667,0.114013671875,-0.459228515625,-0.8734893798828125,34413.80585266667,-2.126338053195732,0.08482651402768134,0.4790125601477888,0.003628453239798546,-0.05087355151772499,-0.0439269095659256,0.04617931693792343,-0.0017891526222229,0.01960504055023193,XArbitraryZVertical,0.1512077775913274,-0.1871000776672385,-0.8433021384170329,0.4805946742555643,0.07518908381462097,-0.4609031081199646,-0.8842595219612122,0,0,0,-1,-1,34409.33442916667,unknown,2,2022-06-02T10:51:18.591+02:00,2022-06-02T10:32:51.428+02:00,137,2.25677,0.5971239,2.005515,117.0835,0,0,2022-06-02T10:51:21.147+02:00,675852668.3826994,0,15.39844,101.0076,1,0.88
2022-06-02T10:51:23.090+02:00,1654159882.238837,53.22895223888472,10.39876643403945,34.92013,-1,-1,-1,-1,22.9221019744873,40,-9999,34413.82456166667,0.0961761474609375,-0.452880859375,-0.8865203857421875,34413.81582466667,-2.127030049083508,0.08483608687119362,0.4786689548056353,-0.02011682279407978,-0.06070354580879211,-0.05353772267699242,0.04528768360614777,-0.002200961112976074,0.01349067687988281,XArbitraryZVertical,0.1510675717770473,-0.1870034642189329,-0.8435067082836083,0.4803174556558387,0.07521096616983414,-0.4605981409549713,-0.8844165802001953,0,0,0,-1,-1,34409.33442916667,unknown,2,2022-06-02T10:51:18.591+02:00,2022-06-02T10:32:51.428+02:00,137,2.25677,0.5971239,2.005515,117.0835,0,0,2022-06-02T10:51:21.147+02:00,675852668.3826994,0,15.39844,101.0076,1,0.88
2022-06-02T10:51:23.096+02:00,1654159882.238837,53.22895223888472,10.39876643403945,34.92013,-1,-1,-1,-1,22.9221019744873,40,-9999,34413.83453366667,0.085113525390625,-0.443817138671875,-0.884307861328125,34413.82579766667,-2.127758420601512,0.08481574250692235,0.4781106954287146,-0.03316591307520866,-0.05932775884866714,-0.055678840726614,0.03045234084129333,0.004291951656341553,0.003479123115539551,XArbitraryZVertical,0.1508617897248166,-0.1868251414239005,-0.8437464311503202,0.4800302861167117,0.07521474361419678,-0.4601025581359863,-0.8846741914749146,0,0,0,-1,-1,34409.33442916667,unknown,2,2022-06-02T10:51:18.591+02:00,2022-06-02T10:32:51.428+02:00,137,2.25677,0.5971239,2.005515,117.0835,0,0,2022-06-02T10:51:21.147+02:00,675852668.3826994,0,15.39844,101.0076,1,0.88
2022-06-02T10:51:23.105+02:00,1654159882.238837,53.22895223888472,10.39876643403945,34.92013,-1,-1,-1,-1,22.9221019744873,40,-9999,34413.84450666667,0.0817108154296875,-0.44036865234375,-0.8826751708984375,34413.83576966667,-2.128498235436243,0.08474434673998542,0.4775945132515006,-0.03019728884100914,-0.05608322843909264,-0.06394901871681213,0.01308515667915344,0.01135623455047607,-0.002809762954711914,XArbitraryZVertical,0.1506432583369232,-0.186677714583224,-0.8439878597584061,0.4797318481410791,0.07517167180776596,-0.4596441984176636,-0.8849160671234131,0,0,0,-1,-1,34409.33442916667,unknown,2,2022-06-02T10:51:18.591+02:00,2022-06-02T10:32:51.428+02:00,137,2.25677,0.5971239,2.005515,117.0835,0,0,2022-06-02T10:51:21.147+02:00,675852668.3826994,0,15.39844,101.0076,1,0.88
2022-06-02T10:51:23.116+02:00,1654159882.238837,53.22895223888472,10.39876643403945,34.92013,-1,-1,-1,-1,22.9221019744873,40,-9999,34413.85447866667,0.0829620361328125,-0.45001220703125,-0.878936767578125,34413.84574266667,-2.129224182858185,0.08462386926155677,0.4772391203605095,0.002731056418269873,-0.0507066622376442,-0.06108130514621735,0.007989972829818726,0.02005851268768311,0.001863360404968262,XArbitraryZVertical,0.1504425554103763,-0.186609517358919,-0.8442112745546055,0.479428227952407,0.07507885992527008,-0.4593285322189331,-0.8850878477096558,0,0,0,-1,-1,34409.33442916667,unknown,2,2022-06-02T10:51:18.591+02:00,2022-06-02T10:32:51.428+02:00,137,2.25677,0.5971239,2.005515,117.0835,0,0,2022-06-02T10:51:21.147+02:00,675852668.3826994,0,15.39844,101.0076,1,0.88
2022-06-02T10:51:23.126+02:00,1654159882.238837,53.22895223888472,10.39876643403945,34.92013,-1,-1,-1,-1,22.9221019744873,40,-9999,34413.86445166667,0.0859375,-0.4615631103515625,-0.8748321533203125,34413.85571466667,-2.12995527221465,0.08460000864811583,0.4773932122535522,0.04301482811570168,-0.04314461722970009,-0.0547962449491024,0.005835063755512238,0.01450386643409729,0.003793537616729736,XArbitraryZVertical,0.1503998228755514,-0.1867360486916363,-0.8443707652072476,0.4791112060005537,0.07505176216363907,-0.4594654142856598,-0.885019063949585,0,0,0,-1,-1,34409.33442916667,unknown,2,2022-06-02T10:51:18.591+02:00,2022-06-02T10:32:51.428+02:00,137,2.25677,0.5971239,2.005515,117.0835,0,0,2022-06-02T10:51:21.147+02:00,675852668.3826994,0,15.39844,101.0076,1,0.88
2022-06-02T10:51:23.135+02:00,1654159882.238837,53.22895223888472,10.39876643403945,34.92013,-1,-1,-1,-1,22.9221019744873,40,-9999,34413.87442366667,0.0883331298828125,-0.475250244140625,-0.8692626953125,34413.86568766667,-2.130909653382938,0.08495633014058006,0.4779510944315486,0.0606110468506813,-0.04972147196531296,-0.06589639186859131,0.008043907582759857,0.004989534616470337,0.007280111312866211,XArbitraryZVertical,0.1505898021692268,-0.1869608180135532,-0.8445092118472257,0.4787195762541681,0.07534534484148026,-0.4599608480930328,-0.8847367167472839,0,0,0,-1,-1,34409.33442916667,unknown,2,2022-06-02T10:51:18.591+02:00,2022-06-02T10:32:51.428+02:00,137,2.25677,0.5971239,2.005515,117.0835,0,0,2022-06-02T10:51:21.147+02:00,675852668.3826994,0,15.39844,101.0076,1,0.88
2022-06-02T10:51:23.145+02:00,1654159882.238837,53.22895223888472,10.39876643403945,34.92013,-1,-1,-1,-1,22.9221019744873,40,-9999,34413.88439666667,0.0863494873046875,-0.4858245849609375,-0.869232177734375,34413.87565966667,-2.132143130921389,0.08567002299998029,0.4785170340760724,0.04609442129731178,-0.05986758321523666,-0.07313645631074905,0.01179882884025574,-0.008057862520217896,0.01345157623291016,XArbitraryZVertical,0.150906231389003,-0.1871247856979055,-0.8446862754153573,0.4782433672295945,0.07595446705818176,-0.460463285446167,-0.8844232559204102,0,0,0,-1,-1,34409.33442916667,unknown,2,2022-06-02T10:51:18.591+02:00,2022-06-02T10:32:51.428+02:00,137,2.25677,0.5971239,2.005515,117.0835,0,0,2022-06-02T10:51:21.147+02:00,675852668.3826994,0,15.39844,101.0076,1,0.88
2022-06-02T10:51:23.155+02:00,1654159882.238837,53.22895223888472,10.39876643403945,34.92013,-1,-1,-1,-1,22.9221019744873,40,-9999,34413.89436866667,0.08233642578125,-0.4790802001953125,-0.8815155029296875,34413.88563266667,-2.133490260974116,0.08659411706750846,0.4789359332587378,0.009328017011284828,-0.05148714780807495,-0.06941568851470947,0.01093719899654388,-0.02111375331878662,0.01625579595565796,XArbitraryZVertical,0.1512668750955026,-0.1871846963151113,-0.8448907704175065,0.4777445420529393,0.07675503939390182,-0.4608350992202759,-0.8841604590415955,0,0,0,-1,-1,34409.33442916667,unknown,2,2022-06-02T10:51:18.591+02:00,2022-06-02T10:32:51.428+02:00,137,2.25677,0.5971239,2.005515,117.0835,0,0,2022-06-02T10:51:21.147+02:00,675852668.3826994,0,15.39844,101.0076,1,0.88
2022-06-02T10:51:23.165+02:00,1654159882.238837,53.22895223888472,10.39876643403945,34.92013,-1,-1,-1,-1,22.9221019744873,40,-9999,34413.90434166667,0.0843353271484375,-0.4669952392578125,-0.888519287109375,34413.89560466667,-2.134708171812062,0.08750782179457095,0.4788871624674214,-0.03211449831724167,-0.04798348993062973,-0.0642707347869873,0.006541594862937927,-0.02268293499946594,0.009097099304199219,XArbitraryZVertical,0.1515277713507808,-0.1870378617239229,-0.8451179852128624,0.4773174104054129,0.07756483554840088,-0.4607917964458466,-0.8841123580932617,0,0,0,-1,-1,34409.33442916667,unknown,2,2022-06-02T10:51:18.591+02:00,2022-06-02T10:32:51.428+02:00,137,2.25677,0.5971239,2.005515,117.0835,0,0,2022-06-02T10:51:21.147+02:00,675852668.3826994,0,15.39844,101.0076,1,0.88
2022-06-02T10:51:23.175+02:00,1654159882.238837,53.22895223888472,10.39876643403945,34.92013,-1,-1,-1,-1,22.9221019744873,40,-9999,34413.91431366667,0.0893402099609375,-0.461883544921875,-0.888885498046875,34413.90557766667,-2.135684291595585,0.08804152126012545,0.4783087627443786,-0.04997725039720535,-0.04045366868376732,-0.05924461036920547,0.005283400416374207,-0.01178276538848877,-0.002397835254669189,XArbitraryZVertical,0.1515293911361121,-0.1867371508164483,-0.8453763530390632,0.4769769509272119,0.0780600979924202,-0.4602783918380737,-0.8843361735343933,0,0,0,-1,-1,34409.33442916667,unknown,2,2022-06-02T10:51:18.591+02:00,2022-06-02T10:32:51.428+02:00,137,2.25677,0.5971239,2.005515,117.0835,0,0,2022-06-02T10:51:21.147+02:00,675852668.3826994,0,15.39844,101.0076,1,0.88
2022-06-02T10:51:23.185+02:00,1654159882.238837,53.22895223888472,10.39876643403945,34.92013,-1,-1,-1,-1,22.9221019744873,40,-9999,34413.92428666667,0.10009765625,-0.4506072998046875,-0.889495849609375,34413.91554966667,-2.136408053511967,0.08818618635169984,0.4775320207671052,-0.03909637406468391,-0.03588714450597763,-0.05971119925379753,0.007473856210708618,-0.006307929754257202,-0.003411352634429932,XArbitraryZVertical,0.1513449298922509,-0.1864252165326617,-0.8456264021800871,0.4767140736839101,0.07821948826313019,-0.4595886766910553,-0.8846806883811951,0,0,0,-1,-1,34409.33442916667,unknown,2,2022-06-02T10:51:18.591+02:00,2022-06-02T10:32:51.428+02:00,137,2.25677,0.5971239,2.005515,117.0835,0,0,2022-06-02T10:51:21.147+02:00,675852668.3826994,0,15.39844,101.0076,1,0.88
2022-06-02T10:51:23.195+02:00,1654159882.238837,53.22895223888472,10.39876643403945,34.92013,-1,-1,-1,-1,22.9221019744873,40,-9999,34413.93425866667,0.106781005859375,-0.4504547119140625,-0.8764495849609375,34413.92552266667,-2.137057351285888,0.088200712383356,0.4767636482334346,-0.02998720854520798,-0.03576233610510826,-0.05237556248903275,0.01554760336875916,0.003385484218597412,-0.00525820255279541,XArbitraryZVertical,0.1511145115274741,-0.186142041499533,-0.8458674921109037,0.4764702262654794,0.07826342433691025,-0.4589061439037323,-0.8850311040878296,0,0,0,-1,-1,34409.33442916667,unknown,2,2022-06-02T10:51:18.591+02:00,2022-06-02T10:32:51.428+02:00,137,2.25677,0.5971239,2.005515,117.0835,0,0,2022-06-02T10:51:21.147+02:00,675852668.3826994,0,15.39844,101.0076,1,0.88
2022-06-02T10:51:23.205+02:00,1654159882.238837,53.22895223888472,10.39876643403945,34.92013,-1,-1,-1,-1,22.9221019744873,40,-9999,34413.94423066667,0.106048583984375,-0.45489501953125,-0.8638916015625,34413.93549466667,-2.137653275520329,0.08812190975439362,0.47626202681073,-0.01634756289422512,-0.04634014517068863,-0.04841624200344086,0.02635455131530762,0.008692324161529541,0.001187443733215332,XArbitraryZVertical,0.15091083755002,-0.1859911228073055,-0.8460723738001081,0.4762298543599552,0.07821393013000488,-0.4584603905677795,-0.8852664232254028,0,0,0,-1,-1,34409.33442916667,unknown,2,2022-06-02T10:51:18.591+02:00,2022-06-02T10:32:51.428+02:00,137,2.25677,0.5971239,2.005515,117.0835,0,0,2022-06-02T10:51:21.147+02:00,675852668.3826994,0,15.39844,101.0076,1,0.88
2022-06-02T10:51:23.215+02:00,1654159882.238837,53.22895223888472,10.39876643403945,34.92013,-1,-1,-1,-1,22.9221019744873,40,-9999,34413.95420366667,0.1036529541015625,-0.460906982421875,-0.8619842529296875,34413.94546666667,-2.138277723074826,0.08795249399178331,0.4761556519747022,-0.0005035744979977608,-0.06035387516021729,-0.05404152721166611,0.02854491770267487,0.006980359554290771,0.01685899496078491,XArbitraryZVertical,0.1507567294422511,-0.186033019416226,-0.8462458643505253,0.4759539038449474,0.07806823402643204,-0.4583658576011658,-0.8853282332420349,0,0,0,-1,-1,34409.33442916667,unknown,2,2022-06-02T10:51:18.591+02:00,2022-06-02T10:32:51.428+02:00,137,2.25677,0.5971239,2.005515,117.0835,0,0,2022-06-02T10:51:21.147+02:00,675852668.3826994,0,15.39844,101.0076,1,0.88
2022-06-02T10:51:23.225+02:00,1654159882.238837,53.22895223888472,10.39876643403945,34.92013,-1,-1,-1,-1,22.9221019744873,40,-9999,34413.96417566667,0.099761962890625,-0.4737091064453125,-0.863861083984375,34413.95543966667,-2.139020813909009,0.08785447635303584,0.47650565838647,0.01536407135426998,-0.07091782987117767,-0.05308492109179497,0.02621962875127792,0.001508325338363647,0.02186429500579834,XArbitraryZVertical,0.1507261722182088,-0.1862622189850645,-0.8463902343187042,0.4756169776943682,0.07796737551689148,-0.4586769044399261,-0.8851760029792786,0,0,0,-1,-1,34409.33442916667,unknown,2,2022-06-02T10:51:18.591+02:00,2022-06-02T10:32:51.428+02:00,137,2.25677,0.5971239,2.005515,117.0835,0,0,2022-06-02T10:51:21.147+02:00,675852668.3826994,0,15.39844,101.0076,1,0.88
2022-06-02T10:51:23.235+02:00,1654159882.238837,53.22895223888472,10.39876643403945,34.92013,-1,-1,-1,-1,22.9221019744873,40,-9999,34413.97414866667,0.09454345703125,-0.480865478515625,-0.8726348876953125,34413.96541166667,-2.139736871747396,0.08764277211479618,0.4772105028030566,0.02261146530508995,-0.07691420614719391,-0.05587078630924225,0.02544352412223816,-0.008302479982376099,0.02253508567810059,XArbitraryZVertical,0.1507309681602785,-0.1866682825275194,-0.8464963273990583,0.4752675671981431,0.07775165885686874,-0.4593031108379364,-0.8848702311515808,0,0,0,-1,-1,34409.33442916667,unknown,2,2022-06-02T10:51:18.591+02:00,2022-06-02T10:32:51.428+02:00,137,2.25677,0.5971239,2.005515,117.0835,0,0,2022-06-02T10:51:21.147+02:00,675852668.3826994,0,15.39844,101.0076,1,0.88
2022-06-02T10:51:23.245+02:00,1654159882.238837,53.22895223888472,10.39876643403945,34.92013,-1,-1,-1,-1,22.9221019744873,40,-9999,34413.98412066667,0.0878143310546875,-0.476837158203125,-0.883819580078125,34413.97538466667,-2.140446250354564,0.08731557916584848,0.4779013400555107,0.01980769075453281,-0.08183705806732178,-0.05558928847312927,0.02052696794271469,-0.01943817734718323,0.0183684229850769,XArbitraryZVertical,0.1506840265866738,-0.1870953340774844,-0.8466108050147817,0.4749103130413526,0.07743444293737411,-0.4599166512489319,-0.8845793008804321,0,0,0,-1,-1,34409.33442916667,unknown,2,2022-06-02T10:51:18.591+02:00,2022-06-02T10:32:51.428+02:00,137,2.25677,0.5971239,2.005515,117.0835,0,0,2022-06-02T10:51:21.147+02:00,675852668.3826994,0,15.39844,101.0076,1,0.88
2022-06-02T10:51:23.255+02:00,1654159882.238837,53.22895223888472,10.39876643403945,34.92013,-1,-1,-1,-1,22.9221019744873,40,-9999,34413.99409366667,0.0814666748046875,-0.4784698486328125,-0.89111328125,34413.98535666667,-2.141131213815877,0.08693237910032582,0.4781938980126043,0.01171341072767973,-0.07666254043579102,-0.05496857687830925,0.01485040783882141,-0.01786619424819946,0.006133198738098145,XArbitraryZVertical,0.1505244763187227,-0.187363178033209,-0.8467689185700986,0.4745732792597969,0.0770837813615799,-0.460176408290863,-0.8844748139381409,0,0,0,-1,-1,34409.33442916667,unknown,2,2022-06-02T10:51:18.591+02:00,2022-06-02T10:32:51.428+02:00,137,2.25677,0.5971239,2.005515,117.0835,0,0,2022-06-02T10:51:21.147+02:00,675852668.3826994,0,15.39844,101.0076,1,0.88
2022-06-02T10:51:23.265+02:00,1654159882.238837,53.22895223888472,10.39876643403945,34.92013,-1,-1,-1,-1,22.9221019744873,40,-9999,34414.00406566667,0.0794219970703125,-0.469818115234375,-0.8916015625,34413.99532966667,-2.141873944794463,0.08672065421271524,0.4782910110679425,0.001386204967275262,-0.06466046720743179,-0.06548966467380524,0.006450839340686798,-0.01810041069984436,-0.002378880977630615,XArbitraryZVertical,0.1503873778118737,-0.1875108594045256,-0.8469499793411582,0.4742352799323103,0.07689264416694641,-0.4602626264095306,-0.8844466209411621,0,0,0,-1,-1,34409.33442916667,unknown,2,2022-06-02T10:51:18.591+02:00,2022-06-02T10:32:51.428+02:00,137,2.25677,0.5971239,2.005515,117.0835,0,0,2022-06-02T10:51:21.147+02:00,675852668.3826994,0,15.39844,101.0076,1,0.88
2022-06-02T10:51:23.275+02:00,1654159882.238837,53.22895223888472,10.39876643403945,34.92013,-1,-1,-1,-1,22.9221019744873,40,-9999,34414.01403866667,0.0840301513671875,-0.4596099853515625,-0.8824615478515625,34414.00530166667,-2.142750435109191,0.08680961903173828,0.4780089163088255,-0.02258805930614471,-0.05324634164571762,-0.05753708630800247,0.002561479806900024,-0.01656556129455566,-0.008314192295074463,XArbitraryZVertical,0.1502785771054719,-0.187434763965483,-0.8471832232906458,0.4738832639993014,0.07698258012533188,-0.4600121676921844,-0.8845691084861755,0,0,0,-1,-1,34409.33442916667,unknown,2,2022-06-02T10:51:18.591+02:00,2022-06-02T10:32:51.428+02:00,137,2.25677,0.5971239,2.005515,117.0835,0,0,2022-06-02T10:51:21.147+02:00,675852668.3826994,0,15.39844,101.0076,1,0.88
2022-06-02T10:51:23.285+02:00,1654159882.238837,53.22895223888472,10.39876643403945,34.92013,-1,-1,-1,-1,22.9221019744873,40,-9999,34414.02401066667,0.0908203125,-0.4613494873046875,-0.868743896484375,34414.01527466667,-2.143634287194155,0.08724457003960076,0.4774546060955547,-0.03720029443502426,-0.04384325072169304,-0.06126550585031509,0.002597048878669739,-0.002272069454193115,-0.003775656223297119,XArbitraryZVertical,0.150253785135685,-0.1871606163224648,-0.8474229690623225,0.473570499706337,0.07738952338695526,-0.4595199227333069,-0.8847894072532654,0,0,0,-1,-1,34409.33442916667,unknown,2,2022-06-02T10:51:18.591+02:00,2022-06-02T10:32:51.428+02:00,137,2.25677,0.5971239,2.005515,117.0835,0,0,2022-06-02T10:51:21.147+02:00,675852668.3826994,0,15.39844,101.0076,1,0.88
2022-06-02T10:51:23.295+02:00,1654159882.238837,53.22895223888472,10.39876643403945,34.92013,-1,-1,-1,-1,22.9221019744873,40,-9999,34414.03398366667,0.099151611328125,-0.4502716064453125,-0.8711090087890625,34414.02524666667,-2.144605043983979,0.08779126229723337,0.4770566364428555,-0.02717925980687141,-0.04518983513116837,-0.05990747362375259,0.01032179594039917,-0.003022313117980957,0.01058518886566162,XArbitraryZVertical,0.150304083745631,-0.1869335107537903,-0.8476570246620513,0.4732254103805548,0.07788924872875214,-0.4591664373874664,-0.8849290609359741,0,0,0,-1,-1,34409.33442916667,unknown,2,2022-06-02T10:51:18.591+02:00,2022-06-02T10:32:51.428+02:00,137,2.25677,0.5971239,2.005515,117.0835,0,0,2022-06-02T10:51:21.147+02:00,675852668.3826994,0,15.39844,101.0076,1,0.88
2022-06-02T10:51:23.305+02:00,1654159882.238837,53.22895223888472,10.39876643403945,34.92013,-1,-1,-1,-1,22.9221019744873,40,-9999,34414.04395566667,0.1063079833984375,-0.443878173828125,-0.8798370361328125,34414.03521966667,-2.145576568907583,0.08826153733917644,0.4769475803382402,-0.01451193541288376,-0.05537376180291176,-0.05732660740613937,0.01753063499927521,0.002602875232696533,0.01737326383590698,XArbitraryZVertical,0.1503878405731885,-0.1868485627500993,-0.8478638507380888,0.4728615803221735,0.0783098116517067,-0.459069550037384,-0.8849422335624695,0,0,0,-1,-1,34409.33442916667,unknown,2,2022-06-02T10:51:18.591+02:00,2022-06-02T10:32:51.428+02:00,137,2.25677,0.5971239,2.005515,117.0835,0,0,2022-06-02T10:51:21.147+02:00,675852668.3826994,0,15.39844,101.0076,1,0.88
2022-06-02T10:51:23.315+02:00,1654159882.238837,53.22895223888472,10.39876643403945,34.92013,-1,-1,-1,-1,22.9221019744873,40,-9999,34414.05392866667,0.1090087890625,-0.4522857666015625,-0.886016845703125,34414.04519166667,-2.146507174340009,0.08861163548263042,0.4770897868267189,-0.01165276486426592,-0.05495431274175644,-0.05850984528660774,0.02438297867774963,0.01376128196716309,0.007789790630340576,XArbitraryZVertical,0.1504816252995554,-0.1868968311090679,-0.8480412348557888,0.4724943667483381,0.07861384749412537,-0.4591958820819855,-0.8848497271537781,0,0,0,-1,-1,34409.33442916667,unknown,2,2022-06-02T10:51:18.591+02:00,2022-06-02T10:32:51.428+02:00,137,2.25677,0.5971239,2.005515,117.0835,0,0,2022-06-02T10:51:21.147+02:00,675852668.3826994,0,15.39844,101.0076,1,0.88
2022-06-02T10:51:23.325+02:00,1654159882.238837,53.22895223888472,10.39876643403945,34.92013,-1,-1,-1,-1,22.9221019744873,40,-9999,34414.06390066667,0.1083984375,-0.4541168212890625,-0.8882293701171875,34414.05516466667,-2.147415835723462,0.08886954058133419,0.4775118939184872,0.008192844688892365,-0.05468480288982391,-0.06277010589838028,0.02876487374305725,0.01213732361793518,0.004005789756774902,XArbitraryZVertical,0.1506018278875562,-0.1870854398344102,-0.8481882474931262,0.472117338485728,0.07882484048604965,-0.4595708250999451,-0.8846362829208374,0,0,0,-1,-1,34409.33442916667,unknown,2,2022-06-02T10:51:18.591+02:00,2022-06-02T10:32:51.428+02:00,137,2.25677,0.5971239,2.005515,117.0835,0,0,2022-06-02T10:51:21.147+02:00,675852668.3826994,0,15.39844,101.0076,1,0.88
2022-06-02T10:51:23.335+02:00,1654159882.238837,53.22895223888472,10.39876643403945,34.92013,-1,-1,-1,-1,22.9221019744873,40,-9999,34414.07387366667,0.10089111328125,-0.4609375,-0.8735198974609375,34414.06513666667,-2.148335653776815,0.08891611755671333,0.4780006941475314,0.02184531651437283,-0.06471018493175507,-0.07259639352560043,0.03081879764795303,0.006315320730209351,-0.004705607891082764,XArbitraryZVertical,0.1506462978899517,-0.1873534732920918,-0.84834598703895,0.4717133683535058,0.07884608954191208,-0.4600048661231995,-0.884408712387085,0,0,0,-1,-1,34409.33442916667,unknown,2,2022-06-02T10:51:18.591+02:00,2022-06-02T10:32:51.428+02:00,137,2.25677,0.5971239,2.005515,117.0835,0,0,2022-06-02T10:51:21.147+02:00,675852668.3826994,0,15.39844,101.0076,1,0.88
2022-06-02T10:51:23.345+02:00,1654159882.238837,53.22895223888472,10.39876643403945,34.92013,-1,-1,-1,-1,22.9221019744873,40,-9999,34414.08384566667,0.0879669189453125,-0.4744873046875,-0.8616180419921875,34414.07510966667,-2.149266691289956,0.08878769241722503,0.4783994318173302,0.00918038934469223,-0.06012981384992599,-0.08676547557115555,0.02707292139530182,0.004777222871780396,0.00357508659362793,XArbitraryZVertical,0.1505948530826537,-0.1876250101303678,-0.8485295872405634,0.4712914853643904,0.07871624082326889,-0.4603588879108429,-0.8842360973358154,0,0,0,-1,-1,34409.33442916667,unknown,2,2022-06-02T10:51:18.591+02:00,2022-06-02T10:32:51.428+02:00,137,2.25677,0.5971239,2.005515,117.0835,0,0,2022-06-02T10:51:21.147+02:00,675852668.3826994,0,15.39844,101.0076,1,0.88
