loggingTime(txt),locationTimestamp_since1970(s),locationLatitude(WGS84),locationLongitude(WGS84),locationAltitude(m),locationSpeed(m/s),locationSpeedAccuracy(m/s),locationCourse(°),locationCourseAccuracy(°),locationVerticalAccuracy(m),locationHorizontalAccuracy(m),locationFloor(Z),accelerometerTimestamp_sinceReboot(s),accelerometerAccelerationX(G),accelerometerAccelerationY(G),accelerometerAccelerationZ(G),motionTimestamp_sinceReboot(s),motionYaw(rad),motionRoll(rad),motionPitch(rad),motionRotationRateX(rad/s),motionRotationRateY(rad/s),motionRotationRateZ(rad/s),motionUserAccelerationX(G),motionUserAccelerationY(G),motionUserAccelerationZ(G),motionAttitudeReferenceFrame(txt),motionQuaternionX(R),motionQuaternionY(R),motionQuaternionZ(R),motionQuaternionW(R),motionGravityX(G),motionGravityY(G),motionGravityZ(G),motionMagneticFieldX(µT),motionMagneticFieldY(µT),motionMagneticFieldZ(µT),motionHeading(°),motionMagneticFieldCalibrationAccuracy(Z),activityTimestamp_sinceReboot(s),activity(txt),activityActivityConfidence(Z),activityActivityStartDate(txt),pedometerStartDate(txt),pedometerNumberofSteps(N),pedometerAverageActivePace(s/m),pedometerCurrentPace(s/m),pedometerCurrentCadence(steps/s),pedometerDistance(m),pedometerFloorAscended(N),pedometerFloorDescended(N),pedometerEndDate(txt),altimeterTimestamp_sinceReboot(s),altimeterReset(bool),altimeterRelativeAltitude(m),altimeterPressure(kPa),batteryState(N),batteryLevel(R)
2022-06-02T10:52:14.020+02:00,1654159933.491979,53.22903931736501,10.3986180893448,16.25478,0.2230765,0.7822291,-1,-1,36.72373199462891,32,-9999,34464.73410241667,0.136322021484375,-0.3537139892578125,-0.922210693359375,34464.73035241667,-1.71889568295246,0.1315273540247633,0.3849217079574475,-0.01291612442582846,0.05511661618947983,-0.01006004493683577,0.008117131888866425,0.02728098630905151,0.003615677356719971,XArbitraryZVertical,0.1734648041598274,-0.1024629860257545,-0.733682949117041,0.6489382218463211,0.1215520426630974,-0.3754865825176239,-0.9188225865364075,0,0,0,-1,-1,34462.9519035,unknown,2,2022-06-02T10:52:12.208+02:00,2022-06-02T10:32:51.428+02:00,137,2.325748,0,0,117.0835,0,0,2022-06-02T10:51:39.018+02:00,675852732.2080557,0,14.71094,101.0158,1,0.88
2022-06-02T10:52:14.023+02:00,1654159933.491979,53.22903931736501,10.3986180893448,16.25478,0.2230765,0.7822291,-1,-1,36.72373199462891,32,-9999,34464.74407441667,0.139617919921875,-0.3723297119140625,-0.920257568359375,34464.74032441667,-1.71948692067765,0.1324311507703627,0.3853408690591669,0.09596642106771469,0.0506688691675663,-0.06379517912864685,0.01837017387151718,0.01413491368293762,-0.004463136196136475,XArbitraryZVertical,0.1738980791108533,-0.1023783735125102,-0.733757085442878,0.6487516108992211,0.1223616227507591,-0.3758750259876251,-0.918556272983551,0,0,0,-1,-1,34462.9519035,unknown,2,2022-06-02T10:52:12.208+02:00,2022-06-02T10:32:51.428+02:00,137,2.325748,0,0,117.0835,0,0,2022-06-02T10:51:39.018+02:00,675852732.2080557,0,14.71094,101.0158,1,0.88
2022-06-02T10:52:14.027+02:00,1654159933.491979,53.22903931736501,10.3986180893448,16.25478,0.2230765,0.7822291,-1,-1,36.72373199462891,32,-9999,34464.75404741667,0.1293792724609375,-0.3890533447265625,-0.9159088134765625,34464.75029741667,-1.720313800505697,0.1332311763550455,0.3861550898703701,0.08837920427322388,0.03286510705947876,-0.05548844486474991,0.01273218542337418,-0.004977643489837646,0.002184569835662842,XArbitraryZVertical,0.1744054676892343,-0.1024964240887086,-0.7338792760354683,0.6484585071594487,0.1230557635426521,-0.3766294121742249,-0.9181544184684753,0,0,0,-1,-1,34462.9519035,unknown,2,2022-06-02T10:52:12.208+02:00,2022-06-02T10:32:51.428+02:00,137,2.325748,0,0,117.0835,0,0,2022-06-02T10:51:39.018+02:00,675852732.2080557,0,14.71094,101.0158,1,0.88
2022-06-02T10:52:14.037+02:00,1654159933.491979,53.22903931736501,10.3986180893448,16.25478,0.2230765,0.7822291,-1,-1,36.72373199462891,32,-9999,34464.76401941667,0.119903564453125,-0.38690185546875,-0.9161376953125,34464.76026941667,-1.720890387836561,0.1337606848366551,0.3866146584449781,0.03578337281942368,0.03759701177477837,-0.03982799500226974,0.0003977864980697632,-0.01230341196060181,0.0003454685211181641,XArbitraryZVertical,0.1747147398275373,-0.1025475641477122,-0.7339768061128865,0.6482568169613517,0.1235188171267509,-0.3770551085472107,-0.9179174900054932,0,0,0,-1,-1,34462.9519035,unknown,2,2022-06-02T10:52:12.208+02:00,2022-06-02T10:32:51.428+02:00,137,2.325748,0,0,117.0835,0,0,2022-06-02T10:51:39.018+02:00,675852732.2080557,0,14.71094,101.0158,1,0.88
2022-06-02T10:52:14.039+02:00,1654159933.491979,53.22903931736501,10.3986180893448,16.25478,0.2230765,0.7822291,-1,-1,36.72373199462891,32,-9999,34464.77399241667,0.120086669921875,-0.3747406005859375,-0.9134979248046875,34464.77024241667,-1.721319069592605,0.1343638012430056,0.3866952680279847,0.006237995345145464,0.04734764620661736,-0.04040882736444473,-0.005873769521713257,-0.00388219952583313,0.003307759761810303,XArbitraryZVertical,0.1749394569829052,-0.102419815803852,-0.73405544102311,0.6481274318339779,0.1240683346986771,-0.3771297633647919,-0.9178127646446228,0,0,0,-1,-1,34462.9519035,unknown,2,2022-06-02T10:52:12.208+02:00,2022-06-02T10:32:51.428+02:00,137,2.325748,0,0,117.0835,0,0,2022-06-02T10:51:39.018+02:00,675852732.2080557,0,14.71094,101.0158,1,0.88
2022-06-02T10:52:14.046+02:00,1654159933.491979,53.22903931736501,10.3986180893448,16.25478,0.2230765,0.7822291,-1,-1,36.72373199462891,32,-9999,34464.78396441667,0.120361328125,-0.3639678955078125,-0.91339111328125,34464.78021441667,-1.721857524381464,0.1349936230666062,0.386813469202961,0.02295519039034843,0.03884124010801315,-0.05782696977257729,-0.003729730844497681,0.009288787841796875,0.0052756667137146,XArbitraryZVertical,0.1751802227909404,-0.1023072736287827,-0.73416363632088,0.6479575006262999,0.1246403679251671,-0.3772392272949219,-0.9176902174949646,0,0,0,-1,-1,34462.9519035,unknown,2,2022-06-02T10:52:12.208+02:00,2022-06-02T10:32:51.428+02:00,137,2.325748,0,0,117.0835,0,0,2022-06-02T10:51:39.018+02:00,675852732.2080557,0,14.71094,101.0158,1,0.88
2022-06-02T10:52:14.055+02:00,1654159933.491979,53.22903931736501,10.3986180893448,16.25478,0.2230765,0.7822291,-1,-1,36.72373199462891,32,-9999,34464.79393741667,0.1167449951171875,-0.3665771484375,-0.913482666015625,34464.79018741667,-1.722478047152522,0.135460306949554,0.3871807367990556,0.06103723868727684,0.02860094234347343,-0.05697817355394363,-0.00720629096031189,0.01144468784332275,0.002074062824249268,XArbitraryZVertical,0.1754351505150038,-0.102348442965792,-0.7342890691333027,0.6477398032664561,0.1250499039888382,-0.3775793313980103,-0.9174945950508118,0,0,0,-1,-1,34462.9519035,unknown,2,2022-06-02T10:52:12.208+02:00,2022-06-02T10:32:51.428+02:00,137,2.325748,0,0,117.0835,0,0,2022-06-02T10:51:39.018+02:00,675852732.2080557,0,14.71094,101.0158,1,0.88
2022-06-02T10:52:14.066+02:00,1654159933.491979,53.22903931736501,10.3986180893448,16.25478,0.2230765,0.7822291,-1,-1,36.72373199462891,32,-9999,34464.80390941667,0.121063232421875,-0.373626708984375,-0.91156005859375,34464.80015941667,-1.723158761546966,0.1359198207719581,0.3877289589395171,0.06610683351755142,0.02205542474985123,-0.05921709537506104,-0.007691368460655212,0.00758826732635498,0.003444015979766846,XArbitraryZVertical,0.17574110257349,-0.1024653451095955,-0.7344173312929079,0.647493034066877,0.1254434287548065,-0.3780869245529175,-0.9172318577766418,0,0,0,-1,-1,34462.9519035,unknown,2,2022-06-02T10:52:12.208+02:00,2022-06-02T10:32:51.428+02:00,137,2.325748,0,0,117.0835,0,0,2022-06-02T10:51:39.018+02:00,675852732.2080557,0,14.71094,101.0158,1,0.88
2022-06-02T10:52:14.075+02:00,1654159933.491979,53.22903931736501,10.3986180893448,16.25478,0.2230765,0.7822291,-1,-1,36.72373199462891,32,-9999,34464.81388241667,0.1303558349609375,-0.3816070556640625,-0.915618896484375,34464.81013241667,-1.723847112282688,0.1364456733253091,0.3881455121009396,0.05887102335691452,0.02343973517417908,-0.05297558009624481,-0.0007059574127197266,-0.0002811551094055176,0.004686653614044189,XArbitraryZVertical,0.1760296315538806,-0.1025122075366855,-0.7345544400449329,0.6472516395909798,0.125904306769371,-0.3784725368022919,-0.9170096516609192,0,0,0,-1,-1,34462.9519035,unknown,2,2022-06-02T10:52:12.208+02:00,2022-06-02T10:32:51.428+02:00,137,2.325748,0,0,117.0835,0,0,2022-06-02T10:51:39.018+02:00,675852732.2080557,0,14.71094,101.0158,1,0.88
2022-06-02T10:52:14.085+02:00,1654159933.491979,53.22903931736501,10.3986180893448,16.25478,0.2230765,0.7822291,-1,-1,36.72373199462891,32,-9999,34464.82385441667,0.1367340087890625,-0.38006591796875,-0.9113006591796875,34464.82010441667,-1.724471950092311,0.1370449767562661,0.388333560662265,0.03055016882717609,0.02508104220032692,-0.04507876932621002,0.008382529020309448,-0.003097802400588989,0.002251684665679932,XArbitraryZVertical,0.1762767117463412,-0.1024440067698256,-0.7346859968890548,0.6470458472992002,0.1264441311359406,-0.378646582365036,-0.9168635010719299,0,0,0,-1,-1,34462.9519035,unknown,2,2022-06-02T10:52:12.208+02:00,2022-06-02T10:32:51.428+02:00,137,2.325748,0,0,117.0835,0,0,2022-06-02T10:51:39.018+02:00,675852732.2080557,0,14.71094,101.0158,1,0.88
2022-06-02T10:52:14.095+02:00,1654159933.491979,53.22903931736501,10.3986180893448,16.25478,0.2230765,0.7822291,-1,-1,36.72373199462891,32,-9999,34464.83382741667,0.13043212890625,-0.3763885498046875,-0.9130096435546875,34464.83007641667,-1.725020496603923,0.1375750215924229,0.3884638376325531,0.009080875664949417,0.02201050706207752,-0.04761558771133423,0.006789445877075195,5.924701690673828e-05,0.006728529930114746,XArbitraryZVertical,0.1764841793841302,-0.1023699045650708,-0.7348043202906072,0.6468666515042094,0.1269233226776123,-0.3787671625614166,-0.9167474508285522,0,0,0,-1,-1,34462.9519035,unknown,2,2022-06-02T10:52:12.208+02:00,2022-06-02T10:32:51.428+02:00,137,2.325748,0,0,117.0835,0,0,2022-06-02T10:51:39.018+02:00,675852732.2080557,0,14.71094,101.0158,1,0.88
2022-06-02T10:52:14.105+02:00,1654159933.491979,53.22903931736501,10.3986180893448,16.25478,0.2230765,0.7822291,-1,-1,36.72373199462891,32,-9999,34464.84379941667,0.129486083984375,-0.369049072265625,-0.913726806640625,34464.84004941667,-1.725478549530569,0.1379377424214581,0.3886421277929533,0.008298971690237522,0.02828598022460938,-0.04106234759092331,0.002575218677520752,0.007182270288467407,0.003075480461120605,XArbitraryZVertical,0.1766498686075224,-0.1023600961071987,-0.7349034704805029,0.646710294123279,0.1272465437650681,-0.3789321482181549,-0.9166344404220581,0,0,0,-1,-1,34462.9519035,unknown,2,2022-06-02T10:52:12.208+02:00,2022-06-02T10:32:51.428+02:00,137,2.325748,0,0,117.0835,0,0,2022-06-02T10:51:39.018+02:00,675852732.2080557,0,14.71094,101.0158,1,0.88
2022-06-02T10:52:14.115+02:00,1654159933.491979,53.22903931736501,10.3986180893448,16.25478,0.2230765,0.7822291,-1,-1,36.72373199462891,32,-9999,34464.85377241667,0.1280364990234375,-0.3721466064453125,-0.90960693359375,34464.85002241667,-1.725803148350196,0.1381334659802632,0.3888319264014798,0.03242769837379456,0.01977895572781563,-0.03009462729096413,0.0009408891201019287,0.009051620960235596,0.0050087571144104,XArbitraryZVertical,0.1767646222482127,-0.1023968858503621,-0.7349730598794455,0.64659400227476,0.1274160444736481,-0.379107803106308,-0.9165382981300354,0,0,0,-1,-1,34462.9519035,unknown,2,2022-06-02T10:52:12.208+02:00,2022-06-02T10:32:51.428+02:00,137,2.325748,0,0,117.0835,0,0,2022-06-02T10:51:39.018+02:00,675852732.2080557,0,14.71094,101.0158,1,0.88
2022-06-02T10:52:14.125+02:00,1654159933.491979,53.22903931736501,10.3986180893448,16.25478,0.2230765,0.7822291,-1,-1,36.72373199462891,32,-9999,34464.86374441667,0.1264190673828125,-0.374969482421875,-0.9030303955078125,34464.85999441667,-1.726184962788438,0.1383751284947615,0.3889571776213066,0.03763817250728607,0.02044181525707245,-0.03664946556091309,-3.699958324432373e-05,0.005780071020126343,0.00963062047958374,XArbitraryZVertical,0.176873102779728,-0.1023996271929113,-0.7350631957492344,0.6464614876396583,0.1276309788227081,-0.3792237043380737,-0.9164604544639587,0,0,0,-1,-1,34462.9519035,unknown,2,2022-06-02T10:52:12.208+02:00,2022-06-02T10:32:51.428+02:00,137,2.325748,0,0,117.0835,0,0,2022-06-02T10:51:39.018+02:00,675852732.2080557,0,14.71094,101.0158,1,0.88
2022-06-02T10:52:14.135+02:00,1654159933.491979,53.22903931736501,10.3986180893448,16.25478,0.2230765,0.7822291,-1,-1,36.72373199462891,32,-9999,34464.87371741667,0.1164703369140625,-0.372314453125,-0.8983612060546875,34464.86996641667,-1.726495658489388,0.1384252752105253,0.3889628652423274,0.02808088809251785,0.0146257383748889,-0.02941978350281715,-0.005011245608329773,0.004640936851501465,0.01526784896850586,XArbitraryZVertical,0.1768774072294135,-0.1024130399448509,-0.7351586349660383,0.646349632130278,0.1276766508817673,-0.379228949546814,-0.9164519309997559,0,0,0,-1,-1,34462.9519035,unknown,2,2022-06-02T10:52:12.208+02:00,2022-06-02T10:32:51.428+02:00,137,2.325748,0,0,117.0835,0,0,2022-06-02T10:51:39.018+02:00,675852732.2080557,0,14.71094,101.0158,1,0.88
2022-06-02T10:52:14.145+02:00,1654159933.491979,53.22903931736501,10.3986180893448,16.25478,0.2230765,0.7822291,-1,-1,36.72373199462891,32,-9999,34464.88368941667,0.1151123046875,-0.365325927734375,-0.8939971923828125,34464.87993941667,-1.726696364791919,0.1384089727437326,0.3889900097852247,0.01702024601399899,0.005358736962080002,-0.02321914583444595,-0.01300574839115143,0.01128837466239929,0.01933377981185913,XArbitraryZVertical,0.1768696342219365,-0.1024462818195607,-0.7352223439830652,0.6462739700143254,0.1276602894067764,-0.3792540729045868,-0.9164437651634216,0,0,0,-1,-1,34462.9519035,unknown,2,2022-06-02T10:52:12.208+02:00,2022-06-02T10:32:51.428+02:00,137,2.325748,0,0,117.0835,0,0,2022-06-02T10:51:39.018+02:00,675852732.2080557,0,14.71094,101.0158,1,0.88
2022-06-02T10:52:14.155+02:00,1654159933.491979,53.22903931736501,10.3986180893448,16.25478,0.2230765,0.7822291,-1,-1,36.72373199462891,32,-9999,34464.89366241667,0.1180267333984375,-0.3641357421875,-0.8930816650390625,34464.88991141667,-1.727016266195544,0.138525005062899,0.3891599712338537,0.01989632844924927,0.006374999415129423,-0.03619439899921417,-0.0105549693107605,0.01541289687156677,0.02583169937133789,XArbitraryZVertical,0.1769490857805395,-0.1025010366522542,-0.735299243782078,0.6461560973182537,0.1277577131986618,-0.3794113397598267,-0.9163651466369629,0,0,0,-1,-1,34462.9519035,unknown,2,2022-06-02T10:52:12.208+02:00,2022-06-02T10:32:51.428+02:00,137,2.325748,0,0,117.0835,0,0,2022-06-02T10:51:39.018+02:00,675852732.2080557,0,14.71094,101.0158,1,0.88
2022-06-02T10:52:14.165+02:00,1654159933.491979,53.22903931736501,10.3986180893448,16.25478,0.2230765,0.7822291,-1,-1,36.72373199462891,32,-9999,34464.90363441667,0.1196441650390625,-0.36627197265625,-0.900604248046875,34464.89988441667,-1.727617346654557,0.138935968993662,0.3894010351882935,0.02586820162832737,-0.00182753661647439,-0.05442560091614723,-0.008263856172561646,0.01371333003044128,0.01880675554275513,XArbitraryZVertical,0.1771447972034097,-0.1025122329856365,-0.7354340214392808,0.6459472563903426,0.128121629357338,-0.3796343505382538,-0.9162219166755676,0,0,0,-1,-1,34462.9519035,unknown,2,2022-06-02T10:52:12.208+02:00,2022-06-02T10:32:51.428+02:00,137,2.325748,0,0,117.0835,0,0,2022-06-02T10:51:39.018+02:00,675852732.2080557,0,14.71094,101.0158,1,0.88
2022-06-02T10:52:14.175+02:00,1654159933.491979,53.22903931736501,10.3986180893448,16.25478,0.2230765,0.7822291,-1,-1,36.72373199462891,32,-9999,34464.91360741667,0.1193695068359375,-0.3711395263671875,-0.9166107177734375,34464.90985641667,-1.728374519344657,0.1393216056813805,0.3895668656875358,0.01633874326944351,-0.004004671238362789,-0.06556101143360138,-0.01018008589744568,0.01159319281578064,0.008700430393218994,XArbitraryZVertical,0.1772996579927682,-0.1025172218808797,-0.7356285102745724,0.6456825404964068,0.1284662038087845,-0.3797877728939056,-0.916110098361969,0,0,0,-1,-1,34462.9519035,unknown,2,2022-06-02T10:52:12.208+02:00,2022-06-02T10:32:51.428+02:00,137,2.325748,0,0,117.0835,0,0,2022-06-02T10:51:39.018+02:00,675852732.2080557,0,14.71094,101.0158,1,0.88
2022-06-02T10:52:14.185+02:00,1654159933.491979,53.22903931736501,10.3986180893448,16.25478,0.2230765,0.7822291,-1,-1,36.72373199462891,32,-9999,34464.92357941667,0.1209869384765625,-0.3751373291015625,-0.9250946044921875,34464.91982941667,-1.729048509500254,0.1395594674195239,0.3894026491027779,-0.002735347952693701,-0.003050194121897221,-0.05392539128661156,-0.008926555514335632,0.007550269365310669,-0.009105920791625977,XArbitraryZVertical,0.1773013071331007,-0.1024383634601695,-0.7358406681818067,0.6454527271604613,0.1286927759647369,-0.3796358406543732,-0.9161412715911865,0,0,0,-1,-1,34462.9519035,unknown,2,2022-06-02T10:52:12.208+02:00,2022-06-02T10:32:51.428+02:00,137,2.325748,0,0,117.0835,0,0,2022-06-02T10:51:39.018+02:00,675852732.2080557,0,14.71094,101.0158,1,0.88
2022-06-02T10:52:14.195+02:00,1654159933.491979,53.22903931736501,10.3986180893448,16.25478,0.2230765,0.7822291,-1,-1,36.72373199462891,32,-9999,34464.93355241667,0.120269775390625,-0.3791961669921875,-0.9290771484375,34464.92980141667,-1.729591391136938,0.1398240200692702,0.3890830229576785,-0.01440056972205639,0.008094247430562973,-0.05079149454832077,-0.007095366716384888,0.002646386623382568,-0.01075941324234009,XArbitraryZVertical,0.1772710150373406,-0.1022807145685675,-0.7360229527279979,0.6452781575482526,0.1289520561695099,-0.3793401420116425,-0.9162272810935974,0,0,0,-1,-1,34462.9519035,unknown,2,2022-06-02T10:52:12.208+02:00,2022-06-02T10:32:51.428+02:00,137,2.325748,0,0,117.0835,0,0,2022-06-02T10:51:39.018+02:00,675852732.2080557,0,14.71094,101.0158,1,0.88
2022-06-02T10:52:14.205+02:00,1654159933.491979,53.22903931736501,10.3986180893448,16.25478,0.2230765,0.7822291,-1,-1,36.72373199462891,32,-9999,34464.94352441667,0.1168212890625,-0.3783111572265625,-0.917449951171875,34464.93977441667,-1.730060018390018,0.1401802088830345,0.3887723268185709,-0.02801651507616043,0.0185005497187376,-0.04026402160525322,-0.01105451583862305,0.002404719591140747,-0.01326745748519897,XArbitraryZVertical,0.1772811340284705,-0.1020902818064755,-0.7361722611456034,0.6451351321462507,0.1292948573827744,-0.3790526390075684,-0.916297972202301,0,0,0,-1,-1,34462.9519035,unknown,2,2022-06-02T10:52:12.208+02:00,2022-06-02T10:32:51.428+02:00,137,2.325748,0,0,117.0835,0,0,2022-06-02T10:51:39.018+02:00,675852732.2080557,0,14.71094,101.0158,1,0.88
2022-06-02T10:52:14.215+02:00,1654159933.491979,53.22903931736501,10.3986180893448,16.25478,0.2230765,0.7822291,-1,-1,36.72373199462891,32,-9999,34464.95349741667,0.1115264892578125,-0.380340576171875,-0.90289306640625,34464.94974641667,-1.73038940747653,0.140365057869219,0.3883876013152885,-0.04576967656612396,0.01267914567142725,-0.04110238328576088,-0.0153336226940155,-0.004176944494247437,0.006231606006622314,XArbitraryZVertical,0.1772122466574998,-0.1019148295203084,-0.7362989108450927,0.6450373711972065,0.129484623670578,-0.3786965906620026,-0.9164183735847473,0,0,0,-1,-1,34462.9519035,unknown,2,2022-06-02T10:52:12.208+02:00,2022-06-02T10:32:51.428+02:00,137,2.325748,0,0,117.0835,0,0,2022-06-02T10:51:39.018+02:00,675852732.2080557,0,14.71094,101.0158,1,0.88
2022-06-02T10:52:14.225+02:00,1654159933.491979,53.22903931736501,10.3986180893448,16.25478,0.2230765,0.7822291,-1,-1,36.72373199462891,32,-9999,34464.96346941667,0.11358642578125,-0.372802734375,-0.8860015869140625,34464.95971941667,-1.730504822382742,0.1403070199003063,0.3877730080917331,-0.06192121654748917,0.01993359625339508,-0.02276092767715454,-0.01709826290607452,0.003478676080703735,0.02098053693771362,XArbitraryZVertical,0.1769931184142271,-0.1017121188050703,-0.7363999690878947,0.64501407970237,0.1294639557600021,-0.3781277239322662,-0.9166561365127563,0,0,0,-1,-1,34462.9519035,unknown,2,2022-06-02T10:52:12.208+02:00,2022-06-02T10:32:51.428+02:00,137,2.325748,0,0,117.0835,0,0,2022-06-02T10:51:39.018+02:00,675852732.2080557,0,14.71094,101.0158,1,0.88
2022-06-02T10:52:14.234+02:00,1654159933.491979,53.22903931736501,10.3986180893448,16.25478,0.2230765,0.7822291,-1,-1,36.72373199462891,32,-9999,34464.97344241667,0.1244659423828125,-0.3701019287109375,-0.8684539794921875,34464.96969141667,-1.730562355031047,0.1402387064568755,0.3870886251620221,-0.05642303079366684,-0.003333199303597212,-0.0221785381436348,-0.01040369272232056,0.005149096250534058,0.04335540533065796,XArbitraryZVertical,0.1767513448615058,-0.1014812215906125,-0.736489861306819,0.6450142409255385,0.1294374763965607,-0.3774940371513367,-0.9169210195541382,0,0,0,-1,-1,34462.9519035,unknown,2,2022-06-02T10:52:12.208+02:00,2022-06-02T10:32:51.428+02:00,137,2.325748,0,0,117.0835,0,0,2022-06-02T10:51:39.018+02:00,675852732.2080557,0,14.71094,101.0158,1,0.88
2022-06-02T10:52:14.244+02:00,1654159933.491979,53.22903931736501,10.3986180893448,16.25478,0.2230765,0.7822291,-1,-1,36.72373199462891,32,-9999,34464.98341441667,0.1312713623046875,-0.3632049560546875,-0.8725738525390625,34464.97966441667,-1.730714130004579,0.1400529955059565,0.3865447399861367,-0.04615148901939392,-0.01943094283342361,-0.02631975337862968,3.764033317565918e-05,0.008780509233474731,0.04718363285064697,XArbitraryZVertical,0.1765054284887316,-0.1013494746288558,-0.7366070175760423,0.6449684980329102,0.1292958408594131,-0.3769903481006622,-0.917148232460022,0,0,0,-1,-1,34462.9519035,unknown,2,2022-06-02T10:52:12.208+02:00,2022-06-02T10:32:51.428+02:00,137,2.325748,0,0,117.0835,0,0,2022-06-02T10:51:39.018+02:00,675852732.2080557,0,14.71094,101.0158,1,0.88
2022-06-02T10:52:14.254+02:00,1654159933.491979,53.22903931736501,10.3986180893448,16.25478,0.2230765,0.7822291,-1,-1,36.72373199462891,32,-9999,34464.99338741667,0.1342926025390625,-0.3591461181640625,-0.883392333984375,34464.98963641667,-1.730928515744674,0.1397030734354075,0.3860593520149663,-0.03414897620677948,-0.04500678926706314,-0.03323633968830109,0.004407227039337158,0.01693683862686157,0.04118430614471436,XArbitraryZVertical,0.176214117858534,-0.1012982220987432,-0.7367531708178728,0.6448891885702875,0.1290003657341003,-0.3765407204627991,-0.9173744916915894,0,0,0,-1,-1,34462.9519035,unknown,2,2022-06-02T10:52:12.208+02:00,2022-06-02T10:32:51.428+02:00,137,2.325748,0,0,117.0835,0,0,2022-06-02T10:51:39.018+02:00,675852732.2080557,0,14.71094,101.0158,1,0.88
2022-06-02T10:52:14.264+02:00,1654159933.491979,53.22903931736501,10.3986180893448,16.25478,0.2230765,0.7822291,-1,-1,36.72373199462891,32,-9999,34465.00335941667,0.1339111328125,-0.362152099609375,-0.9073028564453125,34464.99960941667,-1.731191909921002,0.1392137106476901,0.3857020117517805,-0.009217260405421257,-0.05486980453133583,-0.03296815603971481,0.005722507834434509,0.01517146825790405,0.02284109592437744,XArbitraryZVertical,0.1759089042247377,-0.1013444334176315,-0.7369151203529463,0.6447802567054527,0.1285700798034668,-0.3762096762657166,-0.9175707101821899,0,0,0,-1,-1,34462.9519035,unknown,2,2022-06-02T10:52:12.208+02:00,2022-06-02T10:32:51.428+02:00,137,2.325748,0,0,117.0835,0,0,2022-06-02T10:51:39.018+02:00,675852732.2080557,0,14.71094,101.0158,1,0.88
2022-06-02T10:52:14.274+02:00,1654159933.491979,53.22903931736501,10.3986180893448,16.25478,0.2230765,0.7822291,-1,-1,36.72373199462891,32,-9999,34465.01333241667,0.12774658203125,-0.362060546875,-0.9262542724609375,34465.00958141667,-1.731549156865954,0.1386995540908882,0.3855680532078894,-0.0008495189249515533,-0.06006545200943947,-0.04380167275667191,0.004447817802429199,0.01519989967346191,-0.001563847064971924,XArbitraryZVertical,0.1756594951079091,-0.1014910466101493,-0.7370881817800436,0.6446273934227409,0.1281052529811859,-0.3760855495929718,-0.9176866412162781,0,0,0,-1,-1,34462.9519035,unknown,2,2022-06-02T10:52:12.208+02:00,2022-06-02T10:32:51.428+02:00,137,2.325748,0,0,117.0835,0,0,2022-06-02T10:51:39.018+02:00,675852732.2080557,0,14.71094,101.0158,1,0.88
2022-06-02T10:52:14.284+02:00,1654159933.491979,53.22903931736501,10.3986180893448,16.25478,0.2230765,0.7822291,-1,-1,36.72373199462891,32,-9999,34465.02330441667,0.1192169189453125,-0.3715362548828125,-0.9336395263671875,34465.01955441667,-1.731964333468472,0.1381149330255161,0.3854875608715123,0.001608046237379313,-0.05788379162549973,-0.04472445696592331,-0.004831209778785706,0.0090218186378479,-0.01407819986343384,XArbitraryZVertical,0.1753977964917236,-0.1016855472175529,-0.7372809082254964,0.644447484668816,0.1275729089975357,-0.3760109543800354,-0.9177913069725037,0,0,0,-1,-1,34462.9519035,unknown,2,2022-06-02T10:52:12.208+02:00,2022-06-02T10:32:51.428+02:00,137,2.325748,0,0,117.0835,0,0,2022-06-02T10:51:39.018+02:00,675852732.2080557,0,14.71094,101.0158,1,0.88
2022-06-02T10:52:14.294+02:00,1654159933.491979,53.22903931736501,10.3986180893448,16.25478,0.2230765,0.7822291,-1,-1,36.72373199462891,32,-9999,34465.03327741667,0.124786376953125,-0.381683349609375,-0.9359283447265625,34465.02952641667,-1.732275964125449,0.137545597039356,0.3856717713376159,0.01284250244498253,-0.04710083082318306,-0.02529439143836498,-0.006801605224609375,-0.002007424831390381,-0.01918601989746094,XArbitraryZVertical,0.1752295249898422,-0.1019657653707189,-0.737413783061197,0.6442970356352036,0.1270408481359482,-0.3761816620826721,-0.9177951812744141,0,0,0,-1,-1,34462.9519035,unknown,2,2022-06-02T10:52:12.208+02:00,2022-06-02T10:32:51.428+02:00,137,2.325748,0,0,117.0835,0,0,2022-06-02T10:51:39.018+02:00,675852732.2080557,0,14.71094,101.0158,1,0.88
2022-06-02T10:52:14.304+02:00,1654159933.491979,53.22903931736501,10.3986180893448,16.25478,0.2230765,0.7822291,-1,-1,36.72373199462891,32,-9999,34465.04324941667,0.1327667236328125,-0.3851776123046875,-0.9255523681640625,34465.03949941667,-1.732410777088683,0.1368982093522685,0.3859872374916901,0.02146342024207115,-0.05547567456960678,-0.01691635325551033,0.002353712916374207,-0.006170719861984253,-0.01449131965637207,XArbitraryZVertical,0.1750823924001708,-0.1023051142144212,-0.7374840489488275,0.6442028262560979,0.1264304518699646,-0.3764739334583282,-0.9177596569061279,0,0,0,-1,-1,34462.9519035,unknown,2,2022-06-02T10:52:12.208+02:00,2022-06-02T10:32:51.428+02:00,137,2.325748,0,0,117.0835,0,0,2022-06-02T10:51:39.018+02:00,675852732.2080557,0,14.71094,101.0158,1,0.88
2022-06-02T10:52:14.314+02:00,1654159933.491979,53.22903931736501,10.3986180893448,16.25478,0.2230765,0.7822291,-1,-1,36.72373199462891,32,-9999,34465.05322141667,0.1296234130859375,-0.3944244384765625,-0.919952392578125,34465.04947141667,-1.732666082541328,0.1363913318262426,0.3864114825747624,0.01605622656643391,-0.0607922300696373,-0.02943245694041252,0.006411179900169373,-0.01316297054290771,-0.002714335918426514,XArbitraryZVertical,0.175014800027493,-0.1026507787073058,-0.7375704782170742,0.6440671135376986,0.125943511724472,-0.3768669366836548,-0.9176653027534485,0,0,0,-1,-1,34462.9519035,unknown,2,2022-06-02T10:52:12.208+02:00,2022-06-02T10:32:51.428+02:00,137,2.325748,0,0,117.0835,0,0,2022-06-02T10:51:39.018+02:00,675852732.2080557,0,14.71094,101.0158,1,0.88
2022-06-02T10:52:14.334+02:00,1654159933.491979,53.22903931736501,10.3986180893448,16.25478,0.2230765,0.7822291,-1,-1,36.72373199462891,32,-9999,34465.06319441667,0.1183319091796875,-0.3981781005859375,-0.912445068359375,34465.05944441667,-1.733156720957497,0.1361674931229082,0.3867516432555158,0.02127282693982124,-0.06166920810937881,-0.0402211882174015,-0.001361578702926636,-0.02029421925544739,0.002206921577453613,XArbitraryZVertical,0.1750131627310509,-0.1028941084551965,-0.737715853474882,0.6438622855443843,0.1257206946611404,-0.3771819770336151,-0.9175664186477661,0,0,0,-1,-1,34462.9519035,unknown,2,2022-06-02T10:52:12.208+02:00,2022-06-02T10:32:51.428+02:00,137,2.325748,0,0,117.0835,0,0,2022-06-02T10:51:39.018+02:00,675852732.2080557,0,14.71094,101.0158,1,0.88
2022-06-02T10:52:14.336+02:00,1654159933.491979,53.22903931736501,10.3986180893448,16.25478,0.2230765,0.7822291,-1,-1,36.72373199462891,32,-9999,34465.07316641667,0.1096954345703125,-0.397796630859375,-0.909820556640625,34465.06941641667,-1.73369110509645,0.1360011697985175,0.3867879190875447,0.0004194772336632013,-0.06357363611459732,-0.03607691079378128,-0.01201033592224121,-0.02076414227485657,0.006974995136260986,XArbitraryZVertical,0.174935617594782,-0.1030081034155339,-0.7378989683319227,0.643655171035039,0.125566229224205,-0.377215564250946,-0.9175737500190735,0,0,0,-1,-1,34462.9519035,unknown,2,2022-06-02T10:52:12.208+02:00,2022-06-02T10:32:51.428+02:00,137,2.325748,0,0,117.0835,0,0,2022-06-02T10:51:39.018+02:00,675852732.2080557,0,14.71094,101.0158,1,0.88
2022-06-02T10:52:14.344+02:00,1654159933.491979,53.22903931736501,10.3986180893448,16.25478,0.2230765,0.7822291,-1,-1,36.72373199462891,32,-9999,34465.08313941667,0.1082000732421875,-0.38983154296875,-0.909698486328125,34465.07938941667,-1.73416412930855,0.1358601533580918,0.3864968151743394,-0.02502542920410633,-0.04521646723151207,-0.03680555149912834,-0.0173737108707428,-0.01834821701049805,0.00908505916595459,XArbitraryZVertical,0.1747684441208813,-0.1029849542683772,-0.7380910589529952,0.6434840531493077,0.1254516988992691,-0.376945972442627,-0.9177001714706421,0,0,0,-1,-1,34462.9519035,unknown,2,2022-06-02T10:52:12.208+02:00,2022-06-02T10:32:51.428+02:00,137,2.325748,0,0,117.0835,0,0,2022-06-02T10:51:39.018+02:00,675852732.2080557,0,14.71094,101.0158,1,0.88
2022-06-02T10:52:14.354+02:00,1654159933.491979,53.22903931736501,10.3986180893448,16.25478,0.2230765,0.7822291,-1,-1,36.72373199462891,32,-9999,34465.09311141667,0.1114501953125,-0.3710784912109375,-0.9205474853515625,34465.08936141667,-1.734503569066037,0.1356937014084898,0.3858174576132136,-0.03394168987870216,-0.04149709641933441,-0.02390360087156296,-0.01553131639957428,-0.005061537027359009,0.004385113716125488,XArbitraryZVertical,0.1744777274173884,-0.1028116744178762,-0.7382790097690931,0.6433750329509067,0.1253335624933243,-0.376316636800766,-0.917974591255188,0,0,0,-1,-1,34462.9519035,unknown,2,2022-06-02T10:52:12.208+02:00,2022-06-02T10:32:51.428+02:00,137,2.325748,0,0,117.0835,0,0,2022-06-02T10:51:39.018+02:00,675852732.2080557,0,14.71094,101.0158,1,0.88
2022-06-02T10:52:14.364+02:00,1654159933.491979,53.22903931736501,10.3986180893448,16.25478,0.2230765,0.7822291,-1,-1,36.72373199462891,32,-9999,34465.10308441667,0.12396240234375,-0.3526611328125,-0.9315948486328125,34465.09933441667,-1.734711303907951,0.1353528944242322,0.3851543421738163,-0.03044176660478115,-0.02408135496079922,-0.02711750194430351,-0.00692082941532135,0.01474025845527649,-0.008493483066558838,XArbitraryZVertical,0.1741344868699643,-0.1026890206487759,-0.7384381160890289,0.6433050870159214,0.125054344534874,-0.3757021725177765,-0.9182642698287964,0,0,0,-1,-1,34462.9519035,unknown,2,2022-06-02T10:52:12.208+02:00,2022-06-02T10:32:51.428+02:00,137,2.325748,0,0,117.0835,0,0,2022-06-02T10:51:39.018+02:00,675852732.2080557,0,14.71094,101.0158,1,0.88
2022-06-02T10:52:14.374+02:00,1654159933.491979,53.22903931736501,10.3986180893448,16.25478,0.2230765,0.7822291,-1,-1,36.72373199462891,32,-9999,34465.11305641667,0.134033203125,-0.3471221923828125,-0.938995361328125,34465.10930641667,-1.734955382597625,0.1350275787213371,0.3848405084452448,-0.005489056464284658,-0.0324203334748745,-0.0349130854010582,0.004531487822532654,0.02778556942939758,-0.01978015899658203,XArbitraryZVertical,0.1739039848404169,-0.1026963794323834,-0.7385744970339171,0.6432097058639572,0.1247714832425117,-0.3754113018512726,-0.9184216856956482,0,0,0,-1,-1,34462.9519035,unknown,2,2022-06-02T10:52:12.208+02:00,2022-06-02T10:32:51.428+02:00,137,2.325748,0,0,117.0835,0,0,2022-06-02T10:51:39.018+02:00,675852732.2080557,0,14.71094,101.0158,1,0.88
2022-06-02T10:52:14.384+02:00,1654159933.491979,53.22903931736501,10.3986180893448,16.25478,0.2230765,0.7822291,-1,-1,36.72373199462891,32,-9999,34465.12302941667,0.135467529296875,-0.35675048828125,-0.9348602294921875,34465.11927941667,-1.735409459263838,0.1349094091152299,0.3848737650920804,0.01673209294676781,-0.03169116005301476,-0.0445404127240181,0.01175229251384735,0.02461203932762146,-0.01777893304824829,XArbitraryZVertical,0.1738473858027062,-0.1027864273819974,-0.7387276451710691,0.6430346579485586,0.1246612668037415,-0.3754421472549438,-0.9184240698814392,0,0,0,-1,-1,34462.9519035,unknown,2,2022-06-02T10:52:12.208+02:00,2022-06-02T10:32:51.428+02:00,137,2.325748,0,0,117.0835,0,0,2022-06-02T10:51:39.018+02:00,675852732.2080557,0,14.71094,101.0158,1,0.88
2022-06-02T10:52:14.394+02:00,1654159933.491979,53.22903931736501,10.3986180893448,16.25478,0.2230765,0.7822291,-1,-1,36.72373199462891,32,-9999,34465.13300141667,0.1275482177734375,-0.37255859375,-0.9366302490234375,34465.12925141667,-1.735964142512633,0.1349606515753765,0.3853011629482037,0.02561058476567268,-0.03184686601161957,-0.04284773021936417,0.006248921155929565,0.01124474406242371,-0.01887518167495728,XArbitraryZVertical,0.1739709622519354,-0.102979613383875,-0.738861239852673,0.6428168946022161,0.1246867328882217,-0.3758382499217987,-0.9182586073875427,0,0,0,-1,-1,34462.9519035,unknown,2,2022-06-02T10:52:12.208+02:00,2022-06-02T10:32:51.428+02:00,137,2.325748,0,0,117.0835,0,0,2022-06-02T10:51:39.018+02:00,675852732.2080557,0,14.71094,101.0158,1,0.88
2022-06-02T10:52:14.404+02:00,1654159933.491979,53.22903931736501,10.3986180893448,16.25478,0.2230765,0.7822291,-1,-1,36.72373199462891,32,-9999,34465.14297441667,0.1219024658203125,-0.380767822265625,-0.9231719970703125,34465.13922441667,-1.736390528587053,0.1348343532326701,0.3859335849244735,0.01421917974948883,-0.02499694935977459,-0.03703112155199051,0.001102074980735779,-0.0007272660732269287,-0.01308321952819824,XArbitraryZVertical,0.1740993220208819,-0.1032962543754994,-0.7389495924646998,0.6426296359352748,0.124538779258728,-0.3764242231845856,-0.9180386066436768,0,0,0,-1,-1,34462.9519035,unknown,2,2022-06-02T10:52:12.208+02:00,2022-06-02T10:32:51.428+02:00,137,2.325748,0,0,117.0835,0,0,2022-06-02T10:51:39.018+02:00,675852732.2080557,0,14.71094,101.0158,1,0.88
2022-06-02T10:52:14.414+02:00,1654159933.491979,53.22903931736501,10.3986180893448,16.25478,0.2230765,0.7822291,-1,-1,36.72373199462891,32,-9999,34465.15294641667,0.123382568359375,-0.3810577392578125,-0.9184112548828125,34465.14919641667,-1.736649580226446,0.1345255300981057,0.3864025912881619,-0.01066943723708391,-0.01469673030078411,-0.0274202823638916,-0.001825571060180664,-0.004900962114334106,-0.0002803802490234375,XArbitraryZVertical,0.1741178793155005,-0.1035952392891223,-0.7390154303963594,0.6425007199038997,0.1242315694689751,-0.3768586814403534,-0.9179019927978516,0,0,0,-1,-1,34462.9519035,unknown,2,2022-06-02T10:52:12.208+02:00,2022-06-02T10:32:51.428+02:00,137,2.325748,0,0,117.0835,0,0,2022-06-02T10:51:39.018+02:00,675852732.2080557,0,14.71094,101.0158,1,0.88
2022-06-02T10:52:14.424+02:00,1654159933.491979,53.22903931736501,10.3986180893448,16.25478,0.2230765,0.7822291,-1,-1,36.72373199462891,32,-9999,34465.16291941667,0.1289825439453125,-0.374176025390625,-0.9122161865234375,34465.15916941667,-1.736780795060808,0.1340785019807937,0.3866966197511126,-0.01497603487223387,-0.02525110356509686,-0.02188996225595474,0.002383753657341003,-0.0008902251720428467,-0.001082479953765869,XArbitraryZVertical,0.1740374416763449,-0.1038613401102288,-0.7390687391337395,0.6424183166524644,0.1238064095377922,-0.3771310150623322,-0.9178475737571716,0,0,0,-1,-1,34462.9519035,unknown,2,2022-06-02T10:52:12.208+02:00,2022-06-02T10:32:51.428+02:00,137,2.325748,0,0,117.0835,0,0,2022-06-02T10:51:39.018+02:00,675852732.2080557,0,14.71094,101.0158,1,0.88
2022-06-02T10:52:14.434+02:00,1654159933.491979,53.22903931736501,10.3986180893448,16.25478,0.2230765,0.7822291,-1,-1,36.72373199462891,32,-9999,34465.17289141667,0.12493896484375,-0.368927001953125,-0.9019012451171875,34465.16914141667,-1.736976492948507,0.1336449985364341,0.3866099541796862,-0.01960500702261925,-0.02391685917973518,-0.03843718022108078,0.004745692014694214,0.00588071346282959,0.01264488697052002,XArbitraryZVertical,0.1738400814326401,-0.1039848492953417,-0.7391774731926,0.6423266552005457,0.1234128624200821,-0.3770507574081421,-0.9179335832595825,0,0,0,-1,-1,34462.9519035,unknown,2,2022-06-02T10:52:12.208+02:00,2022-06-02T10:32:51.428+02:00,137,2.325748,0,0,117.0835,0,0,2022-06-02T10:51:39.018+02:00,675852732.2080557,0,14.71094,101.0158,1,0.88
2022-06-02T10:52:14.444+02:00,1654159933.491979,53.22903931736501,10.3986180893448,16.25478,0.2230765,0.7822291,-1,-1,36.72373199462891,32,-9999,34465.18286441667,0.1165008544921875,-0.3714447021484375,-0.8972015380859375,34465.17911441667,-1.737361632930571,0.1333958521255018,0.386038321243477,-0.004678256809711456,-0.03544728085398674,-0.04600641503930092,-0.001249313354492188,0.00716698169708252,0.01868736743927002,XArbitraryZVertical,0.173549989325252,-0.1038822659997191,-0.739376677329547,0.6421924892027241,0.1232128068804741,-0.3765212595462799,-0.9181777238845825,0,0,0,-1,-1,34462.9519035,unknown,2,2022-06-02T10:52:12.208+02:00,2022-06-02T10:32:51.428+02:00,137,2.325748,0,0,117.0835,0,0,2022-06-02T10:51:39.018+02:00,675852732.2080557,0,14.71094,101.0158,1,0.88
2022-06-02T10:52:14.454+02:00,1654159933.491979,53.22903931736501,10.3986180893448,16.25478,0.2230765,0.7822291,-1,-1,36.72373199462891,32,-9999,34465.19283641667,0.109039306640625,-0.384063720703125,-0.89898681640625,34465.18908641667,-1.73789371611761,0.1333053751036354,0.3852361358129578,0.003448556642979383,-0.03333450853824615,-0.04867952316999435,-0.01091092824935913,-0.0004732608795166016,0.02195781469345093,XArbitraryZVertical,0.1732392057349242,-0.1036542256493171,-0.7396308392844158,0.6420205282279176,0.1231698393821716,-0.3757779896259308,-0.9184879660606384,0,0,0,-1,-1,34462.9519035,unknown,2,2022-06-02T10:52:12.208+02:00,2022-06-02T10:32:51.428+02:00,137,2.325748,0,0,117.0835,0,0,2022-06-02T10:51:39.018+02:00,675852732.2080557,0,14.71094,101.0158,1,0.88
2022-06-02T10:52:14.464+02:00,1654159933.491979,53.22903931736501,10.3986180893448,16.25478,0.2230765,0.7822291,-1,-1,36.72373199462891,32,-9999,34465.20280941667,0.1028594970703125,-0.3983306884765625,-0.902801513671875,34465.19905941667,-1.738532014135376,0.1334390262102584,0.3845416259344689,-0.006509268656373024,-0.02847983129322529,-0.05472462624311447,-0.01700405776500702,-0.01642152667045593,0.01833927631378174,XArbitraryZVertical,0.1730394538402645,-0.1034040012659713,-0.7398894029756081,0.6418167143090079,0.1233272850513458,-0.375134289264679,-0.9187299013137817,0,0,0,-1,-1,34462.9519035,unknown,2,2022-06-02T10:52:12.208+02:00,2022-06-02T10:32:51.428+02:00,137,2.325748,0,0,117.0835,0,0,2022-06-02T10:51:39.018+02:00,675852732.2080557,0,14.71094,101.0158,1,0.88
2022-06-02T10:52:14.474+02:00,1654159933.491979,53.22903931736501,10.3986180893448,16.25478,0.2230765,0.7822291,-1,-1,36.72373199462891,32,-9999,34465.21278141667,0.099365234375,-0.400543212890625,-0.9084014892578125,34465.20903141667,-1.739123077559076,0.1335262732335886,0.3839234125662605,-0.0346321165561676,-0.01377811655402184,-0.05021277070045471,-0.02286761999130249,-0.0263788104057312,0.01408737897872925,XArbitraryZVertical,0.1728488611521143,-0.10319329486227,-0.7401295533895266,0.6416250699977254,0.1234382912516594,-0.3745611310005188,-0.9189488291740417,0,0,0,-1,-1,34462.9519035,unknown,2,2022-06-02T10:52:12.208+02:00,2022-06-02T10:32:51.428+02:00,137,2.325748,0,0,117.0835,0,0,2022-06-02T10:51:39.018+02:00,675852732.2080557,0,14.71094,101.0158,1,0.88
2022-06-02T10:52:14.484+02:00,1654159933.491979,53.22903931736501,10.3986180893448,16.25478,0.2230765,0.7822291,-1,-1,36.72373199462891,32,-9999,34465.22275441667,0.10205078125,-0.3886871337890625,-0.9152679443359375,34465.21900441667,-1.739526380555362,0.1336349255901966,0.3833459604316267,-0.06037050113081932,0.008253416046500206,-0.0426749587059021,-0.02380497753620148,-0.02244347333908081,0.006994485855102539,XArbitraryZVertical,0.1726886668698501,-0.1029748272102906,-0.7403037046839336,0.6415023472616291,0.1235669329762459,-0.3740256726741791,-0.91914963722229,0,0,0,-1,-1,34462.9519035,unknown,2,2022-06-02T10:52:12.208+02:00,2022-06-02T10:32:51.428+02:00,137,2.325748,0,0,117.0835,0,0,2022-06-02T10:51:39.018+02:00,675852732.2080557,0,14.71094,101.0158,1,0.88
2022-06-02T10:52:14.494+02:00,1654159933.491979,53.22903931736501,10.3986180893448,16.25478,0.2230765,0.7822291,-1,-1,36.72373199462891,32,-9999,34465.23272641667,0.1161346435546875,-0.3801422119140625,-0.9204864501953125,34465.22897641667,-1.739850762026886,0.1338129124035942,0.3827042377549933,-0.0856768786907196,0.009480156935751438,-0.0412529855966568,-0.01521151512861252,-0.01040440797805786,0.001396536827087402,XArbitraryZVertical,0.1725382928483517,-0.1027029123489343,-0.7404525271821778,0.6414146518442246,0.1237625256180763,-0.3734304308891296,-0.9193652868270874,0,0,0,-1,-1,34462.9519035,unknown,2,2022-06-02T10:52:12.208+02:00,2022-06-02T10:32:51.428+02:00,137,2.325748,0,0,117.0835,0,0,2022-06-02T10:51:39.018+02:00,675852732.2080557,0,14.71094,101.0158,1,0.88
2022-06-02T10:52:14.504+02:00,1654159933.491979,53.22903931736501,10.3986180893448,16.25478,0.2230765,0.7822291,-1,-1,36.72373199462891,32,-9999,34465.24269941667,0.1287994384765625,-0.370269775390625,-0.9120330810546875,34465.23894941667,-1.740226157399929,0.1341370170381435,0.3819221695099143,-0.07838194817304611,0.01673940010368824,-0.05233173444867134,-3.031641244888306e-05,-0.003225952386856079,0.002179622650146484,XArbitraryZVertical,0.1723958568952337,-0.1023353436324014,-0.7406182004295138,0.6413205103488389,0.1240995079278946,-0.3727048337459564,-0.919614315032959,0,0,0,-1,-1,34462.9519035,unknown,2,2022-06-02T10:52:12.208+02:00,2022-06-02T10:32:51.428+02:00,137,2.325748,0,0,117.0835,0,0,2022-06-02T10:51:39.018+02:00,675852732.2080557,0,14.71094,101.0158,1,0.88
2022-06-02T10:52:14.514+02:00,1654159933.491979,53.22903931736501,10.3986180893448,16.25478,0.2230765,0.7822291,-1,-1,36.72373199462891,32,-9999,34465.25267141667,0.129486083984375,-0.361846923828125,-0.90142822265625,34465.24892141667,-1.740789513679081,0.1345936198731045,0.3812179015625491,-0.06369505822658539,0.00499716866761446,-0.06334741413593292,0.006289511919021606,0.006237000226974487,0.01098865270614624,XArbitraryZVertical,0.1723172471323308,-0.1019709039268274,-0.7408253598307698,0.6411602919715692,0.1245545819401741,-0.3720512092113495,-0.9198173880577087,0,0,0,-1,-1,34462.9519035,unknown,2,2022-06-02T10:52:12.208+02:00,2022-06-02T10:32:51.428+02:00,137,2.325748,0,0,117.0835,0,0,2022-06-02T10:51:39.018+02:00,675852732.2080557,0,14.71094,101.0158,1,0.88
2022-06-02T10:52:14.524+02:00,1654159933.491979,53.22903931736501,10.3986180893448,16.25478,0.2230765,0.7822291,-1,-1,36.72373199462891,32,-9999,34465.26264441667,0.112274169921875,-0.36492919921875,-0.898681640625,34465.25889341667,-1.741498497573226,0.1348417827918025,0.3806880283278792,-0.04229816049337387,-0.009714399464428425,-0.08366866409778595,-0.003257825970649719,0.009315669536590576,0.02087283134460449,XArbitraryZVertical,0.1722083981518526,-0.1017517492522293,-0.7410807956070142,0.6409292372898217,0.1248093321919441,-0.3715593218803406,-0.9199817180633545,0,0,0,-1,-1,34462.9519035,unknown,2,2022-06-02T10:52:12.208+02:00,2022-06-02T10:32:51.428+02:00,137,2.325748,0,0,117.0835,0,0,2022-06-02T10:51:39.018+02:00,675852732.2080557,0,14.71094,101.0158,1,0.88
2022-06-02T10:52:14.534+02:00,1654159933.491979,53.22903931736501,10.3986180893448,16.25478,0.2230765,0.7822291,-1,-1,36.72373199462891,32,-9999,34465.27261641667,0.1041107177734375,-0.372772216796875,-0.894439697265625,34465.26886641667,-1.742339364084885,0.1349213487271243,0.3804963036892187,-0.03272151947021484,0.003714412916451693,-0.09224586188793182,-0.01692093163728714,0.00248485803604126,0.02398520708084106,XArbitraryZVertical,0.1721355630480063,-0.1017260472594777,-0.7413612574099731,0.6406282899248952,0.1248921081423759,-0.3713813126087189,-0.9200423359870911,0,0,0,-1,-1,34462.9519035,unknown,2,2022-06-02T10:52:12.208+02:00,2022-06-02T10:32:51.428+02:00,137,2.325748,0,0,117.0835,0,0,2022-06-02T10:51:39.018+02:00,675852732.2080557,0,14.71094,101.0158,1,0.88
2022-06-02T10:52:14.544+02:00,1654159933.491979,53.22903931736501,10.3986180893448,16.25478,0.2230765,0.7822291,-1,-1,36.72373199462891,32,-9999,34465.28258941667,0.0931396484375,-0.385711669921875,-0.8952789306640625,34465.27883841667,-1.743214578647772,0.1349299179874299,0.3806278312654596,-0.03262777626514435,-0.004270809236913919,-0.1055273115634918,-0.0252688080072403,-0.007265448570251465,0.02651447057723999,XArbitraryZVertical,0.1721350371615279,-0.1018484886512421,-0.7416284845041697,0.6402995114324095,0.124893419444561,-0.3715034425258636,-0.9199928045272827,0,0,0,-1,-1,34462.9519035,unknown,2,2022-06-02T10:52:12.208+02:00,2022-06-02T10:32:51.428+02:00,137,2.325748,0,0,117.0835,0,0,2022-06-02T10:51:39.018+02:00,675852732.2080557,0,14.71094,101.0158,1,0.88
2022-06-02T10:52:14.554+02:00,1654159933.491979,53.22903931736501,10.3986180893448,16.25478,0.2230765,0.7822291,-1,-1,36.72373199462891,32,-9999,34465.29256141667,0.082183837890625,-0.3975067138671875,-0.8974761962890625,34465.28881141667,-1.744173586459234,0.1348380987493938,0.3807497051141147,-0.05427972227334976,-0.003653311170637608,-0.1161476448178291,-0.03781251609325409,-0.02155661582946777,0.020835280418396,XArbitraryZVertical,0.1720899225466855,-0.1020065973972839,-0.7419319296601896,0.6399348758645875,0.1248028576374054,-0.3716166019439697,-0.9199594259262085,0,0,0,-1,-1,34462.9519035,unknown,2,2022-06-02T10:52:12.208+02:00,2022-06-02T10:32:51.428+02:00,137,2.325748,0,0,117.0835,0,0,2022-06-02T10:51:39.018+02:00,675852732.2080557,0,14.71094,101.0158,1,0.88
2022-06-02T10:52:14.564+02:00,1654159933.491979,53.22903931736501,10.3986180893448,16.25478,0.2230765,0.7822291,-1,-1,36.72373199462891,32,-9999,34465.30253441667,0.06829833984375,-0.3959808349609375,-0.887725830078125,34465.29878341667,-1.745279439257425,0.134888376771156,0.3804815825972179,-0.06677846610546112,0.007905873470008373,-0.135689914226532,-0.04907210916280746,-0.02562028169631958,0.02787047624588013,XArbitraryZVertical,0.1719690346917818,-0.1019839417235373,-0.7423064160060584,0.639536608910043,0.1248625069856644,-0.3713676631450653,-0.9200518727302551,0,0,0,-1,-1,34462.9519035,unknown,2,2022-06-02T10:52:12.208+02:00,2022-06-02T10:32:51.428+02:00,137,2.325748,0,0,117.0835,0,0,2022-06-02T10:51:39.018+02:00,675852732.2080557,0,14.71094,101.0158,1,0.88
2022-06-02T10:52:14.574+02:00,1654159933.491979,53.22903931736501,10.3986180893448,16.25478,0.2230765,0.7822291,-1,-1,36.72373199462891,32,-9999,34465.31250641667,0.051422119140625,-0.397857666015625,-0.8806304931640625,34465.30875641667,-1.746679903003193,0.135306107230146,0.3796977779285701,-0.09265116602182388,0.01723501458764076,-0.1661965101957321,-0.06664656102657318,-0.02677536010742188,0.03625458478927612,XArbitraryZVertical,0.1718099369547556,-0.1016733446658315,-0.7427914634820294,0.6390654942815213,0.1252860575914383,-0.3706398010253906,-0.9202877283096313,0,0,0,-1,-1,34462.9519035,unknown,2,2022-06-02T10:52:12.208+02:00,2022-06-02T10:32:51.428+02:00,137,2.325748,0,0,117.0835,0,0,2022-06-02T10:51:39.018+02:00,675852732.2080557,0,14.71094,101.0158,1,0.88
2022-06-02T10:52:14.584+02:00,1654159933.491979,53.22903931736501,10.3986180893448,16.25478,0.2230765,0.7822291,-1,-1,36.72373199462891,32,-9999,34465.32247941667,0.03399658203125,-0.4015960693359375,-0.863494873046875,34465.31872841667,-1.748459305086913,0.1362197295431467,0.3784899787574069,-0.1123934462666512,0.03340865671634674,-0.1940699517726898,-0.08349341154098511,-0.0316663384437561,0.04845386743545532,XArbitraryZVertical,0.171685270860554,-0.1010756729581048,-0.7433942044415105,0.6384927596472192,0.1261875033378601,-0.3695177435874939,-0.9206157326698303,0,0,0,-1,-1,34462.9519035,unknown,2,2022-06-02T10:52:12.208+02:00,2022-06-02T10:32:51.428+02:00,137,2.325748,0,0,117.0835,0,0,2022-06-02T10:51:39.018+02:00,675852732.2080557,0,14.71094,101.0158,1,0.88
2022-06-02T10:52:14.594+02:00,1654159933.491979,53.22903931736501,10.3986180893448,16.25478,0.2230765,0.7822291,-1,-1,36.72373199462891,32,-9999,34465.33245141667,0.013397216796875,-0.411773681640625,-0.8563690185546875,34465.32870141667,-1.750520203424121,0.1374130171436309,0.3769951263765197,-0.1302735060453415,0.0424165353178978,-0.2240537703037262,-0.1019251048564911,-0.03563454747200012,0.06247490644454956,XArbitraryZVertical,0.1715630030921416,-0.1003035679669284,-0.7440890159884481,0.6378377297365331,0.1273614913225174,-0.3681282699108124,-0.9210106730461121,0,0,0,-1,-1,34462.9519035,unknown,2,2022-06-02T10:52:12.208+02:00,2022-06-02T10:32:51.428+02:00,137,2.325748,0,0,117.0835,0,0,2022-06-02T10:51:39.018+02:00,675852732.2080557,0,14.71094,101.0158,1,0.88
2022-06-02T10:52:14.604+02:00,1654159933.491979,53.22903931736501,10.3986180893448,16.25478,0.2230765,0.7822291,-1,-1,36.72373199462891,32,-9999,34465.34242229167,-0.00799560546875,-0.4306793212890625,-0.8572235107421875,34465.33867129167,-1.752934588084793,0.1388366175112382,0.3753036243208425,-0.1448284834623337,0.06723745912313461,-0.2759470343589783,-0.1267291009426117,-0.05475538969039917,0.06516629457473755,XArbitraryZVertical,0.1714500248948181,-0.09941325591029759,-0.7448943379284072,0.6370669651180612,0.128758504986763,-0.3665550351142883,-0.92144376039505,0,0,0,-1,-1,34462.9519035,unknown,2,2022-06-02T10:52:12.208+02:00,2022-06-02T10:32:51.428+02:00,137,2.325748,0,0,117.0835,0,0,2022-06-02T10:51:39.018+02:00,675852732.2080557,0,14.71094,101.0158,1,0.88
2022-06-02T10:52:14.614+02:00,1654159934.489554,53.22905690091207,10.3986158557773,29.1844,0.04745011,0.7699721,-1,-1,3,32,-9999,34465.35239429167,-0.034759521484375,-0.44012451171875,-0.856658935546875,34465.34864429167,-1.755856246125922,0.1406206045999391,0.3734538502647528,-0.1640953421592712,0.0896693542599678,-0.3248929083347321,-0.1488075256347656,-0.07231566309928894,0.06471991539001465,XArbitraryZVertical,0.1714001081093059,-0.09839109363242744,-0.7458439710832739,0.6361273110085978,0.1304969489574432,-0.3648333847522736,-0.9218823909759521,0,0,0,-1,-1,34462.9519035,unknown,2,2022-06-02T10:52:12.208+02:00,2022-06-02T10:32:51.428+02:00,137,2.325748,0,0,117.0835,0,0,2022-06-02T10:51:39.018+02:00,675852732.2080557,0,14.71094,101.0158,1,0.88
2022-06-02T10:52:14.624+02:00,1654159934.489554,53.22905690091207,10.3986158557773,29.1844,0.04745011,0.7699721,-1,-1,3,32,-9999,34465.36236729167,-0.2799835205078125,-0.5133514404296875,-0.8612060546875,34465.35861629167,-1.760110558510534,0.1428381553210729,0.3705149723902784,-0.3814971745014191,0.00941100250929594,-0.6615974307060242,-0.2151362597942352,-0.08629930019378662,0.06911718845367432,XArbitraryZVertical,0.1711160394280712,-0.09692925713297201,-0.7472797152230248,0.6347416999238837,0.1326930075883865,-0.3620955049991608,-0.922648012638092,0,0,0,-1,-1,34462.9519035,unknown,2,2022-06-02T10:52:12.208+02:00,2022-06-02T10:32:51.428+02:00,137,2.325748,0,0,117.0835,0,0,2022-06-02T10:51:39.018+02:00,675852732.2080557,0,14.71094,101.0158,1,0.88
2022-06-02T10:52:14.634+02:00,1654159934.489554,53.22905690091207,10.3986158557773,29.1844,0.04745011,0.7699721,-1,-1,3,32,-9999,34465.37233929167,-0.2100372314453125,-0.580291748046875,-0.9369354248046875,34465.36858929167,-1.770384503112555,0.1480652247132827,0.3629245584395112,-0.6630246639251709,0.3761866986751556,-1.15544855594635,-0.4792850613594055,-0.2353679835796356,-0.0149109959602356,XArbitraryZVertical,0.1702602819489698,-0.09324490696156051,-0.7507909393772474,0.6313714002461024,0.1379154175519943,-0.3550097942352295,-0.9246336221694946,0,0,0,-1,-1,34462.9519035,unknown,2,2022-06-02T10:52:12.208+02:00,2022-06-02T10:32:51.428+02:00,137,2.325748,0,0,117.0835,0,0,2022-06-02T10:51:39.018+02:00,675852732.2080557,0,14.71094,101.0158,1,0.88
2022-06-02T10:52:14.644+02:00,1654159934.489554,53.22905690091207,10.3986158557773,29.1844,0.04745011,0.7699721,-1,-1,3,32,-9999,34465.38231229167,-0.034454345703125,-0.574371337890625,-0.8853302001953125,34465.37856129167,-1.777598851014194,0.155096412102215,0.355761224575829,-0.6330209970474243,0.4884519875049591,-0.5326281785964966,-0.2213557064533234,-0.2002646923065186,0.01551586389541626,XArbitraryZVertical,0.1703930630525084,-0.08888898945628071,-0.7531289765274389,0.6291754865517167,0.1448023617267609,-0.3483040332794189,-0.9261298775672913,0,0,0,-1,-1,34462.9519035,unknown,2,2022-06-02T10:52:12.208+02:00,2022-06-02T10:32:51.428+02:00,137,2.325748,0,0,117.0835,0,0,2022-06-02T10:51:39.018+02:00,675852732.2080557,0,14.71094,101.0158,1,0.88
2022-06-02T10:52:14.654+02:00,1654159934.489554,53.22905690091207,10.3986158557773,29.1844,0.04745011,0.7699721,-1,-1,3,32,-9999,34465.39228429167,-0.099884033203125,-0.605438232421875,-0.8634033203125,34465.38853429167,-1.783453548965333,0.1610523809964374,0.3467353520757624,-0.993893563747406,0.3423476815223694,-0.9395247101783752,-0.1967732459306717,-0.2664176821708679,0.06241065263748169,XArbitraryZVertical,0.1696472182659566,-0.08403354121324885,-0.755293646637949,0.6274469662634605,0.1508137583732605,-0.3398292660713196,-0.9283163547515869,0,0,0,-1,-1,34462.9519035,unknown,2,2022-06-02T10:52:12.208+02:00,2022-06-02T10:32:51.428+02:00,137,2.325748,0,0,117.0835,0,0,2022-06-02T10:51:39.018+02:00,675852732.2080557,0,14.71094,101.0158,1,0.88
2022-06-02T10:52:14.664+02:00,1654159934.489554,53.22905690091207,10.3986158557773,29.1844,0.04745011,0.7699721,-1,-1,3,32,-9999,34465.40225729167,-0.2066497802734375,-0.582733154296875,-0.8841094970703125,34465.39850629167,-1.793380741869252,0.1678874894359886,0.3334845964666134,-1.289734840393066,0.4271968007087708,-1.288601994514465,-0.3165243268013,-0.2670532464981079,0.05288362503051758,XArbitraryZVertical,0.1678308074062571,-0.07760036358746442,-0.7590305971295641,0.6242463252625272,0.15789395570755,-0.3273376226425171,-0.9316220283508301,0,0,0,-1,-1,34462.9519035,unknown,2,2022-06-02T10:52:12.208+02:00,2022-06-02T10:32:51.428+02:00,137,2.325748,0,0,117.0835,0,0,2022-06-02T10:51:39.018+02:00,675852732.2080557,0,14.71094,101.0158,1,0.88
2022-06-02T10:52:14.674+02:00,1654159934.489554,53.22905690091207,10.3986158557773,29.1844,0.04745011,0.7699721,-1,-1,3,32,-9999,34465.41222929167,-0.2370452880859375,-0.57452392578125,-0.840057373046875,34465.40847929167,-1.804251623574421,0.1763621951328217,0.3179165375809843,-1.448402881622314,0.5925604701042175,-1.287780284881592,-0.3982095122337341,-0.2653842270374298,0.0682416558265686,XArbitraryZVertical,0.16597954606775,-0.06981074111285904,-0.7631019821975427,0.6206871811215855,0.1666573733091354,-0.3125881850719452,-0.9351544976234436,0,0,0,-1,-1,34462.9519035,unknown,2,2022-06-02T10:52:12.208+02:00,2022-06-02T10:32:51.428+02:00,137,2.325748,0,0,117.0835,0,0,2022-06-02T10:51:39.018+02:00,675852732.2080557,0,14.71094,101.0158,1,0.88
2022-06-02T10:52:14.683+02:00,1654159934.489554,53.22905690091207,10.3986158557773,29.1844,0.04745011,0.7699721,-1,-1,3,32,-9999,34465.42220229167,-0.21710205078125,-0.5682830810546875,-0.819000244140625,34465.41845129167,-1.815102382404891,0.185894024390905,0.3000059931850771,-1.729567170143127,0.6750563979148865,-1.429813623428345,-0.4087782204151154,-0.2767549455165863,0.1141533851623535,XArbitraryZVertical,0.1639257408232744,-0.06074971777706999,-0.7672470235859769,0.6170655409336686,0.1765699535608292,-0.2955259382724762,-0.938875675201416,0,0,0,-1,-1,34462.9519035,unknown,2,2022-06-02T10:52:12.208+02:00,2022-06-02T10:32:51.428+02:00,137,2.325748,0,0,117.0835,0,0,2022-06-02T10:51:39.018+02:00,675852732.2080557,0,14.71094,101.0158,1,0.88
2022-06-02T10:52:14.693+02:00,1654159934.489554,53.22905690091207,10.3986158557773,29.1844,0.04745011,0.7699721,-1,-1,3,32,-9999,34465.43217429167,-0.18359375,-0.5409698486328125,-0.808441162109375,34465.42842429167,-1.826928249344045,0.1963128949523785,0.2787326411952129,-2.033844232559204,0.7604791522026062,-1.612175226211548,-0.3887591660022736,-0.2862029075622559,0.1288059949874878,XArbitraryZVertical,0.1612960667002462,-0.05014226233847052,-0.7718581723284006,0.6129473551115141,0.1875262409448624,-0.2751374244689941,-0.9429386854171753,0,0,0,-1,-1,34462.9519035,unknown,2,2022-06-02T10:52:12.208+02:00,2022-06-02T10:32:51.428+02:00,137,2.325748,0,0,117.0835,0,0,2022-06-02T10:51:39.018+02:00,675852732.2080557,0,14.71094,101.0158,1,0.88
2022-06-02T10:52:14.703+02:00,1654159934.489554,53.22905690091207,10.3986158557773,29.1844,0.04745011,0.7699721,-1,-1,3,32,-9999,34465.44214729167,-0.1590728759765625,-0.4877166748046875,-0.8140716552734375,34465.43839629167,-1.839221924016925,0.2075714953691762,0.2542451321351447,-2.299652576446533,0.8644558787345886,-1.702987432479858,-0.3707086443901062,-0.2641711831092834,0.137263298034668,XArbitraryZVertical,0.1581665129981941,-0.03800619844486049,-0.776741525985962,0.6084502025979778,0.1994592398405075,-0.2515148818492889,-0.947077751159668,0,0,0,-1,-1,34462.9519035,unknown,2,2022-06-02T10:52:12.208+02:00,2022-06-02T10:32:51.428+02:00,137,2.325748,0,0,117.0835,0,0,2022-06-02T10:51:39.018+02:00,675852732.2080557,0,14.71094,101.0158,1,0.88
2022-06-02T10:52:14.713+02:00,1654159934.489554,53.22905690091207,10.3986158557773,29.1844,0.04745011,0.7699721,-1,-1,3,32,-9999,34465.45211929167,-0.1360626220703125,-0.4237518310546875,-0.8430328369140625,34465.44836929167,-1.851547314787011,0.2194881578097037,0.227069348099573,-2.508776187896729,0.9506456255912781,-1.801798701286316,-0.3598461151123047,-0.2337392419576645,0.1252105832099915,XArbitraryZVertical,0.1546581991704607,-0.02456091793166607,-0.7817053724171273,0.6036675369820469,0.2121410369873047,-0.2251230776309967,-0.9509552121162415,0,0,0,-1,-1,34462.9519035,unknown,2,2022-06-02T10:52:12.208+02:00,2022-06-02T10:32:51.428+02:00,137,2.325748,0,0,117.0835,0,0,2022-06-02T10:51:39.018+02:00,675852732.2080557,0,14.71094,101.0158,1,0.88
2022-06-02T10:52:14.723+02:00,1654159934.489554,53.22905690091207,10.3986158557773,29.1844,0.04745011,0.7699721,-1,-1,3,32,-9999,34465.46209229167,-0.111358642578125,-0.3512420654296875,-0.869293212890625,34465.45834129167,-1.864061118928257,0.2320268495412734,0.1977232038656448,-2.678468465805054,1.047271251678467,-1.907931208610535,-0.3515841662883759,-0.1885265856981277,0.09698677062988281,XArbitraryZVertical,0.1509270151853189,-0.01003164255368146,-0.7867302401501229,0.5984780546533461,0.2254702597856522,-0.1964374035596848,-0.9542407989501953,0,0,0,-1,-1,34462.9519035,unknown,2,2022-06-02T10:52:12.208+02:00,2022-06-02T10:32:51.428+02:00,137,2.325748,0,0,117.0835,0,0,2022-06-02T10:51:39.018+02:00,675852732.2080557,0,14.71094,101.0158,1,0.88
2022-06-02T10:52:14.733+02:00,1654159934.489554,53.22905690091207,10.3986158557773,29.1844,0.04745011,0.7699721,-1,-1,3,32,-9999,34465.47206429167,-0.0866851806640625,-0.2964019775390625,-0.9133148193359375,34465.46831429167,-1.876833752043925,0.2451898486295706,0.1663573948157485,-2.845200061798096,1.141911268234253,-2.031278133392334,-0.3373050093650818,-0.1563082784414291,0.06801152229309082,XArbitraryZVertical,0.1470382038192456,0.005516839924421656,-0.7917963111713843,0.5927968408779548,0.2393893450498581,-0.1655911356210709,-0.9566986560821533,0,0,0,-1,-1,34462.9519035,unknown,2,2022-06-02T10:52:12.208+02:00,2022-06-02T10:32:51.428+02:00,137,2.325748,0,0,117.0835,0,0,2022-06-02T10:51:39.018+02:00,675852732.2080557,0,14.71094,101.0158,1,0.88
