loggingTime(txt),locationTimestamp_since1970(s),locationLatitude(WGS84),locationLongitude(WGS84),locationAltitude(m),locationSpeed(m/s),locationSpeedAccuracy(m/s),locationCourse(°),locationCourseAccuracy(°),locationVerticalAccuracy(m),locationHorizontalAccuracy(m),locationFloor(Z),accelerometerTimestamp_sinceReboot(s),accelerometerAccelerationX(G),accelerometerAccelerationY(G),accelerometerAccelerationZ(G),motionTimestamp_sinceReboot(s),motionYaw(rad),motionRoll(rad),motionPitch(rad),motionRotationRateX(rad/s),motionRotationRateY(rad/s),motionRotationRateZ(rad/s),motionUserAccelerationX(G),motionUserAccelerationY(G),motionUserAccelerationZ(G),motionAttitudeReferenceFrame(txt),motionQuaternionX(R),motionQuaternionY(R),motionQuaternionZ(R),motionQuaternionW(R),motionGravityX(G),motionGravityY(G),motionGravityZ(G),motionMagneticFieldX(µT),motionMagneticFieldY(µT),motionMagneticFieldZ(µT),motionHeading(°),motionMagneticFieldCalibrationAccuracy(Z),activityTimestamp_sinceReboot(s),activity(txt),activityActivityConfidence(Z),activityActivityStartDate(txt),pedometerStartDate(txt),pedometerNumberofSteps(N),pedometerAverageActivePace(s/m),pedometerCurrentPace(s/m),pedometerCurrentCadence(steps/s),pedometerDistance(m),pedometerFloorAscended(N),pedometerFloorDescended(N),pedometerEndDate(txt),altimeterTimestamp_sinceReboot(s),altimeterReset(bool),altimeterRelativeAltitude(m),altimeterPressure(kPa),batteryState(N),batteryLevel(R)
2022-06-02T10:38:38.263+02:00,1654159115.433108,53.22877648649256,10.39870019039867,40.2193,-1,-1,-1,-1,19.11995315551758,40,-9999,33697.74121416667,-0.296112060546875,-0.292572021484375,-0.9315032958984375,33697.73247716667,-2.479022708883109,-0.281273597022512,0.3133400373094401,-0.1766644865274429,0.112018957734108,-0.2111543118953705,-0.03059858083724976,0.02175399661064148,-0.01641809940338135,XArbitraryZVertical,-0.08067931338803269,-0.1911233071073029,-0.9319354333802315,0.2974207604751,-0.2640638947486877,-0.308237761259079,-0.9139254689216614,0,0,0,-1,-1,33697.32904116667,unknown,2,2022-06-02T10:38:37.800+02:00,2022-06-02T10:32:51.428+02:00,41,0.9590018,0,0,41.84445,0,0,2022-06-02T10:38:37.800+02:00,675851917.800199,0,4.808594,101.1334,1,0.92
2022-06-02T10:38:38.268+02:00,1654159115.433108,53.22877648649256,10.39870019039867,40.2193,-1,-1,-1,-1,19.11995315551758,40,-9999,33697.75118616667,-0.2967529296875,-0.2779998779296875,-0.9289703369140625,33697.74245016667,-2.481443149379761,-0.2795120741146489,0.312561210060105,-0.1044006794691086,0.1355698257684708,-0.2003932744264603,-0.0225449800491333,0.01306313276290894,-0.01680731773376465,XArbitraryZVertical,-0.08022084283521583,-0.1904068821860531,-0.9324051035841989,0.2965310273396579,-0.2625197470188141,-0.3074967563152313,-0.9146196842193604,0,0,0,-1,-1,33697.32904116667,unknown,2,2022-06-02T10:38:37.800+02:00,2022-06-02T10:32:51.428+02:00,41,0.9590018,0,0,41.84445,0,0,2022-06-02T10:38:37.800+02:00,675851917.800199,0,4.808594,101.1334,1,0.92
2022-06-02T10:38:38.281+02:00,1654159115.433108,53.22877648649256,10.39870019039867,40.2193,-1,-1,-1,-1,19.11995315551758,40,-9999,33697.76115916667,-0.2850799560546875,-0.288177490234375,-0.9141845703125,33697.75242216667,-2.48350411788587,-0.2773997818122014,0.3125432053609421,-0.02878900803625584,0.1922309845685959,-0.1837924718856812,-0.03941434621810913,0.02067539095878601,-0.01534926891326904,XArbitraryZVertical,-0.07943491197322447,-0.1900035672384977,-0.9327955305016765,0.2957725281086324,-0.2605887353420258,-0.3074796199798584,-0.9151774644851685,0,0,0,-1,-1,33697.32904116667,unknown,2,2022-06-02T10:38:37.800+02:00,2022-06-02T10:32:51.428+02:00,41,0.9590018,0,0,41.84445,0,0,2022-06-02T10:38:37.800+02:00,675851917.800199,0,4.808594,101.1334,1,0.92
2022-06-02T10:38:38.284+02:00,1654159115.433108,53.22877648649256,10.39870019039867,40.2193,-1,-1,-1,-1,19.11995315551758,40,-9999,33697.77113216667,-0.2760467529296875,-0.30047607421875,-0.9045562744140625,33697.76239516667,-2.485241426980617,-0.274982068935347,0.3131467356045358,0.01313314214348793,0.2304334938526154,-0.1672196239233017,-0.03320953249931335,0.02872645854949951,-0.009239673614501953,XArbitraryZVertical,-0.07837068205165229,-0.1898552255522985,-0.9331167106868394,0.2951378169945773,-0.2583248913288116,-0.3080538511276245,-0.915626049041748,0,0,0,-1,-1,33697.32904116667,unknown,2,2022-06-02T10:38:37.800+02:00,2022-06-02T10:32:51.428+02:00,41,0.9590018,0,0,41.84445,0,0,2022-06-02T10:38:37.800+02:00,675851917.800199,0,4.808594,101.1334,1,0.92
2022-06-02T10:38:38.287+02:00,1654159115.433108,53.22877648649256,10.39870019039867,40.2193,-1,-1,-1,-1,19.11995315551758,40,-9999,33697.78110516667,-0.2645111083984375,-0.3173675537109375,-0.893035888671875,33697.77236816667,-2.486560881042357,-0.2725997980057679,0.3139028742961564,0.0325995646417141,0.2409831583499908,-0.1373656094074249,-0.02529197931289673,0.01614007353782654,0.006346285343170166,XArbitraryZVertical,-0.07725756624379618,-0.1898002648594224,-0.9333649523880245,0.2946810955320641,-0.2560801208019257,-0.3087731301784515,-0.9160142540931702,0,0,0,-1,-1,33697.32904116667,unknown,2,2022-06-02T10:38:37.800+02:00,2022-06-02T10:32:51.428+02:00,41,0.9590018,0,0,41.84445,0,0,2022-06-02T10:38:37.800+02:00,675851917.800199,0,4.808594,101.1334,1,0.92
2022-06-02T10:38:38.291+02:00,1654159115.433108,53.22877648649256,10.39870019039867,40.2193,-1,-1,-1,-1,19.11995315551758,40,-9999,33697.79107716667,-0.2425689697265625,-0.328704833984375,-0.8897857666015625,33697.78234116667,-2.487366471339298,-0.2710423586870586,0.313882663061433,0.01912583038210869,0.2237634211778641,-0.1152288690209389,-0.01920992136001587,0.003532350063323975,0.01450151205062866,XArbitraryZVertical,-0.07661043176249893,-0.1895305853711342,-0.9335446132795043,0.2944546510989519,-0.2546548247337341,-0.3087539076805115,-0.9164180159568787,0,0,0,-1,-1,33697.32904116667,unknown,2,2022-06-02T10:38:37.800+02:00,2022-06-02T10:32:51.428+02:00,41,0.9590018,0,0,41.84445,0,0,2022-06-02T10:38:37.800+02:00,675851917.800199,0,4.808594,101.1334,1,0.92
2022-06-02T10:38:38.293+02:00,1654159115.433108,53.22877648649256,10.39870019039867,40.2193,-1,-1,-1,-1,19.11995315551758,40,-9999,33697.80105016667,-0.2419281005859375,-0.31561279296875,-0.8957977294921875,33697.79231316667,-2.488550794310684,-0.2686672344073567,0.3145329128743313,-0.0213882178068161,0.1631748229265213,-0.1136408746242523,-0.003664106130599976,-0.01429712772369385,0.02649140357971191,XArbitraryZVertical,-0.07550521855024225,-0.1894352510818411,-0.933775338193983,0.2940697308254751,-0.2524241805076599,-0.3093723356723785,-0.9168264865875244,0,0,0,-1,-1,33697.32904116667,unknown,2,2022-06-02T10:38:37.800+02:00,2022-06-02T10:32:51.428+02:00,41,0.9590018,0,0,41.84445,0,0,2022-06-02T10:38:37.800+02:00,675851917.800199,0,4.808594,101.1334,1,0.92
2022-06-02T10:38:38.295+02:00,1654159115.433108,53.22877648649256,10.39870019039867,40.2193,-1,-1,-1,-1,19.11995315551758,40,-9999,33697.81102316667,-0.246185302734375,-0.3148345947265625,-0.898345947265625,33697.80228616667,-2.489795308269274,-0.2669862047880031,0.3143845883972504,-0.07257204502820969,0.1166898757219315,-0.1091499850153923,0.01194202899932861,-0.01538419723510742,0.02465462684631348,XArbitraryZVertical,-0.07486277516854205,-0.189073216928713,-0.9340290794941947,0.2936605272673347,-0.250894695520401,-0.3092312812805176,-0.9172937870025635,0,0,0,-1,-1,33697.32904116667,unknown,2,2022-06-02T10:38:37.800+02:00,2022-06-02T10:32:51.428+02:00,41,0.9590018,0,0,41.84445,0,0,2022-06-02T10:38:37.800+02:00,675851917.800199,0,4.808594,101.1334,1,0.92
2022-06-02T10:38:38.297+02:00,1654159115.433108,53.22877648649256,10.39870019039867,40.2193,-1,-1,-1,-1,19.11995315551758,40,-9999,33697.82099516667,-0.2439422607421875,-0.311737060546875,-0.899932861328125,33697.81225916667,-2.491003397341261,-0.265884517820013,0.3135852610224696,-0.1113365665078163,0.08088642358779907,-0.1010952144861221,0.005518302321434021,-0.003952652215957642,0.02072840929031372,XArbitraryZVertical,-0.07459523604609972,-0.1884983742646617,-0.9342894715444769,0.2932698007531716,-0.2499488443136215,-0.3084710240364075,-0.9178078174591064,0,0,0,-1,-1,33697.32904116667,unknown,2,2022-06-02T10:38:37.800+02:00,2022-06-02T10:32:51.428+02:00,41,0.9590018,0,0,41.84445,0,0,2022-06-02T10:38:37.800+02:00,675851917.800199,0,4.808594,101.1334,1,0.92
2022-06-02T10:38:38.307+02:00,1654159115.433108,53.22877648649256,10.39870019039867,40.2193,-1,-1,-1,-1,19.11995315551758,40,-9999,33697.83096816667,-0.2393951416015625,-0.3040313720703125,-0.90240478515625,33697.82223116667,-2.492209403792066,-0.2651120246510614,0.3124924095796667,-0.1319443881511688,0.03191941976547241,-0.08555859327316284,0.004363328218460083,-0.006228387355804443,0.01987266540527344,XArbitraryZVertical,-0.07452929552850467,-0.1878368237383977,-0.9345521878795562,0.2928736753630832,-0.2493279576301575,-0.3074312806129456,-0.9183254241943359,0,0,0,-1,-1,33697.32904116667,unknown,2,2022-06-02T10:38:37.800+02:00,2022-06-02T10:32:51.428+02:00,41,0.9590018,0,0,41.84445,0,0,2022-06-02T10:38:37.800+02:00,675851917.800199,0,4.808594,101.1334,1,0.92
2022-06-02T10:38:38.327+02:00,1654159115.433108,53.22877648649256,10.39870019039867,40.2193,-1,-1,-1,-1,19.11995315551758,40,-9999,33697.84094116667,-0.248077392578125,-0.2903900146484375,-0.9027557373046875,33697.83220416667,-2.493277320326492,-0.2648604855303379,0.311373591327898,-0.1150113791227341,0.009948784485459328,-0.07207691669464111,0.007884323596954346,-0.005675792694091797,0.01724553108215332,XArbitraryZVertical,-0.07469737172951671,-0.1872446299292246,-0.9347762308916385,0.2924948525517,-0.2491868287324905,-0.3063664734363556,-0.9187195301055908,0,0,0,-1,-1,33697.32904116667,unknown,2,2022-06-02T10:38:37.800+02:00,2022-06-02T10:32:51.428+02:00,41,0.9590018,0,0,41.84445,0,0,2022-06-02T10:38:37.800+02:00,675851917.800199,0,4.808594,101.1334,1,0.92
2022-06-02T10:38:38.329+02:00,1654159115.433108,53.22877648649256,10.39870019039867,40.2193,-1,-1,-1,-1,19.11995315551758,40,-9999,33697.85091316667,-0.2421722412109375,-0.286285400390625,-0.89678955078125,33697.84217716667,-2.494238401896534,-0.2647213352636694,0.3103868810307382,-0.08637973666191101,-0.008349263109266758,-0.07734651863574982,0.004936292767524719,0.01048988103866577,0.01548105478286743,XArbitraryZVertical,-0.0748855233618391,-0.1867335487631592,-0.9349731756806953,0.2921436802795617,-0.2491379678249359,-0.3054270446300507,-0.9190455079078674,0,0,0,-1,-1,33697.32904116667,unknown,2,2022-06-02T10:38:37.800+02:00,2022-06-02T10:32:51.428+02:00,41,0.9590018,0,0,41.84445,0,0,2022-06-02T10:38:37.800+02:00,675851917.800199,0,4.808594,101.1334,1,0.92
2022-06-02T10:38:38.338+02:00,1654159115.433108,53.22877648649256,10.39870019039867,40.2193,-1,-1,-1,-1,19.11995315551758,40,-9999,33697.86088616667,-0.2524261474609375,-0.277435302734375,-0.89715576171875,33697.85214916667,-2.495125847014383,-0.2646995510891983,0.3097630890032517,-0.06465699523687363,-0.008885623887181282,-0.06725893169641495,0.002555176615715027,0.01357322931289673,0.01846253871917725,XArbitraryZVertical,-0.07506123586504128,-0.1864094990605354,-0.9351358987748521,0.2917845595944835,-0.2491677403450012,-0.3048329949378967,-0.9192346334457397,0,0,0,-1,-1,33697.32904116667,unknown,2,2022-06-02T10:38:37.800+02:00,2022-06-02T10:32:51.428+02:00,41,0.9590018,0,0,41.84445,0,0,2022-06-02T10:38:37.800+02:00,675851917.800199,0,4.808594,101.1334,1,0.92
2022-06-02T10:38:38.347+02:00,1654159115.433108,53.22877648649256,10.39870019039867,40.2193,-1,-1,-1,-1,19.11995315551758,40,-9999,33697.87085816667,-0.2610015869140625,-0.2803955078125,-0.904327392578125,33697.86212216667,-2.495667482747541,-0.2653261296753679,0.3094633593057889,-0.0490303635597229,-0.005842695478349924,-0.06108545511960983,0.005611732602119446,0.0226108729839325,0.02217859029769897,XArbitraryZVertical,-0.07545417181090425,-0.1863422653641074,-0.9352068690878979,0.2914988031148567,-0.2497676163911819,-0.304547518491745,-0.9191664457321167,0,0,0,-1,-1,33697.32904116667,unknown,2,2022-06-02T10:38:37.800+02:00,2022-06-02T10:32:51.428+02:00,41,0.9590018,0,0,41.84445,0,0,2022-06-02T10:38:37.800+02:00,675851917.800199,0,4.808594,101.1334,1,0.92
2022-06-02T10:38:38.357+02:00,1654159115.433108,53.22877648649256,10.39870019039867,40.2193,-1,-1,-1,-1,19.11995315551758,40,-9999,33697.88083116667,-0.2636260986328125,-0.2869720458984375,-0.9129486083984375,33697.87209416667,-2.496203671615365,-0.2655150563971779,0.309992890988785,-0.02541789039969444,0.009834446012973785,-0.04778327792882919,-0.006265655159950256,0.02706724405288696,0.01895433664321899,XArbitraryZVertical,-0.07550513959438544,-0.1865937521898333,-0.9352503615467433,0.2911846951500338,-0.2498989105224609,-0.305051863193512,-0.9189634919166565,0,0,0,-1,-1,33697.32904116667,unknown,2,2022-06-02T10:38:37.800+02:00,2022-06-02T10:32:51.428+02:00,41,0.9590018,0,0,41.84445,0,0,2022-06-02T10:38:37.800+02:00,675851917.800199,0,4.808594,101.1334,1,0.92
2022-06-02T10:38:38.367+02:00,1654159115.433108,53.22877648649256,10.39870019039867,40.2193,-1,-1,-1,-1,19.11995315551758,40,-9999,33697.89080416667,-0.2657623291015625,-0.28021240234375,-0.91900634765625,33697.88206716667,-2.496791393658719,-0.2650682895366414,0.3106894019750441,-0.01639723032712936,0.02232387289404869,-0.04964376240968704,-0.01338480412960052,0.02260351181030273,0.01237565279006958,XArbitraryZVertical,-0.07523622140104569,-0.1868277952615197,-0.9353165497067861,0.2908914904916846,-0.2494325935840607,-0.3057151138782501,-0.9188697934150696,0,0,0,-1,-1,33697.32904116667,unknown,2,2022-06-02T10:38:37.800+02:00,2022-06-02T10:32:51.428+02:00,41,0.9590018,0,0,41.84445,0,0,2022-06-02T10:38:37.800+02:00,675851917.800199,0,4.808594,101.1334,1,0.92
2022-06-02T10:38:38.377+02:00,1654159115.433108,53.22877648649256,10.39870019039867,40.2193,-1,-1,-1,-1,19.11995315551758,40,-9999,33697.90077716667,-0.2695465087890625,-0.2730712890625,-0.922210693359375,33697.89204016667,-2.497261112437872,-0.2647437310823192,0.3110489913187516,-0.003022037213668227,0.02236035838723183,-0.04253192245960236,-0.01435267925262451,0.02090120315551758,0.003561317920684814,XArbitraryZVertical,-0.07506906050525256,-0.1869287922833537,-0.9353783372821876,0.2906711997701866,-0.2491055727005005,-0.3060574531555176,-0.9188445210456848,0,0,0,-1,-1,33697.32904116667,unknown,2,2022-06-02T10:38:37.800+02:00,2022-06-02T10:32:51.428+02:00,41,0.9590018,0,0,41.84445,0,0,2022-06-02T10:38:37.800+02:00,675851917.800199,0,4.808594,101.1334,1,0.92
2022-06-02T10:38:38.387+02:00,1654159115.433108,53.22877648649256,10.39870019039867,40.2193,-1,-1,-1,-1,19.11995315551758,40,-9999,33697.91074916667,-0.2728424072265625,-0.2736968994140625,-0.9243927001953125,33697.90201316667,-2.497643569774069,-0.2644039358707846,0.3115525940901606,0.02036025002598763,0.0346367284655571,-0.03444337099790573,-0.01858097314834595,0.03004759550094604,-0.000729680061340332,XArbitraryZVertical,-0.07486296346384336,-0.1870973625283973,-0.93542032909381,0.2904807344165339,-0.2487530410289764,-0.306536853313446,-0.9187802076339722,0,0,0,-1,-1,33697.32904116667,unknown,2,2022-06-02T10:38:37.800+02:00,2022-06-02T10:32:51.428+02:00,41,0.9590018,0,0,41.84445,0,0,2022-06-02T10:38:37.800+02:00,675851917.800199,0,4.808594,101.1334,1,0.92
2022-06-02T10:38:38.396+02:00,1654159115.433108,53.22877648649256,10.39870019039867,40.2193,-1,-1,-1,-1,19.11995315551758,40,-9999,33697.92072216667,-0.27203369140625,-0.276947021484375,-0.9269866943359375,33697.91198516667,-2.49785696409876,-0.2639687348765556,0.3121595860655228,0.03896868973970413,0.03825756534934044,-0.01941095851361752,-0.02264577150344849,0.03660675883293152,-0.004051387310028076,XArbitraryZVertical,-0.07457948199460855,-0.1873061747028887,-0.9354356871941878,0.2903693452622431,-0.2483045607805252,-0.3071145713329315,-0.9187086224555969,0,0,0,-1,-1,33697.32904116667,unknown,2,2022-06-02T10:38:37.800+02:00,2022-06-02T10:32:51.428+02:00,41,0.9590018,0,0,41.84445,0,0,2022-06-02T10:38:37.800+02:00,675851917.800199,0,4.808594,101.1334,1,0.92
2022-06-02T10:38:38.407+02:00,1654159115.433108,53.22877648649256,10.39870019039867,40.2193,-1,-1,-1,-1,19.11995315551758,40,-9999,33697.93069516667,-0.266387939453125,-0.2930755615234375,-0.9307403564453125,33697.92195816667,-2.497878278354915,-0.2635993991869767,0.3124942254824095,0.05488267540931702,0.03118207864463329,-0.007202761247754097,-0.02650617063045502,0.03149306774139404,-0.006271541118621826,XArbitraryZVertical,-0.07435366006605987,-0.187406113786754,-0.9354349222155054,0.2903651762258998,-0.2479384392499924,-0.307433009147644,-0.9187009930610657,0,0,0,-1,-1,33697.32904116667,unknown,2,2022-06-02T10:38:37.800+02:00,2022-06-02T10:32:51.428+02:00,41,0.9590018,0,0,41.84445,0,0,2022-06-02T10:38:37.800+02:00,675851917.800199,0,4.808594,101.1334,1,0.92
2022-06-02T10:38:38.417+02:00,1654159115.433108,53.22877648649256,10.39870019039867,40.2193,-1,-1,-1,-1,19.11995315551758,40,-9999,33697.94066716667,-0.2665557861328125,-0.289520263671875,-0.93707275390625,33697.93193116667,-2.497761443603402,-0.2634492201769463,0.3127669231759166,0.04328638315200806,0.01558669656515121,-0.001456947065889835,-0.02153903245925903,0.02633565664291382,-0.01070982217788696,XArbitraryZVertical,-0.07422757553589818,-0.1875144218311617,-0.9354092065171729,0.2904104949945779,-0.2477786242961884,-0.3076924979686737,-0.9186572432518005,0,0,0,-1,-1,33697.32904116667,unknown,2,2022-06-02T10:38:37.800+02:00,2022-06-02T10:32:51.428+02:00,41,0.9590018,0,0,41.84445,0,0,2022-06-02T10:38:37.800+02:00,675851917.800199,0,4.808594,101.1334,1,0.92
2022-06-02T10:38:38.427+02:00,1654159115.433108,53.22877648649256,10.39870019039867,40.2193,-1,-1,-1,-1,19.11995315551758,40,-9999,33697.95064016667,-0.277099609375,-0.2817840576171875,-0.940155029296875,33697.94190316667,-2.497698019752839,-0.2635345922849084,0.3126607011043182,0.01404194533824921,-0.01382951624691486,-0.009774265810847282,-0.01742376387119293,0.01266953349113464,-0.01439207792282104,XArbitraryZVertical,-0.07427903756749607,-0.1874801756760738,-0.9354024529321441,0.2904413222765466,-0.2478655725717545,-0.307591438293457,-0.9186676144599915,0,0,0,-1,-1,33697.32904116667,unknown,2,2022-06-02T10:38:37.800+02:00,2022-06-02T10:32:51.428+02:00,41,0.9590018,0,0,41.84445,0,0,2022-06-02T10:38:37.800+02:00,675851917.800199,0,4.808594,101.1334,1,0.92
2022-06-02T10:38:38.436+02:00,1654159115.433108,53.22877648649256,10.39870019039867,40.2193,-1,-1,-1,-1,19.11995315551758,40,-9999,33697.96061316667,-0.271331787109375,-0.2799072265625,-0.9397430419921875,33697.95187616667,-2.497779890618848,-0.2640103267651366,0.3120793930375176,-0.01459933072328568,-0.01990747079253197,-0.02979535609483719,-0.02182294428348541,0.02037137746810913,-0.01859486103057861,XArbitraryZVertical,-0.07460490347889757,-0.1872780893792038,-0.9354272142867177,0.2904084689866315,-0.248349204659462,-0.3070382475852966,-0.9187220335006714,0,0,0,-1,-1,33697.32904116667,unknown,2,2022-06-02T10:38:37.800+02:00,2022-06-02T10:32:51.428+02:00,41,0.9590018,0,0,41.84445,0,0,2022-06-02T10:38:37.800+02:00,675851917.800199,0,4.808594,101.1334,1,0.92
2022-06-02T10:38:38.446+02:00,1654159115.433108,53.22877648649256,10.39870019039867,40.2193,-1,-1,-1,-1,19.11995315551758,40,-9999,33697.97058516667,-0.2714691162109375,-0.27423095703125,-0.9356231689453125,33697.96184916667,-2.49809355261391,-0.2645366459012246,0.3114783307315928,-0.01970860548317432,-0.02009309269487858,-0.04860126599669456,-0.02786776423454285,0.02639108896255493,-0.02282017469406128,XArbitraryZVertical,-0.07497934956747507,-0.1870655187549961,-0.9354845780478313,0.2902642490494262,-0.2488809078931808,-0.3064661622047424,-0.9187691807746887,0,0,0,-1,-1,33697.32904116667,unknown,2,2022-06-02T10:38:37.800+02:00,2022-06-02T10:32:51.428+02:00,41,0.9590018,0,0,41.84445,0,0,2022-06-02T10:38:37.800+02:00,675851917.800199,0,4.808594,101.1334,1,0.92
2022-06-02T10:38:38.456+02:00,1654159115.433108,53.22877648649256,10.39870019039867,40.2193,-1,-1,-1,-1,19.11995315551758,40,-9999,33697.98055816667,-0.26556396484375,-0.268951416015625,-0.9333648681640625,33697.97182116667,-2.498501981944452,-0.2648761447601261,0.310995033249242,0.001011986052617431,0.004006383940577507,-0.04866578429937363,-0.02118471264839172,0.02791464328765869,-0.01986271142959595,XArbitraryZVertical,-0.0752558371639109,-0.186876495319792,-0.9355563346702509,0.2900830739823968,-0.2492315620183945,-0.3060060739517212,-0.9188274741172791,0,0,0,-1,-1,33697.32904116667,unknown,2,2022-06-02T10:38:37.800+02:00,2022-06-02T10:32:51.428+02:00,41,0.9590018,0,0,41.84445,0,0,2022-06-02T10:38:37.800+02:00,675851917.800199,0,4.808594,101.1334,1,0.92
2022-06-02T10:38:38.466+02:00,1654159115.433108,53.22877648649256,10.39870019039867,40.2193,-1,-1,-1,-1,19.11995315551758,40,-9999,33697.99053116667,-0.2608489990234375,-0.267120361328125,-0.935516357421875,33697.98179416667,-2.498821175327371,-0.2651122174198099,0.3105364239859605,0.03165005519986153,0.01110983360558748,-0.05027540028095245,-0.02282315492630005,0.03764033317565918,-0.01632249355316162,XArbitraryZVertical,-0.07547147413182968,-0.1866871250536592,-0.9356176604001536,0.2899512414755065,-0.2494852095842361,-0.3055694401264191,-0.9189039468765259,0,0,0,-1,-1,33697.32904116667,unknown,2,2022-06-02T10:38:37.800+02:00,2022-06-02T10:32:51.428+02:00,41,0.9590018,0,0,41.84445,0,0,2022-06-02T10:38:37.800+02:00,675851917.800199,0,4.808594,101.1334,1,0.92
2022-06-02T10:38:38.476+02:00,1654159115.433108,53.22877648649256,10.39870019039867,40.2193,-1,-1,-1,-1,19.11995315551758,40,-9999,33698.00050316667,-0.2592010498046875,-0.2778472900390625,-0.936492919921875,33697.99176716667,-2.498917553294647,-0.2653672991450349,0.3102151460556044,0.0641988143324852,0.02872238308191299,-0.02467409707605839,-0.01276688277721405,0.03585430979728699,-0.01435357332229614,XArbitraryZVertical,-0.07565259993966605,-0.186572235415768,-0.935638729331813,0.289910051922868,-0.2497453391551971,-0.3052635192871094,-0.9189349412918091,0,0,0,-1,-1,33697.32904116667,unknown,2,2022-06-02T10:38:37.800+02:00,2022-06-02T10:32:51.428+02:00,41,0.9590018,0,0,41.84445,0,0,2022-06-02T10:38:37.800+02:00,675851917.800199,0,4.808594,101.1334,1,0.92
2022-06-02T10:38:38.486+02:00,1654159115.433108,53.22877648649256,10.39870019039867,40.2193,-1,-1,-1,-1,19.11995315551758,40,-9999,33698.01047616667,-0.252960205078125,-0.29095458984375,-0.9335174560546875,33698.00173916667,-2.498805614381547,-0.2656187016313289,0.3102854426881202,0.08382604271173477,0.03164999559521675,-0.02684910036623478,-0.0112292468547821,0.03668421506881714,-0.01794666051864624,XArbitraryZVertical,-0.07574822378512172,-0.1866453570718821,-0.9356092760367023,0.2899328324163469,-0.2499707192182541,-0.3053304553031921,-0.9188514351844788,0,0,0,-1,-1,33697.32904116667,unknown,2,2022-06-02T10:38:37.800+02:00,2022-06-02T10:32:51.428+02:00,41,0.9590018,0,0,41.84445,0,0,2022-06-02T10:38:37.800+02:00,675851917.800199,0,4.808594,101.1334,1,0.92
2022-06-02T10:38:38.496+02:00,1654159115.433108,53.22877648649256,10.39870019039867,40.2193,-1,-1,-1,-1,19.11995315551758,40,-9999,33698.02044916667,-0.251312255859375,-0.3051300048828125,-0.933135986328125,33698.01171216667,-2.498686153398251,-0.2657027509171425,0.3104962072142117,0.0885520875453949,0.02584989741444588,-0.02088588289916515,-0.007628858089447021,0.02573075890541077,-0.01700741052627563,XArbitraryZVertical,-0.07574173578262813,-0.1867592944780148,-0.9355778325691141,0.2899627119060418,-0.250031054019928,-0.3055311441421509,-0.9187682867050171,0,0,0,-1,-1,33697.32904116667,unknown,2,2022-06-02T10:38:37.800+02:00,2022-06-02T10:32:51.428+02:00,41,0.9590018,0,0,41.84445,0,0,2022-06-02T10:38:37.800+02:00,675851917.800199,0,4.808594,101.1334,1,0.92
2022-06-02T10:38:38.506+02:00,1654159115.433108,53.22877648649256,10.39870019039867,40.2193,-1,-1,-1,-1,19.11995315551758,40,-9999,33698.03042116667,-0.2530670166015625,-0.32000732421875,-0.932647705078125,33698.02168516667,-2.498549801752095,-0.2657437869214517,0.3109092993341244,0.06498870253562927,0.02461259253323078,-0.006245954427868128,0.0006001293659210205,0.006272345781326294,-0.01559841632843018,XArbitraryZVertical,-0.07568026713586683,-0.1869609669256512,-0.935534991723074,0.2899869970191158,-0.2500355839729309,-0.3059244751930237,-0.9186362028121948,0,0,0,-1,-1,33697.32904116667,unknown,2,2022-06-02T10:38:37.800+02:00,2022-06-02T10:32:51.428+02:00,41,0.9590018,0,0,41.84445,0,0,2022-06-02T10:38:37.800+02:00,675851917.800199,0,4.808594,101.1334,1,0.92
2022-06-02T10:38:38.516+02:00,1654159115.433108,53.22877648649256,10.39870019039867,40.2193,-1,-1,-1,-1,19.11995315551758,40,-9999,33698.04039416667,-0.2510528564453125,-0.329010009765625,-0.928680419921875,33698.03165716667,-2.49842353246631,-0.2658898687734382,0.3108104674059642,0.03524119406938553,0.02054967544972897,-0.007936662063002586,-0.002126365900039673,-0.006089776754379272,-0.01348477602005005,XArbitraryZVertical,-0.07575304818874748,-0.186941339288589,-0.93551631035766,0.2900409523636331,-0.2501777112483978,-0.3058303594589233,-0.9186288118362427,0,0,0,-1,-1,33697.32904116667,unknown,2,2022-06-02T10:38:37.800+02:00,2022-06-02T10:32:51.428+02:00,41,0.9590018,0,0,41.84445,0,0,2022-06-02T10:38:37.800+02:00,675851917.800199,0,4.808594,101.1334,1,0.92
2022-06-02T10:38:38.526+02:00,1654159115.433108,53.22877648649256,10.39870019039867,40.2193,-1,-1,-1,-1,19.11995315551758,40,-9999,33698.05036716667,-0.2431640625,-0.329254150390625,-0.9319305419921875,33698.04163016667,-2.498249328656451,-0.2661846824714827,0.3101467906078284,-0.01480918750166893,0.02089056000113487,0.004918416030704975,-0.0008409321308135986,-0.01911187171936035,-0.01250851154327393,XArbitraryZVertical,-0.07598386204505647,-0.1866845774366976,-0.9355143298528639,0.2901521898365103,-0.2505018711090088,-0.3051984310150146,-0.9187506437301636,0,0,0,-1,-1,33697.32904116667,unknown,2,2022-06-02T10:38:37.800+02:00,2022-06-02T10:32:51.428+02:00,41,0.9590018,0,0,41.84445,0,0,2022-06-02T10:38:37.800+02:00,675851917.800199,0,4.808594,101.1334,1,0.92
2022-06-02T10:38:38.536+02:00,1654159115.433108,53.22877648649256,10.39870019039867,40.2193,-1,-1,-1,-1,19.11995315551758,40,-9999,33698.06033916667,-0.24346923828125,-0.3246002197265625,-0.9301910400390625,33698.05160316667,-2.498144522487569,-0.266357308951275,0.3090803678865717,-0.04957675561308861,0.006682061590254307,0.01920228078961372,0.001066386699676514,-0.02603274583816528,-0.0114142894744873,XArbitraryZVertical,-0.07623028171771797,-0.1862216722834676,-0.9355477958530791,0.2902772891347506,-0.2507459819316864,-0.3041827082633972,-0.9190208911895752,0,0,0,-1,-1,33697.32904116667,unknown,2,2022-06-02T10:38:37.800+02:00,2022-06-02T10:32:51.428+02:00,41,0.9590018,0,0,41.84445,0,0,2022-06-02T10:38:37.800+02:00,675851917.800199,0,4.808594,101.1334,1,0.92
2022-06-02T10:38:38.546+02:00,1654159115.433108,53.22877648649256,10.39870019039867,40.2193,-1,-1,-1,-1,19.11995315551758,40,-9999,33698.07031216667,-0.2545166015625,-0.3170166015625,-0.9300537109375,33698.06157516667,-2.498021285327655,-0.2666271288756427,0.3076677567638412,-0.06950225681066513,0.008371571078896523,0.02387799322605133,0.01010957360267639,-0.02499836683273315,-0.01230436563491821,XArbitraryZVertical,-0.07657747472352505,-0.1856138750064887,-0.9355922281926926,0.2904317666090402,-0.2511069178581238,-0.3028367459774017,-0.9193667769432068,0,0,0,-1,-1,33697.32904116667,unknown,2,2022-06-02T10:38:37.800+02:00,2022-06-02T10:32:51.428+02:00,41,0.9590018,0,0,41.84445,0,0,2022-06-02T10:38:37.800+02:00,675851917.800199,0,4.808594,101.1334,1,0.92
2022-06-02T10:38:38.556+02:00,1654159115.433108,53.22877648649256,10.39870019039867,40.2193,-1,-1,-1,-1,19.11995315551758,40,-9999,33698.08028516667,-0.2513275146484375,-0.301910400390625,-0.9280548095703125,33698.07154816667,-2.497894944811678,-0.2665841036884276,0.3062962537932176,-0.05493561550974846,0.02944028191268444,0.0284234993159771,0.002565056085586548,-0.01977497339248657,-0.01061201095581055,XArbitraryZVertical,-0.07677130082522256,-0.1849796772563863,-0.935645639806767,0.2906131990072893,-0.2511765360832214,-0.3015293478965759,-0.9197773933410645,0,0,0,-1,-1,33697.32904116667,unknown,2,2022-06-02T10:38:37.800+02:00,2022-06-02T10:32:51.428+02:00,41,0.9590018,0,0,41.84445,0,0,2022-06-02T10:38:37.800+02:00,675851917.800199,0,4.808594,101.1334,1,0.92
2022-06-02T10:38:38.566+02:00,1654159115.433108,53.22877648649256,10.39870019039867,40.2193,-1,-1,-1,-1,19.11995315551758,40,-9999,33698.09025716667,-0.253326416015625,-0.296295166015625,-0.915191650390625,33698.08152116667,-2.497630069719901,-0.2662746119824327,0.305239476956349,-0.01233728602528572,0.06215668469667435,0.0441979318857193,-0.001008093357086182,-0.01271083950996399,-0.008747339248657227,XArbitraryZVertical,-0.0767759419070148,-0.1844572232263247,-0.9356727472758403,0.2908567550683633,-0.2509755790233612,-0.300521582365036,-0.9201619625091553,0,0,0,-1,-1,33697.32904116667,unknown,2,2022-06-02T10:38:37.800+02:00,2022-06-02T10:32:51.428+02:00,41,0.9590018,0,0,41.84445,0,0,2022-06-02T10:38:37.800+02:00,675851917.800199,0,4.808594,101.1334,1,0.92
2022-06-02T10:38:38.576+02:00,1654159115.433108,53.22877648649256,10.39870019039867,40.2193,-1,-1,-1,-1,19.11995315551758,40,-9999,33698.10023016667,-0.2486572265625,-0.296295166015625,-0.9130859375,33698.09149316667,-2.497197462856279,-0.2656995235182356,0.3047375347418805,0.0217434074729681,0.09560989588499069,0.03350909426808357,-0.001818180084228516,0.002496421337127686,-0.001484453678131104,XArbitraryZVertical,-0.07654967307401421,-0.184158517005341,-0.9356572022088199,0.2911552107019608,-0.2504859268665314,-0.3000428080558777,-0.9204515814781189,0,0,0,-1,-1,33697.32904116667,unknown,2,2022-06-02T10:38:37.800+02:00,2022-06-02T10:32:51.428+02:00,41,0.9590018,0,0,41.84445,0,0,2022-06-02T10:38:37.800+02:00,675851917.800199,0,4.808594,101.1334,1,0.92
2022-06-02T10:38:38.586+02:00,1654159115.433108,53.22877648649256,10.39870019039867,40.2193,-1,-1,-1,-1,19.11995315551758,40,-9999,33698.11020316667,-0.25299072265625,-0.28997802734375,-0.9125823974609375,33698.10146616667,-2.496836459716951,-0.2645906649053167,0.3049916660341486,0.06220907717943192,0.1254207789897919,0.0239853635430336,-0.005056202411651611,0.004691958427429199,0.006211161613464355,XArbitraryZVertical,-0.07595583784988091,-0.1841280610120065,-0.9356340120726707,0.291404375896939,-0.2494451701641083,-0.3002852201461792,-0.9206551313400269,0,0,0,-1,-1,33697.32904116667,unknown,2,2022-06-02T10:38:37.800+02:00,2022-06-02T10:32:51.428+02:00,41,0.9590018,0,0,41.84445,0,0,2022-06-02T10:38:37.800+02:00,675851917.800199,0,4.808594,101.1334,1,0.92
2022-06-02T10:38:38.596+02:00,1654159115.433108,53.22877648649256,10.39870019039867,40.2193,-1,-1,-1,-1,19.11995315551758,40,-9999,33698.12017516667,-0.2483978271484375,-0.293304443359375,-0.918304443359375,33698.11143916667,-2.496447837547293,-0.2633593793359612,0.3058618516875434,0.09954588115215302,0.1510336548089981,-0.001511919312179089,0.0006999373435974121,0.005170881748199463,0.008752167224884033,XArbitraryZVertical,-0.07520067556758911,-0.1843648307800161,-0.9355796142542847,0.291625148373394,-0.2482432872056961,-0.3011151254177094,-0.920708954334259,0,0,0,-1,-1,33697.32904116667,unknown,2,2022-06-02T10:38:37.800+02:00,2022-06-02T10:32:51.428+02:00,41,0.9590018,0,0,41.84445,0,0,2022-06-02T10:38:37.800+02:00,675851917.800199,0,4.808594,101.1334,1,0.92
2022-06-02T10:38:38.606+02:00,1654159115.433108,53.22877648649256,10.39870019039867,40.2193,-1,-1,-1,-1,19.11995315551758,40,-9999,33698.13014816667,-0.240386962890625,-0.2977142333984375,-0.9257659912109375,33698.12141116667,-2.496302719587774,-0.2618000743993784,0.3074115979061344,0.1250672340393066,0.1701911091804504,-0.02723618969321251,-0.006579160690307617,0.01287394762039185,0.006366968154907227,XArbitraryZVertical,-0.07420247283980962,-0.1848579637209603,-0.9355372448643307,0.291704733105952,-0.2466862350702286,-0.3025926053524017,-0.9206430315971375,0,0,0,-1,-1,33697.32904116667,unknown,2,2022-06-02T10:38:37.800+02:00,2022-06-02T10:32:51.428+02:00,41,0.9590018,0,0,41.84445,0,0,2022-06-02T10:38:37.800+02:00,675851917.800199,0,4.808594,101.1334,1,0.92
2022-06-02T10:38:38.617+02:00,1654159115.433108,53.22877648649256,10.39870019039867,40.2193,-1,-1,-1,-1,19.11995315551758,40,-9999,33698.14012116667,-0.22698974609375,-0.3024749755859375,-0.934539794921875,33698.13138416667,-2.496328875606297,-0.2601647019500029,0.3092539135197577,0.1287664920091629,0.1614953428506851,-0.04633112251758575,-0.0006300359964370728,0.01015853881835938,-0.0005155205726623535,XArbitraryZVertical,-0.0731363248150295,-0.1854685783387052,-0.9355058280986163,0.2916870900639914,-0.2450364977121353,-0.3043480217456818,-0.9205049872398376,0,0,0,-1,-1,33697.32904116667,unknown,2,2022-06-02T10:38:37.800+02:00,2022-06-02T10:32:51.428+02:00,41,0.9590018,0,0,41.84445,0,0,2022-06-02T10:38:37.800+02:00,675851917.800199,0,4.808594,101.1334,1,0.92
2022-06-02T10:38:38.626+02:00,1654159115.433108,53.22877648649256,10.39870019039867,40.2193,-1,-1,-1,-1,19.11995315551758,40,-9999,33698.15009316667,-0.211212158203125,-0.31060791015625,-0.939910888671875,33698.14135716667,-2.496598565975162,-0.2584352580422142,0.3110429116663424,0.1304251104593277,0.1368195563554764,-0.06848356127738953,0.006579771637916565,0.006872624158859253,-0.00898277759552002,XArbitraryZVertical,-0.07205768003085943,-0.1860321050896189,-0.9355141873723524,0.2915697332000917,-0.2433046251535416,-0.3060516715049744,-0.9203994870185852,0,0,0,-1,-1,33697.32904116667,unknown,2,2022-06-02T10:38:37.800+02:00,2022-06-02T10:32:51.428+02:00,41,0.9590018,0,0,41.84445,0,0,2022-06-02T10:38:37.800+02:00,675851917.800199,0,4.808594,101.1334,1,0.92
2022-06-02T10:38:38.636+02:00,1654159115.433108,53.22877648649256,10.39870019039867,40.2193,-1,-1,-1,-1,19.11995315551758,40,-9999,33698.16006616667,-0.2153167724609375,-0.3141632080078125,-0.9413299560546875,33698.15132916667,-2.497012302690181,-0.2572284000113615,0.3126472596825147,0.1093183532357216,0.09036870300769806,-0.07537242770195007,0.02243340015411377,0.001411020755767822,-0.01649010181427002,XArbitraryZVertical,-0.07126751143336903,-0.1865817045692118,-0.9355328541789096,0.2913528868262679,-0.2420684397220612,-0.3075786530971527,-0.92021644115448,0,0,0,-1,-1,33697.32904116667,unknown,2,2022-06-02T10:38:37.800+02:00,2022-06-02T10:32:51.428+02:00,41,0.9590018,0,0,41.84445,0,0,2022-06-02T10:38:37.800+02:00,675851917.800199,0,4.808594,101.1334,1,0.92
2022-06-02T10:38:38.646+02:00,1654159115.433108,53.22877648649256,10.39870019039867,40.2193,-1,-1,-1,-1,19.11995315551758,40,-9999,33698.17003916667,-0.209869384765625,-0.322845458984375,-0.9407196044921875,33698.16130216667,-2.497527243195393,-0.2565284110222323,0.3138075213617623,0.06775147467851639,0.05096963047981262,-0.09207843244075775,0.0293126255273819,-0.001864433288574219,-0.019336998462677,XArbitraryZVertical,-0.07079723274772867,-0.1869968931871662,-0.9355708210857715,0.2910793639437325,-0.2413335293531418,-0.3086824417114258,-0.9200398325920105,0,0,0,-1,-1,33697.32904116667,unknown,2,2022-06-02T10:38:37.800+02:00,2022-06-02T10:32:51.428+02:00,41,0.9590018,0,0,41.84445,0,0,2022-06-02T10:38:37.800+02:00,675851917.800199,0,4.808594,101.1334,1,0.92
2022-06-02T10:38:38.656+02:00,1654159115.433108,53.22877648649256,10.39870019039867,40.2193,-1,-1,-1,-1,19.11995315551758,40,-9999,33698.18001116667,-0.218414306640625,-0.3267059326171875,-0.940582275390625,33698.17127516667,-2.498575936965572,-0.2560774480348434,0.3141435696880196,-0.01504021696746349,0.01843858696520329,-0.1506615281105042,0.02601802349090576,-0.008350223302841187,-0.02086979150772095,XArbitraryZVertical,-0.07062908852558347,-0.1870493233235156,-0.9357212580987578,0.2906025710072212,-0.240892305970192,-0.3090020716190338,-0.9200481772422791,0,0,0,-1,-1,33697.32904116667,unknown,2,2022-06-02T10:38:37.800+02:00,2022-06-02T10:32:51.428+02:00,41,0.9590018,0,0,41.84445,0,0,2022-06-02T10:38:37.800+02:00,675851917.800199,0,4.808594,101.1334,1,0.92
2022-06-02T10:38:38.666+02:00,1654159115.433108,53.22877648649256,10.39870019039867,40.2193,-1,-1,-1,-1,19.11995315551758,40,-9999,33698.18998416667,-0.2153167724609375,-0.303955078125,-0.9308624267578125,33698.18124716667,-2.500537199113313,-0.2555525280495809,0.3139238546383887,-0.0774383470416069,0.01416927296668291,-0.2255466878414154,0.0296110212802887,-0.01730251312255859,-0.02270722389221191,XArbitraryZVertical,-0.07060281187740532,-0.1868024937591246,-0.936036099202719,0.2897523282479088,-0.2404264807701111,-0.3087930977344513,-0.9202401638031006,0,0,0,-1,-1,33697.32904116667,unknown,2,2022-06-02T10:38:37.800+02:00,2022-06-02T10:32:51.428+02:00,41,0.9590018,0,0,41.84445,0,0,2022-06-02T10:38:37.800+02:00,675851917.800199,0,4.808594,101.1334,1,0.92
2022-06-02T10:38:38.676+02:00,1654159115.433108,53.22877648649256,10.39870019039867,40.2193,-1,-1,-1,-1,19.11995315551758,40,-9999,33698.19995716667,-0.2400665283203125,-0.2898101806640625,-0.93096923828125,33698.19122016667,-2.50325083462801,-0.2547988619800893,0.313364600814553,-0.1168968975543976,0.01039379835128784,-0.2684158086776733,0.02093477547168732,-0.01209715008735657,-0.01405853033065796,XArbitraryZVertical,-0.07059455380429114,-0.1863394250505489,-0.9364851253758588,0.2885992720090623,-0.2397763431072235,-0.3082611262798309,-0.9205880761146545,0,0,0,-1,-1,33697.32904116667,unknown,2,2022-06-02T10:38:37.800+02:00,2022-06-02T10:32:51.428+02:00,41,0.9590018,0,0,41.84445,0,0,2022-06-02T10:38:37.800+02:00,675851917.800199,0,4.808594,101.1334,1,0.92
2022-06-02T10:38:38.686+02:00,1654159115.433108,53.22877648649256,10.39870019039867,40.2193,-1,-1,-1,-1,19.11995315551758,40,-9999,33698.20992916667,-0.2385406494140625,-0.273834228515625,-0.931396484375,33698.20119316667,-2.506439442231842,-0.2538743323179708,0.3126185109316281,-0.109909288585186,0.04106036201119423,-0.3204209506511688,0.01499904692173004,0.01029479503631592,-0.01033425331115723,XArbitraryZVertical,-0.07057954257821891,-0.1857489465009466,-0.937016992442078,0.2872543041000897,-0.2389828264713287,-0.3075512945652008,-0.9210317134857178,0,0,0,-1,-1,33697.32904116667,unknown,2,2022-06-02T10:38:37.800+02:00,2022-06-02T10:32:51.428+02:00,41,0.9590018,0,0,41.84445,0,0,2022-06-02T10:38:37.800+02:00,675851917.800199,0,4.808594,101.1334,1,0.92
2022-06-02T10:38:38.696+02:00,1654159115.433108,53.22877648649256,10.39870019039867,40.2193,-1,-1,-1,-1,19.11995315551758,40,-9999,33698.21990216667,-0.2212371826171875,-0.26904296875,-0.9289703369140625,33698.21116516667,-2.510041823462517,-0.252270324913404,0.3123023747056675,-0.07110393047332764,0.08353281021118164,-0.3480474650859833,-0.006199195981025696,0.02160593867301941,-0.00807267427444458,XArbitraryZVertical,-0.07021310787502127,-0.1852461442122544,-0.9376065728430154,0.2857411624886355,-0.2375294417142868,-0.307250440120697,-0.9215079545974731,0,0,0,-1,-1,33697.32904116667,unknown,2,2022-06-02T10:38:37.800+02:00,2022-06-02T10:32:51.428+02:00,41,0.9590018,0,0,41.84445,0,0,2022-06-02T10:38:37.800+02:00,675851917.800199,0,4.808594,101.1334,1,0.92
2022-06-02T10:38:38.706+02:00,1654159115.433108,53.22877648649256,10.39870019039867,40.2193,-1,-1,-1,-1,19.11995315551758,40,-9999,33698.22987516667,-0.217071533203125,-0.2689208984375,-0.933319091796875,33698.22113816667,-2.513966613977655,-0.2500817029782679,0.3123718701326826,-0.06834516674280167,0.09684088826179504,-0.3824296891689301,0.003817275166511536,0.03738859295845032,-0.008506536483764648,XArbitraryZVertical,-0.06953867327105848,-0.1848294130720136,-0.9382383281674318,0.2840972468482056,-0.2355067580938339,-0.3073166012763977,-0.9220049381256104,0,0,0,-1,-1,33697.32904116667,unknown,2,2022-06-02T10:38:37.800+02:00,2022-06-02T10:32:51.428+02:00,41,0.9590018,0,0,41.84445,0,0,2022-06-02T10:38:37.800+02:00,675851917.800199,0,4.808594,101.1334,1,0.92
2022-06-02T10:38:38.716+02:00,1654159115.433108,53.22877648649256,10.39870019039867,40.2193,-1,-1,-1,-1,19.11995315551758,40,-9999,33698.23984716667,-0.2921905517578125,-0.313873291015625,-0.9473876953125,33698.23111116667,-2.518276423810163,-0.2473830316110099,0.3126038742310621,-0.05700457841157913,0.108640655875206,-0.3955235481262207,0.016783207654953,0.04043227434158325,-0.006234467029571533,XArbitraryZVertical,-0.06863291926314508,-0.1844058991072877,-0.9389291884051263,0.2823048070618331,-0.233000248670578,-0.3075373470783234,-0.9225679636001587,0,0,0,-1,-1,33697.32904116667,unknown,2,2022-06-02T10:38:37.800+02:00,2022-06-02T10:32:51.428+02:00,41,0.9590018,0,0,41.84445,0,0,2022-06-02T10:38:37.800+02:00,675851917.800199,0,4.808594,101.1334,1,0.92
2022-06-02T10:38:38.726+02:00,1654159115.433108,53.22877648649256,10.39870019039867,40.2193,-1,-1,-1,-1,19.11995315551758,40,-9999,33698.24982016667,-0.260833740234375,-0.3541717529296875,-0.9340972900390625,33698.24108316667,-2.521021980172644,-0.2444839797976182,0.3132004988351925,0.04009187594056129,0.2043258994817734,-0.1319611370563507,-0.001729667186737061,0.0319361686706543,-0.01536941528320312,XArbitraryZVertical,-0.0674296744475839,-0.184180750201448,-0.9393817362059964,0.2812341508051019,-0.2302802503108978,-0.3081050217151642,-0.9230613708496094,0,0,0,-1,-1,33697.32904116667,unknown,2,2022-06-02T10:38:37.800+02:00,2022-06-02T10:32:51.428+02:00,41,0.9590018,0,0,41.84445,0,0,2022-06-02T10:38:37.800+02:00,675851917.800199,0,4.808594,101.1334,1,0.92
2022-06-02T10:38:38.736+02:00,1654159115.433108,53.22877648649256,10.39870019039867,40.2193,-1,-1,-1,-1,19.11995315551758,40,-9999,33698.25979316667,-0.192901611328125,-0.3318328857421875,-0.9329833984375,33698.25105616667,-2.522761949759979,-0.2412740911307801,0.313632512888978,-0.04500233381986618,0.2653595209121704,-0.1900230646133423,-0.07853236794471741,-0.03392177820205688,-0.01870107650756836,XArbitraryZVertical,-0.06601338079952557,-0.183872236578053,-0.9397092953527849,0.2806773349034012,-0.22728431224823,-0.3085159659385681,-0.9236664772033691,0,0,0,-1,-1,33697.32904116667,unknown,2,2022-06-02T10:38:37.800+02:00,2022-06-02T10:32:51.428+02:00,41,0.9590018,0,0,41.84445,0,0,2022-06-02T10:38:37.800+02:00,675851917.800199,0,4.808594,101.1334,1,0.92
2022-06-02T10:38:38.746+02:00,1654159115.433108,53.22877648649256,10.39870019039867,40.2193,-1,-1,-1,-1,19.11995315551758,40,-9999,33698.26976516667,-0.2058258056640625,-0.3518524169921875,-0.94195556640625,33698.26102916667,-2.524837374075237,-0.2378896553947993,0.3135678068576146,-0.09305401146411896,0.2228727787733078,-0.1579436957836151,-0.0003409385681152344,-0.03584492206573486,-0.01048672199249268,XArbitraryZVertical,-0.06462356607969619,-0.1832999962464282,-0.9401144065465181,0.2800178532587716,-0.2241616398096085,-0.3084544241428375,-0.9244498014450073,0,0,0,-1,-1,33697.32904116667,unknown,2,2022-06-02T10:38:37.800+02:00,2022-06-02T10:32:51.428+02:00,41,0.9590018,0,0,41.84445,0,0,2022-06-02T10:38:37.800+02:00,675851917.800199,0,4.808594,101.1334,1,0.92
2022-06-02T10:38:38.756+02:00,1654159115.433108,53.22877648649256,10.39870019039867,40.2193,-1,-1,-1,-1,19.11995315551758,40,-9999,33698.27973816667,-0.20458984375,-0.3231353759765625,-0.9413604736328125,33698.27100116667,-2.526892140935943,-0.2350036615591153,0.3131050768030538,-0.08288562297821045,0.2187537550926208,-0.2013700753450394,0.02757146954536438,-0.02795380353927612,-0.009964346885681152,XArbitraryZVertical,-0.06352749963886897,-0.1826156186572727,-0.9405201299341449,0.2793522570468304,-0.2215259522199631,-0.3080142438411713,-0.9252315759658813,0,0,0,-1,-1,33697.32904116667,unknown,2,2022-06-02T10:38:37.800+02:00,2022-06-02T10:32:51.428+02:00,41,0.9590018,0,0,41.84445,0,0,2022-06-02T10:38:37.800+02:00,675851917.800199,0,4.808594,101.1334,1,0.92
2022-06-02T10:38:38.766+02:00,1654159115.433108,53.22877648649256,10.39870019039867,40.2193,-1,-1,-1,-1,19.11995315551758,40,-9999,33698.28971116667,-0.1972503662109375,-0.3297119140625,-0.9337310791015625,33698.28097416667,-2.529255123378488,-0.2319984829186864,0.3128950070971652,-0.06726059317588806,0.2266798466444016,-0.215273380279541,0.01212480664253235,-0.05178952217102051,-0.01593846082687378,XArbitraryZVertical,-0.06236229575786158,-0.1820244523646846,-0.9409561490910784,0.2785311891919994,-0.2187593430280685,-0.307814359664917,-0.9259560704231262,0,0,0,-1,-1,33697.32904116667,unknown,2,2022-06-02T10:38:37.800+02:00,2022-06-02T10:32:51.428+02:00,41,0.9590018,0,0,41.84445,0,0,2022-06-02T10:38:37.800+02:00,675851917.800199,0,4.808594,101.1334,1,0.92
2022-06-02T10:38:38.776+02:00,1654159115.433108,53.22877648649256,10.39870019039867,40.2193,-1,-1,-1,-1,19.11995315551758,40,-9999,33698.29968316667,-0.186737060546875,-0.3310089111328125,-0.92181396484375,33698.29094716667,-2.531695350046164,-0.2289892592930131,0.312933220254124,-0.04231000691652298,0.2131402492523193,-0.2492421120405197,0.0123865008354187,0.00621497631072998,-0.01357156038284302,XArbitraryZVertical,-0.06116202706843067,-0.1815484469553116,-0.9413862358643637,0.2776534364108402,-0.2159692794084549,-0.30785071849823,-0.9265987277030945,0,0,0,-1,-1,33697.32904116667,unknown,2,2022-06-02T10:38:37.800+02:00,2022-06-02T10:32:51.428+02:00,41,0.9590018,0,0,41.84445,0,0,2022-06-02T10:38:37.800+02:00,675851917.800199,0,4.808594,101.1334,1,0.92
2022-06-02T10:38:38.786+02:00,1654159115.433108,53.22877648649256,10.39870019039867,40.2193,-1,-1,-1,-1,19.11995315551758,40,-9999,33698.30965616667,-0.1951446533203125,-0.299285888671875,-0.9198150634765625,33698.30091916667,-2.534544037476764,-0.2260941903849021,0.3130424471341401,-0.06195321679115295,0.1827570497989655,-0.2739424109458923,0.02034611999988556,-0.04133433103561401,-0.0009285211563110352,XArbitraryZVertical,-0.06004029080550921,-0.181111849516543,-0.9418624276489895,0.2765663477644837,-0.2132782787084579,-0.3079546391963959,-0.9271873235702515,0,0,0,-1,-1,33697.32904116667,unknown,2,2022-06-02T10:38:37.800+02:00,2022-06-02T10:32:51.428+02:00,41,0.9590018,0,0,41.84445,0,0,2022-06-02T10:38:37.800+02:00,675851917.800199,0,4.808594,101.1334,1,0.92
2022-06-02T10:38:38.796+02:00,1654159115.433108,53.22877648649256,10.39870019039867,40.2193,-1,-1,-1,-1,19.11995315551758,40,-9999,33698.319630375,-0.197235107421875,-0.3052978515625,-0.9107818603515625,33698.31089216667,-2.537622582019186,-0.22322233104989,0.3132407096490515,-0.03056906349956989,0.1932136714458466,-0.2984721958637238,0.02247549593448639,-0.00621834397315979,0.007570445537567139,XArbitraryZVertical,-0.05893530285524303,-0.1807163831292859,-0.9423612057588335,0.27536086268454,-0.2106011211872101,-0.3081432580947876,-0.9277364611625671,0,0,0,-1,-1,33697.32904116667,unknown,2,2022-06-02T10:38:37.800+02:00,2022-06-02T10:32:51.428+02:00,41,0.9590018,0,0,41.84445,0,0,2022-06-02T10:38:37.800+02:00,675851917.800199,0,4.808594,101.1334,1,0.92
2022-06-02T10:38:38.806+02:00,1654159115.433108,53.22877648649256,10.39870019039867,40.2193,-1,-1,-1,-1,19.11995315551758,40,-9999,33698.329602375,-0.1915740966796875,-0.3155670166015625,-0.905426025390625,33698.320866375,-2.54089453793486,-0.2201516779442688,0.3137507472825455,-0.01215543691068888,0.202720895409584,-0.3250798285007477,0.009169653058052063,0.008854269981384277,0.01111102104187012,XArbitraryZVertical,-0.05770503347440926,-0.180436978498299,-0.9428706329569254,0.2740576473576107,-0.2077170312404633,-0.3086284399032593,-0.9282252788543701,0,0,0,-1,-1,33697.32904116667,unknown,2,2022-06-02T10:38:37.800+02:00,2022-06-02T10:32:51.428+02:00,41,0.9590018,0,0,41.84445,0,0,2022-06-02T10:38:37.800+02:00,675851917.800199,0,4.808594,101.1334,1,0.92
2022-06-02T10:38:38.817+02:00,1654159115.433108,53.22877648649256,10.39870019039867,40.2193,-1,-1,-1,-1,19.11995315551758,40,-9999,33698.339575375,-0.1822967529296875,-0.329833984375,-0.902923583984375,33698.330838375,-2.544421931861419,-0.2169341904413663,0.3144524626148922,-0.005966427735984325,0.2131950259208679,-0.3599491715431213,0.009049788117408752,0.0007478594779968262,0.01931428909301758,XArbitraryZVertical,-0.0563984735976745,-0.180223990895009,-0.943403537772757,0.2726321387139364,-0.2046827375888824,-0.3092958331108093,-0.9286770224571228,0,0,0,-1,-1,33697.32904116667,unknown,2,2022-06-02T10:38:37.800+02:00,2022-06-02T10:32:51.428+02:00,41,0.9590018,0,0,41.84445,0,0,2022-06-02T10:38:37.800+02:00,675851917.800199,0,4.808594,101.1334,1,0.92
2022-06-02T10:38:38.832+02:00,1654159115.433108,53.22877648649256,10.39870019039867,40.2193,-1,-1,-1,-1,19.11995315551758,40,-9999,33698.349548375,-0.181732177734375,-0.344970703125,-0.9014434814453125,33698.340811375,-2.548254484160317,-0.2137027453422045,0.3151969548398484,-0.01674290932714939,0.1914867907762527,-0.385002076625824,0.0143759548664093,-0.01062920689582825,0.0245826244354248,XArbitraryZVertical,-0.05510571947899144,-0.1800255310748835,-0.9439706789003263,0.271060034175185,-0.2016318142414093,-0.3100037276744843,-0.9291083216667175,0,0,0,-1,-1,33697.32904116667,unknown,2,2022-06-02T10:38:37.800+02:00,2022-06-02T10:32:51.428+02:00,41,0.9590018,0,0,41.84445,0,0,2022-06-02T10:38:37.800+02:00,675851917.800199,0,4.808594,101.1334,1,0.92
2022-06-02T10:38:38.836+02:00,1654159115.433108,53.22877648649256,10.39870019039867,40.2193,-1,-1,-1,-1,19.11995315551758,40,-9999,33698.359520375,-0.1800689697265625,-0.34027099609375,-0.8952789306640625,33698.350784375,-2.552368428306624,-0.210565076847074,0.3157759673732784,-0.03852526098489761,0.1681954115629196,-0.4029963314533234,0.01685431599617004,-0.02664980292320251,0.02799522876739502,XArbitraryZVertical,-0.05390690626925485,-0.1797600699372405,-0.9445775483617767,0.2693577638847455,-0.19867804646492,-0.310554176568985,-0.9295607209205627,0,0,0,-1,-1,33697.32904116667,unknown,2,2022-06-02T10:38:37.800+02:00,2022-06-02T10:32:51.428+02:00,41,0.9590018,0,0,41.84445,0,0,2022-06-02T10:38:37.800+02:00,675851917.800199,0,4.808594,101.1334,1,0.92
2022-06-02T10:38:38.845+02:00,1654159115.433108,53.22877648649256,10.39870019039867,40.2193,-1,-1,-1,-1,19.11995315551758,40,-9999,33698.369493375,-0.1757354736328125,-0.3271331787109375,-0.893157958984375,33698.360756375,-2.55670042381592,-0.207551143326117,0.3161429723486924,-0.06771083921194077,0.1549959778785706,-0.4176032245159149,0.01312799751758575,-0.03539523482322693,0.03006505966186523,XArbitraryZVertical,-0.05281691936858525,-0.1794115714947082,-0.9452174769537651,0.2675553935701463,-0.1958520114421844,-0.310903012752533,-0.9300436973571777,0,0,0,-1,-1,33697.32904116667,unknown,2,2022-06-02T10:38:37.800+02:00,2022-06-02T10:32:51.428+02:00,41,0.9590018,0,0,41.84445,0,0,2022-06-02T10:38:37.800+02:00,675851917.800199,0,4.808594,101.1334,1,0.92
2022-06-02T10:38:38.856+02:00,1654159115.433108,53.22877648649256,10.39870019039867,40.2193,-1,-1,-1,-1,19.11995315551758,40,-9999,33698.379466375,-0.1688385009765625,-0.3149566650390625,-0.8864898681640625,33698.370729375,-2.561289551646133,-0.2046216445628893,0.3163787307739068,-0.06853326410055161,0.1362302005290985,-0.440732479095459,0.01453809440135956,-0.02493250370025635,0.03681915998458862,XArbitraryZVertical,-0.05180805005503406,-0.179011412663896,-0.9458915482492475,0.2656314603021365,-0.1931117177009583,-0.3111270666122437,-0.9305416941642761,0,0,0,-1,-1,33697.32904116667,unknown,2,2022-06-02T10:38:37.800+02:00,2022-06-02T10:32:51.428+02:00,41,0.9590018,0,0,41.84445,0,0,2022-06-02T10:38:37.800+02:00,675851917.800199,0,4.808594,101.1334,1,0.92
2022-06-02T10:38:38.865+02:00,1654159115.433108,53.22877648649256,10.39870019039867,40.2193,-1,-1,-1,-1,19.11995315551758,40,-9999,33698.389438375,-0.166473388671875,-0.310699462890625,-0.8824462890625,33698.38070237501,-2.566072264894727,-0.2017854086342386,0.3165775969001527,-0.07873930037021637,0.1185484081506729,-0.4598904550075531,0.01811125874519348,-0.008721798658370972,0.03975915908813477,XArbitraryZVertical,-0.05086440013304386,-0.1786065602564906,-0.9465850909791756,0.2636082959940844,-0.1904593110084534,-0.3113160729408264,-0.9310250282287598,0,0,0,-1,-1,33697.32904116667,unknown,2,2022-06-02T10:38:37.800+02:00,2022-06-02T10:32:51.428+02:00,41,0.9590018,0,0,41.84445,0,0,2022-06-02T10:38:37.800+02:00,675851917.800199,0,4.808594,101.1334,1,0.92
2022-06-02T10:38:38.875+02:00,1654159115.433108,53.22877648649256,10.39870019039867,40.2193,-1,-1,-1,-1,19.11995315551758,40,-9999,33698.399411375,-0.1669158935546875,-0.3055267333984375,-0.8793792724609375,33698.390674375,-2.571039871150783,-0.1990571018490005,0.3167476070440732,-0.08100205659866333,0.1059892103075981,-0.4665593802928925,0.01960355043411255,-0.002624571323394775,0.04647952318191528,XArbitraryZVertical,-0.04999087058349341,-0.1782029005760373,-0.9472955154371248,0.2614877584720849,-0.1879080086946487,-0.3114776015281677,-0.9314892888069153,0,0,0,-1,-1,33697.32904116667,unknown,2,2022-06-02T10:38:37.800+02:00,2022-06-02T10:32:51.428+02:00,41,0.9590018,0,0,41.84445,0,0,2022-06-02T10:38:37.800+02:00,675851917.800199,0,4.808594,101.1334,1,0.92
2022-06-02T10:38:38.885+02:00,1654159115.433108,53.22877648649256,10.39870019039867,40.2193,-1,-1,-1,-1,19.11995315551758,40,-9999,33698.409384375,-0.166046142578125,-0.30572509765625,-0.8805999755859375,33698.40064737501,-2.576036523178283,-0.1965143110957838,0.3170045229449898,-0.06155618652701378,0.09064673632383347,-0.4742311239242554,0.01898874342441559,0.003066927194595337,0.05203330516815186,XArbitraryZVertical,-0.04919353458190002,-0.1778685300642957,-0.9479933100338025,0.2593289207567208,-0.185523197054863,-0.3117217421531677,-0.9318855404853821,0,0,0,-1,-1,33697.32904116667,unknown,2,2022-06-02T10:38:37.800+02:00,2022-06-02T10:32:51.428+02:00,41,0.9590018,0,0,41.84445,0,0,2022-06-02T10:38:37.800+02:00,675851917.800199,0,4.808594,101.1334,1,0.92
2022-06-02T10:38:38.895+02:00,1654159115.433108,53.22877648649256,10.39870019039867,40.2193,-1,-1,-1,-1,19.11995315551758,40,-9999,33698.419356375,-0.163604736328125,-0.310089111328125,-0.8868255615234375,33698.41062037501,-2.581096194610385,-0.1940225534420179,0.3173545213374869,-0.06424247473478317,0.09103751182556152,-0.4764323830604553,0.01681295037269592,0.007412523031234741,0.05200409889221191,XArbitraryZVertical,-0.04841128101858956,-0.1775878155939853,-0.9486856053385104,0.2571273410418248,-0.1831795424222946,-0.3120542764663696,-0.9322378039360046,0,0,0,-1,-1,33697.32904116667,unknown,2,2022-06-02T10:38:37.800+02:00,2022-06-02T10:32:51.428+02:00,41,0.9590018,0,0,41.84445,0,0,2022-06-02T10:38:37.800+02:00,675851917.800199,0,4.808594,101.1334,1,0.92
2022-06-02T10:38:38.905+02:00,1654159115.433108,53.22877648649256,10.39870019039867,40.2193,-1,-1,-1,-1,19.11995315551758,40,-9999,33698.429329375,-0.1616058349609375,-0.3147125244140625,-0.89556884765625,33698.42059237501,-2.58615458904934,-0.1916299675004098,0.3176321786897398,-0.06943004578351974,0.06763258576393127,-0.477945864200592,0.01503847539424896,0.00540277361869812,0.05075240135192871,XArbitraryZVertical,-0.04768512870837949,-0.1772905939354768,-0.9493732941973121,0.2549206639839647,-0.1809320449829102,-0.3123180568218231,-0.9325883388519287,0,0,0,-1,-1,33697.32904116667,unknown,2,2022-06-02T10:38:37.800+02:00,2022-06-02T10:32:51.428+02:00,41,0.9590018,0,0,41.84445,0,0,2022-06-02T10:38:37.800+02:00,675851917.800199,0,4.808594,101.1334,1,0.92
2022-06-02T10:38:38.915+02:00,1654159115.433108,53.22877648649256,10.39870019039867,40.2193,-1,-1,-1,-1,19.11995315551758,40,-9999,33698.439302375,-0.1684112548828125,-0.313873291015625,-0.9010467529296875,33698.43056537501,-2.591252860794379,-0.1894317482219096,0.3178849554968174,-0.0705961138010025,0.05903244018554688,-0.4786075949668884,0.0181763768196106,0.0006990432739257812,0.04243385791778564,XArbitraryZVertical,-0.04705712186425648,-0.177009871460815,-0.9500564649816921,0.2526776095185093,-0.1788667142391205,-0.3125581741333008,-0.9329062700271606,0,0,0,-1,-1,33697.32904116667,unknown,2,2022-06-02T10:38:37.800+02:00,2022-06-02T10:32:51.428+02:00,41,0.9590018,0,0,41.84445,0,0,2022-06-02T10:38:37.800+02:00,675851917.800199,0,4.808594,101.1334,1,0.92
2022-06-02T10:38:38.925+02:00,1654159115.433108,53.22877648649256,10.39870019039867,40.2193,-1,-1,-1,-1,19.11995315551758,40,-9999,33698.449274375,-0.1699066162109375,-0.31890869140625,-0.9033966064453125,33698.44053837501,-2.596386500233713,-0.1872665067927851,0.318012775463608,-0.09471876174211502,0.05335165187716484,-0.4822574555873871,0.01305103302001953,-0.002322852611541748,0.03521132469177246,XArbitraryZVertical,-0.04646422773262074,-0.1766777514934883,-0.9507446036590839,0.2504210437877551,-0.1768388748168945,-0.3126795887947083,-0.9332520961761475,0,0,0,-1,-1,33697.32904116667,unknown,2,2022-06-02T10:38:37.800+02:00,2022-06-02T10:32:51.428+02:00,41,0.9590018,0,0,41.84445,0,0,2022-06-02T10:38:37.800+02:00,675851917.800199,0,4.808594,101.1334,1,0.92
2022-06-02T10:38:38.935+02:00,1654159115.433108,53.22877648649256,10.39870019039867,40.2193,-1,-1,-1,-1,19.11995315551758,40,-9999,33698.459247375,-0.1710052490234375,-0.317840576171875,-0.9013214111328125,33698.45051037501,-2.601533305549411,-0.1851179714175205,0.317901205617152,-0.1173079088330269,0.05255572125315666,-0.4766653776168823,0.005390897393226624,-0.003329098224639893,0.03128993511199951,XArbitraryZVertical,-0.0459120737198953,-0.1762384522270443,-0.9514429201417688,0.248170406143168,-0.1748397648334503,-0.3125736117362976,-0.9336642026901245,0,0,0,-1,-1,33697.32904116667,unknown,2,2022-06-02T10:38:37.800+02:00,2022-06-02T10:32:51.428+02:00,41,0.9590018,0,0,41.84445,0,0,2022-06-02T10:38:37.800+02:00,675851917.800199,0,4.808594,101.1334,1,0.92
2022-06-02T10:38:38.945+02:00,1654159115.433108,53.22877648649256,10.39870019039867,40.2193,-1,-1,-1,-1,19.11995315551758,40,-9999,33698.469220375,-0.1728515625,-0.3248748779296875,-0.9021148681640625,33698.46048337501,-2.606706096889935,-0.1829561322024447,0.317561775694616,-0.1347122043371201,0.05392592027783394,-0.4721334874629974,0.002750486135482788,-0.007405221462249756,0.03128170967102051,XArbitraryZVertical,-0.04538505776222205,-0.1756931261935519,-0.9521529037406971,0.2459208233171651,-0.1728402227163315,-0.3122511804103851,-0.9341442584991455,0,0,0,-1,-1,33697.32904116667,unknown,2,2022-06-02T10:38:37.800+02:00,2022-06-02T10:32:51.428+02:00,41,0.9590018,0,0,41.84445,0,0,2022-06-02T10:38:37.800+02:00,675851917.800199,0,4.808594,101.1334,1,0.92
2022-06-02T10:38:38.955+02:00,1654159115.433108,53.22877648649256,10.39870019039867,40.2193,-1,-1,-1,-1,19.11995315551758,40,-9999,33698.479192375,-0.16754150390625,-0.3296661376953125,-0.901153564453125,33698.47045637501,-2.611822348346802,-0.1807413465938299,0.3169767640695298,-0.1609721630811691,0.05976356565952301,-0.4596860706806183,-0.001513838768005371,-0.006313085556030273,0.03260469436645508,XArbitraryZVertical,-0.04485856053281938,-0.1750301834774066,-0.9528666285811173,0.2437157656888398,-0.1708036810159683,-0.3116953670978546,-0.9347043037414551,0,0,0,-1,-1,33697.32904116667,unknown,2,2022-06-02T10:38:37.800+02:00,2022-06-02T10:32:51.428+02:00,41,0.9590018,0,0,41.84445,0,0,2022-06-02T10:38:37.800+02:00,675851917.800199,0,4.808594,101.1334,1,0.92
2022-06-02T10:38:38.965+02:00,1654159115.433108,53.22877648649256,10.39870019039867,40.2193,-1,-1,-1,-1,19.11995315551758,40,-9999,33698.489165375,-0.15374755859375,-0.335601806640625,-0.9030303955078125,33698.48042837501,-2.61682150675451,-0.1785000727630082,0.3160455285430286,-0.2004497945308685,0.07011207938194275,-0.4398851990699768,-0.002550646662712097,-0.01761981844902039,0.03229385614395142,XArbitraryZVertical,-0.04435250514667753,-0.1742063559620292,-0.9535829463315882,0.2415876379542754,-0.1687597930431366,-0.310810387134552,-0.9353700280189514,0,0,0,-1,-1,33697.32904116667,unknown,2,2022-06-02T10:38:37.800+02:00,2022-06-02T10:32:51.428+02:00,41,0.9590018,0,0,41.84445,0,0,2022-06-02T10:38:37.800+02:00,675851917.800199,0,4.808594,101.1334,1,0.92
