loggingTime(txt),locationTimestamp_since1970(s),locationLatitude(WGS84),locationLongitude(WGS84),locationAltitude(m),locationSpeed(m/s),locationSpeedAccuracy(m/s),locationCourse(°),locationCourseAccuracy(°),locationVerticalAccuracy(m),locationHorizontalAccuracy(m),locationFloor(Z),accelerometerTimestamp_sinceReboot(s),accelerometerAccelerationX(G),accelerometerAccelerationY(G),accelerometerAccelerationZ(G),motionTimestamp_sinceReboot(s),motionYaw(rad),motionRoll(rad),motionPitch(rad),motionRotationRateX(rad/s),motionRotationRateY(rad/s),motionRotationRateZ(rad/s),motionUserAccelerationX(G),motionUserAccelerationY(G),motionUserAccelerationZ(G),motionAttitudeReferenceFrame(txt),motionQuaternionX(R),motionQuaternionY(R),motionQuaternionZ(R),motionQuaternionW(R),motionGravityX(G),motionGravityY(G),motionGravityZ(G),motionMagneticFieldX(µT),motionMagneticFieldY(µT),motionMagneticFieldZ(µT),motionHeading(°),motionMagneticFieldCalibrationAccuracy(Z),activityTimestamp_sinceReboot(s),activity(txt),activityActivityConfidence(Z),activityActivityStartDate(txt),pedometerStartDate(txt),pedometerNumberofSteps(N),pedometerAverageActivePace(s/m),pedometerCurrentPace(s/m),pedometerCurrentCadence(steps/s),pedometerDistance(m),pedometerFloorAscended(N),pedometerFloorDescended(N),pedometerEndDate(txt),altimeterTimestamp_sinceReboot(s),altimeterReset(bool),altimeterRelativeAltitude(m),altimeterPressure(kPa),batteryState(N),batteryLevel(R)
2022-06-02T10:46:25.771+02:00,1654159584.999687,53.22906985850716,10.39854467426455,36.80299,0.07059757,0.9313914,29.88590252474102,180,2.400000095367432,7.999579855010836,-9999,2730.031191416667,0.1471099853515625,-0.1963958740234375,-0.9461212158203125,2730.021196416667,2.482530002337432,0.05429343517625477,0.206764246873481,-0.005133110098540783,0.160469576716423,-0.1018754988908768,0.1152392774820328,0.1026940941810608,0.006112575531005859,XArbitraryZVertical,0.007836764568719314,0.1063461175288097,0.9417018917966065,0.3191028206478647,0.05311090126633644,-0.2052941471338272,-0.9772582054138184,0,0,0,-1,-1,2727.544461125,unknown,2,2022-06-02T10:46:23.266+02:00,2022-06-02T10:17:13.754+02:00,448,1.423373,0,0,345.1212,0,0,2022-06-02T10:46:23.266+02:00,675852370.4730482,0,7.050781,101.2962,1,0.81
2022-06-02T10:46:25.774+02:00,1654159584.999687,53.22906985850716,10.39854467426455,36.80299,0.07059757,0.9313914,29.88590252474102,180,2.400000095367432,7.999579855010836,-9999,2730.041185416667,0.0704803466796875,-0.2487640380859375,-0.9452056884765625,2730.031191416667,2.480731687879513,0.05570087374979615,0.2076401497281957,0.1903461068868637,0.04028616845607758,-0.1978057622909546,0.1045355498790741,0.06142173707485199,0.04256957769393921,XArbitraryZVertical,0.007412355525355255,0.106975633177402,0.9413809973415797,0.319848292713958,0.05447624623775482,-0.2061513215303421,-0.9770025610923767,0,0,0,-1,-1,2727.544461125,unknown,2,2022-06-02T10:46:23.266+02:00,2022-06-02T10:17:13.754+02:00,448,1.423373,0,0,345.1212,0,0,2022-06-02T10:46:23.266+02:00,675852370.4730482,0,7.050781,101.2962,1,0.81
2022-06-02T10:46:25.775+02:00,1654159584.999687,53.22906985850716,10.39854467426455,36.80299,0.07059757,0.9313914,29.88590252474102,180,2.400000095367432,7.999579855010836,-9999,2730.051180416667,-0.0041656494140625,-0.2037506103515625,-0.93621826171875,2730.041185416667,2.479122952487896,0.05605949019560848,0.2095591127721725,0.1790338009595871,-0.01660187914967537,-0.08852960169315338,0.06137603148818016,-0.02910812199115753,0.02489548921585083,XArbitraryZVertical,0.007642517535384783,0.107928243606652,0.9410390726902473,0.3205285219760812,0.05480434373021126,-0.2080286741256714,-0.9765861630439758,0,0,0,-1,-1,2727.544461125,unknown,2,2022-06-02T10:46:23.266+02:00,2022-06-02T10:17:13.754+02:00,448,1.423373,0,0,345.1212,0,0,2022-06-02T10:46:23.266+02:00,675852370.4730482,0,7.050781,101.2962,1,0.81
2022-06-02T10:46:25.783+02:00,1654159584.999687,53.22906985850716,10.39854467426455,36.80299,0.07059757,0.9313914,29.88590252474102,180,2.400000095367432,7.999579855010836,-9999,2730.061174416667,0.00537109375,-0.130645751953125,-0.956268310546875,2730.051180416667,2.478787774541751,0.05624379628576825,0.2107836509274917,0.07482537627220154,0.04552966728806496,0.02929583564400673,-0.02996085956692696,-0.02594214677810669,0.04083514213562012,XArbitraryZVertical,0.007773631582567062,0.1085314628569187,0.9409308776378932,0.3206391597704961,0.05496997386217117,-0.2092262655496597,-0.9763209819793701,0,0,0,-1,-1,2727.544461125,unknown,2,2022-06-02T10:46:23.266+02:00,2022-06-02T10:17:13.754+02:00,448,1.423373,0,0,345.1212,0,0,2022-06-02T10:46:23.266+02:00,675852370.4730482,0,7.050781,101.2962,1,0.81
2022-06-02T10:46:25.793+02:00,1654159584.999687,53.22906985850716,10.39854467426455,36.80299,0.07059757,0.9313914,29.88590252474102,180,2.400000095367432,7.999579855010836,-9999,2730.071169416667,0.0577850341796875,-0.1114044189453125,-0.9681549072265625,2730.061174416667,2.479396021611101,0.05680981166641511,0.2116871526299902,0.1127434521913528,0.08363311737775803,0.09152166545391083,-0.06570473313331604,0.04456713795661926,0.03016245365142822,XArbitraryZVertical,0.007621560618432916,0.1090487083385842,0.9409895927712625,0.3202946709581141,0.05551182106137276,-0.2101096957921982,-0.9761005640029907,0,0,0,-1,-1,2727.544461125,unknown,2,2022-06-02T10:46:23.266+02:00,2022-06-02T10:17:13.754+02:00,448,1.423373,0,0,345.1212,0,0,2022-06-02T10:46:23.266+02:00,675852370.4730482,0,7.050781,101.2962,1,0.81
2022-06-02T10:46:25.803+02:00,1654159584.999687,53.22906985850716,10.39854467426455,36.80299,0.07059757,0.9313914,29.88590252474102,180,2.400000095367432,7.999579855010836,-9999,2730.081163416667,0.0821075439453125,-0.189727783203125,-0.9864959716796875,2730.071169416667,2.480166478036986,0.05731214951815655,0.2134262243621615,0.2212499529123306,0.0444931648671627,0.06301625072956085,-0.02367831766605377,0.1025262176990509,0.01293772459030151,XArbitraryZVertical,0.007626320184823831,0.1099485674627291,0.9410356550286499,0.3198514197946459,0.05598113313317299,-0.2118096202611923,-0.9757062792778015,0,0,0,-1,-1,2727.544461125,unknown,2,2022-06-02T10:46:23.266+02:00,2022-06-02T10:17:13.754+02:00,448,1.423373,0,0,345.1212,0,0,2022-06-02T10:46:23.266+02:00,675852370.4730482,0,7.050781,101.2962,1,0.81
2022-06-02T10:46:25.813+02:00,1654159584.999687,53.22906985850716,10.39854467426455,36.80299,0.07059757,0.9313914,29.88590252474102,180,2.400000095367432,7.999579855010836,-9999,2730.091158416667,0.079010009765625,-0.280364990234375,-1.006210327148438,2730.081163416667,2.480114024305352,0.05757439146492788,0.2158301765586191,0.2499127686023712,0.01224122010171413,-0.04440581426024437,0.01900299265980721,0.07367078959941864,-2.402067184448242e-05,XArbitraryZVertical,0.00789724596519369,0.1111189302411137,0.9409177104134321,0.3197873511710534,0.05620754137635231,-0.2141584157943726,-0.975180447101593,0,0,0,-1,-1,2727.544461125,unknown,2,2022-06-02T10:46:23.266+02:00,2022-06-02T10:17:13.754+02:00,448,1.423373,0,0,345.1212,0,0,2022-06-02T10:46:23.266+02:00,675852370.4730482,0,7.050781,101.2962,1,0.81
2022-06-02T10:46:25.823+02:00,1654159584.999687,53.22906985850716,10.39854467426455,36.80299,0.07059757,0.9313914,29.88590252474102,180,2.400000095367432,7.999579855010836,-9999,2730.101152416667,0.0447998046875,-0.29632568359375,-1.007415771484375,2730.091158416667,2.479308967362108,0.05788333831112422,0.2177956777305134,0.1298119276762009,0.01721999980509281,-0.08078458905220032,0.0265691950917244,-0.02504143118858337,-0.02550321817398071,XArbitraryZVertical,0.008117060600134798,0.1120877190069945,0.940698782395639,0.3200875799291432,0.05648435652256012,-0.216077908873558,-0.9747409224510193,0,0,0,-1,-1,2727.544461125,unknown,2,2022-06-02T10:46:23.266+02:00,2022-06-02T10:17:13.754+02:00,448,1.423373,0,0,345.1212,0,0,2022-06-02T10:46:23.266+02:00,675852370.4730482,0,7.050781,101.2962,1,0.81
2022-06-02T10:46:25.833+02:00,1654159584.999687,53.22906985850716,10.39854467426455,36.80299,0.07059757,0.9313914,29.88590252474102,180,2.400000095367432,7.999579855010836,-9999,2730.111147416667,0.0447845458984375,-0.239013671875,-0.9982147216796875,2730.101152416667,2.478400473103676,0.05843557819497064,0.2181194413049995,-0.0546569861471653,0.06279440969228745,-0.07938750088214874,0.01019637286663055,-0.08405150473117828,-0.02948015928268433,XArbitraryZVertical,0.007961121802167124,0.1123244392251547,0.940540396354115,0.3204737217273311,0.05701854825019836,-0.2163940072059631,-0.9746396541595459,0,0,0,-1,-1,2730.102895416667,unknown,2,2022-06-02T10:46:25.825+02:00,2022-06-02T10:17:13.754+02:00,448,1.423373,0,0,345.1212,0,0,2022-06-02T10:46:25.824+02:00,675852385.8243657,0,7.03125,101.2995,1,0.81
2022-06-02T10:46:25.843+02:00,1654159584.999687,53.22906985850716,10.39854467426455,36.80299,0.07059757,0.9313914,29.88590252474102,180,2.400000095367432,7.999579855010836,-9999,2730.121141416667,0.0528411865234375,-0.172637939453125,-0.9710540771484375,2730.111147416667,2.478113888172246,0.05928820470645541,0.2170262722219712,-0.1465530544519424,0.09176886826753616,0.01158388610929251,-0.02249367907643318,-0.05882801115512848,-0.03345924615859985,XArbitraryZVertical,0.007397723443520832,0.1119470340388232,0.9405486373976217,0.3205951453209509,0.0578635148704052,-0.2153266072273254,-0.9748262763023376,0,0,0,-1,-1,2730.102895416667,unknown,2,2022-06-02T10:46:25.825+02:00,2022-06-02T10:17:13.754+02:00,448,1.423373,0,0,345.1212,0,0,2022-06-02T10:46:25.824+02:00,675852385.8243657,0,7.03125,101.2995,1,0.81
2022-06-02T10:46:25.853+02:00,1654159584.999687,53.22906985850716,10.39854467426455,36.80299,0.07059757,0.9313914,29.88590252474102,180,2.400000095367432,7.999579855010836,-9999,2730.131136416667,0.0548553466796875,-0.1474151611328125,-0.9413909912109375,2730.121141416667,2.478553931819947,0.06008152729792017,0.2157640656942718,-0.0957145094871521,0.08015748858451843,0.05164875090122223,-0.007246300578117371,0.012098029255867,-0.009782195091247559,XArbitraryZVertical,0.006793932161046876,0.1114834178803341,0.9406802950168942,0.3203837743614117,0.05865311995148659,-0.2140938341617584,-0.9750505685806274,0,0,0,-1,-1,2730.102895416667,unknown,2,2022-06-02T10:46:25.825+02:00,2022-06-02T10:17:13.754+02:00,448,1.423373,0,0,345.1212,0,0,2022-06-02T10:46:25.824+02:00,675852385.8243657,0,7.03125,101.2995,1,0.81
2022-06-02T10:46:25.863+02:00,1654159584.999687,53.22906985850716,10.39854467426455,36.80299,0.07059757,0.9313914,29.88590252474102,180,2.400000095367432,7.999579855010836,-9999,2730.141130416667,0.064056396484375,-0.1537628173828125,-0.9262542724609375,2730.131136416667,2.479062452835092,0.06064690032295608,0.2154726365254667,0.03369008749723434,0.05803034454584122,0.04611976072192192,-0.007160469889640808,0.05844421684741974,0.01893329620361328,XArbitraryZVertical,0.006452102180973101,0.1114388595768074,0.940777014105978,0.3201223361563911,0.05920815840363503,-0.2138091623783112,-0.9750794768333435,0,0,0,-1,-1,2730.102895416667,unknown,2,2022-06-02T10:46:25.825+02:00,2022-06-02T10:17:13.754+02:00,448,1.423373,0,0,345.1212,0,0,2022-06-02T10:46:25.824+02:00,675852385.8243657,0,7.03125,101.2995,1,0.81
2022-06-02T10:46:25.873+02:00,1654159584.999687,53.22906985850716,10.39854467426455,36.80299,0.07059757,0.9313914,29.88590252474102,180,2.400000095367432,7.999579855010836,-9999,2730.151125416667,0.07098388671875,-0.17889404296875,-0.9262237548828125,2730.141130416667,2.479536518755401,0.06101897300509306,0.2164708769902853,0.155535027384758,0.03175080567598343,0.06022039800882339,0.0004853792488574982,0.06788790225982666,0.04649919271469116,XArbitraryZVertical,0.006413409274826642,0.1119684157098106,0.9408081315248871,0.3198468218151662,0.05955790728330612,-0.2147842049598694,-0.9748438596725464,0,0,0,-1,-1,2730.102895416667,unknown,2,2022-06-02T10:46:25.825+02:00,2022-06-02T10:17:13.754+02:00,448,1.423373,0,0,345.1212,0,0,2022-06-02T10:46:25.824+02:00,675852385.8243657,0,7.03125,101.2995,1,0.81
2022-06-02T10:46:25.883+02:00,1654159584.999687,53.22906985850716,10.39854467426455,36.80299,0.07059757,0.9313914,29.88590252474102,180,2.400000095367432,7.999579855010836,-9999,2730.161119416667,0.082489013671875,-0.2171478271484375,-0.9452667236328125,2730.151125416667,2.480027809021767,0.06111852445766443,0.2183101412786676,0.1902005970478058,0.01529140397906303,0.05260881781578064,0.008072484284639359,0.05106814205646515,0.0459904670715332,XArbitraryZVertical,0.006638735207980873,0.1128491450980714,0.9408017655572934,0.3195513472462959,0.05963072553277016,-0.2165801823139191,-0.9744420051574707,0,0,0,-1,-1,2730.102895416667,unknown,2,2022-06-02T10:46:25.825+02:00,2022-06-02T10:17:13.754+02:00,448,1.423373,0,0,345.1212,0,0,2022-06-02T10:46:25.824+02:00,675852385.8243657,0,7.03125,101.2995,1,0.81
2022-06-02T10:46:25.893+02:00,1654159584.999687,53.22906985850716,10.39854467426455,36.80299,0.07059757,0.9313914,29.88590252474102,180,2.400000095367432,7.999579855010836,-9999,2730.171114416667,0.0879974365234375,-0.249786376953125,-0.9747467041015625,2730.161119416667,2.480404993952097,0.06125348178948944,0.2196234526890802,0.1595317721366882,0.004741025622934103,0.04736931249499321,0.01421454176306725,0.02157311141490936,0.04331725835800171,XArbitraryZVertical,0.006767815941001426,0.1134883306139286,0.9408010593036107,0.3193240460018003,0.05974476784467697,-0.2178621292114258,-0.9741491675376892,0,0,0,-1,-1,2730.102895416667,unknown,2,2022-06-02T10:46:25.825+02:00,2022-06-02T10:17:13.754+02:00,448,1.423373,0,0,345.1212,0,0,2022-06-02T10:46:25.824+02:00,675852385.8243657,0,7.03125,101.2995,1,0.81
2022-06-02T10:46:25.903+02:00,1654159584.999687,53.22906985850716,10.39854467426455,36.80299,0.07059757,0.9313914,29.88590252474102,180,2.400000095367432,7.999579855010836,-9999,2730.181108416667,0.0811920166015625,-0.2601776123046875,-0.9993743896484375,2730.171114416667,2.480606443351039,0.06138646700432886,0.2209615735576813,0.08080952614545822,0.00505234906449914,0.01040383893996477,0.02821731194853783,-0.01618358492851257,0.01221001148223877,XArbitraryZVertical,0.006911665942270616,0.1141382160918468,0.9407708217948492,0.3191786584748314,0.05985637754201889,-0.2191679179668427,-0.9738494157791138,0,0,0,-1,-1,2730.102895416667,unknown,2,2022-06-02T10:46:25.825+02:00,2022-06-02T10:17:13.754+02:00,448,1.423373,0,0,345.1212,0,0,2022-06-02T10:46:25.824+02:00,675852385.8243657,0,7.03125,101.2995,1,0.81
2022-06-02T10:46:25.916+02:00,1654159584.999687,53.22906985850716,10.39854467426455,36.80299,0.07059757,0.9313914,29.88590252474102,180,2.400000095367432,7.999579855010836,-9999,2730.191103416667,0.0747222900390625,-0.2450408935546875,-1.022018432617188,2730.181108416667,2.480535496330876,0.06153965757452197,0.221839247227463,0.00193055858835578,0.01747200079262257,-0.0104785393923521,0.02504348009824753,-0.03838337957859039,-0.0159609317779541,XArbitraryZVertical,0.00698654983908607,0.1145742847990744,0.9407185385462258,0.3191748595839923,0.05999371036887169,-0.2200241684913635,-0.9736478328704834,0,0,0,-1,-1,2730.102895416667,unknown,2,2022-06-02T10:46:25.825+02:00,2022-06-02T10:17:13.754+02:00,448,1.423373,0,0,345.1212,0,0,2022-06-02T10:46:25.824+02:00,675852385.8243657,0,7.03125,101.2995,1,0.81
2022-06-02T10:46:25.923+02:00,1654159584.999687,53.22906985850716,10.39854467426455,36.80299,0.07059757,0.9313914,29.88590252474102,180,2.400000095367432,7.999579855010836,-9999,2730.201097416667,0.065155029296875,-0.2353515625,-1.024459838867188,2730.191103416667,2.480542456323105,0.06159068548100355,0.2220069907778217,-0.03275498375296593,0.03296360746026039,0.0011562779545784,0.0186331495642662,-0.03399305045604706,-0.03557783365249634,XArbitraryZVertical,0.006989455613962785,0.1146611738104547,0.940711832600761,0.3191631645516696,0.06004111841320992,-0.2201877981424332,-0.9736078977584839,0,0,0,-1,-1,2730.102895416667,unknown,2,2022-06-02T10:46:25.825+02:00,2022-06-02T10:17:13.754+02:00,448,1.423373,0,0,345.1212,0,0,2022-06-02T10:46:25.824+02:00,675852385.8243657,0,7.03125,101.2995,1,0.81
2022-06-02T10:46:25.933+02:00,1654159584.999687,53.22906985850716,10.39854467426455,36.80299,0.07059757,0.9313914,29.88590252474102,180,2.400000095367432,7.999579855010836,-9999,2730.211092416667,0.063720703125,-0.226104736328125,-1.004730224609375,2730.201097416667,2.480606954262437,0.06192895151091819,0.221425743442728,-0.04872526228427887,0.04799002781510353,-0.002461959607899189,0.009537369012832642,-0.01858413219451904,-0.05256050825119019,XArbitraryZVertical,0.00673202846887017,0.1144426085483709,0.9407508539098909,0.3191323970864707,0.06037836521863937,-0.2196207791566849,-0.9737151265144348,0,0,0,-1,-1,2730.102895416667,unknown,2,2022-06-02T10:46:25.825+02:00,2022-06-02T10:17:13.754+02:00,448,1.423373,0,0,345.1212,0,0,2022-06-02T10:46:25.824+02:00,675852385.8243657,0,7.03125,101.2995,1,0.81
2022-06-02T10:46:25.943+02:00,1654159584.999687,53.22906985850716,10.39854467426455,36.80299,0.07059757,0.9313914,29.88590252474102,180,2.400000095367432,7.999579855010836,-9999,2730.221086416667,0.056396484375,-0.217254638671875,-0.98687744140625,2730.211092416667,2.480635327461901,0.06239628948346584,0.2205274819628759,-0.04198320209980011,0.05492916330695152,-0.0002432800829410553,0.003470059484243393,-0.01308237016201019,-0.04299288988113403,XArbitraryZVertical,0.006364330766353382,0.1140957496409691,0.9407991651684957,0.319121454043138,0.06084568798542023,-0.2187443673610687,-0.973883330821991,0,0,0,-1,-1,2730.102895416667,unknown,2,2022-06-02T10:46:25.825+02:00,2022-06-02T10:17:13.754+02:00,448,1.423373,0,0,345.1212,0,0,2022-06-02T10:46:25.824+02:00,675852385.8243657,0,7.03125,101.2995,1,0.81
2022-06-02T10:46:25.953+02:00,1654159584.999687,53.22906985850716,10.39854467426455,36.80299,0.07059757,0.9313914,29.88590252474102,180,2.400000095367432,7.999579855010836,-9999,2730.231081416667,0.0484619140625,-0.22235107421875,-0.9598236083984375,2730.221086416667,2.480659680211922,0.06293320167225944,0.2196736112875622,-0.0355641208589077,0.04925649613142014,0.004076233133673668,-0.0003604404628276825,-0.002379998564720154,-0.0213552713394165,XArbitraryZVertical,0.00597135931092271,0.1137807662027014,0.9408447858381458,0.3191072694853189,0.0613802932202816,-0.2179110944271088,-0.9740365743637085,0,0,0,-1,-1,2730.102895416667,unknown,2,2022-06-02T10:46:25.825+02:00,2022-06-02T10:17:13.754+02:00,448,1.423373,0,0,345.1212,0,0,2022-06-02T10:46:25.824+02:00,675852385.8243657,0,7.03125,101.2995,1,0.81
2022-06-02T10:46:25.963+02:00,1654159584.999687,53.22906985850716,10.39854467426455,36.80299,0.07059757,0.9313914,29.88590252474102,180,2.400000095367432,7.999579855010836,-9999,2730.241075416667,0.0511627197265625,-0.246124267578125,-0.9547119140625,2730.231081416667,2.480716702639673,0.06360345211489934,0.2188161766692311,-0.04518798366189003,0.068720743060112,0.01025529950857162,-0.00937168300151825,-0.0007755011320114136,0.001586079597473145,XArbitraryZVertical,0.00551319916094636,0.1134854702624656,0.9408957119488505,0.3190702425720837,0.06204498186707497,-0.2170741856098175,-0.9741812944412231,0,0,0,-1,-1,2730.102895416667,unknown,2,2022-06-02T10:46:25.825+02:00,2022-06-02T10:17:13.754+02:00,448,1.423373,0,0,345.1212,0,0,2022-06-02T10:46:25.824+02:00,675852385.8243657,0,7.03125,101.2995,1,0.81
2022-06-02T10:46:25.973+02:00,1654159584.999687,53.22906985850716,10.39854467426455,36.80299,0.07059757,0.9313914,29.88590252474102,180,2.400000095367432,7.999579855010836,-9999,2730.251070416667,0.067779541015625,-0.2483062744140625,-0.947296142578125,2730.241075416667,2.480878659023939,0.06444991721073784,0.2182960998541566,-0.03425687551498413,0.06672610342502594,0.02688161283731461,-0.0152999684214592,-0.01812893152236938,0.01959007978439331,XArbitraryZVertical,0.005021114910977559,0.1133768212217032,0.9409479471391561,0.318963116984155,0.06287683546543121,-0.2165664732456207,-0.9742409586906433,0,0,0,-1,-1,2730.102895416667,unknown,2,2022-06-02T10:46:25.825+02:00,2022-06-02T10:17:13.754+02:00,448,1.423373,0,0,345.1212,0,0,2022-06-02T10:46:25.824+02:00,675852385.8243657,0,7.03125,101.2995,1,0.81
2022-06-02T10:46:25.983+02:00,1654159584.999687,53.22906985850716,10.39854467426455,36.80299,0.07059757,0.9313914,29.88590252474102,180,2.400000095367432,7.999579855010836,-9999,2730.261064416667,0.0808868408203125,-0.2451629638671875,-0.94757080078125,2730.251070416667,2.481171718146965,0.06532212917620019,0.2182005231909026,-0.04225461184978485,0.05551046505570412,0.03745169937610626,-0.00469169020652771,-0.03470171988010406,0.02227157354354858,XArbitraryZVertical,0.004578566450073246,0.1134717388909352,0.9410011155400733,0.3187788305167876,0.06372790783643723,-0.2164731621742249,-0.9742063879966736,0,0,0,-1,-1,2730.102895416667,unknown,2,2022-06-02T10:46:25.825+02:00,2022-06-02T10:17:13.754+02:00,448,1.423373,0,0,345.1212,0,0,2022-06-02T10:46:25.824+02:00,675852385.8243657,0,7.03125,101.2995,1,0.81
2022-06-02T10:46:25.993+02:00,1654159584.999687,53.22906985850716,10.39854467426455,36.80299,0.07059757,0.9313914,29.88590252474102,180,2.400000095367432,7.999579855010836,-9999,2730.271059416667,0.082427978515625,-0.2500762939453125,-0.969085693359375,2730.261064416667,2.481570844723961,0.06597674417836334,0.2182804378092599,-0.0673060342669487,0.02994571626186371,0.04698954895138741,0.01051035523414612,-0.02951200306415558,0.02808701992034912,XArbitraryZVertical,0.004260903178851899,0.113614432007777,0.9410624571200391,0.3185512200203897,0.0643644779920578,-0.2165511846542358,-0.9741472005844116,0,0,0,-1,-1,2730.102895416667,unknown,2,2022-06-02T10:46:25.825+02:00,2022-06-02T10:17:13.754+02:00,448,1.423373,0,0,345.1212,0,0,2022-06-02T10:46:25.824+02:00,675852385.8243657,0,7.03125,101.2995,1,0.81
2022-06-02T10:46:26.003+02:00,1654159584.999687,53.22906985850716,10.39854467426455,36.80299,0.07059757,0.9313914,29.88590252474102,180,2.400000095367432,7.999579855010836,-9999,2730.281053416667,0.078582763671875,-0.2287750244140625,-1.006820678710938,2730.271059416667,2.48205373445904,0.0662594530582858,0.2179848870840541,-0.08959456533193588,0.01172942668199539,0.04574425518512726,0.01894349604845047,-0.03172315657138824,0.01983183622360229,XArbitraryZVertical,0.004052397190550767,0.113521707153555,0.9411536458191473,0.3183178401741477,0.06464411318302155,-0.2162626385688782,-0.9741927981376648,0,0,0,-1,-1,2730.102895416667,unknown,2,2022-06-02T10:46:25.825+02:00,2022-06-02T10:17:13.754+02:00,448,1.423373,0,0,345.1212,0,0,2022-06-02T10:46:25.824+02:00,675852385.8243657,0,7.03125,101.2995,1,0.81
2022-06-02T10:46:26.013+02:00,1654159584.999687,53.22906985850716,10.39854467426455,36.80299,0.07059757,0.9313914,29.88590252474102,180,2.400000095367432,7.999579855010836,-9999,2730.291048416667,0.073455810546875,-0.1928558349609375,-1.002243041992188,2730.281053416667,2.48258545326499,0.06611252316983379,0.2175089318109621,-0.0399680882692337,-0.0198358241468668,0.05090772360563278,0.01590600609779358,-0.02835790812969208,-0.0178825855255127,XArbitraryZVertical,0.004014050759678542,0.1132759691108032,0.9412598736915634,0.3180917230764327,0.06450776755809784,-0.2157979160547256,-0.9743048548698425,0,0,0,-1,-1,2730.102895416667,unknown,2,2022-06-02T10:46:25.825+02:00,2022-06-02T10:17:13.754+02:00,448,1.423373,0,0,345.1212,0,0,2022-06-02T10:46:25.824+02:00,675852385.8243657,0,7.03125,101.2995,1,0.81
2022-06-02T10:46:26.023+02:00,1654159584.999687,53.22906985850716,10.39854467426455,36.80299,0.07059757,0.9313914,29.88590252474102,180,2.400000095367432,7.999579855010836,-9999,2730.301042416667,0.0676422119140625,-0.1793975830078125,-1.02239990234375,2730.291048416667,2.483093506160745,0.06574545555636004,0.2176870997536703,0.04625761136412621,-0.01899160072207451,0.04282023385167122,0.01345854997634888,0.006972312927246094,-0.02647280693054199,XArbitraryZVertical,0.004186953634585009,0.1133023139716233,0.9413315949827001,0.3178673938314376,0.06414759904146194,-0.2159718871116638,-0.974290132522583,0,0,0,-1,-1,2730.102895416667,unknown,2,2022-06-02T10:46:25.825+02:00,2022-06-02T10:17:13.754+02:00,448,1.423373,0,0,345.1212,0,0,2022-06-02T10:46:25.824+02:00,675852385.8243657,0,7.03125,101.2995,1,0.81
2022-06-02T10:46:26.033+02:00,1654159584.999687,53.22906985850716,10.39854467426455,36.80299,0.07059757,0.9313914,29.88590252474102,180,2.400000095367432,7.999579855010836,-9999,2730.311037416667,0.06475830078125,-0.1887969970703125,-1.025604248046875,2730.301042416667,2.483434910031978,0.06546368481309632,0.2187325242312935,0.1580331176519394,-0.002827344927936792,0.03656480461359024,0.005553923547267914,0.0330326110124588,-0.03920811414718628,XArbitraryZVertical,0.004469840025168038,0.1137491123172873,0.9413369736302962,0.3176882673834812,0.063858263194561,-0.2169925272464752,-0.9740822911262512,0,0,0,-1,-1,2730.102895416667,unknown,2,2022-06-02T10:46:25.825+02:00,2022-06-02T10:17:13.754+02:00,448,1.423373,0,0,345.1212,0,0,2022-06-02T10:46:25.824+02:00,675852385.8243657,0,7.03125,101.2995,1,0.81
2022-06-02T10:46:26.043+02:00,1654159584.999687,53.22906985850716,10.39854467426455,36.80299,0.07059757,0.9313914,29.88590252474102,180,2.400000095367432,7.999579855010836,-9999,2730.321031416667,0.0571136474609375,-0.2191619873046875,-1.012496948242188,2730.311037416667,2.483672344352076,0.0651575447311346,0.2206833390907138,0.2172650098800659,0.004883837886154652,0.0215432420372963,0.003606244921684265,0.03705750405788422,-0.05247598886489868,XArbitraryZVertical,0.004916776972315635,0.1146169582746285,0.9412830384460046,0.3175295001616443,0.06353237479925156,-0.2188964337110519,-0.9736775755882263,0,0,0,-1,-1,2730.102895416667,unknown,2,2022-06-02T10:46:25.825+02:00,2022-06-02T10:17:13.754+02:00,448,1.423373,0,0,345.1212,0,0,2022-06-02T10:46:25.824+02:00,675852385.8243657,0,7.03125,101.2995,1,0.81
2022-06-02T10:46:26.053+02:00,1654159584.999687,53.22906985850716,10.39854467426455,36.80299,0.07059757,0.9313914,29.88590252474102,180,2.400000095367432,7.999579855010836,-9999,2730.331026416667,0.061279296875,-0.261627197265625,-0.9827117919921875,2730.321031416667,2.483753448312058,0.06490765021917284,0.2233515706418071,0.2109580785036087,0.02703328058123589,0.001785849221050739,-0.003955334424972534,0.02061726152896881,-0.04723286628723145,XArbitraryZVertical,0.005462347755294601,0.1158301039519965,0.9411693800196761,0.3174172001455903,0.06325094401836395,-0.2214991748332977,-0.9731070995330811,0,0,0,-1,-1,2730.102895416667,unknown,2,2022-06-02T10:46:25.825+02:00,2022-06-02T10:17:13.754+02:00,448,1.423373,0,0,345.1212,0,0,2022-06-02T10:46:25.824+02:00,675852385.8243657,0,7.03125,101.2995,1,0.81
2022-06-02T10:46:26.063+02:00,1654159584.999687,53.22906985850716,10.39854467426455,36.80299,0.07059757,0.9313914,29.88590252474102,180,2.400000095367432,7.999579855010836,-9999,2730.341020416667,0.0587005615234375,-0.29962158203125,-0.957550048828125,2730.331026416667,2.483586423301069,0.06519065654585647,0.2258485373657589,0.1356707811355591,0.03426749259233475,-0.01666399836540222,-0.003935098648071289,-0.01616357266902924,-0.02687066793441772,XArbitraryZVertical,0.00574379257401282,0.1170465535399629,0.9410243662323505,0.3173959679071506,0.06349010765552521,-0.2239334285259247,-0.9725342392921448,0,0,0,-1,-1,2730.102895416667,unknown,2,2022-06-02T10:46:25.825+02:00,2022-06-02T10:17:13.754+02:00,448,1.423373,0,0,345.1212,0,0,2022-06-02T10:46:25.824+02:00,675852385.8243657,0,7.03125,101.2995,1,0.81
2022-06-02T10:46:26.073+02:00,1654159584.999687,53.22906985850716,10.39854467426455,36.80299,0.07059757,0.9313914,29.88590252474102,180,2.400000095367432,7.999579855010836,-9999,2730.351015416667,0.0524749755859375,-0.3050689697265625,-0.9437713623046875,2730.341020416667,2.483195965000096,0.06595329150938969,0.2272502081135063,0.01307941600680351,0.03627778217196465,-0.03450145199894905,-0.002336680889129639,-0.05796484649181366,0.005115091800689697,XArbitraryZVertical,0.005635301754546827,0.117824272980451,0.9408969891284107,0.3174876711053828,0.06421103328466415,-0.225299283862114,-0.9721713662147522,0,0,0,-1,-1,2730.102895416667,unknown,2,2022-06-02T10:46:25.825+02:00,2022-06-02T10:17:13.754+02:00,448,1.423373,0,0,345.1212,0,0,2022-06-02T10:46:25.824+02:00,675852385.8243657,0,7.03125,101.2995,1,0.81
2022-06-02T10:46:26.083+02:00,1654159585.999692,53.22907074211478,10.39855068497811,36.81837,0.07944696,0.949674,30.6971104320851,180,2.400000095367432,7.999579855010836,-9999,2730.361009416667,0.0499420166015625,-0.2686309814453125,-0.9521636962890625,2730.351015416667,2.482923192301043,0.06681001575178533,0.2272127384109677,-0.1193108409643173,0.04436420276761055,-0.002155229449272156,-0.009624570608139038,-0.08297997713088989,0.02070838212966919,XArbitraryZVertical,0.005242263830797556,0.1179419609144415,0.9408578543276709,0.3175668082063877,0.06504445523023605,-0.225262776017189,-0.9721243977546692,0,0,0,-1,-1,2730.102895416667,unknown,2,2022-06-02T10:46:25.825+02:00,2022-06-02T10:17:13.754+02:00,448,1.423373,0,0,345.1212,0,0,2022-06-02T10:46:25.824+02:00,675852385.8243657,0,7.03125,101.2995,1,0.81
2022-06-02T10:46:26.093+02:00,1654159585.999692,53.22907074211478,10.39855068497811,36.81837,0.07944696,0.949674,30.6971104320851,180,2.400000095367432,7.999579855010836,-9999,2730.371004416667,0.05755615234375,-0.21337890625,-0.9663543701171875,2730.361009416667,2.483229764631453,0.06737569892316027,0.2258193698261375,-0.193948894739151,0.0360470823943615,0.04736099019646645,-0.01579552888870239,-0.0659203827381134,0.02777385711669922,XArbitraryZVertical,0.004731894999334366,0.1173787255805417,0.9409748204251489,0.3174366271808951,0.06561542302370071,-0.2239049971103668,-0.9723997116088867,0,0,0,-1,-1,2730.102895416667,unknown,2,2022-06-02T10:46:25.825+02:00,2022-06-02T10:17:13.754+02:00,448,1.423373,0,0,345.1212,0,0,2022-06-02T10:46:25.824+02:00,675852385.8243657,0,7.03125,101.2995,1,0.81
2022-06-02T10:46:26.103+02:00,1654159585.999692,53.22907074211478,10.39855068497811,36.81837,0.07944696,0.949674,30.6971104320851,180,2.400000095367432,7.999579855010836,-9999,2730.380998416667,0.071044921875,-0.1683807373046875,-0.9730224609375,2730.371004416667,2.483973252606699,0.06768619664029338,0.2236402028904022,-0.182538315653801,0.02980676479637623,0.07830159366130829,-0.01165946573019028,-0.0215207040309906,0.00946962833404541,XArbitraryZVertical,0.004188824601394686,0.1164069040057575,0.9411972815790395,0.3171427670223927,0.0659501925110817,-0.2217806279659271,-0.9728637933731079,0,0,0,-1,-1,2730.102895416667,unknown,2,2022-06-02T10:46:25.825+02:00,2022-06-02T10:17:13.754+02:00,448,1.423373,0,0,345.1212,0,0,2022-06-02T10:46:25.824+02:00,675852385.8243657,0,7.03125,101.2995,1,0.81
2022-06-02T10:46:26.113+02:00,1654159585.999692,53.22907074211478,10.39855068497811,36.81837,0.07944696,0.949674,30.6971104320851,180,2.400000095367432,7.999579855010836,-9999,2730.390993416667,0.079620361328125,-0.1606292724609375,-0.993255615234375,2730.380998416667,2.484924673558679,0.06770819340767946,0.2215377820344178,-0.122910737991333,0.01341567374765873,0.08457294106483459,-0.002984240651130676,0.03537343442440033,0.008100152015686035,XArbitraryZVertical,0.003782662888611489,0.1154253106547746,0.9414471225311732,0.3167647933207191,0.06600299477577209,-0.2197300791740417,-0.9733253717422485,0,0,0,-1,-1,2730.102895416667,unknown,2,2022-06-02T10:46:25.825+02:00,2022-06-02T10:17:13.754+02:00,448,1.423373,0,0,345.1212,0,0,2022-06-02T10:46:25.824+02:00,675852385.8243657,0,7.03125,101.2995,1,0.81
2022-06-02T10:46:26.122+02:00,1654159585.999692,53.22907074211478,10.39855068497811,36.81837,0.07944696,0.949674,30.6971104320851,180,2.400000095367432,7.999579855010836,-9999,2730.400987416667,0.07196044921875,-0.17047119140625,-0.9885406494140625,2730.390993416667,2.485756011374308,0.06753970234856065,0.2203171311373066,-0.03283943980932236,-0.002245044801384211,0.06047133356332779,0.01185592263936996,0.05771151185035706,-0.01139724254608154,XArbitraryZVertical,0.003616594682989072,0.114827000480395,0.9416354285546813,0.3164241719600426,0.06585705280303955,-0.2185391038656235,-0.973603367805481,0,0,0,-1,-1,2730.102895416667,unknown,2,2022-06-02T10:46:25.825+02:00,2022-06-02T10:17:13.754+02:00,448,1.423373,0,0,345.1212,0,0,2022-06-02T10:46:25.824+02:00,675852385.8243657,0,7.03125,101.2995,1,0.81
2022-06-02T10:46:26.132+02:00,1654159585.999692,53.22907074211478,10.39855068497811,36.81837,0.07944696,0.949674,30.6971104320851,180,2.400000095367432,7.999579855010836,-9999,2730.410982416667,0.0764007568359375,-0.1967926025390625,-0.9883270263671875,2730.400987416667,2.486216456532172,0.06737117177353621,0.2201030631131189,0.0272773951292038,0.004933971911668777,0.02796805091202259,0.009224496781826019,0.05525957047939301,-0.01733618974685669,XArbitraryZVertical,0.003634917502533865,0.1147006408333486,0.9417179417597005,0.3162242528316013,0.0656961128115654,-0.2183302044868469,-0.9736611247062683,0,0,0,-1,-1,2730.102895416667,unknown,2,2022-06-02T10:46:25.825+02:00,2022-06-02T10:17:13.754+02:00,448,1.423373,0,0,345.1212,0,0,2022-06-02T10:46:25.824+02:00,675852385.8243657,0,7.03125,101.2995,1,0.81
2022-06-02T10:46:26.143+02:00,1654159585.999692,53.22907074211478,10.39855068497811,36.81837,0.07944696,0.949674,30.6971104320851,180,2.400000095367432,7.999579855010836,-9999,2730.420976416667,0.06634521484375,-0.225799560546875,-0.9755706787109375,2730.410982416667,2.486397071763769,0.06733390996335288,0.2206094732931939,0.03612920641899109,0.007890080101788044,0.007301654666662216,0.008291661739349365,0.03706170618534088,-0.0157504677772522,XArbitraryZVertical,0.003723925996791149,0.1149329272645355,0.9417228098165178,0.316124372344071,0.06565238535404205,-0.2188243716955185,-0.9735531210899353,0,0,0,-1,-1,2730.102895416667,unknown,2,2022-06-02T10:46:25.825+02:00,2022-06-02T10:17:13.754+02:00,448,1.423373,0,0,345.1212,0,0,2022-06-02T10:46:25.824+02:00,675852385.8243657,0,7.03125,101.2995,1,0.81
2022-06-02T10:46:26.153+02:00,1654159585.999692,53.22907074211478,10.39855068497811,36.81837,0.07944696,0.949674,30.6971104320851,180,2.400000095367432,7.999579855010836,-9999,2730.430971416667,0.0533294677734375,-0.2560272216796875,-0.964080810546875,2730.420976416667,2.486263110787966,0.06748207886661439,0.2212714701267308,-0.03149154782295227,0.02584904059767723,-0.03725935518741608,0.007409520447254181,0.007693573832511902,-0.00983196496963501,XArbitraryZVertical,0.003768843418245584,0.1152670017491958,0.9416709775583654,0.3161567226258889,0.06578685343265533,-0.219470277428627,-0.9733986258506775,0,0,0,-1,-1,2730.102895416667,unknown,2,2022-06-02T10:46:25.825+02:00,2022-06-02T10:17:13.754+02:00,448,1.423373,0,0,345.1212,0,0,2022-06-02T10:46:25.824+02:00,675852385.8243657,0,7.03125,101.2995,1,0.81
2022-06-02T10:46:26.162+02:00,1654159585.999692,53.22907074211478,10.39855068497811,36.81837,0.07944696,0.949674,30.6971104320851,180,2.400000095367432,7.999579855010836,-9999,2730.440965416667,0.0535125732421875,-0.2677764892578125,-0.94140625,2730.430971416667,2.485771718263547,0.06790293205535247,0.2213306647428101,-0.126350149512291,0.05504075065255165,-0.06838850677013397,-0.007556140422821045,-0.02035535871982574,0.003768622875213623,XArbitraryZVertical,0.00360860127457598,0.1153604431639554,0.9415912791554232,0.3163618201088081,0.06619562208652496,-0.2195280194282532,-0.9733579158782959,0,0,0,-1,-1,2730.102895416667,unknown,2,2022-06-02T10:46:25.825+02:00,2022-06-02T10:17:13.754+02:00,448,1.423373,0,0,345.1212,0,0,2022-06-02T10:46:25.824+02:00,675852385.8243657,0,7.03125,101.2995,1,0.81
2022-06-02T10:46:26.173+02:00,1654159585.999692,53.22907074211478,10.39855068497811,36.81837,0.07944696,0.949674,30.6971104320851,180,2.400000095367432,7.999579855010836,-9999,2730.450960416667,0.0624542236328125,-0.2590179443359375,-0.9053955078125,2730.440965416667,2.485220044648502,0.06856767887667717,0.2201600250769814,-0.2423781007528305,0.07757794857025146,-0.06663981080055237,-0.01525501906871796,-0.04697977006435394,0.01833868026733398,XArbitraryZVertical,0.003137992922611842,0.1149150002848787,0.9415597070258106,0.3166228218555754,0.06686020642518997,-0.2183857858181,-0.973569393157959,0,0,0,-1,-1,2730.102895416667,unknown,2,2022-06-02T10:46:25.825+02:00,2022-06-02T10:17:13.754+02:00,448,1.423373,0,0,345.1212,0,0,2022-06-02T10:46:25.824+02:00,675852385.8243657,0,7.03125,101.2995,1,0.81
2022-06-02T10:46:26.183+02:00,1654159585.999692,53.22907074211478,10.39855068497811,36.81837,0.07944696,0.949674,30.6971104320851,180,2.400000095367432,7.999579855010836,-9999,2730.460955416667,0.07098388671875,-0.2491912841796875,-0.8699188232421875,2730.450960416667,2.484829990946609,0.06930512204716585,0.217351038351048,-0.3615362048149109,0.07115094363689423,-0.05932064726948738,-0.01011002063751221,-0.04821118712425232,0.05127638578414917,XArbitraryZVertical,0.002358235237621843,0.1137122021587471,0.941628445880313,0.3168592159607357,0.06762035936117172,-0.2156437486410141,-0.9741279482841492,0,0,0,-1,-1,2730.102895416667,unknown,2,2022-06-02T10:46:25.825+02:00,2022-06-02T10:17:13.754+02:00,448,1.423373,0,0,345.1212,0,0,2022-06-02T10:46:25.824+02:00,675852385.8243657,0,7.03125,101.2995,1,0.81
2022-06-02T10:46:26.193+02:00,1654159585.999692,53.22907074211478,10.39855068497811,36.81837,0.07944696,0.949674,30.6971104320851,180,2.400000095367432,7.999579855010836,-9999,2730.470949416667,0.0742645263671875,-0.2440185546875,-0.8209228515625,2730.460955416667,2.484478457658116,0.06994490926863273,0.2129331461313207,-0.4679487347602844,0.0474478118121624,-0.07205754518508911,-0.001460783183574677,-0.04328039288520813,0.08438509702682495,XArbitraryZVertical,0.001360944222197029,0.1117384421810063,0.9417729909695898,0.3171374655044717,0.06830949336290359,-0.2113277018070221,-0.9750253558158875,0,0,0,-1,-1,2730.102895416667,unknown,2,2022-06-02T10:46:25.825+02:00,2022-06-02T10:17:13.754+02:00,448,1.423373,0,0,345.1212,0,0,2022-06-02T10:46:25.824+02:00,675852385.8243657,0,7.03125,101.2995,1,0.81
2022-06-02T10:46:26.203+02:00,1654159585.999692,53.22907074211478,10.39855068497811,36.81837,0.07944696,0.949674,30.6971104320851,180,2.400000095367432,7.999579855010836,-9999,2730.480943416667,0.0697479248046875,-0.23724365234375,-0.773712158203125,2730.470949416667,2.484035363015475,0.07026931972276293,0.207140987547888,-0.5853909850120544,-0.01947742886841297,-0.08641331642866135,0.005965888500213623,-0.03975947201251984,0.1310845017433167,XArbitraryZVertical,0.0002934754426047696,0.1090688826553313,0.9419573873349257,0.3175216789442935,0.06871058791875839,-0.2056628465652466,-0.9762077927589417,0,0,0,-1,-1,2730.102895416667,unknown,2,2022-06-02T10:46:25.825+02:00,2022-06-02T10:17:13.754+02:00,448,1.423373,0,0,345.1212,0,0,2022-06-02T10:46:25.824+02:00,675852385.8243657,0,7.03125,101.2995,1,0.81
2022-06-02T10:46:26.213+02:00,1654159585.999692,53.22907074211478,10.39855068497811,36.81837,0.07944696,0.949674,30.6971104320851,180,2.400000095367432,7.999579855010836,-9999,2730.490938416667,0.0371856689453125,-0.235687255859375,-0.743499755859375,2730.480943416667,2.48353541257591,0.06986114271567703,0.2003882273531609,-0.7117493152618408,-0.09208318591117859,-0.1040559634566307,0.004224292933940887,-0.04129134118556976,0.182173490524292,XArbitraryZVertical,-0.000583050006212811,0.1058310743405544,0.9421647991994216,0.3180013198968001,0.06840749830007553,-0.1990498006343842,-0.9775989055633545,0,0,0,-1,-1,2730.102895416667,unknown,2,2022-06-02T10:46:25.825+02:00,2022-06-02T10:17:13.754+02:00,448,1.423373,0,0,345.1212,0,0,2022-06-02T10:46:25.824+02:00,675852385.8243657,0,7.03125,101.2995,1,0.81
2022-06-02T10:46:26.223+02:00,1654159585.999692,53.22907074211478,10.39855068497811,36.81837,0.07944696,0.949674,30.6971104320851,180,2.400000095367432,7.999579855010836,-9999,2730.500932416667,0.025909423828125,-0.2343902587890625,-0.70648193359375,2730.490938416667,2.482546992290469,0.06887483443278813,0.1922725711018469,-0.8912945985794067,-0.139257624745369,-0.2315055280923843,-0.004747070372104645,-0.04377315938472748,0.2216463685035706,XArbitraryZVertical,-0.00138512904564288,0.1018599611284475,0.942338768268587,0.318779250246285,0.06755220890045166,-0.1910900771617889,-0.9792452454566956,0,0,0,-1,-1,2730.102895416667,unknown,2,2022-06-02T10:46:25.825+02:00,2022-06-02T10:17:13.754+02:00,448,1.423373,0,0,345.1212,0,0,2022-06-02T10:46:25.824+02:00,675852385.8243657,0,7.03125,101.2995,1,0.81
2022-06-02T10:46:26.232+02:00,1654159585.999692,53.22907074211478,10.39855068497811,36.81837,0.07944696,0.949674,30.6971104320851,180,2.400000095367432,7.999579855010836,-9999,2730.510926,-0.0602874755859375,-0.2772674560546875,-0.6652984619140625,2730.500932416667,2.480628606422707,0.06782231278943399,0.1820934879784351,-1.119248151779175,-0.17111736536026,-0.2788293063640594,-0.0511469766497612,-0.0513482540845871,0.2537429332733154,XArbitraryZVertical,-0.002450295731286705,0.09690792212325319,0.9424270553860619,0.3200533737834942,0.06664986163377762,-0.181088849902153,-0.9812057018280029,0,0,0,-1,-1,2730.102895416667,unknown,2,2022-06-02T10:46:25.825+02:00,2022-06-02T10:17:13.754+02:00,448,1.423373,0,0,345.1212,0,0,2022-06-02T10:46:25.824+02:00,675852385.8243657,0,7.03125,101.2995,1,0.81
2022-06-02T10:46:26.243+02:00,1654159585.999692,53.22907074211478,10.39855068497811,36.81837,0.07944696,0.949674,30.6971104320851,180,2.400000095367432,7.999579855010836,-9999,2730.520921,-0.0291595458984375,-0.300567626953125,-0.59332275390625,2730.510926,2.47675957869236,0.06640001767430209,0.1688350210689775,-1.486762285232544,-0.1915003955364227,-0.6385137438774109,-0.06238660216331482,-0.08430050313472748,0.3000303506851196,XArbitraryZVertical,-0.003765082864093482,0.09045108046149808,0.9422846675391916,0.3223413157996833,0.06540779769420624,-0.1680340468883514,-0.9836088418960571,0,0,0,-1,-1,2730.102895416667,unknown,2,2022-06-02T10:46:25.825+02:00,2022-06-02T10:17:13.754+02:00,448,1.423373,0,0,345.1212,0,0,2022-06-02T10:46:25.824+02:00,675852385.8243657,0,7.03125,101.2995,1,0.81
2022-06-02T10:46:26.253+02:00,1654159585.999692,53.22907074211478,10.39855068497811,36.81837,0.07944696,0.949674,30.6971104320851,180,2.400000095367432,7.999579855010836,-9999,2730.530915,0.0103302001953125,-0.3652191162109375,-0.4975738525390625,2730.520921,2.471710581746512,0.06500638787894421,0.151662884167882,-1.895180583000183,-0.2797561585903168,-0.5480797290802002,-0.1414854824542999,-0.1381481736898422,0.3422834873199463,XArbitraryZVertical,-0.005713596696037061,0.08216271854248779,0.9420274083081173,0.325270485378849,0.06421494483947754,-0.1510821431875229,-0.9864332675933838,0,0,0,-1,-1,2730.102895416667,unknown,2,2022-06-02T10:46:25.825+02:00,2022-06-02T10:17:13.754+02:00,448,1.423373,0,0,345.1212,0,0,2022-06-02T10:46:25.824+02:00,675852385.8243657,0,7.03125,101.2995,1,0.81
2022-06-02T10:46:26.263+02:00,1654159585.999692,53.22907074211478,10.39855068497811,36.81837,0.07944696,0.949674,30.6971104320851,180,2.400000095367432,7.999579855010836,-9999,2730.54091,-0.034576416015625,-0.3657073974609375,-0.4221649169921875,2730.530915,2.467142035229619,0.06207892021551512,0.1296880938506509,-2.445716142654419,-0.4269996583461761,-0.6817305088043213,-0.0488533116877079,-0.1984186321496964,0.4553446173667908,XArbitraryZVertical,-0.007795367524246406,0.07136626542515301,0.9419048232894019,0.3281177677289306,0.06151806935667992,-0.1293248683214188,-0.9896921515464783,0,0,0,-1,-1,2730.102895416667,unknown,2,2022-06-02T10:46:25.825+02:00,2022-06-02T10:17:13.754+02:00,448,1.423373,0,0,345.1212,0,0,2022-06-02T10:46:25.824+02:00,675852385.8243657,0,7.03125,101.2995,1,0.81
2022-06-02T10:46:26.273+02:00,1654159585.999692,53.22907074211478,10.39855068497811,36.81837,0.07944696,0.949674,30.6971104320851,180,2.400000095367432,7.999579855010836,-9999,2730.550904,-0.05194091796875,-0.3417816162109375,-0.36077880859375,2730.54091,2.460633512592777,0.05800237960356767,0.1014821826805534,-3.132537841796875,-0.5352692008018494,-0.9426435232162476,-0.07146559655666351,-0.2788951396942139,0.5286740064620972,XArbitraryZVertical,-0.0103673110570307,0.05745847004026033,0.9414767097920888,0.3319828170048501,0.05767161399126053,-0.1013080850243568,-0.9931820631027222,0,0,0,-1,-1,2730.102895416667,unknown,2,2022-06-02T10:46:25.825+02:00,2022-06-02T10:17:13.754+02:00,448,1.423373,0,0,345.1212,0,0,2022-06-02T10:46:25.824+02:00,675852385.8243657,0,7.03125,101.2995,1,0.81
2022-06-02T10:46:26.283+02:00,1654159585.999692,53.22907074211478,10.39855068497811,36.81837,0.07944696,0.949674,30.6971104320851,180,2.400000095367432,7.999579855010836,-9999,2730.560899,-0.0721282958984375,-0.3426666259765625,-0.3817596435546875,2730.550904,2.452035830653147,0.05293458838068486,0.0659647765361345,-3.863616228103638,-0.6097368001937866,-1.161176085472107,-0.09875430911779404,-0.2794351875782013,0.6111735701560974,XArbitraryZVertical,-0.01375151883724337,0.03996461222801966,0.9406040071781812,0.3368646512627972,0.05279479920864105,-0.06591694802045822,-0.9964274764060974,0,0,0,-1,-1,2730.102895416667,unknown,2,2022-06-02T10:46:25.825+02:00,2022-06-02T10:17:13.754+02:00,448,1.423373,0,0,345.1212,0,0,2022-06-02T10:46:25.824+02:00,675852385.8243657,0,7.03125,101.2995,1,0.81
2022-06-02T10:46:26.293+02:00,1654159585.999692,53.22907074211478,10.39855068497811,36.81837,0.07944696,0.949674,30.6971104320851,180,2.400000095367432,7.999579855010836,-9999,2730.570893,-0.1025848388671875,-0.2234954833984375,-0.3935546875,2730.560899,2.441551625452307,0.04730836339450398,0.02381194818821951,-4.428321838378906,-0.6087566018104553,-1.35208523273468,-0.1070918068289757,-0.3253571391105652,0.6335772275924683,XArbitraryZVertical,-0.0181347599430784,0.01929076306232348,0.9391328150725712,0.3425322223880441,0.04727731272578239,-0.02380969747900963,-0.9985979795455933,0,0,0,-1,-1,2730.102895416667,unknown,2,2022-06-02T10:46:25.825+02:00,2022-06-02T10:17:13.754+02:00,448,1.423373,0,0,345.1212,0,0,2022-06-02T10:46:25.824+02:00,675852385.8243657,0,7.03125,101.2995,1,0.81
2022-06-02T10:46:26.303+02:00,1654159585.999692,53.22907074211478,10.39855068497811,36.81837,0.07944696,0.949674,30.6971104320851,180,2.400000095367432,7.999579855010836,-9999,2730.580888,-0.1501007080078125,-0.0372161865234375,-0.4222259521484375,2730.570893,2.429240307805264,0.04124775118870708,-0.02301837862626025,-4.794892311096191,-0.6067482829093933,-1.523540616035461,-0.1264455020427704,-0.3222411870956421,0.6091905236244202,XArbitraryZVertical,-0.02333904194800645,-0.003593893328841763,0.9368928272529317,0.3488180931892909,0.0412251316010952,0.02301634661853313,-0.9988847374916077,0,0,0,-1,-1,2730.102895416667,unknown,2,2022-06-02T10:46:25.825+02:00,2022-06-02T10:17:13.754+02:00,448,1.423373,0,0,345.1212,0,0,2022-06-02T10:46:25.824+02:00,675852385.8243657,0,7.03125,101.2995,1,0.81
2022-06-02T10:46:26.313+02:00,1654159585.999692,53.22907074211478,10.39855068497811,36.81837,0.07944696,0.949674,30.6971104320851,180,2.400000095367432,7.999579855010836,-9999,2730.590882,-0.193695068359375,0.1331634521484375,-0.39892578125,2730.580888,2.415036134405377,0.0344485133079825,-0.07180057859763463,-4.8086838722229,-0.6192079186439514,-1.685693264007568,-0.1594292968511581,-0.2042919993400574,0.5881555676460266,XArbitraryZVertical,-0.02884117349939556,-0.02742891814397581,0.933776354868993,0.3556365617944088,0.03435295820236206,0.07173889875411987,-0.9968316555023193,0,0,0,-1,-1,2730.102895416667,unknown,2,2022-06-02T10:46:25.825+02:00,2022-06-02T10:17:13.754+02:00,448,1.423373,0,0,345.1212,0,0,2022-06-02T10:46:25.824+02:00,675852385.8243657,0,7.03125,101.2995,1,0.81
2022-06-02T10:46:26.323+02:00,1654159585.999692,53.22907074211478,10.39855068497811,36.81837,0.07944696,0.949674,30.6971104320851,180,2.400000095367432,7.999579855010836,-9999,2730.600877,-0.2530670166015625,0.234375,-0.4179229736328125,2730.590882,2.398573487243302,0.02642030126273845,-0.1193825344290287,-4.59184741973877,-0.6717004179954529,-1.895475029945374,-0.1952813714742661,-0.06479311734437943,0.5753757953643799,XArbitraryZVertical,-0.03394119418740334,-0.0507943800756981,0.9297536515175274,0.3630785427838343,0.02622919902205467,0.1190991625189781,-0.9925358295440674,0,0,0,-1,-1,2730.102895416667,unknown,2,2022-06-02T10:46:25.825+02:00,2022-06-02T10:17:13.754+02:00,448,1.423373,0,0,345.1212,0,0,2022-06-02T10:46:25.824+02:00,675852385.8243657,0,7.03125,101.2995,1,0.81
2022-06-02T10:46:26.333+02:00,1654159585.999692,53.22907074211478,10.39855068497811,36.81837,0.07944696,0.949674,30.6971104320851,180,2.400000095367432,7.999579855010836,-9999,2730.610871,-0.3201141357421875,0.275390625,-0.490692138671875,2730.600877,2.379047127059074,0.01669919349225198,-0.1639796013374537,-4.236109733581543,-0.7145220637321472,-2.161495923995972,-0.238688200712204,0.02831311523914337,0.590741753578186,XArbitraryZVertical,-0.0381972512918566,-0.0729179411665392,0.9247870645779889,0.3714739567777143,0.0164744146168232,0.1632457077503204,-0.9864478707313538,0,0,0,-1,-1,2730.102895416667,unknown,2,2022-06-02T10:46:25.825+02:00,2022-06-02T10:17:13.754+02:00,448,1.423373,0,0,345.1212,0,0,2022-06-02T10:46:25.824+02:00,675852385.8243657,0,7.03125,101.2995,1,0.81
2022-06-02T10:46:26.343+02:00,1654159585.999692,53.22907074211478,10.39855068497811,36.81837,0.07944696,0.949674,30.6971104320851,180,2.400000095367432,7.999579855010836,-9999,2730.620866,-0.393310546875,0.2170257568359375,-0.6209564208984375,2730.610871,2.356395014485515,0.005368023172529974,-0.2047498502667502,-3.884143114089966,-0.7171047925949097,-2.382581233978271,-0.2903206050395966,0.06327931582927704,0.5295433402061462,XArbitraryZVertical,-0.04156599975940024,-0.09339906414755471,0.9189721840086604,0.3808396038745174,0.005255870055407286,0.203322246670723,-0.9790977835655212,0,0,0,-1,-1,2730.102895416667,unknown,2,2022-06-02T10:46:25.825+02:00,2022-06-02T10:17:13.754+02:00,448,1.423373,0,0,345.1212,0,0,2022-06-02T10:46:25.824+02:00,675852385.8243657,0,7.03125,101.2995,1,0.81
2022-06-02T10:46:26.353+02:00,1654159585.999692,53.22907074211478,10.39855068497811,36.81837,0.07944696,0.949674,30.6971104320851,180,2.400000095367432,7.999579855010836,-9999,2730.63086,-0.4525299072265625,0.0943603515625,-0.749603271484375,2730.620866,2.330862668433945,-0.00741667026416688,-0.2423867159583114,-3.679995059967041,-0.7016955614089966,-2.586995363235474,-0.3496880531311035,0.0169682651758194,0.4220961332321167,XArbitraryZVertical,-0.04429306899041097,-0.1125501390849317,0.9123885483223482,0.3910469494325516,-0.007199799176305532,0.2400202602148056,-0.9707411527633667,0,0,0,-1,-1,2730.102895416667,unknown,2,2022-06-02T10:46:25.825+02:00,2022-06-02T10:17:13.754+02:00,448,1.423373,0,0,345.1212,0,0,2022-06-02T10:46:25.824+02:00,675852385.8243657,0,7.03125,101.2995,1,0.81
2022-06-02T10:46:26.363+02:00,1654159585.999692,53.22907074211478,10.39855068497811,36.81837,0.07944696,0.949674,30.6971104320851,180,2.400000095367432,7.999579855010836,-9999,2730.640855,-0.4998931884765625,-0.09698486328125,-0.78839111328125,2730.63086,2.30270507753333,-0.02147052374179684,-0.2792690656420576,-3.819491624832153,-0.6420615315437317,-2.754105567932129,-0.4047932326793671,-0.1112549304962158,0.2677830457687378,XArbitraryZVertical,-0.04696956806667592,-0.1314383750550146,0.9049826052329488,0.4019008663226304,-0.02063710987567902,0.2756530940532684,-0.9610356092453003,0,0,0,-1,-1,2730.102895416667,unknown,2,2022-06-02T10:46:25.825+02:00,2022-06-02T10:17:13.754+02:00,448,1.423373,0,0,345.1212,0,0,2022-06-02T10:46:25.824+02:00,675852385.8243657,0,7.03125,101.2995,1,0.81
2022-06-02T10:46:26.373+02:00,1654159585.999692,53.22907074211478,10.39855068497811,36.81837,0.07944696,0.949674,30.6971104320851,180,2.400000095367432,7.999579855010836,-9999,2730.650849,-0.54034423828125,-0.22271728515625,-0.7391815185546875,2730.640855,2.27163874861776,-0.03676817235981781,-0.318284722330145,-4.185830593109131,-0.594277024269104,-2.958382129669189,-0.4429459571838379,-0.3117782473564148,0.1653029322624207,XArbitraryZVertical,-0.05030637045559935,-0.1513388270533575,0.8964962583769849,0.4133523405247048,-0.034913569688797,0.3129378855228424,-0.9491316676139832,0,0,0,-1,-1,2730.102895416667,unknown,2,2022-06-02T10:46:25.825+02:00,2022-06-02T10:17:13.754+02:00,448,1.423373,0,0,345.1212,0,0,2022-06-02T10:46:25.824+02:00,675852385.8243657,0,7.03125,101.2995,1,0.81
2022-06-02T10:46:26.383+02:00,1654159585.999692,53.22907074211478,10.39855068497811,36.81837,0.07944696,0.949674,30.6971104320851,180,2.400000095367432,7.999579855010836,-9999,2730.660844,-0.619537353515625,-0.232757568359375,-0.6710052490234375,2730.650849,2.237325435654347,-0.0537579997082929,-0.3615466908876352,-4.7723069190979,-0.5093267560005188,-3.108354568481445,-0.466907799243927,-0.5296552181243896,0.1668640375137329,XArbitraryZVertical,-0.05473820798301885,-0.1732163834443101,0.8866507412387236,0.4252649710943051,-0.05025837570428848,0.3537213504314423,-0.9339995980262756,0,0,0,-1,-1,2730.102895416667,unknown,2,2022-06-02T10:46:25.825+02:00,2022-06-02T10:17:13.754+02:00,448,1.423373,0,0,345.1212,0,0,2022-06-02T10:46:25.824+02:00,675852385.8243657,0,7.03125,101.2995,1,0.81
2022-06-02T10:46:26.393+02:00,1654159585.999692,53.22907074211478,10.39855068497811,36.81837,0.07944696,0.949674,30.6971104320851,180,2.400000095367432,7.999579855010836,-9999,2730.670838,-0.719970703125,-0.187225341796875,-0.6359100341796875,2730.660844,2.199539318310832,-0.07236273662892614,-0.4102063200802093,-5.377555370330811,-0.3619886636734009,-3.281480550765991,-0.5085428953170776,-0.6355692148208618,0.2091790437698364,XArbitraryZVertical,-0.06080574054098865,-0.1974420204165483,0.8751976277574174,0.437433733156828,-0.06630151718854904,0.3987985253334045,-0.9146386384963989,0,0,0,-1,-1,2730.102895416667,unknown,2,2022-06-02T10:46:25.825+02:00,2022-06-02T10:17:13.754+02:00,448,1.423373,0,0,345.1212,0,0,2022-06-02T10:46:25.824+02:00,675852385.8243657,0,7.03125,101.2995,1,0.81
2022-06-02T10:46:26.403+02:00,1654159585.999692,53.22907074211478,10.39855068497811,36.81837,0.07944696,0.949674,30.6971104320851,180,2.400000095367432,7.999579855010836,-9999,2730.680833,-0.8187408447265625,-0.029022216796875,-0.6710968017578125,2730.670838,2.156857509866947,-0.09285730763863603,-0.4628007761819846,-5.705316066741943,-0.1187674626708031,-3.556116104125977,-0.5873640179634094,-0.6680441498756409,0.248555600643158,XArbitraryZVertical,-0.06848681261963738,-0.2232358408011732,0.8618357019515828,0.4502382828366411,-0.08296988159418106,0.4464560151100159,-0.890950620174408,0,0,0,-1,-1,2730.102895416667,unknown,2,2022-06-02T10:46:25.825+02:00,2022-06-02T10:17:13.754+02:00,448,1.423373,0,0,345.1212,0,0,2022-06-02T10:46:25.824+02:00,675852385.8243657,0,7.03125,101.2995,1,0.81
2022-06-02T10:46:26.427+02:00,1654159585.999692,53.22907074211478,10.39855068497811,36.81837,0.07944696,0.949674,30.6971104320851,180,2.400000095367432,7.999579855010836,-9999,2730.690827,-0.9130401611328125,0.0081329345703125,-0.6883087158203125,2730.680833,2.108818201434025,-0.1154690012878304,-0.5163678101902809,-5.841873168945312,0.1114399060606956,-3.765931844711304,-0.6691266894340515,-0.6089286804199219,0.2087369561195374,XArbitraryZVertical,-0.07733920119561088,-0.2492087441297383,0.8466590165410327,0.4637694832025613,-0.1001909598708153,0.4937247931957245,-0.8638272881507874,0,0,0,-1,-1,2730.102895416667,unknown,2,2022-06-02T10:46:25.825+02:00,2022-06-02T10:17:13.754+02:00,448,1.423373,0,0,345.1212,0,0,2022-06-02T10:46:25.824+02:00,675852385.8243657,0,7.03125,101.2995,1,0.81
2022-06-02T10:46:26.431+02:00,1654159585.999692,53.22907074211478,10.39855068497811,36.81837,0.07944696,0.949674,30.6971104320851,180,2.400000095367432,7.999579855010836,-9999,2730.700822,-0.987518310546875,0.031463623046875,-0.7030487060546875,2730.690827,2.054367520437365,-0.141599974777977,-0.5698020908875999,-5.951739311218262,0.2829485535621643,-4.132705688476562,-0.7482962608337402,-0.5224366188049316,0.1565022468566895,XArbitraryZVertical,-0.08690733869258763,-0.2750579532984429,0.829572327052985,0.4781212194386425,-0.1188302412629128,0.5394654273986816,-0.833580493927002,0,0,0,-1,-1,2730.102895416667,unknown,2,2022-06-02T10:46:25.825+02:00,2022-06-02T10:17:13.754+02:00,448,1.423373,0,0,345.1212,0,0,2022-06-02T10:46:25.824+02:00,675852385.8243657,0,7.03125,101.2995,1,0.81
2022-06-02T10:46:26.433+02:00,1654159585.999692,53.22907074211478,10.39855068497811,36.81837,0.07944696,0.949674,30.6971104320851,180,2.400000095367432,7.999579855010836,-9999,2730.710816,-1.091537475585938,0.1291046142578125,-0.686798095703125,2730.700822,1.991992786618129,-0.1732704274027049,-0.6229039820142616,-6.184813022613525,0.4136786460876465,-4.368916988372803,-0.8130695223808289,-0.5835335850715637,0.1016160845756531,XArbitraryZVertical,-0.0968487829109087,-0.301010393571346,0.8103411448754465,0.4933153462845243,-0.1400249898433685,0.5833961963653564,-0.8000261187553406,0,0,0,-1,-1,2730.102895416667,unknown,2,2022-06-02T10:46:25.825+02:00,2022-06-02T10:17:13.754+02:00,448,1.423373,0,0,345.1212,0,0,2022-06-02T10:46:25.824+02:00,675852385.8243657,0,7.03125,101.2995,1,0.81
2022-06-02T10:46:26.443+02:00,1654159585.999692,53.22907074211478,10.39855068497811,36.81837,0.07944696,0.949674,30.6971104320851,180,2.400000095367432,7.999579855010836,-9999,2730.720811,-1.210723876953125,0.3373565673828125,-0.665557861328125,2730.710816,1.922677140532272,-0.2098845118058725,-0.6761460253725349,-6.345818042755127,0.6907206773757935,-4.428615570068359,-0.8726629614830017,-0.5460797548294067,0.06057232618331909,XArbitraryZVertical,-0.1077822524452245,-0.3270264610910328,0.7891769371726493,0.5085630137654903,-0.1625085920095444,0.625791609287262,-0.7628733515739441,0,0,0,-1,-1,2730.102895416667,unknown,2,2022-06-02T10:46:25.825+02:00,2022-06-02T10:17:13.754+02:00,448,1.423373,0,0,345.1212,0,0,2022-06-02T10:46:25.824+02:00,675852385.8243657,0,7.03125,101.2995,1,0.81
2022-06-02T10:46:26.453+02:00,1654159585.999692,53.22907074211478,10.39855068497811,36.81837,0.07944696,0.949674,30.6971104320851,180,2.400000095367432,7.999579855010836,-9999,2730.730805,-1.292587280273438,0.6013641357421875,-0.6428375244140625,2730.720811,1.847780915930466,-0.2493378765503705,-0.7277930923496956,-6.305399417877197,1.089621663093567,-4.353729248046875,-0.9680542945861816,-0.4536604881286621,0.04353189468383789,XArbitraryZVertical,-0.1201292495032498,-0.3518400753744748,0.7665874220812743,0.5235657804530296,-0.1842437088489532,0.6652234792709351,-0.7235550284385681,0,0,0,-1,-1,2730.102895416667,unknown,2,2022-06-02T10:46:25.825+02:00,2022-06-02T10:17:13.754+02:00,448,1.423373,0,0,345.1212,0,0,2022-06-02T10:46:25.824+02:00,675852385.8243657,0,7.03125,101.2995,1,0.81
2022-06-02T10:46:26.463+02:00,1654159585.999692,53.22907074211478,10.39855068497811,36.81837,0.07944696,0.949674,30.6971104320851,180,2.400000095367432,7.999579855010836,-9999,2730.7408,-1.302261352539062,0.748748779296875,-0.6066741943359375,2730.730805,1.767647657573098,-0.2915047566116648,-0.7762756775365541,-6.176910877227783,1.416549682617188,-4.358545780181885,-1.052062392234802,-0.2230879068374634,0.02816760540008545,XArbitraryZVertical,-0.1335376295450043,-0.3747729775228639,0.742929634645845,0.538301355876795,-0.2050634771585464,0.7006268501281738,-0.6834258437156677,0,0,0,-1,-1,2730.102895416667,unknown,2,2022-06-02T10:46:25.825+02:00,2022-06-02T10:17:13.754+02:00,448,1.423373,0,0,345.1212,0,0,2022-06-02T10:46:25.824+02:00,675852385.8243657,0,7.03125,101.2995,1,0.81
