loggingTime(txt),locationTimestamp_since1970(s),locationLatitude(WGS84),locationLongitude(WGS84),locationAltitude(m),locationSpeed(m/s),locationSpeedAccuracy(m/s),locationCourse(°),locationCourseAccuracy(°),locationVerticalAccuracy(m),locationHorizontalAccuracy(m),locationFloor(Z),accelerometerTimestamp_sinceReboot(s),accelerometerAccelerationX(G),accelerometerAccelerationY(G),accelerometerAccelerationZ(G),motionTimestamp_sinceReboot(s),motionYaw(rad),motionRoll(rad),motionPitch(rad),motionRotationRateX(rad/s),motionRotationRateY(rad/s),motionRotationRateZ(rad/s),motionUserAccelerationX(G),motionUserAccelerationY(G),motionUserAccelerationZ(G),motionAttitudeReferenceFrame(txt),motionQuaternionX(R),motionQuaternionY(R),motionQuaternionZ(R),motionQuaternionW(R),motionGravityX(G),motionGravityY(G),motionGravityZ(G),motionMagneticFieldX(µT),motionMagneticFieldY(µT),motionMagneticFieldZ(µT),motionHeading(°),motionMagneticFieldCalibrationAccuracy(Z),activityTimestamp_sinceReboot(s),activity(txt),activityActivityConfidence(Z),activityActivityStartDate(txt),pedometerStartDate(txt),pedometerNumberofSteps(N),pedometerAverageActivePace(s/m),pedometerCurrentPace(s/m),pedometerCurrentCadence(steps/s),pedometerDistance(m),pedometerFloorAscended(N),pedometerFloorDescended(N),pedometerEndDate(txt),altimeterTimestamp_sinceReboot(s),altimeterReset(bool),altimeterRelativeAltitude(m),altimeterPressure(kPa),batteryState(N),batteryLevel(R)
2022-06-02T10:46:40.654+02:00,1654159599.99975,53.22908366967196,10.398548202756,36.84694,0.0360264,0.6703551,16.0103749334074,73.34262548419477,2.400000095367432,7.999579855010837,-9999,2744.897247125,-0.0915679931640625,-0.109466552734375,-0.9130859375,2744.887252125,-0.1698017884221036,0.0178380927333965,0.2589370367090156,0.2893758118152618,0.3755090534687042,0.1444723606109619,-0.2983399033546448,0.1632186770439148,-0.03155320882797241,XArbitraryZVertical,0.1293869618642449,-0.002135284957840462,-0.08293852748307254,0.9881172388356612,0.01724250428378582,-0.2560531795024872,-0.9665089249610901,0,0,0,-1,-1,2740.333277166667,unknown,2,2022-06-02T10:46:36.055+02:00,2022-06-02T10:17:13.754+02:00,448,1.423373,0,0,345.1212,0,0,2022-06-02T10:46:30.942+02:00,675852390.9415598,0,7.601562,101.2908,1,0.81
2022-06-02T10:46:40.657+02:00,1654159599.99975,53.22908366967196,10.398548202756,36.84694,0.0360264,0.6703551,16.0103749334074,73.34262548419477,2.400000095367432,7.999579855010837,-9999,2744.907241125,-0.0445556640625,-0.225372314453125,-0.9086761474609375,2744.897247125,-0.1661865142743592,0.01980579704267959,0.2631353128262228,0.4934439957141876,0.2405333817005157,0.4808146953582764,-0.2534978091716766,0.1781237125396729,0.01864302158355713,XArbitraryZVertical,0.1315441705160489,-0.001104519105647203,-0.0809816848806571,0.9879963725937856,0.01912281475961208,-0.2601092159748077,-0.9653898477554321,0,0,0,-1,-1,2740.333277166667,unknown,2,2022-06-02T10:46:36.055+02:00,2022-06-02T10:17:13.754+02:00,448,1.423373,0,0,345.1212,0,0,2022-06-02T10:46:30.942+02:00,675852390.9415598,0,7.601562,101.2908,1,0.81
2022-06-02T10:46:40.660+02:00,1654159599.99975,53.22908366967196,10.398548202756,36.84694,0.0360264,0.6703551,16.0103749334074,73.34262548419477,2.400000095367432,7.999579855010837,-9999,2744.917236125,0.0498504638671875,-0.3311767578125,-0.91473388671875,2744.907241125,-0.1622393060707004,0.02126133302615109,0.2677985564340687,0.3979979157447815,0.2728095352649689,0.2804011702537537,-0.1120699197053909,0.1551425457000732,0.05105185508728027,XArbitraryZVertical,0.1339066885803485,-0.0003162831590594446,-0.07888636647885106,0.9878491013890108,0.02050194330513477,-0.2646090984344482,-0.9641377925872803,0,0,0,-1,-1,2740.333277166667,unknown,2,2022-06-02T10:46:36.055+02:00,2022-06-02T10:17:13.754+02:00,448,1.423373,0,0,345.1212,0,0,2022-06-02T10:46:30.942+02:00,675852390.9415598,0,7.601562,101.2908,1,0.81
2022-06-02T10:46:40.666+02:00,1654159599.99975,53.22908366967196,10.398548202756,36.84694,0.0360264,0.6703551,16.0103749334074,73.34262548419477,2.400000095367432,7.999579855010837,-9999,2744.927230125,-0.0196533203125,-0.2982635498046875,-0.9251708984375,2744.917236125,-0.160073857420076,0.02332149933640528,0.2707573202678022,0.1961673051118851,0.2469004690647125,0.1846876889467239,-0.06702547520399094,0.04208892583847046,0.05463045835494995,XArbitraryZVertical,0.1354480578805215,0.0007268460425171597,-0.07764586201902855,0.9877369994249342,0.02246982790529728,-0.2674612402915955,-0.9633066058158875,0,0,0,-1,-1,2740.333277166667,unknown,2,2022-06-02T10:46:36.055+02:00,2022-06-02T10:17:13.754+02:00,448,1.423373,0,0,345.1212,0,0,2022-06-02T10:46:30.942+02:00,675852390.9415598,0,7.601562,101.2908,1,0.81
2022-06-02T10:46:40.668+02:00,1654159599.99975,53.22908366967196,10.398548202756,36.84694,0.0360264,0.6703551,16.0103749334074,73.34262548419477,2.400000095367432,7.999579855010837,-9999,2744.937225125,-0.125030517578125,-0.21881103515625,-0.942138671875,2744.927230125,-0.1580126767433097,0.02507286035155158,0.2717352239661544,-0.008379270322620869,0.2301375269889832,0.2209659963846207,0.02570015750825405,-0.06277337670326233,0.04826998710632324,XArbitraryZVertical,0.1359971324545786,0.001692389602947364,-0.07649795852726811,0.9877499491818911,0.02415032126009464,-0.2684033811092377,-0.9630038142204285,0,0,0,-1,-1,2740.333277166667,unknown,2,2022-06-02T10:46:36.055+02:00,2022-06-02T10:17:13.754+02:00,448,1.423373,0,0,345.1212,0,0,2022-06-02T10:46:30.942+02:00,675852390.9415598,0,7.601562,101.2908,1,0.81
2022-06-02T10:46:40.671+02:00,1654159599.99975,53.22908366967196,10.398548202756,36.84694,0.0360264,0.6703551,16.0103749334074,73.34262548419477,2.400000095367432,7.999579855010837,-9999,2744.947219125,-0.125030517578125,-0.178375244140625,-0.9623565673828125,2744.937225125,-0.1555353419963608,0.02685579847104616,0.2713142193119265,-0.06773340702056885,0.2597457766532898,0.2565461099147797,-0.04552359133958817,-0.03026574850082397,0.03790122270584106,XArbitraryZVertical,0.1358541001464497,0.002758057635633355,-0.07515814872388463,0.9878700496545002,0.02587028965353966,-0.2679978013038635,-0.9630721211433411,0,0,0,-1,-1,2740.333277166667,unknown,2,2022-06-02T10:46:36.055+02:00,2022-06-02T10:17:13.754+02:00,448,1.423373,0,0,345.1212,0,0,2022-06-02T10:46:30.942+02:00,675852390.9415598,0,7.601562,101.2908,1,0.81
2022-06-02T10:46:40.679+02:00,1654159599.99975,53.22908366967196,10.398548202756,36.84694,0.0360264,0.6703551,16.0103749334074,73.34262548419477,2.400000095367432,7.999579855010837,-9999,2744.957214125,-0.0980987548828125,-0.2337799072265625,-0.9721221923828125,2744.947219125,-0.1528053678748385,0.02881845282735339,0.2709857309688838,-0.009354553185403347,0.2763310670852661,0.2533905804157257,-0.1527934521436691,0.0488702654838562,0.02096879482269287,XArbitraryZVertical,0.1357603508483584,0.003925755574829377,-0.0736803308948631,0.9879903301323506,0.02776295132935047,-0.2676813304424286,-0.9631074070930481,0,0,0,-1,-1,2740.333277166667,unknown,2,2022-06-02T10:46:36.055+02:00,2022-06-02T10:17:13.754+02:00,448,1.423373,0,0,345.1212,0,0,2022-06-02T10:46:30.942+02:00,675852390.9415598,0,7.601562,101.2908,1,0.81
2022-06-02T10:46:40.689+02:00,1654159599.99975,53.22908366967196,10.398548202756,36.84694,0.0360264,0.6703551,16.0103749334074,73.34262548419477,2.400000095367432,7.999579855010837,-9999,2744.967208125,-0.0496978759765625,-0.232757568359375,-0.9980926513671875,2744.957214125,-0.150448319354814,0.03121959108878167,0.2710853029344488,0.01194674056023359,0.3146068155765533,0.2315542697906494,-0.1551050841808319,0.08940201997756958,0.0006548166275024414,XArbitraryZVertical,0.1358917694795612,0.005268189000318837,-0.07235160031354511,0.9880642058552777,0.030074592679739,-0.2677772641181946,-0.9630113244056702,0,0,0,-1,-1,2740.333277166667,unknown,2,2022-06-02T10:46:36.055+02:00,2022-06-02T10:17:13.754+02:00,448,1.423373,0,0,345.1212,0,0,2022-06-02T10:46:30.942+02:00,675852390.9415598,0,7.601562,101.2908,1,0.81
2022-06-02T10:46:40.699+02:00,1654159599.99975,53.22908366967196,10.398548202756,36.84694,0.0360264,0.6703551,16.0103749334074,73.34262548419477,2.400000095367432,7.999579855010837,-9999,2744.977203125,-0.065399169921875,-0.2147064208984375,-0.9770660400390625,2744.967208125,-0.1478461074680177,0.03374476430254168,0.2712487585162081,0.0004913867451250553,0.3304690718650818,0.2625708281993866,-0.1306035220623016,0.03415480256080627,-0.009233593940734863,XArbitraryZVertical,0.1360551490603298,0.006686458298657518,-0.07089216155798134,0.9881389360907349,0.03250478580594063,-0.2679347395896912,-0.9628885984420776,0,0,0,-1,-1,2740.333277166667,unknown,2,2022-06-02T10:46:36.055+02:00,2022-06-02T10:17:13.754+02:00,448,1.423373,0,0,345.1212,0,0,2022-06-02T10:46:30.942+02:00,675852390.9415598,0,7.601562,101.2908,1,0.81
2022-06-02T10:46:40.709+02:00,1654159599.99975,53.22908366967196,10.398548202756,36.84694,0.0360264,0.6703551,16.0103749334074,73.34262548419477,2.400000095367432,7.999579855010837,-9999,2744.987197125,-0.0690155029296875,-0.224365234375,-0.9298095703125,2744.977203125,-0.145053038446032,0.03640451099235038,0.2713534820199203,0.004612362012267113,0.3512289524078369,0.2717502117156982,-0.08476254343986511,0.03527805209159851,-0.03532195091247559,XArbitraryZVertical,0.1361897361686248,0.008186792893903942,-0.06932968719081489,0.9882198971413803,0.0350646860897541,-0.2680356502532959,-0.9627706408500671,0,0,0,-1,-1,2740.333277166667,unknown,2,2022-06-02T10:46:36.055+02:00,2022-06-02T10:17:13.754+02:00,448,1.423373,0,0,345.1212,0,0,2022-06-02T10:46:30.942+02:00,675852390.9415598,0,7.601562,101.2908,1,0.81
2022-06-02T10:46:40.719+02:00,1654159599.99975,53.22908366967196,10.398548202756,36.84694,0.0360264,0.6703551,16.0103749334074,73.34262548419477,2.400000095367432,7.999579855010837,-9999,2744.997191125,-0.0469818115234375,-0.24163818359375,-0.9116973876953125,2744.987197125,-0.1422299105165818,0.03918400368482391,0.2716634447492615,0.04066707193851471,0.3579766452312469,0.277949720621109,-0.1031364649534225,0.05362784862518311,-0.01447957754135132,XArbitraryZVertical,0.136425437326518,0.00974120761869861,-0.06774087520348498,0.9882834451580078,0.03773730620741844,-0.2683342397212982,-0.9625864028930664,0,0,0,-1,-1,2740.333277166667,unknown,2,2022-06-02T10:46:36.055+02:00,2022-06-02T10:17:13.754+02:00,448,1.423373,0,0,345.1212,0,0,2022-06-02T10:46:30.942+02:00,675852390.9415598,0,7.601562,101.2908,1,0.81
2022-06-02T10:46:40.729+02:00,1654159599.99975,53.22908366967196,10.398548202756,36.84694,0.0360264,0.6703551,16.0103749334074,73.34262548419477,2.400000095367432,7.999579855010837,-9999,2745.007186125,-0.0037384033203125,-0.261627197265625,-0.906036376953125,2744.997191125,-0.1393242915158003,0.0419951112260893,0.2721714172574712,0.02670810930430889,0.3577686548233032,0.2836377024650574,-0.1094528436660767,0.0444582998752594,0.03253066539764404,XArbitraryZVertical,0.1367551270140345,0.01131037700499924,-0.06610555078550975,0.9883319122287131,0.04043735936284065,-0.2688235640525818,-0.962340235710144,0,0,0,-1,-1,2740.333277166667,unknown,2,2022-06-02T10:46:36.055+02:00,2022-06-02T10:17:13.754+02:00,448,1.423373,0,0,345.1212,0,0,2022-06-02T10:46:30.942+02:00,675852390.9415598,0,7.601562,101.2908,1,0.81
2022-06-02T10:46:40.739+02:00,1654159599.99975,53.22908366967196,10.398548202756,36.84694,0.0360264,0.6703551,16.0103749334074,73.34262548419477,2.400000095367432,7.999579855010837,-9999,2745.017180125,0.0207061767578125,-0.27801513671875,-0.914031982421875,2745.007186125,-0.1364495210217862,0.04469332399351172,0.2723700687872943,-0.01077681314200163,0.3350457549095154,0.2702840864658356,-0.09001322090625763,0.0273766815662384,0.05047684907913208,XArbitraryZVertical,0.1369239878885061,0.01283340944580908,-0.06449721603399261,0.9883963038976449,0.04303142055869102,-0.2690148949623108,-0.9621742367744446,0,0,0,-1,-1,2740.333277166667,unknown,2,2022-06-02T10:46:36.055+02:00,2022-06-02T10:17:13.754+02:00,448,1.423373,0,0,345.1212,0,0,2022-06-02T10:46:30.942+02:00,675852390.9415598,0,7.601562,101.2908,1,0.81
2022-06-02T10:46:40.749+02:00,1654159599.99975,53.22908366967196,10.398548202756,36.84694,0.0360264,0.6703551,16.0103749334074,73.34262548419477,2.400000095367432,7.999579855010837,-9999,2745.027175125,0.0322723388671875,-0.263671875,-0.9300384521484375,2745.017180125,-0.1337557015961052,0.04711807260653751,0.2721952266037911,-0.04760034382343292,0.2942770421504974,0.2436394393444061,-0.04910493269562721,0.007219314575195312,0.05607771873474121,XArbitraryZVertical,0.1368966780835172,0.01422228814209662,-0.06300267567856638,0.9884775000120279,0.04536653682589531,-0.2688464820384979,-0.9621140360832214,0,0,0,-1,-1,2740.333277166667,unknown,2,2022-06-02T10:46:36.055+02:00,2022-06-02T10:17:13.754+02:00,448,1.423373,0,0,345.1212,0,0,2022-06-02T10:46:30.942+02:00,675852390.9415598,0,7.601562,101.2908,1,0.81
2022-06-02T10:46:40.759+02:00,1654159599.99975,53.22908366967196,10.398548202756,36.84694,0.0360264,0.6703551,16.0103749334074,73.34262548419477,2.400000095367432,7.999579855010837,-9999,2745.037169125,0.00714111328125,-0.2140960693359375,-0.985565185546875,2745.027175125,-0.131324491406055,0.04919990075551398,0.2717793190712947,-0.0545487254858017,0.2513994574546814,0.2213188111782074,-0.02666869759559631,-0.009569257497787476,0.04809713363647461,XArbitraryZVertical,0.1367380748053797,0.01543188749464348,-0.06166542972776057,0.9885655397011905,0.04737488925457001,-0.2684458792209625,-0.9621291160583496,0,0,0,-1,-1,2740.333277166667,unknown,2,2022-06-02T10:46:36.055+02:00,2022-06-02T10:17:13.754+02:00,448,1.423373,0,0,345.1212,0,0,2022-06-02T10:46:30.942+02:00,675852390.9415598,0,7.601562,101.2908,1,0.81
2022-06-02T10:46:40.769+02:00,1654159599.99975,53.22908366967196,10.398548202756,36.84694,0.0360264,0.6703551,16.0103749334074,73.34262548419477,2.400000095367432,7.999579855010837,-9999,2745.047164125,-0.037994384765625,-0.173614501953125,-1.016342163085938,2745.037169125,-0.1290108099797182,0.05101067475256258,0.2713873350068984,-0.04219379276037216,0.2383731603622437,0.2214008420705795,-0.01685001701116562,0.004396378993988037,0.03210830688476562,XArbitraryZVertical,0.1365811972406072,0.01649834189794189,-0.06040461952124081,0.9886478163195996,0.04912237077951431,-0.268068253993988,-0.9621467590332031,0,0,0,-1,-1,2740.333277166667,unknown,2,2022-06-02T10:46:36.055+02:00,2022-06-02T10:17:13.754+02:00,448,1.423373,0,0,345.1212,0,0,2022-06-02T10:46:30.942+02:00,675852390.9415598,0,7.601562,101.2908,1,0.81
2022-06-02T10:46:40.779+02:00,1654159599.99975,53.22908366967196,10.398548202756,36.84694,0.0360264,0.6703551,16.0103749334074,73.34262548419477,2.400000095367432,7.999579855010837,-9999,2745.057158125,-0.0640716552734375,-0.15673828125,-1.008941650390625,2745.047164125,-0.1266943523349908,0.05279776746215895,0.2712318739869163,-0.01074265874922276,0.244585782289505,0.2256264686584473,-0.04370280727744102,0.05382239818572998,-0.02346611022949219,XArbitraryZVertical,0.1365380666979419,0.01754513176967433,-0.05914014124262471,0.9887122616146848,0.05084393545985222,-0.2679184675216675,-0.9620990753173828,0,0,0,-1,-1,2740.333277166667,unknown,2,2022-06-02T10:46:36.055+02:00,2022-06-02T10:17:13.754+02:00,448,1.423373,0,0,345.1212,0,0,2022-06-02T10:46:30.942+02:00,675852390.9415598,0,7.601562,101.2908,1,0.81
2022-06-02T10:46:40.789+02:00,1654159599.99975,53.22908366967196,10.398548202756,36.84694,0.0360264,0.6703551,16.0103749334074,73.34262548419477,2.400000095367432,7.999579855010837,-9999,2745.067153125,-0.0629425048828125,-0.1743316650390625,-0.9933319091796875,2745.057158125,-0.1242373227737874,0.05464652966676474,0.2713245674143347,-0.002598446793854237,0.2565353810787201,0.2481973022222519,-0.09061555564403534,0.09439325332641602,-0.05436354875564575,XArbitraryZVertical,0.1366157025274392,0.01862384273816797,-0.05779759090400476,0.9887611868243242,0.05262118205428123,-0.2680077850818634,-0.9619786143302917,0,0,0,-1,-1,2740.333277166667,unknown,2,2022-06-02T10:46:36.055+02:00,2022-06-02T10:17:13.754+02:00,448,1.423373,0,0,345.1212,0,0,2022-06-02T10:46:30.942+02:00,675852390.9415598,0,7.601562,101.2908,1,0.81
2022-06-02T10:46:40.799+02:00,1654159599.99975,53.22908366967196,10.398548202756,36.84694,0.0360264,0.6703551,16.0103749334074,73.34262548419477,2.400000095367432,7.999579855010837,-9999,2745.077147125,-0.0523529052734375,-0.199493408203125,-0.9627532958984375,2745.067153125,-0.1216043397438767,0.05653707761497805,0.2713927913037664,-0.01433692779392004,0.2594282329082489,0.2578045129776001,-0.118510365486145,0.1113352179527283,-0.04708248376846313,XArbitraryZVertical,0.1366781267048507,0.01973620977907138,-0.05636547146459911,0.9888136358067884,0.05443872138857841,-0.2680734992027283,-0.9618591666221619,0,0,0,-1,-1,2740.333277166667,unknown,2,2022-06-02T10:46:36.055+02:00,2022-06-02T10:17:13.754+02:00,448,1.423373,0,0,345.1212,0,0,2022-06-02T10:46:30.942+02:00,675852390.9415598,0,7.601562,101.2908,1,0.81
2022-06-02T10:46:40.809+02:00,1654159599.99975,53.22908366967196,10.398548202756,36.84694,0.0360264,0.6703551,16.0103749334074,73.34262548419477,2.400000095367432,7.999579855010837,-9999,2745.087142125,-0.0434112548828125,-0.2186431884765625,-0.9370880126953125,2745.077147125,-0.1189278402554756,0.05844201030118145,0.2713307770278474,-0.03198303282260895,0.260470062494278,0.2590665817260742,-0.1192143559455872,0.09368208050727844,-0.03156161308288574,XArbitraryZVertical,0.1366733093732198,0.0208629225201171,-0.05491310606311052,0.9888728870575429,0.05627186968922615,-0.2680137753486633,-0.9617702960968018,0,0,0,-1,-1,2740.333277166667,unknown,2,2022-06-02T10:46:36.055+02:00,2022-06-02T10:17:13.754+02:00,448,1.423373,0,0,345.1212,0,0,2022-06-02T10:46:30.942+02:00,675852390.9415598,0,7.601562,101.2908,1,0.81
2022-06-02T10:46:40.819+02:00,1654159599.99975,53.22908366967196,10.398548202756,36.84694,0.0360264,0.6703551,16.0103749334074,73.34262548419477,2.400000095367432,7.999579855010837,-9999,2745.097136125,-0.04437255859375,-0.2533721923828125,-0.9246063232421875,2745.087142125,-0.1161711190511101,0.06024981954002284,0.2709308771051608,-0.07713989168405533,0.2516528069972992,0.2680915594100952,-0.1103698164224625,0.06813505291938782,-0.0009793639183044434,XArbitraryZVertical,0.1364951249461341,0.02195750194044025,-0.05343402004268462,0.9889548383494222,0.05801692232489586,-0.2676284611225128,-0.9617738723754883,0,0,0,-1,-1,2740.333277166667,unknown,2,2022-06-02T10:46:36.055+02:00,2022-06-02T10:17:13.754+02:00,448,1.423373,0,0,345.1212,0,0,2022-06-02T10:46:30.942+02:00,675852390.9415598,0,7.601562,101.2908,1,0.81
2022-06-02T10:46:40.829+02:00,1654159599.99975,53.22908366967196,10.398548202756,36.84694,0.0360264,0.6703551,16.0103749334074,73.34262548419477,2.400000095367432,7.999579855010837,-9999,2745.107131125,-0.040008544921875,-0.256927490234375,-0.9407806396484375,2745.097136125,-0.1133028164026448,0.06194764891547098,0.2699765056926755,-0.1504782885313034,0.2408046871423721,0.2731515765190125,-0.1030767932534218,0.04806557297706604,0.02484047412872314,XArbitraryZVertical,0.1360358781695258,0.02302157724775111,-0.05191805272176382,0.9890746030720464,0.05966554954648018,-0.2667087912559509,-0.9619284868240356,0,0,0,-1,-1,2740.333277166667,unknown,2,2022-06-02T10:46:36.055+02:00,2022-06-02T10:17:13.754+02:00,448,1.423373,0,0,345.1212,0,0,2022-06-02T10:46:30.942+02:00,675852390.9415598,0,7.601562,101.2908,1,0.81
2022-06-02T10:46:40.839+02:00,1654159599.99975,53.22908366967196,10.398548202756,36.84694,0.0360264,0.6703551,16.0103749334074,73.34262548419477,2.400000095367432,7.999579855010837,-9999,2745.117125125,-0.04473876953125,-0.22381591796875,-0.9654388427734375,2745.107131125,-0.1103212625255584,0.06349310370977028,0.2682639065274877,-0.2207626104354858,0.2274523377418518,0.2796002328395844,-0.105553537607193,0.01168566942214966,0.03768330812454224,XArbitraryZVertical,0.1351937011457335,0.02403908820008737,-0.05037162102831486,0.989245847309396,0.06118098646402359,-0.2650578320026398,-0.962289571762085,0,0,0,-1,-1,2740.333277166667,unknown,2,2022-06-02T10:46:36.055+02:00,2022-06-02T10:17:13.754+02:00,448,1.423373,0,0,345.1212,0,0,2022-06-02T10:46:30.942+02:00,675852390.9415598,0,7.601562,101.2908,1,0.81
2022-06-02T10:46:40.849+02:00,1654159599.99975,53.22908366967196,10.398548202756,36.84694,0.0360264,0.6703551,16.0103749334074,73.34262548419477,2.400000095367432,7.999579855010837,-9999,2745.127119125,-0.0441131591796875,-0.185272216796875,-0.992401123046875,2745.117125125,-0.1071996392330483,0.06494976812074607,0.2661223843439787,-0.2345396727323532,0.2310382872819901,0.2907809913158417,-0.1026278883218765,0.006064802408218384,0.02198302745819092,XArbitraryZVertical,0.1341326588961242,0.02503206901164534,-0.04877112810132238,0.9894458006692947,0.06261935085058212,-0.2629923224449158,-0.9627636671066284,0,0,0,-1,-1,2740.333277166667,unknown,2,2022-06-02T10:46:36.055+02:00,2022-06-02T10:17:13.754+02:00,448,1.423373,0,0,345.1212,0,0,2022-06-02T10:46:30.942+02:00,675852390.9415598,0,7.601562,101.2908,1,0.81
2022-06-02T10:46:40.859+02:00,1654159599.99975,53.22908366967196,10.398548202756,36.84694,0.0360264,0.6703551,16.0103749334074,73.34262548419477,2.400000095367432,7.999579855010837,-9999,2745.137114125,-0.04046630859375,-0.1631317138671875,-1.011367797851562,2745.127119125,-0.1040199789630263,0.06646370188203164,0.2643783453811261,-0.1470963507890701,0.2399053424596786,0.293959379196167,-0.1088459640741348,0.03749331831932068,-0.002314865589141846,XArbitraryZVertical,0.1332658521382559,0.02604304922498313,-0.04713116693773156,0.98961638611252,0.06410720944404602,-0.2613092660903931,-0.9631239175796509,0,0,0,-1,-1,2740.333277166667,unknown,2,2022-06-02T10:46:36.055+02:00,2022-06-02T10:17:13.754+02:00,448,1.423373,0,0,345.1212,0,0,2022-06-02T10:46:30.942+02:00,675852390.9415598,0,7.601562,101.2908,1,0.81
2022-06-02T10:46:40.869+02:00,1654159599.99975,53.22908366967196,10.398548202756,36.84694,0.0360264,0.6703551,16.0103749334074,73.34262548419477,2.400000095367432,7.999579855010837,-9999,2745.147108125,-0.041412353515625,-0.195556640625,-1.035491943359375,2745.137114125,-0.1008993900473529,0.0680865224063591,0.2637004177873986,-0.03367523849010468,0.2507444024085999,0.3008178472518921,-0.1097952947020531,0.07538264989852905,-0.02920591831207275,XArbitraryZVertical,0.1329266794946567,0.02707243729292931,-0.04549257148251731,0.9897110981092385,0.06568213552236557,-0.2606548368930817,-0.9631951451301575,0,0,0,-1,-1,2740.333277166667,unknown,2,2022-06-02T10:46:36.055+02:00,2022-06-02T10:17:13.754+02:00,448,1.423373,0,0,345.1212,0,0,2022-06-02T10:46:30.942+02:00,675852390.9415598,0,7.601562,101.2908,1,0.81
2022-06-02T10:46:40.890+02:00,1654159599.99975,53.22908366967196,10.398548202756,36.84694,0.0360264,0.6703551,16.0103749334074,73.34262548419477,2.400000095367432,7.999579855010837,-9999,2745.157103125,-0.0301971435546875,-0.230560302734375,-1.019775390625,2745.147108125,-0.09773302489293453,0.06988865384543394,0.2639002846911449,0.02183802053332329,0.2762767970561981,0.3113779425621033,-0.1078804954886436,0.09771603345870972,-0.04834455251693726,XArbitraryZVertical,0.1330220453222638,0.0281694033247568,-0.04380176928370932,0.989743924645533,0.06741419434547424,-0.2608477771282196,-0.9630232453346252,0,0,0,-1,-1,2740.333277166667,unknown,2,2022-06-02T10:46:36.055+02:00,2022-06-02T10:17:13.754+02:00,448,1.423373,0,0,345.1212,0,0,2022-06-02T10:46:30.942+02:00,675852390.9415598,0,7.601562,101.2908,1,0.81
2022-06-02T10:46:40.891+02:00,1654159599.99975,53.22908366967196,10.398548202756,36.84694,0.0360264,0.6703551,16.0103749334074,73.34262548419477,2.400000095367432,7.999579855010837,-9999,2745.167097125,0.0066680908203125,-0.2365875244140625,-1.017990112304688,2745.157103125,-0.0944449780704594,0.07193681250192435,0.2643303050201111,0.01367303542792797,0.3053260147571564,0.3338033556938171,-0.1107907444238663,0.06570625305175781,-0.07272076606750488,XArbitraryZVertical,0.1332313974303166,0.02939061946751514,-0.04202935933448176,0.9897570496253042,0.06937840580940247,-0.2612628936767578,-0.9627711772918701,0,0,0,-1,-1,2740.333277166667,unknown,2,2022-06-02T10:46:36.055+02:00,2022-06-02T10:17:13.754+02:00,448,1.423373,0,0,345.1212,0,0,2022-06-02T10:46:30.942+02:00,675852390.9415598,0,7.601562,101.2908,1,0.81
2022-06-02T10:46:40.899+02:00,1654159599.99975,53.22908366967196,10.398548202756,36.84694,0.0360264,0.6703551,16.0103749334074,73.34262548419477,2.400000095367432,7.999579855010837,-9999,2745.177092125,0.0424957275390625,-0.2538299560546875,-1.00897216796875,2745.167097125,-0.09090657951932929,0.07411725503545774,0.264702478684834,0.01172473281621933,0.3159034252166748,0.3506277203559875,-0.1016674339771271,0.0310617983341217,-0.05725479125976562,XArbitraryZVertical,0.1334071233489121,0.03069611755032865,-0.04012505567909225,0.9897728142022356,0.07147030532360077,-0.2616221308708191,-0.9625205993652344,0,0,0,-1,-1,2740.333277166667,unknown,2,2022-06-02T10:46:36.055+02:00,2022-06-02T10:17:13.754+02:00,448,1.423373,0,0,345.1212,0,0,2022-06-02T10:46:30.942+02:00,675852390.9415598,0,7.601562,101.2908,1,0.81
2022-06-02T10:46:40.909+02:00,1654159599.99975,53.22908366967196,10.398548202756,36.84694,0.0360264,0.6703551,16.0103749334074,73.34262548419477,2.400000095367432,7.999579855010837,-9999,2745.187086125,0.0605926513671875,-0.29193115234375,-0.9880523681640625,2745.177092125,-0.08737646934862919,0.07634463100642942,0.2648530438562697,-0.03692802414298058,0.3153721392154694,0.3294691741466522,-0.06694291532039642,0.02517989277839661,-0.05567038059234619,XArbitraryZVertical,0.1334698837128883,0.03203026202483809,-0.03822617621073985,0.989797175887603,0.07361101359128952,-0.2617674469947815,-0.9623197317123413,0,0,0,-1,-1,2740.333277166667,unknown,2,2022-06-02T10:46:36.055+02:00,2022-06-02T10:17:13.754+02:00,448,1.423373,0,0,345.1212,0,0,2022-06-02T10:46:30.942+02:00,675852390.9415598,0,7.601562,101.2908,1,0.81
2022-06-02T10:46:40.919+02:00,1654159599.99975,53.22908366967196,10.398548202756,36.84694,0.0360264,0.6703551,16.0103749334074,73.34262548419477,2.400000095367432,7.999579855010837,-9999,2745.197081125,0.0453643798828125,-0.2672271728515625,-0.98052978515625,2745.187086125,-0.08405003907098053,0.07855913155275702,0.2644845648784065,-0.08537635207176208,0.3000228106975555,0.3082495927810669,-0.03325372189283371,0.007581859827041626,-0.0467216968536377,XArbitraryZVertical,0.1332745597827355,0.03335682950513984,-0.036440316153834,0.9898470423240689,0.07574944943189621,-0.2614117860794067,-0.9622504115104675,0,0,0,-1,-1,2740.333277166667,unknown,2,2022-06-02T10:46:36.055+02:00,2022-06-02T10:17:13.754+02:00,448,1.423373,0,0,345.1212,0,0,2022-06-02T10:46:30.942+02:00,675852390.9415598,0,7.601562,101.2908,1,0.81
2022-06-02T10:46:40.929+02:00,1654159599.99975,53.22908366967196,10.398548202756,36.84694,0.0360264,0.6703551,16.0103749334074,73.34262548419477,2.400000095367432,7.999579855010837,-9999,2745.207075125,0.025390625,-0.210235595703125,-0.9859466552734375,2745.197081125,-0.08078085312215637,0.08060317212493791,0.2637330482893052,-0.106726385653019,0.2830904424190521,0.3092844784259796,-0.01713930815458298,-0.03124484419822693,-0.02576321363449097,XArbitraryZVertical,0.1328835811059315,0.03460334155337284,-0.03470309193595367,0.9899192073789544,0.07773196697235107,-0.2606863379478455,-0.9622891545295715,0,0,0,-1,-1,2740.333277166667,unknown,2,2022-06-02T10:46:36.055+02:00,2022-06-02T10:17:13.754+02:00,448,1.423373,0,0,345.1212,0,0,2022-06-02T10:46:30.942+02:00,675852390.9415598,0,7.601562,101.2908,1,0.81
2022-06-02T10:46:40.939+02:00,1654159599.99975,53.22908366967196,10.398548202756,36.84694,0.0360264,0.6703551,16.0103749334074,73.34262548419477,2.400000095367432,7.999579855010837,-9999,2745.217070125,0.0204925537109375,-0.185699462890625,-0.98919677734375,2745.207075125,-0.07749023982337536,0.08253556590524615,0.2632109681283055,-0.04347377270460129,0.2760562300682068,0.3198505640029907,-0.03423816710710526,-0.00704491138458252,-0.01825714111328125,XArbitraryZVertical,0.1326000312189514,0.03578984821405721,-0.03295796434455787,0.9899748414788118,0.07960255444049835,-0.26018226146698,-0.9622726440429688,0,0,0,-1,-1,2740.333277166667,unknown,2,2022-06-02T10:46:36.055+02:00,2022-06-02T10:17:13.754+02:00,448,1.423373,0,0,345.1212,0,0,2022-06-02T10:46:30.942+02:00,675852390.9415598,0,7.601562,101.2908,1,0.81
2022-06-02T10:46:40.949+02:00,1654159599.99975,53.22908366967196,10.398548202756,36.84694,0.0360264,0.6703551,16.0103749334074,73.34262548419477,2.400000095367432,7.999579855010837,-9999,2745.227064125,0.0177154541015625,-0.2028961181640625,-1.007919311523438,2745.217070125,-0.07413562400616953,0.08435070851011942,0.2634151028730123,0.02939696982502937,0.2610959112644196,0.3303593993186951,-0.0559539720416069,0.05014374852180481,-0.02387303113937378,XArbitraryZVertical,0.132669179919239,0.03690640681645925,-0.03117236648282339,0.9899823295463956,0.0813446044921875,-0.2603793740272522,-0.9620736241340637,0,0,0,-1,-1,2740.333277166667,unknown,2,2022-06-02T10:46:36.055+02:00,2022-06-02T10:17:13.754+02:00,448,1.423373,0,0,345.1212,0,0,2022-06-02T10:46:30.942+02:00,675852390.9415598,0,7.601562,101.2908,1,0.81
2022-06-02T10:46:40.959+02:00,1654159599.99975,53.22908366967196,10.398548202756,36.84694,0.0360264,0.6703551,16.0103749334074,73.34262548419477,2.400000095367432,7.999579855010837,-9999,2745.237059125,0.0084075927734375,-0.229095458984375,-1.00250244140625,2745.227064125,-0.07079174980485517,0.0860541486567183,0.2642074212727428,0.06670965254306793,0.2552032768726349,0.3258652091026306,-0.06247300654649734,0.0754447877407074,-0.0274689793586731,XArbitraryZVertical,0.1330244129968024,0.0379552630367033,-0.02938545677570161,0.9899496405574901,0.08296556770801544,-0.2611442804336548,-0.9617277979850769,0,0,0,-1,-1,2740.333277166667,unknown,2,2022-06-02T10:46:36.055+02:00,2022-06-02T10:17:13.754+02:00,448,1.423373,0,0,345.1212,0,0,2022-06-02T10:46:30.942+02:00,675852390.9415598,0,7.601562,101.2908,1,0.81
2022-06-02T10:46:40.969+02:00,1654159599.99975,53.22908366967196,10.398548202756,36.84694,0.0360264,0.6703551,16.0103749334074,73.34262548419477,2.400000095367432,7.999579855010837,-9999,2745.247053125,0.00390625,-0.2531585693359375,-1.002487182617188,2745.237059125,-0.06089311674973816,0.06157144352798816,0.2438765324737362,0.04205917194485664,0.2529742121696472,0.3293677568435669,-0.04199628904461861,0.03857013583183289,-0.03934890031814575,XArbitraryZVertical,0.1224523998515861,0.02683706395952605,-0.0264591643506832,0.9917585405791588,0.0597117505967617,-0.2414662539958954,-0.968570351600647,0,0,0,-1,-1,2740.333277166667,unknown,2,2022-06-02T10:46:36.055+02:00,2022-06-02T10:17:13.754+02:00,448,1.423373,0,0,345.1212,0,0,2022-06-02T10:46:30.942+02:00,675852390.9415598,0,7.601562,101.2908,1,0.81
2022-06-02T10:46:40.979+02:00,1654159599.99975,53.22908366967196,10.398548202756,36.84694,0.0360264,0.6703551,16.0103749334074,73.34262548419477,2.400000095367432,7.999579855010837,-9999,2745.257048125,0.0045013427734375,-0.2672576904296875,-0.9906768798828125,2745.247053125,-0.05504061018748756,0.0531636901794619,0.2433055117973114,0.005125153809785843,0.2554177045822144,0.3327967822551727,-0.04316595196723938,0.01181662082672119,-0.03332674503326416,XArbitraryZVertical,0.1219900618071525,0.02303422462605391,-0.02407963355201445,0.9919718003638348,0.05157355591654778,-0.2409120947122574,-0.9691756963729858,0,0,0,-1,-1,2740.333277166667,unknown,2,2022-06-02T10:46:36.055+02:00,2022-06-02T10:17:13.754+02:00,448,1.423373,0,0,345.1212,0,0,2022-06-02T10:46:30.942+02:00,675852390.9415598,0,7.601562,101.2908,1,0.81
2022-06-02T10:46:40.989+02:00,1654159599.99975,53.22908366967196,10.398548202756,36.84694,0.0360264,0.6703551,16.0103749334074,73.34262548419477,2.400000095367432,7.999579855010837,-9999,2745.267042125,0.0264129638671875,-0.2523193359375,-0.9668426513671875,2745.257048125,-0.05037147980930168,0.04937884078872311,0.2430535659546428,-0.02705302461981773,0.2533473670482635,0.3169254064559937,-0.0440017394721508,-0.01249103248119354,-0.0330626368522644,XArbitraryZVertical,0.1217696048342501,0.02144510795764286,-0.02199793474570173,0.9920827725759533,0.047908004373312,-0.2406675517559052,-0.9694245457649231,0,0,0,-1,-1,2740.333277166667,unknown,2,2022-06-02T10:46:36.055+02:00,2022-06-02T10:17:13.754+02:00,448,1.423373,0,0,345.1212,0,0,2022-06-02T10:46:30.942+02:00,675852390.9415598,0,7.601562,101.2908,1,0.81
2022-06-02T10:46:40.999+02:00,1654159599.99975,53.22908366967196,10.398548202756,36.84694,0.0360264,0.6703551,16.0103749334074,73.34262548419477,2.400000095367432,7.999579855010837,-9999,2745.277037125,0.04669189453125,-0.2518463134765625,-0.9436798095703125,2745.267042125,-0.04623626336056057,0.04749838897527891,0.2427313379494421,-0.03556068986654282,0.2332917749881744,0.3181053400039673,-0.04158728942275047,-0.02690291404724121,-0.02108651399612427,XArbitraryZVertical,0.1215463598452731,0.02076815981576898,-0.02006533753118002,0.9921655791512634,0.04608864337205887,-0.2403547912836075,-0.9695903062820435,0,0,0,-1,-1,2740.333277166667,unknown,2,2022-06-02T10:46:36.055+02:00,2022-06-02T10:17:13.754+02:00,448,1.423373,0,0,345.1212,0,0,2022-06-02T10:46:30.942+02:00,675852390.9415598,0,7.601562,101.2908,1,0.81
2022-06-02T10:46:41.009+02:00,1654159599.99975,53.22908366967196,10.398548202756,36.84694,0.0360264,0.6703551,16.0103749334074,73.34262548419477,2.400000095367432,7.999579855010837,-9999,2745.287031125,0.05804443359375,-0.259857177734375,-0.9286956787109375,2745.277037125,-0.04246304407924404,0.04642773208556894,0.2425384748008857,-0.0263296402990818,0.1947278678417206,0.2930519282817841,-0.0186396948993206,-0.01215177774429321,0.00284278392791748,XArbitraryZVertical,0.1214015338683503,0.02046857874429949,-0.01826098619870747,0.9922243981709077,0.045052669942379,-0.240167573094368,-0.969685435295105,0,0,0,-1,-1,2740.333277166667,unknown,2,2022-06-02T10:46:36.055+02:00,2022-06-02T10:17:13.754+02:00,448,1.423373,0,0,345.1212,0,0,2022-06-02T10:46:30.942+02:00,675852390.9415598,0,7.601562,101.2908,1,0.81
2022-06-02T10:46:41.019+02:00,1654159599.99975,53.22908366967196,10.398548202756,36.84694,0.0360264,0.6703551,16.0103749334074,73.34262548419477,2.400000095367432,7.999579855010837,-9999,2745.297025125,0.058929443359375,-0.2523193359375,-0.94537353515625,2745.287031125,-0.0391971589118548,0.04569824784375506,0.2424052181648007,-0.02111141011118889,0.1536601334810257,0.2575534880161285,0.00234515592455864,-0.0118081122636795,0.02607017755508423,XArbitraryZVertical,0.121295766833486,0.02030635546643748,-0.01668665289196265,0.9922683736079977,0.04434674978256226,-0.2400382161140442,-0.9697499871253967,0,0,0,-1,-1,2740.333277166667,unknown,2,2022-06-02T10:46:36.055+02:00,2022-06-02T10:17:13.754+02:00,448,1.423373,0,0,345.1212,0,0,2022-06-02T10:46:30.942+02:00,675852390.9415598,0,7.601562,101.2908,1,0.81
2022-06-02T10:46:41.029+02:00,1654159599.99975,53.22908366967196,10.398548202756,36.84694,0.0360264,0.6703551,16.0103749334074,73.34262548419477,2.400000095367432,7.999579855010837,-9999,2745.307020125,0.04931640625,-0.1993408203125,-0.9514617919921875,2745.297025125,-0.03634645264140299,0.04509506936935584,0.2425239190297578,0.03127270191907883,0.1141412183642387,0.238440528512001,0.0142839215695858,-0.01970376074314117,0.04105240106582642,XArbitraryZVertical,0.1213209740442992,0.02017872648253254,-0.01530741701487088,0.9922901434804634,0.0437605232000351,-0.2401534467935562,-0.9697480797767639,0,0,0,-1,-1,2740.333277166667,unknown,2,2022-06-02T10:46:36.055+02:00,2022-06-02T10:17:13.754+02:00,448,1.423373,0,0,345.1212,0,0,2022-06-02T10:46:30.942+02:00,675852390.9415598,0,7.601562,101.2908,1,0.81
2022-06-02T10:46:41.039+02:00,1654159599.99975,53.22908366967196,10.398548202756,36.84694,0.0360264,0.6703551,16.0103749334074,73.34262548419477,2.400000095367432,7.999579855010837,-9999,2745.317014125,0.038787841796875,-0.1928863525390625,-0.96844482421875,2745.307020125,-0.03378131970246261,0.04452594452098468,0.243479067234403,0.1309119015932083,0.08223088830709457,0.2181736677885056,0.0157310739159584,-0.01123881340026855,0.0241696834564209,XArbitraryZVertical,0.1217648525842605,0.0200426457640716,-0.01405771406985956,0.9922569345995785,0.04319838061928749,-0.2410805374383926,-0.9695432186126709,0,0,0,-1,-1,2740.333277166667,unknown,2,2022-06-02T10:46:36.055+02:00,2022-06-02T10:17:13.754+02:00,448,1.423373,0,0,345.1212,0,0,2022-06-02T10:46:30.942+02:00,675852390.9415598,0,7.601562,101.2908,1,0.81
2022-06-02T10:46:41.049+02:00,1654159599.99975,53.22908366967196,10.398548202756,36.84694,0.0360264,0.6703551,16.0103749334074,73.34262548419477,2.400000095367432,7.999579855010837,-9999,2745.327009125,0.0294342041015625,-0.2470550537109375,-0.9848785400390625,2745.317014125,-0.03151175950099917,0.04399751893161895,0.2452600975060037,0.1853594332933426,0.06949805468320847,0.2032511830329895,0.006649322807788849,0.04346781969070435,0.01767367124557495,XArbitraryZVertical,0.1226221239904042,0.01990232789676947,-0.01294272717265318,0.9921693564003911,0.04266709089279175,-0.2428086400032043,-0.9691354036331177,0,0,0,-1,-1,2740.333277166667,unknown,2,2022-06-02T10:46:36.055+02:00,2022-06-02T10:17:13.754+02:00,448,1.423373,0,0,345.1212,0,0,2022-06-02T10:46:30.942+02:00,675852390.9415598,0,7.601562,101.2908,1,0.81
2022-06-02T10:46:41.059+02:00,1654159599.99975,53.22908366967196,10.398548202756,36.84694,0.0360264,0.6703551,16.0103749334074,73.34262548419477,2.400000095367432,7.999579855010837,-9999,2745.337003125,0.04254150390625,-0.289215087890625,-0.9898681640625,2745.327009125,-0.02942233545372595,0.04365731970255497,0.2470389558652424,0.1337371915578842,0.08087440580129623,0.1882183104753494,-0.00353061780333519,0.05164751410484314,0.0002720355987548828,XArbitraryZVertical,0.1234815917310077,0.0198462857729879,-0.01190617231740696,0.9920769143573935,0.04231847077608109,-0.2445338815450668,-0.9687168598175049,0,0,0,-1,-1,2740.333277166667,unknown,2,2022-06-02T10:46:36.055+02:00,2022-06-02T10:17:13.754+02:00,448,1.423373,0,0,345.1212,0,0,2022-06-02T10:46:30.942+02:00,675852390.9415598,0,7.601562,101.2908,1,0.81
2022-06-02T10:46:41.069+02:00,1654159599.99975,53.22908366967196,10.398548202756,36.84694,0.0360264,0.6703551,16.0103749334074,73.34262548419477,2.400000095367432,7.999579855010837,-9999,2745.346998125,0.053131103515625,-0.3104705810546875,-0.991973876953125,2745.337003125,-0.02745591072898086,0.04359217964131115,0.247742690721039,-0.0074388412758708,0.0988699197769165,0.172934427857399,-0.01281364262104034,-0.00183887779712677,-0.01633107662200928,XArbitraryZVertical,0.123810715569236,0.01992963447652963,-0.0109265604066103,0.9920454759350739,0.04224785789847374,-0.2452161908149719,-0.9685474038124084,0,0,0,-1,-1,2740.333277166667,unknown,2,2022-06-02T10:46:36.055+02:00,2022-06-02T10:17:13.754+02:00,448,1.423373,0,0,345.1212,0,0,2022-06-02T10:46:30.942+02:00,675852390.9415598,0,7.601562,101.2908,1,0.81
2022-06-02T10:46:41.079+02:00,1654159599.99975,53.22908366967196,10.398548202756,36.84694,0.0360264,0.6703551,16.0103749334074,73.34262548419477,2.400000095367432,7.999579855010837,-9999,2745.356992125,0.050445556640625,-0.30072021484375,-0.97979736328125,2745.346998125,-0.02568385263547833,0.04382611408374708,0.247056878036013,-0.1357599347829819,0.115978866815567,0.1404369473457336,5.972385406494141e-05,-0.04466384649276733,-0.02116286754608154,XArbitraryZVertical,0.1234540172289889,0.02016065985644072,-0.01004109387724489,0.9920946280032498,0.04248179122805595,-0.2445512712001801,-0.9687052965164185,0,0,0,-1,-1,2740.333277166667,unknown,2,2022-06-02T10:46:36.055+02:00,2022-06-02T10:17:13.754+02:00,448,1.423373,0,0,345.1212,0,0,2022-06-02T10:46:30.942+02:00,675852390.9415598,0,7.601562,101.2908,1,0.81
2022-06-02T10:46:41.088+02:00,1654159599.99975,53.22908366967196,10.398548202756,36.84694,0.0360264,0.6703551,16.0103749334074,73.34262548419477,2.400000095367432,7.999579855010837,-9999,2745.366987125,0.0455780029296875,-0.2637176513671875,-0.952972412109375,2745.356992125,-0.02420648935374635,0.04436991022347821,0.2452040187396865,-0.2422802597284317,0.1338880956172943,0.1166383996605873,0.0101025253534317,-0.06771636009216309,-0.02284079790115356,XArbitraryZVertical,0.122522521358131,0.02053524535195232,-0.009296456195313718,0.9922096495247196,0.04302858933806419,-0.2427542507648468,-0.9691330790519714,0,0,0,-1,-1,2740.333277166667,unknown,2,2022-06-02T10:46:36.055+02:00,2022-06-02T10:17:13.754+02:00,448,1.423373,0,0,345.1212,0,0,2022-06-02T10:46:30.942+02:00,675852390.9415598,0,7.601562,101.2908,1,0.81
2022-06-02T10:46:41.098+02:00,1654159599.99975,53.22908366967196,10.398548202756,36.84694,0.0360264,0.6703551,16.0103749334074,73.34262548419477,2.400000095367432,7.999579855010837,-9999,2745.376981125,0.0444183349609375,-0.2181549072265625,-0.92767333984375,2745.366987125,-0.02279358865083236,0.04504497464791389,0.2426791869090148,-0.268343985080719,0.1345918923616409,0.1221650615334511,0.00673530250787735,-0.06041607260704041,-0.01008433103561401,XArbitraryZVertical,0.121258271072187,0.02097443431502317,-0.008584123214645616,0.9923622459318024,0.04371026530861855,-0.240304172039032,-0.969713032245636,0,0,0,-1,-1,2740.333277166667,unknown,2,2022-06-02T10:46:36.055+02:00,2022-06-02T10:17:13.754+02:00,448,1.423373,0,0,345.1212,0,0,2022-06-02T10:46:30.942+02:00,675852390.9415598,0,7.601562,101.2908,1,0.81
2022-06-02T10:46:41.108+02:00,1654159599.99975,53.22908366967196,10.398548202756,36.84694,0.0360264,0.6703551,16.0103749334074,73.34262548419477,2.400000095367432,7.999579855010837,-9999,2745.386976125,0.064788818359375,-0.1895599365234375,-0.8996429443359375,2745.376981125,-0.02129781578426904,0.0458247158675695,0.240625521086675,-0.1587990969419479,0.1432141363620758,0.1316033005714417,0.001089125871658325,-0.02540749311447144,0.01719719171524048,XArbitraryZVertical,0.1202266059467077,0.02146569648562211,-0.007819346970240988,0.9924835931602015,0.04448889195919037,-0.2383101731538773,-0.9701696038246155,0,0,0,-1,-1,2740.333277166667,unknown,2,2022-06-02T10:46:36.055+02:00,2022-06-02T10:17:13.754+02:00,448,1.423373,0,0,345.1212,0,0,2022-06-02T10:46:30.942+02:00,675852390.9415598,0,7.601562,101.2908,1,0.81
2022-06-02T10:46:41.118+02:00,1654159599.99975,53.22908366967196,10.398548202756,36.84694,0.0360264,0.6703551,16.0103749334074,73.34262548419477,2.400000095367432,7.999579855010837,-9999,2745.396970125,0.0811004638671875,-0.2274932861328125,-0.879058837890625,2745.386976125,-0.01997254016601958,0.04657477246882129,0.239841672888567,-0.02649529092013836,0.1154303923249245,0.105464443564415,-0.0008068978786468506,0.01939390599727631,0.04264891147613525,XArbitraryZVertical,0.1198260810455633,0.02192254827835959,-0.007126133506766618,0.9925271620705259,0.04522524401545525,-0.237548828125,-0.9703222513198853,0,0,0,-1,-1,2740.333277166667,unknown,2,2022-06-02T10:46:36.055+02:00,2022-06-02T10:17:13.754+02:00,448,1.423373,0,0,345.1212,0,0,2022-06-02T10:46:30.942+02:00,675852390.9415598,0,7.601562,101.2908,1,0.81
2022-06-02T10:46:41.128+02:00,1654159599.99975,53.22908366967196,10.398548202756,36.84694,0.0360264,0.6703551,16.0103749334074,73.34262548419477,2.400000095367432,7.999579855010837,-9999,2745.406965125,0.0866241455078125,-0.30352783203125,-0.8448638916015625,2745.396970125,-0.01903452910408522,0.04712549879380723,0.2400073637334475,0.02327466383576393,0.07663266360759735,0.06722704321146011,0.01903106644749641,0.04814982414245605,0.07061493396759033,XArbitraryZVertical,0.1198998281223212,0.02225103288777388,-0.006625606649414725,0.9925144848194783,0.04575776308774948,-0.2377097755670547,-0.9702578186988831,0,0,0,-1,-1,2740.333277166667,unknown,2,2022-06-02T10:46:36.055+02:00,2022-06-02T10:17:13.754+02:00,448,1.423373,0,0,345.1212,0,0,2022-06-02T10:46:30.942+02:00,675852390.9415598,0,7.601562,101.2908,1,0.81
2022-06-02T10:46:41.138+02:00,1654159599.99975,53.22908366967196,10.398548202756,36.84694,0.0360264,0.6703551,16.0103749334074,73.34262548419477,2.400000095367432,7.999579855010837,-9999,2745.416959125,0.082061767578125,-0.366302490234375,-0.8043060302734375,2745.406965125,-0.01855957144878469,0.0473801564589535,0.2398580464902378,-0.0813731849193573,0.03015011362731457,0.01582856476306915,0.03509394451975822,0.01007145643234253,0.09122282266616821,XArbitraryZVertical,0.1198212541221963,0.02240678042651555,-0.0063764777892894,0.9925221264619145,0.04600652679800987,-0.237564742565155,-0.9702816009521484,0,0,0,-1,-1,2740.333277166667,unknown,2,2022-06-02T10:46:36.055+02:00,2022-06-02T10:17:13.754+02:00,448,1.423373,0,0,345.1212,0,0,2022-06-02T10:46:30.942+02:00,675852390.9415598,0,7.601562,101.2908,1,0.81
2022-06-02T10:46:41.148+02:00,1654159599.99975,53.22908366967196,10.398548202756,36.84694,0.0360264,0.6703551,16.0103749334074,73.34262548419477,2.400000095367432,7.999579855010837,-9999,2745.426954125,0.080596923828125,-0.38604736328125,-0.7554473876953125,2745.416959125,-0.01866184044994626,0.04737623406359658,0.2380957264222937,-0.2850714325904846,-0.01399817317724228,-0.06247636303305626,0.04060168191790581,-0.06767533719539642,0.125834584236145,XArbitraryZVertical,0.1189478204814176,0.02240935630829488,-0.006449166086558846,0.9926266226856771,0.04602247476577759,-0.2358525097370148,-0.9706984758377075,0,0,0,-1,-1,2740.333277166667,unknown,2,2022-06-02T10:46:36.055+02:00,2022-06-02T10:17:13.754+02:00,448,1.423373,0,0,345.1212,0,0,2022-06-02T10:46:30.942+02:00,675852390.9415598,0,7.601562,101.2908,1,0.81
2022-06-02T10:46:41.158+02:00,1654159599.99975,53.22908366967196,10.398548202756,36.84694,0.0360264,0.6703551,16.0103749334074,73.34262548419477,2.400000095367432,7.999579855010837,-9999,2745.436948125,0.0735626220703125,-0.3658599853515625,-0.70709228515625,2745.426954125,-0.0191884530879383,0.04554974927788313,0.252777475200326,-0.5350027680397034,-0.07742561399936676,-0.1498357653617859,0.03797477856278419,-0.1162083745002747,0.1629112362861633,XArbitraryZVertical,0.1262307677236897,0.02138117544867678,-0.006644634674246513,0.9917481943966182,0.0440870001912117,-0.2500941455364227,-0.9672172665596008,0,0,0,-1,-1,2740.333277166667,unknown,2,2022-06-02T10:46:36.055+02:00,2022-06-02T10:17:13.754+02:00,448,1.423373,0,0,345.1212,0,0,2022-06-02T10:46:30.942+02:00,675852390.9415598,0,7.601562,101.2908,1,0.81
2022-06-02T10:46:41.168+02:00,1654159599.99975,53.22908366967196,10.398548202756,36.84694,0.0360264,0.6703551,16.0103749334074,73.34262548419477,2.400000095367432,7.999579855010837,-9999,2745.446942125,0.0345306396484375,-0.3876495361328125,-0.697479248046875,2745.436948125,-0.02128626598210267,0.04637191117796755,0.2558512315761762,-0.7971653938293457,-0.1575614660978317,-0.2542567253112793,0.03575058653950691,-0.1329783797264099,0.210960865020752,XArbitraryZVertical,0.1277801938340372,0.02163570380436746,-0.007595566074113384,0.9915374438394107,0.04484634846448898,-0.2530690133571625,-0.9664082527160645,0,0,0,-1,-1,2740.333277166667,unknown,2,2022-06-02T10:46:36.055+02:00,2022-06-02T10:17:13.754+02:00,448,1.423373,0,0,345.1212,0,0,2022-06-02T10:46:30.942+02:00,675852390.9415598,0,7.601562,101.2908,1,0.81
2022-06-02T10:46:41.178+02:00,1654159599.99975,53.22908366967196,10.398548202756,36.84694,0.0360264,0.6703551,16.0103749334074,73.34262548419477,2.400000095367432,7.999579855010837,-9999,2745.456937125,0.0146484375,-0.4343109130859375,-0.7309722900390625,2745.446942125,-0.02418091231392087,0.04510305224348826,0.2455460701981428,-1.153237462043762,-0.2424497157335281,-0.3984399735927582,0.0298272930085659,-0.1227739453315735,0.261925995349884,XArbitraryZVertical,0.1226953251201078,0.02089800154414916,-0.009234773058149619,0.9921813567231698,0.04373534023761749,-0.2430860549211502,-0.969018280506134,0,0,0,-1,-1,2740.333277166667,unknown,2,2022-06-02T10:46:36.055+02:00,2022-06-02T10:17:13.754+02:00,448,1.423373,0,0,345.1212,0,0,2022-06-02T10:46:30.942+02:00,675852390.9415598,0,7.601562,101.2908,1,0.81
2022-06-02T10:46:41.189+02:00,1654159599.99975,53.22908366967196,10.398548202756,36.84694,0.0360264,0.6703551,16.0103749334074,73.34262548419477,2.400000095367432,7.999579855010837,-9999,2745.466931125,-0.0590667724609375,-0.4583587646484375,-0.7503509521484375,2745.456937125,-0.0284571650908642,0.0431293772494092,0.2310007889859468,-1.657294869422913,-0.3519486486911774,-0.565065324306488,-0.007440101355314255,-0.158697709441185,0.2750532627105713,XArbitraryZVertical,0.115510060563946,0.01977786090046927,-0.01164526612047475,0.9930411238417512,0.04197074845433235,-0.2289518415927887,-0.9725325107574463,0,0,0,-1,-1,2745.454331125,unknown,2,2022-06-02T10:46:41.176+02:00,2022-06-02T10:17:13.754+02:00,448,1.423373,0,0,345.1212,0,0,2022-06-02T10:46:30.942+02:00,675852401.1757885,0,7.152344,101.2949,1,0.81
2022-06-02T10:46:41.199+02:00,1654159599.99975,53.22908366967196,10.398548202756,36.84694,0.0360264,0.6703551,16.0103749334074,73.34262548419477,2.400000095367432,7.999579855010837,-9999,2745.476926125,-0.1173095703125,-0.439971923828125,-0.7605438232421875,2745.466931125,-0.0343607294880504,0.04047814055496311,0.2107254158657854,-2.283275365829468,-0.4180015027523041,-0.7583436369895935,-0.02492348104715347,-0.2251416146755219,0.2461061477661133,XArbitraryZVertical,0.1054765593945988,0.01831612619666352,-0.01495271055454332,0.9941406732861617,0.03957193344831467,-0.209169328212738,-0.9770784378051758,0,0,0,-1,-1,2745.454331125,unknown,2,2022-06-02T10:46:41.176+02:00,2022-06-02T10:17:13.754+02:00,448,1.423373,0,0,345.1212,0,0,2022-06-02T10:46:30.942+02:00,675852401.1757885,0,7.152344,101.2949,1,0.81
2022-06-02T10:46:41.209+02:00,1654159599.99975,53.22908366967196,10.398548202756,36.84694,0.0360264,0.6703551,16.0103749334074,73.34262548419477,2.400000095367432,7.999579855010837,-9999,2745.486920125,-0.1368255615234375,-0.39288330078125,-0.745880126953125,2745.476926125,-0.0417023593574464,0.03783107371667369,0.18423308705652,-2.893131732940674,-0.3912913203239441,-0.8937704563140869,-0.09624874591827393,-0.2751661539077759,0.2320227026939392,XArbitraryZVertical,0.09234256957314026,0.016912582430389,-0.01901807017913378,0.9954019212540443,0.03718198835849762,-0.1831926554441452,-0.9823736548423767,0,0,0,-1,-1,2745.454331125,unknown,2,2022-06-02T10:46:41.176+02:00,2022-06-02T10:17:13.754+02:00,448,1.423373,0,0,345.1212,0,0,2022-06-02T10:46:30.942+02:00,675852401.1757885,0,7.152344,101.2949,1,0.81
2022-06-02T10:46:41.219+02:00,1654159599.99975,53.22908366967196,10.398548202756,36.84694,0.0360264,0.6703551,16.0103749334074,73.34262548419477,2.400000095367432,7.999579855010837,-9999,2745.496915125,-0.157196044921875,-0.291168212890625,-0.6953277587890625,2745.486920125,-0.05056900930811297,0.03556414922213839,0.151956601266324,-3.451435089111328,-0.3671208024024963,-1.083382129669189,-0.1524564921855927,-0.2885994911193848,0.227307915687561,XArbitraryZVertical,0.07631721036007667,0.01580545517799142,-0.02385563965540327,0.9966727931041288,0.03514692559838295,-0.1513724774122238,-0.9878517389297485,0,0,0,-1,-1,2745.454331125,unknown,2,2022-06-02T10:46:41.176+02:00,2022-06-02T10:17:13.754+02:00,448,1.423373,0,0,345.1212,0,0,2022-06-02T10:46:30.942+02:00,675852401.1757885,0,7.152344,101.2949,1,0.81
2022-06-02T10:46:41.229+02:00,1654159599.99975,53.22908366967196,10.398548202756,36.84694,0.0360264,0.6703551,16.0103749334074,73.34262548419477,2.400000095367432,7.999579855010837,-9999,2745.506909125,-0.185546875,-0.1712188720703125,-0.7079925537109375,2745.496915125,-0.06089505732555375,0.03328779221140418,0.1143423574307198,-3.953026533126831,-0.3542084693908691,-1.217522382736206,-0.1698898673057556,-0.2787899672985077,0.2470395565032959,XArbitraryZVertical,0.05761147990149223,0.01486897089693922,-0.02943832784139976,0.9977941931479192,0.03306431695818901,-0.1140933632850647,-0.9929196834564209,0,0,0,-1,-1,2745.454331125,unknown,2,2022-06-02T10:46:41.176+02:00,2022-06-02T10:17:13.754+02:00,448,1.423373,0,0,345.1212,0,0,2022-06-02T10:46:30.942+02:00,675852401.1757885,0,7.152344,101.2949,1,0.81
2022-06-02T10:46:41.239+02:00,1654159599.99975,53.22908366967196,10.398548202756,36.84694,0.0360264,0.6703551,16.0103749334074,73.34262548419477,2.400000095367432,7.999579855010837,-9999,2745.516904125,-0.200927734375,-0.079925537109375,-0.721710205078125,2745.506909125,-0.0724790137537436,0.0309298474743461,0.07272204851164471,-4.241316795349121,-0.3176316022872925,-1.355265974998474,-0.1880392134189606,-0.2185102701187134,0.3015521764755249,XArbitraryZVertical,0.03688472498048097,0.01412696917324315,-0.03564149127331463,0.9985838258721008,0.03084317967295647,-0.07265796512365341,-0.9968798756599426,0,0,0,-1,-1,2745.454331125,unknown,2,2022-06-02T10:46:41.176+02:00,2022-06-02T10:17:13.754+02:00,448,1.423373,0,0,345.1212,0,0,2022-06-02T10:46:30.942+02:00,675852401.1757885,0,7.152344,101.2949,1,0.81
2022-06-02T10:46:41.249+02:00,1654159599.99975,53.22908366967196,10.398548202756,36.84694,0.0360264,0.6703551,16.0103749334074,73.34262548419477,2.400000095367432,7.999579855010837,-9999,2745.52689875,-0.1984100341796875,-0.0328521728515625,-0.766143798828125,2745.516904125,-0.08549358906202781,0.02858649037630357,0.02930139894612038,-4.329260349273682,-0.2691149711608887,-1.503881573677063,-0.2141171842813492,-0.1419216990470886,0.2911698222160339,XArbitraryZVertical,0.01524601503120455,0.01365217595732755,-0.04251562570883116,0.9988861934297325,0.02857032790780067,-0.02929720655083656,-0.9991623759269714,0,0,0,-1,-1,2745.454331125,unknown,2,2022-06-02T10:46:41.176+02:00,2022-06-02T10:17:13.754+02:00,448,1.423373,0,0,345.1212,0,0,2022-06-02T10:46:30.942+02:00,675852401.1757885,0,7.152344,101.2949,1,0.81
2022-06-02T10:46:41.259+02:00,1654159599.99975,53.22908366967196,10.398548202756,36.84694,0.0360264,0.6703551,16.0103749334074,73.34262548419477,2.400000095367432,7.999579855010837,-9999,2745.53689375,-0.213592529296875,-0.0074615478515625,-0.81585693359375,2745.52689875,-0.1001187938379194,0.02601326653427181,-0.01433221196060613,-4.301190853118896,-0.245561420917511,-1.659249067306519,-0.2269353866577148,-0.09425730258226395,0.2778488397598267,XArbitraryZVertical,-0.00650566536215736,0.01334818854041929,-0.05012606452735945,0.9986324421370324,0.02600766159594059,0.01433172170072794,-0.9995589852333069,0,0,0,-1,-1,2745.454331125,unknown,2,2022-06-02T10:46:41.176+02:00,2022-06-02T10:17:13.754+02:00,448,1.423373,0,0,345.1212,0,0,2022-06-02T10:46:30.942+02:00,675852401.1757885,0,7.152344,101.2949,1,0.81
2022-06-02T10:46:41.269+02:00,1654159599.99975,53.22908366967196,10.398548202756,36.84694,0.0360264,0.6703551,16.0103749334074,73.34262548419477,2.400000095367432,7.999579855010837,-9999,2745.54688775,-0.22918701171875,0.00537109375,-0.8687286376953125,2745.53689375,-0.1162418602883846,0.02319072597402822,-0.05766498657461239,-4.278419971466064,-0.1767757087945938,-1.764748096466064,-0.2215601205825806,-0.09048525243997574,0.2319256067276001,XArbitraryZVertical,-0.02810462829406338,0.01324519751562623,-0.05839387503817933,0.9978099703200123,0.02315010316669941,0.05763303488492966,-0.9980694055557251,0,0,0,-1,-1,2745.454331125,unknown,2,2022-06-02T10:46:41.176+02:00,2022-06-02T10:17:13.754+02:00,448,1.423373,0,0,345.1212,0,0,2022-06-02T10:46:30.942+02:00,675852401.1757885,0,7.152344,101.2949,1,0.81
2022-06-02T10:46:41.279+02:00,1654159599.99975,53.22908366967196,10.398548202756,36.84694,0.0360264,0.6703551,16.0103749334074,73.34262548419477,2.400000095367432,7.999579855010837,-9999,2745.55688275,-0.2462005615234375,0.0092620849609375,-0.87701416015625,2745.54688775,-0.1332907243464996,0.02054398895247359,-0.1006502978709007,-4.233273029327393,-0.05761096626520157,-1.821010231971741,-0.2340310961008072,-0.1079420372843742,0.1788721680641174,XArbitraryZVertical,-0.04950639368745161,0.01358590014668981,-0.06702378374967279,0.9964297575199168,0.02043857797980309,0.1004804447293282,-0.9947291016578674,0,0,0,-1,-1,2745.454331125,unknown,2,2022-06-02T10:46:41.176+02:00,2022-06-02T10:17:13.754+02:00,448,1.423373,0,0,345.1212,0,0,2022-06-02T10:46:30.942+02:00,675852401.1757885,0,7.152344,101.2949,1,0.81
2022-06-02T10:46:41.289+02:00,1654159599.99975,53.22908366967196,10.398548202756,36.84694,0.0360264,0.6703551,16.0103749334074,73.34262548419477,2.400000095367432,7.999579855010837,-9999,2745.56687675,-0.2629547119140625,-0.0345916748046875,-0.8463592529296875,2745.55688275,-0.151258982748759,0.01815206769032031,-0.1431123450505517,-4.177754878997803,0.04433057829737663,-1.918177604675293,-0.2471525073051453,-0.1372532844543457,0.1208851933479309,XArbitraryZVertical,-0.07060381867738734,0.01442857052697247,-0.07600798435667627,0.9944997110164698,0.01796551048755646,0.1426243335008621,-0.9896138310432434,0,0,0,-1,-1,2745.454331125,unknown,2,2022-06-02T10:46:41.176+02:00,2022-06-02T10:17:13.754+02:00,448,1.423373,0,0,345.1212,0,0,2022-06-02T10:46:30.942+02:00,675852401.1757885,0,7.152344,101.2949,1,0.81
2022-06-02T10:46:41.299+02:00,1654159599.99975,53.22908366967196,10.398548202756,36.84694,0.0360264,0.6703551,16.0103749334074,73.34262548419477,2.400000095367432,7.999579855010837,-9999,2745.57687175,-0.3178253173828125,-0.0118408203125,-0.8581695556640625,2745.56687675,-0.170874564570682,0.01583674077407298,-0.1844751942140361,-4.017990589141846,0.169006273150444,-2.091078996658325,-0.2617679238319397,-0.1741686165332794,0.1058952212333679,XArbitraryZVertical,-0.0910952037917595,0.01571541307517291,-0.08569464479685003,0.9920237102675066,0.01556738279759884,0.1834306567907333,-0.9829093813896179,0,0,0,-1,-1,2745.454331125,unknown,2,2022-06-02T10:46:41.176+02:00,2022-06-02T10:17:13.754+02:00,448,1.423373,0,0,345.1212,0,0,2022-06-02T10:46:30.942+02:00,675852401.1757885,0,7.152344,101.2949,1,0.81
2022-06-02T10:46:41.309+02:00,1654159599.99975,53.22908366967196,10.398548202756,36.84694,0.0360264,0.6703551,16.0103749334074,73.34262548419477,2.400000095367432,7.999579855010837,-9999,2745.58686575,-0.3662261962890625,0.0285797119140625,-0.8566741943359375,2745.57687175,-0.192365389844302,0.01376980596311891,-0.2242146018624909,-3.887444734573364,0.3203795254230499,-2.220320224761963,-0.276379406452179,-0.2569324374198914,0.1285173296928406,XArbitraryZVertical,-0.1106958768670819,0.01755338071288606,-0.0961960193536715,0.9890321456329794,0.01342471037060022,0.2223406881093979,-0.9748765826225281,0,0,0,-1,-1,2745.454331125,unknown,2,2022-06-02T10:46:41.176+02:00,2022-06-02T10:17:13.754+02:00,448,1.423373,0,0,345.1212,0,0,2022-06-02T10:46:30.942+02:00,675852401.1757885,0,7.152344,101.2949,1,0.81
2022-06-02T10:46:41.319+02:00,1654159599.99975,53.22908366967196,10.398548202756,36.84694,0.0360264,0.6703551,16.0103749334074,73.34262548419477,2.400000095367432,7.999579855010837,-9999,2745.59686075,-0.3907470703125,-0.01055908203125,-0.9227752685546875,2745.58686575,-0.2153490522899832,0.0120043131057808,-0.2635820371880851,-3.949593544006348,0.4796794652938843,-2.345062255859375,-0.3294147253036499,-0.272381454706192,0.1072238087654114,XArbitraryZVertical,-0.1300070194035181,0.02003752529623254,-0.1073169024557377,0.9854845181142152,0.01158944051712751,0.2605405449867249,-0.9653933644294739,0,0,0,-1,-1,2745.454331125,unknown,2,2022-06-02T10:46:41.176+02:00,2022-06-02T10:17:13.754+02:00,448,1.423373,0,0,345.1212,0,0,2022-06-02T10:46:30.942+02:00,675852401.1757885,0,7.152344,101.2949,1,0.81
