loggingTime(txt),locationTimestamp_since1970(s),locationLatitude(WGS84),locationLongitude(WGS84),locationAltitude(m),locationSpeed(m/s),locationSpeedAccuracy(m/s),locationCourse(°),locationCourseAccuracy(°),locationVerticalAccuracy(m),locationHorizontalAccuracy(m),locationFloor(Z),accelerometerTimestamp_sinceReboot(s),accelerometerAccelerationX(G),accelerometerAccelerationY(G),accelerometerAccelerationZ(G),motionTimestamp_sinceReboot(s),motionYaw(rad),motionRoll(rad),motionPitch(rad),motionRotationRateX(rad/s),motionRotationRateY(rad/s),motionRotationRateZ(rad/s),motionUserAccelerationX(G),motionUserAccelerationY(G),motionUserAccelerationZ(G),motionAttitudeReferenceFrame(txt),motionQuaternionX(R),motionQuaternionY(R),motionQuaternionZ(R),motionQuaternionW(R),motionGravityX(G),motionGravityY(G),motionGravityZ(G),motionMagneticFieldX(µT),motionMagneticFieldY(µT),motionMagneticFieldZ(µT),motionHeading(°),motionMagneticFieldCalibrationAccuracy(Z),activityTimestamp_sinceReboot(s),activity(txt),activityActivityConfidence(Z),activityActivityStartDate(txt),pedometerStartDate(txt),pedometerNumberofSteps(N),pedometerAverageActivePace(s/m),pedometerCurrentPace(s/m),pedometerCurrentCadence(steps/s),pedometerDistance(m),pedometerFloorAscended(N),pedometerFloorDescended(N),pedometerEndDate(txt),altimeterTimestamp_sinceReboot(s),altimeterReset(bool),altimeterRelativeAltitude(m),altimeterPressure(kPa),batteryState(N),batteryLevel(R)
2022-06-02T10:46:56.139+02:00,1654159607.99977,53.2290892146608,10.39854600557297,36.85167,0.0979749,0.8212841,33.42964030767001,121.7631351360658,2.400000095367432,7.999579855010836,-9999,2760.398651125,-0.102813720703125,0.01220703125,-0.9646148681640625,2760.388657125,0.1873602085075742,-0.1074630870798274,0.1206444357561217,0.2589369416236877,0.24322609603405,-0.04215637594461441,0.1600198596715927,0.2232572287321091,0.03589379787445068,XArbitraryZVertical,0.06494934899848161,-0.04774178567827984,0.09001476963561422,0.9926728861681148,-0.106476753950119,-0.1203519850969315,-0.9870046377182007,0,0,0,-1,-1,2758.246706125,unknown,2,2022-06-02T10:46:53.968+02:00,2022-06-02T10:17:13.754+02:00,448,1.423373,0,0,345.1212,0,0,2022-06-02T10:46:53.968+02:00,675852413.9681365,0,6.613281,101.3017,1,0.81
2022-06-02T10:46:56.142+02:00,1654159607.99977,53.2290892146608,10.39854600557297,36.85167,0.0979749,0.8212841,33.42964030767001,121.7631351360658,2.400000095367432,7.999579855010836,-9999,2760.408646125,-0.148773193359375,0.0098724365234375,-0.9590911865234375,2760.398651125,0.1878278012896205,-0.1053599843574858,0.1249743073936668,0.599107027053833,0.2054525464773178,0.01090930681675673,0.09764638543128967,0.1755525469779968,0.02466279268264771,XArbitraryZVertical,0.06701326592883371,-0.04647342857221631,0.09018938812342939,0.9925800476217708,-0.1043449640274048,-0.124649241566658,-0.9866988658905029,0,0,0,-1,-1,2758.246706125,unknown,2,2022-06-02T10:46:53.968+02:00,2022-06-02T10:17:13.754+02:00,448,1.423373,0,0,345.1212,0,0,2022-06-02T10:46:53.968+02:00,675852413.9681365,0,6.613281,101.3017,1,0.81
2022-06-02T10:46:56.143+02:00,1654159607.99977,53.2290892146608,10.39854600557297,36.85167,0.0979749,0.8212841,33.42964030767001,121.7631351360658,2.400000095367432,7.999579855010836,-9999,2760.418640125,-0.104949951171875,-0.107666015625,-0.9796600341796875,2760.408646125,0.188435391563832,-0.1034682794444391,0.1314226743949717,0.6549665331840515,0.2024506330490112,-0.02524683251976967,-0.0004206076264381409,0.1432517021894455,0.02145969867706299,XArbitraryZVertical,0.0701397635464843,-0.04520131010676127,0.09036923676439729,0.9924063713808585,-0.1023930907249451,-0.1310446858406067,-0.9860745072364807,0,0,0,-1,-1,2758.246706125,unknown,2,2022-06-02T10:46:53.968+02:00,2022-06-02T10:17:13.754+02:00,448,1.423373,0,0,345.1212,0,0,2022-06-02T10:46:53.968+02:00,675852413.9681365,0,6.613281,101.3017,1,0.81
2022-06-02T10:46:56.150+02:00,1654159607.99977,53.2290892146608,10.39854600557297,36.85167,0.0979749,0.8212841,33.42964030767001,121.7631351360658,2.400000095367432,7.999579855010836,-9999,2760.428635125,-0.0801849365234375,-0.1816864013671875,-1.003448486328125,2760.418640125,0.1888890338215756,-0.1014890371888826,0.1370225548761898,0.4474619030952454,0.2131545543670654,0.005180180072784424,-0.04840788990259171,0.1464665830135345,0.02643853425979614,XArbitraryZVertical,0.07283702823481278,-0.04393069511241134,0.09050495075196922,0.9922568298874153,-0.1003652885556221,-0.1365941911935806,-0.9855297207832336,0,0,0,-1,-1,2758.246706125,unknown,2,2022-06-02T10:46:53.968+02:00,2022-06-02T10:17:13.754+02:00,448,1.423373,0,0,345.1212,0,0,2022-06-02T10:46:53.968+02:00,675852413.9681365,0,6.613281,101.3017,1,0.81
2022-06-02T10:46:56.162+02:00,1654159607.99977,53.2290892146608,10.39854600557297,36.85167,0.0979749,0.8212841,33.42964030767001,121.7631351360658,2.400000095367432,7.999579855010836,-9999,2760.438629125,-0.029693603515625,-0.27008056640625,-1.028579711914062,2760.428635125,0.1895857087120147,-0.09944504289890237,0.1400731791109196,0.1618224233388901,0.224898561835289,0.05473442003130913,-0.006641104817390442,0.03194952011108398,0.005653560161590576,XArbitraryZVertical,0.07427189560625953,-0.0427421753983145,0.09083972512052647,0.9921717435794445,-0.09830883145332336,-0.1396155804395676,-0.9853135943412781,0,0,0,-1,-1,2758.246706125,unknown,2,2022-06-02T10:46:53.968+02:00,2022-06-02T10:17:13.754+02:00,448,1.423373,0,0,345.1212,0,0,2022-06-02T10:46:53.968+02:00,675852413.9681365,0,6.613281,101.3017,1,0.81
2022-06-02T10:46:56.170+02:00,1654159607.99977,53.2290892146608,10.39854600557297,36.85167,0.0979749,0.8212841,33.42964030767001,121.7631351360658,2.400000095367432,7.999579855010836,-9999,2760.448624125,0.0209503173828125,-0.0548095703125,-0.99432373046875,2760.438629125,0.185353607788739,-0.09430978030441375,0.1388271444663976,-0.3518300652503967,0.3901541531085968,-0.705468475818634,0.01307910680770874,-0.04330478608608246,-0.0174705982208252,XArbitraryZVertical,0.07333522607894027,-0.04041057324694233,0.0889633942220532,0.9925091250359268,-0.09326402842998505,-0.1383816450834274,-0.9859778881072998,0,0,0,-1,-1,2758.246706125,unknown,2,2022-06-02T10:46:53.968+02:00,2022-06-02T10:17:13.754+02:00,448,1.423373,0,0,345.1212,0,0,2022-06-02T10:46:53.968+02:00,675852413.9681365,0,6.613281,101.3017,1,0.81
2022-06-02T10:46:56.180+02:00,1654159607.99977,53.2290892146608,10.39854600557297,36.85167,0.0979749,0.8212841,33.42964030767001,121.7631351360658,2.400000095367432,7.999579855010836,-9999,2760.458618125,-0.2548370361328125,-0.0164794921875,-0.9638519287109375,2760.448624125,0.1819693625264437,-0.09125691653022028,0.1367628368051109,-0.1839713007211685,0.1455462872982025,0.03769997507333755,0.06058578938245773,-0.1337437033653259,-0.04203933477401733,XArbitraryZVertical,0.0721093351627583,-0.03911602275099666,0.0874487740039533,0.9927854310219935,-0.09027937799692154,-0.1363368928432465,-0.9865403771400452,0,0,0,-1,-1,2758.246706125,unknown,2,2022-06-02T10:46:53.968+02:00,2022-06-02T10:17:13.754+02:00,448,1.423373,0,0,345.1212,0,0,2022-06-02T10:46:53.968+02:00,675852413.9681365,0,6.613281,101.3017,1,0.81
2022-06-02T10:46:56.190+02:00,1654159607.99977,53.2290892146608,10.39854600557297,36.85167,0.0979749,0.8212841,33.42964030767001,121.7631351360658,2.400000095367432,7.999579855010836,-9999,2760.468612125,-0.12811279296875,-0.0949859619140625,-0.956329345703125,2760.458618125,0.182105904443819,-0.08951587884953487,0.1348900017780738,-0.1556725203990936,0.2242326289415359,-0.05872276797890663,0.1095346510410309,0.07967172563076019,-0.007375061511993408,XArbitraryZVertical,0.07110659625420331,-0.03833454812010891,0.08762669591472197,0.9928725310258233,-0.08858431130647659,-0.1344813108444214,-0.9869486093521118,0,0,0,-1,-1,2758.246706125,unknown,2,2022-06-02T10:46:53.968+02:00,2022-06-02T10:17:13.754+02:00,448,1.423373,0,0,345.1212,0,0,2022-06-02T10:46:53.968+02:00,675852413.9681365,0,6.613281,101.3017,1,0.81
2022-06-02T10:46:56.200+02:00,1654159607.99977,53.2290892146608,10.39854600557297,36.85167,0.0979749,0.8212841,33.42964030767001,121.7631351360658,2.400000095367432,7.999579855010836,-9999,2760.478607125,0.0040283203125,-0.1349029541015625,-0.9146881103515625,2760.468612125,0.1813289574820693,-0.08728708458995098,0.1339453735207875,-0.06560467183589935,0.1773900240659714,-0.02015220746397972,-0.1684415936470032,0.1170656979084015,0.02341783046722412,XArbitraryZVertical,0.07052569685576573,-0.03729965806572386,0.08734350335334537,0.9929782861689768,-0.08639542758464813,-0.1335452049970627,-0.9872696995735168,0,0,0,-1,-1,2758.246706125,unknown,2,2022-06-02T10:46:53.968+02:00,2022-06-02T10:17:13.754+02:00,448,1.423373,0,0,345.1212,0,0,2022-06-02T10:46:53.968+02:00,675852413.9681365,0,6.613281,101.3017,1,0.81
2022-06-02T10:46:56.210+02:00,1654159607.99977,53.2290892146608,10.39854600557297,36.85167,0.0979749,0.8212841,33.42964030767001,121.7631351360658,2.400000095367432,7.999579855010836,-9999,2760.488601125,0.0133514404296875,-0.1949920654296875,-0.8876190185546875,2760.478607125,0.1815211300389715,-0.08585054727361313,0.1333458509655318,-0.05417728424072266,0.13761205971241,0.02250118181109428,-0.0431288406252861,0.03796502947807312,0.03114306926727295,XArbitraryZVertical,0.07016894771013772,-0.0366075912188739,0.08750414430626247,0.9930151839109532,-0.0849839374423027,-0.1329510360956192,-0.9874724149703979,0,0,0,-1,-1,2758.246706125,unknown,2,2022-06-02T10:46:53.968+02:00,2022-06-02T10:17:13.754+02:00,448,1.423373,0,0,345.1212,0,0,2022-06-02T10:46:53.968+02:00,675852413.9681365,0,6.613281,101.3017,1,0.81
2022-06-02T10:46:56.220+02:00,1654159607.99977,53.2290892146608,10.39854600557297,36.85167,0.0979749,0.8212841,33.42964030767001,121.7631351360658,2.400000095367432,7.999579855010836,-9999,2760.498596125,-0.020233154296875,-0.1387786865234375,-0.868438720703125,2760.488601125,0.1811906220303678,-0.08461166345026615,0.1328408687640679,-0.05996006727218628,0.1018463373184204,-0.06773257255554199,0.08779450505971909,-0.002452477812767029,0.07295560836791992,XArbitraryZVertical,0.06985816751180418,-0.03602753352327088,0.08739561343810262,0.9930679164788544,-0.08376616984605789,-0.1324505060911179,-0.9876437187194824,0,0,0,-1,-1,2758.246706125,unknown,2,2022-06-02T10:46:53.968+02:00,2022-06-02T10:17:13.754+02:00,448,1.423373,0,0,345.1212,0,0,2022-06-02T10:46:53.968+02:00,675852413.9681365,0,6.613281,101.3017,1,0.81
2022-06-02T10:46:56.230+02:00,1654159607.99977,53.2290892146608,10.39854600557297,36.85167,0.0979749,0.8212841,33.42964030767001,121.7631351360658,2.400000095367432,7.999579855010836,-9999,2760.508590125,-0.07403564453125,-0.11688232421875,-0.9146270751953125,2760.498596125,0.1805483670508323,-0.08385540374619081,0.1324154358080246,-0.02845347858965397,0.04063903912901878,-0.04848790913820267,0.09637540578842163,-0.06296326220035553,0.1001438498497009,XArbitraryZVertical,0.06960251812861591,-0.03569414963277695,0.0871132429108448,0.9931227073578331,-0.08302394300699234,-0.1320288181304932,-0.9877628087997437,0,0,0,-1,-1,2758.246706125,unknown,2,2022-06-02T10:46:53.968+02:00,2022-06-02T10:17:13.754+02:00,448,1.423373,0,0,345.1212,0,0,2022-06-02T10:46:53.968+02:00,675852413.9681365,0,6.613281,101.3017,1,0.81
2022-06-02T10:46:56.240+02:00,1654159607.99977,53.2290892146608,10.39854600557297,36.85167,0.0979749,0.8212841,33.42964030767001,121.7631351360658,2.400000095367432,7.999579855010836,-9999,2760.518585125,-0.0839385986328125,-0.1217803955078125,-0.949493408203125,2760.508590125,0.1801715444575791,-0.08355507030928286,0.1324936595076455,0.02453011088073254,0.01295388117432594,-0.03322266787290573,0.06249328702688217,-0.00667235255241394,0.1193387508392334,XArbitraryZVertical,0.06962155885204159,-0.03555450963947199,0.08693471680039841,0.9931420631747544,-0.08272641897201538,-0.1321063488721848,-0.9877774119377136,0,0,0,-1,-1,2758.246706125,unknown,2,2022-06-02T10:46:53.968+02:00,2022-06-02T10:17:13.754+02:00,448,1.423373,0,0,345.1212,0,0,2022-06-02T10:46:53.968+02:00,675852413.9681365,0,6.613281,101.3017,1,0.81
2022-06-02T10:46:56.250+02:00,1654159607.99977,53.2290892146608,10.39854600557297,36.85167,0.0979749,0.8212841,33.42964030767001,121.7631351360658,2.400000095367432,7.999579855010836,-9999,2760.528579125,-0.071380615234375,-0.155731201171875,-0.969940185546875,2760.518585125,0.1799585798849947,-0.08351176920374803,0.1327496730411426,0.01791641488671303,-0.004426440224051476,-0.01482501812279224,0.008645199239253998,0.01547777652740479,0.07312023639678955,XArbitraryZVertical,0.0697429666084312,-0.03552860324582684,0.08682440818664491,0.9931440170043024,-0.08268082141876221,-0.132360115647316,-0.9877472519874573,0,0,0,-1,-1,2758.246706125,unknown,2,2022-06-02T10:46:53.968+02:00,2022-06-02T10:17:13.754+02:00,448,1.423373,0,0,345.1212,0,0,2022-06-02T10:46:53.968+02:00,675852413.9681365,0,6.613281,101.3017,1,0.81
2022-06-02T10:46:56.260+02:00,1654159607.99977,53.2290892146608,10.39854600557297,36.85167,0.0979749,0.8212841,33.42964030767001,121.7631351360658,2.400000095367432,7.999579855010836,-9999,2760.538574125,-0.0610809326171875,-0.168426513671875,-0.9823455810546875,2760.528579125,0.179836900588633,-0.08361045355798635,0.1327487437057262,-0.0305512510240078,-0.01239302009344101,-0.0123056685552001,-0.001160278916358948,0.01057878136634827,0.03824585676193237,XArbitraryZVertical,0.06974462416460223,-0.03558189314202059,0.08676056570010597,0.9931475793680842,-0.08277830481529236,-0.132359191775322,-0.9877392053604126,0,0,0,-1,-1,2758.246706125,unknown,2,2022-06-02T10:46:53.968+02:00,2022-06-02T10:17:13.754+02:00,448,1.423373,0,0,345.1212,0,0,2022-06-02T10:46:53.968+02:00,675852413.9681365,0,6.613281,101.3017,1,0.81
2022-06-02T10:46:56.270+02:00,1654159607.99977,53.2290892146608,10.39854600557297,36.85167,0.0979749,0.8212841,33.42964030767001,121.7631351360658,2.400000095367432,7.999579855010836,-9999,2760.5485665,-0.0728302001953125,-0.1492462158203125,-0.993011474609375,2760.538574125,0.1796031005273211,-0.08373077685727578,0.1320453553161525,-0.1145021393895149,-0.01377426832914352,-0.02163698524236679,0.01152431964874268,-0.02406926453113556,0.01788163185119629,XArbitraryZVertical,0.06939656001251771,-0.0356822092429022,0.08665698247774366,0.9931774109040049,-0.08290491998195648,-0.1316619664430618,-0.9878218173980713,0,0,0,-1,-1,2758.246706125,unknown,2,2022-06-02T10:46:53.968+02:00,2022-06-02T10:17:13.754+02:00,448,1.423373,0,0,345.1212,0,0,2022-06-02T10:46:53.968+02:00,675852413.9681365,0,6.613281,101.3017,1,0.81
2022-06-02T10:46:56.280+02:00,1654159607.99977,53.2290892146608,10.39854600557297,36.85167,0.0979749,0.8212841,33.42964030767001,121.7631351360658,2.400000095367432,7.999579855010836,-9999,2760.5585605,-0.088836669921875,-0.1431121826171875,-0.996826171875,2760.5485665,0.1792559486355651,-0.08380515883787226,0.1306017938889114,-0.1802132427692413,-0.007052982226014137,-0.0226772166788578,0.0219133049249649,-0.03819569945335388,0.005658447742462158,XArbitraryZVertical,0.06867705501475994,-0.03579757749156019,0.08651629380045926,0.9932355313706905,-0.08299422264099121,-0.1302308291196823,-0.9880039691925049,0,0,0,-1,-1,2758.246706125,unknown,2,2022-06-02T10:46:53.968+02:00,2022-06-02T10:17:13.754+02:00,448,1.423373,0,0,345.1212,0,0,2022-06-02T10:46:53.968+02:00,675852413.9681365,0,6.613281,101.3017,1,0.81
2022-06-02T10:46:56.290+02:00,1654159607.99977,53.2290892146608,10.39854600557297,36.85167,0.0979749,0.8212841,33.42964030767001,121.7631351360658,2.400000095367432,7.999579855010836,-9999,2760.5685555,-0.092193603515625,-0.104400634765625,-0.974609375,2760.5585605,0.1788710521006088,-0.08387853530810881,0.1288661077089639,-0.1618025898933411,-0.01351441070437431,-0.02614005841314793,0.01025534421205521,-0.02073650062084198,-0.004789769649505615,XArbitraryZVertical,0.06781174036807008,-0.03592686380079656,0.08636380680069002,0.9933036363207579,-0.08308552950620651,-0.1285097301006317,-0.9882216453552246,0,0,0,-1,-1,2758.246706125,unknown,2,2022-06-02T10:46:53.968+02:00,2022-06-02T10:17:13.754+02:00,448,1.423373,0,0,345.1212,0,0,2022-06-02T10:46:53.968+02:00,675852413.9681365,0,6.613281,101.3017,1,0.81
2022-06-02T10:46:56.300+02:00,1654159607.99977,53.2290892146608,10.39854600557297,36.85167,0.0979749,0.8212841,33.42964030767001,121.7631351360658,2.400000095367432,7.999579855010836,-9999,2760.5785495,-0.0887603759765625,-0.0635528564453125,-0.9451446533203125,2760.5685555,0.1784788639093992,-0.08343096517859498,0.1277891823606752,-0.08691395819187164,-0.01332825608551502,-0.01235660165548325,-0.006181947886943817,-0.01567055284976959,-0.008430063724517822,XArbitraryZVertical,0.06725078905050903,-0.03576715226512147,0.0862095930607517,0.9933608976411766,-0.08265470713376999,-0.1274416595697403,-0.9883961081504822,0,0,0,-1,-1,2758.246706125,unknown,2,2022-06-02T10:46:53.968+02:00,2022-06-02T10:17:13.754+02:00,448,1.423373,0,0,345.1212,0,0,2022-06-02T10:46:53.968+02:00,675852413.9681365,0,6.613281,101.3017,1,0.81
2022-06-02T10:46:56.311+02:00,1654159607.99977,53.2290892146608,10.39854600557297,36.85167,0.0979749,0.8212841,33.42964030767001,121.7631351360658,2.400000095367432,7.999579855010836,-9999,2760.5885445,-0.0806884765625,-0.06524658203125,-0.964019775390625,2760.5785495,0.1782738230729177,-0.08293686853739528,0.1280660705166217,0.004124769940972328,-0.02490654774010181,-0.003449725918471813,-0.01003018021583557,0.02331562340259552,0.01379221677780151,XArbitraryZVertical,0.06736330758590774,-0.0355159811573706,0.08611787047859336,0.9933702540719254,-0.08216340839862823,-0.1277162879705429,-0.9884015917778015,0,0,0,-1,-1,2758.246706125,unknown,2,2022-06-02T10:46:53.968+02:00,2022-06-02T10:17:13.754+02:00,448,1.423373,0,0,345.1212,0,0,2022-06-02T10:46:53.968+02:00,675852413.9681365,0,6.613281,101.3017,1,0.81
2022-06-02T10:46:56.320+02:00,1654159607.99977,53.2290892146608,10.39854600557297,36.85167,0.0979749,0.8212841,33.42964030767001,121.7631351360658,2.400000095367432,7.999579855010836,-9999,2760.5985385,-0.0771331787109375,-0.084014892578125,-0.9721832275390625,2760.5885445,0.1782843959434033,-0.08285067739411611,0.1286047040270083,0.04209186136722565,-0.03512642905116081,0.01022613979876041,-0.006687842309474945,0.06469762325286865,0.04319536685943604,XArbitraryZVertical,0.06762718196069477,-0.03544819576757815,0.08611339845041718,0.9933551855912232,-0.08207251131534576,-0.1282504945993423,-0.9883399605751038,0,0,0,-1,-1,2758.246706125,unknown,2,2022-06-02T10:46:53.968+02:00,2022-06-02T10:17:13.754+02:00,448,1.423373,0,0,345.1212,0,0,2022-06-02T10:46:53.968+02:00,675852413.9681365,0,6.613281,101.3017,1,0.81
2022-06-02T10:46:56.330+02:00,1654159607.99977,53.2290892146608,10.39854600557297,36.85167,0.0979749,0.8212841,33.42964030767001,121.7631351360658,2.400000095367432,7.999579855010836,-9999,2760.6085335,-0.0686492919921875,-0.1009674072265625,-0.9964447021484375,2760.5985385,0.1784399600463476,-0.08323989352867571,0.1289641359104545,0.03001678735017776,-0.04474716633558273,0.01456582639366388,0.001764878630638123,0.06336033344268799,0.02424216270446777,XArbitraryZVertical,0.06782514817166442,-0.03561980463142944,0.08616904328632609,0.9933306634930459,-0.08245334774255753,-0.1286069452762604,-0.9882619380950928,0,0,0,-1,-1,2758.246706125,unknown,2,2022-06-02T10:46:53.968+02:00,2022-06-02T10:17:13.754+02:00,448,1.423373,0,0,345.1212,0,0,2022-06-02T10:46:53.968+02:00,675852413.9681365,0,6.613281,101.3017,1,0.81
2022-06-02T10:46:56.340+02:00,1654159607.99977,53.2290892146608,10.39854600557297,36.85167,0.0979749,0.8212841,33.42964030767001,121.7631351360658,2.400000095367432,7.999579855010836,-9999,2760.6185275,-0.0718841552734375,-0.0937652587890625,-1.026290893554688,2760.6085335,0.1785983258476878,-0.0837634638921215,0.1289870180003838,-0.02650534361600876,-0.04768729582428932,0.01579833775758743,0.005837343633174896,0.04461471736431122,0.01603251695632935,XArbitraryZVertical,0.06786190137579202,-0.03587342144085794,0.08622939437951246,0.9933138182682997,-0.0829705148935318,-0.1286296397447586,-0.9882157444953918,0,0,0,-1,-1,2758.246706125,unknown,2,2022-06-02T10:46:53.968+02:00,2022-06-02T10:17:13.754+02:00,448,1.423373,0,0,345.1212,0,0,2022-06-02T10:46:53.968+02:00,675852413.9681365,0,6.613281,101.3017,1,0.81
2022-06-02T10:46:56.350+02:00,1654159607.99977,53.2290892146608,10.39854600557297,36.85167,0.0979749,0.8212841,33.42964030767001,121.7631351360658,2.400000095367432,7.999579855010836,-9999,2760.6285215,-0.077056884765625,-0.087646484375,-1.03546142578125,2760.6185275,0.1787555880331145,-0.0840573681833145,0.1286116766512687,-0.1029498502612114,-0.0298642236739397,0.02701037749648094,0.01461572200059891,0.0272899717092514,-0.0082053542137146,XArbitraryZVertical,0.06769107922344098,-0.0360312603877277,0.08630643918573995,0.9933130828438806,-0.08326499909162521,-0.1282574087381363,-0.9882393479347229,0,0,0,-1,-1,2758.246706125,unknown,2,2022-06-02T10:46:53.968+02:00,2022-06-02T10:17:13.754+02:00,448,1.423373,0,0,345.1212,0,0,2022-06-02T10:46:53.968+02:00,675852413.9681365,0,6.613281,101.3017,1,0.81
2022-06-02T10:46:56.360+02:00,1654159607.99977,53.2290892146608,10.39854600557297,36.85167,0.0979749,0.8212841,33.42964030767001,121.7631351360658,2.400000095367432,7.999579855010836,-9999,2760.6385165,-0.0814361572265625,-0.0881805419921875,-1.060211181640625,2760.6285215,0.1788089346713655,-0.08398372048604102,0.1280501347380382,-0.1547885537147522,-0.01857481710612774,0.01658942922949791,0.01131409406661987,0.03393518924713135,-0.03797382116317749,XArbitraryZVertical,0.06741010662791917,-0.03601862712809811,0.08634875474195373,0.9933288880527829,-0.08319824188947678,-0.1277004927396774,-0.98831707239151,0,0,0,-1,-1,2758.246706125,unknown,2,2022-06-02T10:46:53.968+02:00,2022-06-02T10:17:13.754+02:00,448,1.423373,0,0,345.1212,0,0,2022-06-02T10:46:53.968+02:00,675852413.9681365,0,6.613281,101.3017,1,0.81
2022-06-02T10:46:56.370+02:00,1654159607.99977,53.2290892146608,10.39854600557297,36.85167,0.0979749,0.8212841,33.42964030767001,121.7631351360658,2.400000095367432,7.999579855010836,-9999,2760.6485105,-0.0949554443359375,-0.0907440185546875,-1.064483642578125,2760.6385165,0.1787724455467439,-0.08391774933912471,0.1267170202127453,-0.1713539361953735,0.003448194358497858,0.005662479437887669,0.006090372800827026,0.03873166441917419,-0.04697006940841675,XArbitraryZVertical,0.06674479179402802,-0.03604819208930121,0.08636442887067738,0.9933714054413401,-0.08314723521471024,-0.1263781785964966,-0.9884912967681885,0,0,0,-1,-1,2758.246706125,unknown,2,2022-06-02T10:46:53.968+02:00,2022-06-02T10:17:13.754+02:00,448,1.423373,0,0,345.1212,0,0,2022-06-02T10:46:53.968+02:00,675852413.9681365,0,6.613281,101.3017,1,0.81
2022-06-02T10:46:56.380+02:00,1654159607.99977,53.2290892146608,10.39854600557297,36.85167,0.0979749,0.8212841,33.42964030767001,121.7631351360658,2.400000095367432,7.999579855010836,-9999,2760.6585055,-0.1074066162109375,-0.0869293212890625,-1.049942016601562,2760.6485105,0.1786068036594505,-0.0837895188388047,0.1253041885920693,-0.1543422043323517,0.02502965368330479,-0.009777462109923363,0.001599200069904327,0.0367959663271904,-0.07153224945068359,XArbitraryZVertical,0.06603484790200688,-0.03605470465705544,0.08631980516308925,0.9934225424507571,-0.08303534239530563,-0.1249765455722809,-0.9886789321899414,0,0,0,-1,-1,2758.246706125,unknown,2,2022-06-02T10:46:53.968+02:00,2022-06-02T10:17:13.754+02:00,448,1.423373,0,0,345.1212,0,0,2022-06-02T10:46:53.968+02:00,675852413.9681365,0,6.613281,101.3017,1,0.81
2022-06-02T10:46:56.390+02:00,1654159607.99977,53.2290892146608,10.39854600557297,36.85167,0.0979749,0.8212841,33.42964030767001,121.7631351360658,2.400000095367432,7.999579855010836,-9999,2760.6684995,-0.109771728515625,-0.106170654296875,-1.023345947265625,2760.6585055,0.1783950512335536,-0.08348425602637392,0.1236576978460409,-0.1288409382104874,0.05160007625818253,-0.01310781203210354,-0.0122048482298851,0.03259874880313873,-0.07557570934295654,XArbitraryZVertical,0.06520038719861394,-0.03598532285176981,0.08626340918099547,0.9934850943914157,-0.0827505812048912,-0.123342789709568,-0.9889079332351685,0,0,0,-1,-1,2758.246706125,unknown,2,2022-06-02T10:46:53.968+02:00,2022-06-02T10:17:13.754+02:00,448,1.423373,0,0,345.1212,0,0,2022-06-02T10:46:53.968+02:00,675852413.9681365,0,6.613281,101.3017,1,0.81
2022-06-02T10:46:56.400+02:00,1654159607.99977,53.2290892146608,10.39854600557297,36.85167,0.0979749,0.8212841,33.42964030767001,121.7631351360658,2.400000095367432,7.999579855010836,-9999,2760.6784945,-0.098419189453125,-0.1307220458984375,-0.9764556884765625,2760.6684995,0.1781942491155977,-0.08302648748126129,0.1214289555203708,-0.1222461462020874,0.06734441965818405,-0.01302205864340067,-0.02508612722158432,0.03420140594244003,-0.06072479486465454,XArbitraryZVertical,0.06407038892861303,-0.03586617806002188,0.0862306262610648,0.9935657648283633,-0.08232047408819199,-0.1211307644844055,-0.989217221736908,0,0,0,-1,-1,2758.246706125,unknown,2,2022-06-02T10:46:53.968+02:00,2022-06-02T10:17:13.754+02:00,448,1.423373,0,0,345.1212,0,0,2022-06-02T10:46:53.968+02:00,675852413.9681365,0,6.613281,101.3017,1,0.81
2022-06-02T10:46:56.410+02:00,1654159607.99977,53.2290892146608,10.39854600557297,36.85167,0.0979749,0.8212841,33.42964030767001,121.7631351360658,2.400000095367432,7.999579855010836,-9999,2760.6884885,-0.0772705078125,-0.1240386962890625,-0.9386749267578125,2760.6784945,0.177947099118014,-0.08229787080389522,0.1190576646149574,-0.117514967918396,0.07208871096372604,-0.01900018937885761,-0.02814863622188568,0.01260591298341751,-0.03378552198410034,XArbitraryZVertical,0.06285702587971055,-0.03562011890070526,0.08618600638287661,0.9936558834026581,-0.08162306994199753,-0.1187765970826149,-0.9895604252815247,0,0,0,-1,-1,2758.246706125,unknown,2,2022-06-02T10:46:53.968+02:00,2022-06-02T10:17:13.754+02:00,448,1.423373,0,0,345.1212,0,0,2022-06-02T10:46:53.968+02:00,675852413.9681365,0,6.613281,101.3017,1,0.81
2022-06-02T10:46:56.420+02:00,1654159607.99977,53.2290892146608,10.39854600557297,36.85167,0.0979749,0.8212841,33.42964030767001,121.7631351360658,2.400000095367432,7.999579855010836,-9999,2760.6984825,-0.0626678466796875,-0.11138916015625,-0.906982421875,2760.6884885,0.1776064585510171,-0.08159971123619551,0.117223430882224,-0.09225861728191376,0.04395001381635666,-0.0328342467546463,-0.0174693763256073,-0.01376693695783615,0.01337695121765137,XArbitraryZVertical,0.06190997091901917,-0.03536727734497409,0.08608069144495345,0.9937335225036636,-0.0809498056769371,-0.1169551461935043,-0.9898326396942139,0,0,0,-1,-1,2758.246706125,unknown,2,2022-06-02T10:46:53.968+02:00,2022-06-02T10:17:13.754+02:00,448,1.423373,0,0,345.1212,0,0,2022-06-02T10:46:53.968+02:00,675852413.9681365,0,6.613281,101.3017,1,0.81
2022-06-02T10:46:56.430+02:00,1654159607.99977,53.2290892146608,10.39854600557297,36.85167,0.0979749,0.8212841,33.42964030767001,121.7631351360658,2.400000095367432,7.999579855010836,-9999,2760.7084775,-0.0579986572265625,-0.101898193359375,-0.925445556640625,2760.6984825,0.177134682363969,-0.08104125216847226,0.1161783038633692,-0.05301111936569214,0.0149965938180685,-0.04187534376978874,0.003136366605758667,-0.008121602237224579,0.05132406949996948,XArbitraryZVertical,0.06135856117601854,-0.03515172868214405,0.08588730576444251,0.9937920770906309,-0.08040685951709747,-0.1159171313047409,-0.9899989366531372,0,0,0,-1,-1,2758.246706125,unknown,2,2022-06-02T10:46:53.968+02:00,2022-06-02T10:17:13.754+02:00,448,1.423373,0,0,345.1212,0,0,2022-06-02T10:46:53.968+02:00,675852413.9681365,0,6.613281,101.3017,1,0.81
2022-06-02T10:46:56.440+02:00,1654159607.99977,53.2290892146608,10.39854600557297,36.85167,0.0979749,0.8212841,33.42964030767001,121.7631351360658,2.400000095367432,7.999579855010836,-9999,2760.7184715,-0.0653533935546875,-0.0950164794921875,-0.976531982421875,2760.7084775,0.1766496373587209,-0.08081808832478164,0.1155932696103169,0.001640940085053444,-0.005298824980854988,-0.04855908080935478,0.01752355694770813,0.003946825861930847,0.08310186862945557,XArbitraryZVertical,0.06104988540645753,-0.03508213630952583,0.08566637343475558,0.9938326425521069,-0.08019138872623444,-0.1153360158205032,-0.9900842905044556,0,0,0,-1,-1,2758.246706125,unknown,2,2022-06-02T10:46:53.968+02:00,2022-06-02T10:17:13.754+02:00,448,1.423373,0,0,345.1212,0,0,2022-06-02T10:46:53.968+02:00,675852413.9681365,0,6.613281,101.3017,1,0.81
2022-06-02T10:46:56.450+02:00,1654159607.99977,53.2290892146608,10.39854600557297,36.85167,0.0979749,0.8212841,33.42964030767001,121.7631351360658,2.400000095367432,7.999579855010836,-9999,2760.7284665,-0.07745361328125,-0.1301422119140625,-1.025833129882812,2760.7184715,0.176113046483558,-0.08076790753850659,0.1154338771436619,0.03702852502465248,-0.007954462431371212,-0.06149571761488914,0.02214454114437103,0.01327946037054062,0.06466108560562134,XArbitraryZVertical,0.06095915209071705,-0.03508075386170767,0.08540486285168462,0.9938607957953317,-0.08014319092035294,-0.1151776909828186,-0.9901066422462463,0,0,0,-1,-1,2758.246706125,unknown,2,2022-06-02T10:46:53.968+02:00,2022-06-02T10:17:13.754+02:00,448,1.423373,0,0,345.1212,0,0,2022-06-02T10:46:53.968+02:00,675852413.9681365,0,6.613281,101.3017,1,0.81
2022-06-02T10:46:56.460+02:00,1654159607.99977,53.2290892146608,10.39854600557297,36.85167,0.0979749,0.8212841,33.42964030767001,121.7631351360658,2.400000095367432,7.999579855010836,-9999,2760.7384605,-0.081695556640625,-0.136077880859375,-1.07342529296875,2760.7284665,0.1754558862758892,-0.08076823158876824,0.1154442275567838,0.03544900566339493,-0.01144293695688248,-0.07329592108726501,0.01479003578424454,0.02017145603895187,0.01357346773147583,XArbitraryZVertical,0.06095277315671722,-0.03510047718037415,0.08507804676370163,0.9938885812594691,-0.08014341443777084,-0.1151879727840424,-0.9901054501533508,0,0,0,-1,-1,2758.246706125,unknown,2,2022-06-02T10:46:53.968+02:00,2022-06-02T10:17:13.754+02:00,448,1.423373,0,0,345.1212,0,0,2022-06-02T10:46:53.968+02:00,675852413.9681365,0,6.613281,101.3017,1,0.81
2022-06-02T10:46:56.470+02:00,1654159607.99977,53.2290892146608,10.39854600557297,36.85167,0.0979749,0.8212841,33.42964030767001,121.7631351360658,2.400000095367432,7.999579855010836,-9999,2760.7484555,-0.092926025390625,-0.1124267578125,-1.068832397460938,2760.7384605,0.1747417420881512,-0.08087938965790298,0.1153971513817166,0.0189657025039196,-0.004349208436906338,-0.0750926211476326,0.002800308167934418,-0.01500103622674942,-0.03573119640350342,XArbitraryZVertical,0.06092156572075097,-0.0351795863416677,0.0847208367188429,0.9939181141592713,-0.08025390654802322,-0.1151412054896355,-0.9901019334793091,0,0,0,-1,-1,2758.246706125,unknown,2,2022-06-02T10:46:53.968+02:00,2022-06-02T10:17:13.754+02:00,448,1.423373,0,0,345.1212,0,0,2022-06-02T10:46:53.968+02:00,675852413.9681365,0,6.613281,101.3017,1,0.81
2022-06-02T10:46:56.480+02:00,1654159607.99977,53.2290892146608,10.39854600557297,36.85167,0.0979749,0.8212841,33.42964030767001,121.7631351360658,2.400000095367432,7.999579855010836,-9999,2760.7584495,-0.099151611328125,-0.1179962158203125,-1.055252075195312,2760.7484555,0.1739800532589898,-0.08094313246824741,0.1150432083062653,-0.02486566826701164,0.0196051262319088,-0.08152522146701813,-0.0013752281665802,-0.02128829807043076,-0.08328789472579956,XArbitraryZVertical,0.06073502105928032,-0.03525021184909603,0.08434836661470116,0.9939587133703497,-0.08032031357288361,-0.1147896125912666,-0.9901373386383057,0,0,0,-1,-1,2758.246706125,unknown,2,2022-06-02T10:46:53.968+02:00,2022-06-02T10:17:13.754+02:00,448,1.423373,0,0,345.1212,0,0,2022-06-02T10:46:53.968+02:00,675852413.9681365,0,6.613281,101.3017,1,0.81
2022-06-02T10:46:56.490+02:00,1654159607.99977,53.2290892146608,10.39854600557297,36.85167,0.0979749,0.8212841,33.42964030767001,121.7631351360658,2.400000095367432,7.999579855010836,-9999,2760.7684435,-0.0981292724609375,-0.1212921142578125,-1.007644653320312,2760.7584495,0.1731798682612664,-0.08082146280086859,0.1145929934381595,-0.05712294206023216,0.03443999961018562,-0.07693818956613541,-0.01272200793027878,0.001915574073791504,-0.07863384485244751,XArbitraryZVertical,0.06049213783265117,-0.03523397842170176,0.08396453829548708,0.9940066137077481,-0.08020400255918503,-0.1143423616886139,-0.99019855260849,0,0,0,-1,-1,2758.246706125,unknown,2,2022-06-02T10:46:53.968+02:00,2022-06-02T10:17:13.754+02:00,448,1.423373,0,0,345.1212,0,0,2022-06-02T10:46:53.968+02:00,675852413.9681365,0,6.613281,101.3017,1,0.81
2022-06-02T10:46:56.500+02:00,1654159607.99977,53.2290892146608,10.39854600557297,36.85167,0.0979749,0.8212841,33.42964030767001,121.7631351360658,2.400000095367432,7.999579855010836,-9999,2760.7784385,-0.080963134765625,-0.122222900390625,-0.9542694091796875,2760.7684435,0.1723989916031693,-0.08049884732660167,0.113921450545804,-0.1273558288812637,0.04604871943593025,-0.068982794880867,-0.01926088333129883,-0.00432104617357254,-0.06495136022567749,XArbitraryZVertical,0.06013125559609243,-0.03512685434664744,0.08360128031665674,0.9940628652020543,-0.07989070564508438,-0.1136751994490623,-0.9903006553649902,0,0,0,-1,-1,2758.246706125,unknown,2,2022-06-02T10:46:53.968+02:00,2022-06-02T10:17:13.754+02:00,448,1.423373,0,0,345.1212,0,0,2022-06-02T10:46:53.968+02:00,675852413.9681365,0,6.613281,101.3017,1,0.81
2022-06-02T10:46:56.510+02:00,1654159607.99977,53.2290892146608,10.39854600557297,36.85167,0.0979749,0.8212841,33.42964030767001,121.7631351360658,2.400000095367432,7.999579855010836,-9999,2760.7884325,-0.06085205078125,-0.0812530517578125,-0.9353485107421875,2760.7784385,0.1716536778847769,-0.08001146301519563,0.1127883070907493,-0.1341183930635452,0.03005137480795383,-0.0541258193552494,-0.01871097832918167,-0.008742824196815491,-0.01717740297317505,XArbitraryZVertical,0.05953484976384447,-0.0349567327485201,0.0832707579272991,0.9941326220575855,-0.07941827923059464,-0.1125493273139,-0.9904672503471375,0,0,0,-1,-1,2758.246706125,unknown,2,2022-06-02T10:46:53.968+02:00,2022-06-02T10:17:13.754+02:00,448,1.423373,0,0,345.1212,0,0,2022-06-02T10:46:53.968+02:00,675852413.9681365,0,6.613281,101.3017,1,0.81
2022-06-02T10:46:56.520+02:00,1654159607.99977,53.2290892146608,10.39854600557297,36.85167,0.0979749,0.8212841,33.42964030767001,121.7631351360658,2.400000095367432,7.999579855010836,-9999,2760.7984275,-0.0550384521484375,-0.051055908203125,-0.946502685546875,2760.7884325,0.1710930166767425,-0.0797178020720691,0.1117718667096468,-0.09020419418811798,9.667279664427042e-05,-0.03859399631619453,-0.001826629042625427,-0.01068364828824997,0.03633469343185425,XArbitraryZVertical,0.05900779837872241,-0.03487190164566358,0.08302339102987133,0.9941876801682067,-0.07913648337125778,-0.1115392819046974,-0.990604043006897,0,0,0,-1,-1,2758.246706125,unknown,2,2022-06-02T10:46:53.968+02:00,2022-06-02T10:17:13.754+02:00,448,1.423373,0,0,345.1212,0,0,2022-06-02T10:46:53.968+02:00,675852413.9681365,0,6.613281,101.3017,1,0.81
2022-06-02T10:46:56.530+02:00,1654159607.99977,53.2290892146608,10.39854600557297,36.85167,0.0979749,0.8212841,33.42964030767001,121.7631351360658,2.400000095367432,7.999579855010836,-9999,2760.8084215,-0.0658111572265625,-0.0707550048828125,-0.990509033203125,2760.7984275,0.1707457196465819,-0.07971085480378279,0.1112023714700212,-0.01989647746086121,-0.03477448970079422,-0.01579627394676208,0.01828261464834213,0.0297202467918396,0.05531930923461914,XArbitraryZVertical,0.05871846135180284,-0.03490354657929484,0.08286359182832106,0.9942170608443829,-0.07913465052843094,-0.1109733283519745,-0.9906677603721619,0,0,0,-1,-1,2758.246706125,unknown,2,2022-06-02T10:46:53.968+02:00,2022-06-02T10:17:13.754+02:00,448,1.423373,0,0,345.1212,0,0,2022-06-02T10:46:53.968+02:00,675852413.9681365,0,6.613281,101.3017,1,0.81
2022-06-02T10:46:56.540+02:00,1654159607.99977,53.2290892146608,10.39854600557297,36.85167,0.0979749,0.8212841,33.42964030767001,121.7631351360658,2.400000095367432,7.999579855010836,-9999,2760.8184165,-0.07598876953125,-0.1157684326171875,-1.030746459960938,2760.8084215,0.1706626166870866,-0.08006674768289274,0.1111317893656337,0.02326747216284275,-0.05690010264515877,-0.0002239057794213295,0.02444940060377121,0.05984723567962646,0.04414469003677368,XArbitraryZVertical,0.05869667385015807,-0.03508598248721896,0.08281340211231347,0.9942161175851109,-0.07948783785104752,-0.1109031811356544,-0.9906473755836487,0,0,0,-1,-1,2760.8060365,unknown,2,2022-06-02T10:46:56.528+02:00,2022-06-02T10:17:13.754+02:00,448,1.423373,0,0,345.1212,0,0,2022-06-02T10:46:56.527+02:00,675852416.5274439,0,6.703125,101.3023,1,0.81
2022-06-02T10:46:56.550+02:00,1654159607.99977,53.2290892146608,10.39854600557297,36.85167,0.0979749,0.8212841,33.42964030767001,121.7631351360658,2.400000095367432,7.999579855010836,-9999,2760.8284105,-0.0808258056640625,-0.1213836669921875,-1.05096435546875,2760.8184165,0.1706597532473236,-0.08059250140864088,0.1115706391577284,0.03142806515097618,-0.05468834564089775,-0.005358746275305748,0.01419360190629959,0.04058427363634109,4.780292510986328e-05,XArbitraryZVertical,0.05893646032448453,-0.03532827526386369,0.08278671310610032,0.9941955632371146,-0.0800047442317009,-0.111339308321476,-0.9905568361282349,0,0,0,-1,-1,2760.8060365,unknown,2,2022-06-02T10:46:56.528+02:00,2022-06-02T10:17:13.754+02:00,448,1.423373,0,0,345.1212,0,0,2022-06-02T10:46:56.527+02:00,675852416.5274439,0,6.703125,101.3023,1,0.81
2022-06-02T10:46:56.565+02:00,1654159607.99977,53.2290892146608,10.39854600557297,36.85167,0.0979749,0.8212841,33.42964030767001,121.7631351360658,2.400000095367432,7.999579855010836,-9999,2760.8384055,-0.08984375,-0.1076507568359375,-1.069671630859375,2760.8284105,0.1705495942302314,-0.08099762369999661,0.11192163013002,0.002890428528189659,-0.03929207846522331,-0.01824098825454712,0.004414103925228119,-0.004080355167388916,-0.04026114940643311,XArbitraryZVertical,0.05912568430615871,-0.03551760189090086,0.08271211684581238,0.9941837157181275,-0.08040286600589752,-0.1116881147027016,-0.9904853105545044,0,0,0,-1,-1,2760.8060365,unknown,2,2022-06-02T10:46:56.528+02:00,2022-06-02T10:17:13.754+02:00,448,1.423373,0,0,345.1212,0,0,2022-06-02T10:46:56.527+02:00,675852416.5274439,0,6.703125,101.3023,1,0.81
2022-06-02T10:46:56.582+02:00,1654159607.99977,53.2290892146608,10.39854600557297,36.85167,0.0979749,0.8212841,33.42964030767001,121.7631351360658,2.400000095367432,7.999579855010836,-9999,2760.8483995,-0.103302001953125,-0.08709716796875,-1.077316284179688,2760.8384055,0.170354018486316,-0.08129727637885426,0.1117207807240786,-0.02930066362023354,-0.01503227930516005,-0.01594827324151993,-0.0001243054866790771,-0.009895183145999908,-0.06048083305358887,XArbitraryZVertical,0.05903478820990323,-0.03568109058272822,0.08261057818036724,0.9941916669919517,-0.08070148527622223,-0.1114885210990906,-0.9904835224151611,0,0,0,-1,-1,2760.8060365,unknown,2,2022-06-02T10:46:56.528+02:00,2022-06-02T10:17:13.754+02:00,448,1.423373,0,0,345.1212,0,0,2022-06-02T10:46:56.527+02:00,675852416.5274439,0,6.703125,101.3023,1,0.81
2022-06-02T10:46:56.585+02:00,1654159607.99977,53.2290892146608,10.39854600557297,36.85167,0.0979749,0.8212841,33.42964030767001,121.7631351360658,2.400000095367432,7.999579855010836,-9999,2760.8583935,-0.096527099609375,-0.0955352783203125,-1.063919067382812,2760.8483995,0.170255321102556,-0.08139202211903976,0.1112230353192606,-0.06528742611408234,0.0103100948035717,0.00197133794426918,-0.009043902158737183,0.003343075513839722,-0.07914054393768311,XArbitraryZVertical,0.05878960256632178,-0.03575277279917555,0.08256996735920016,0.9942070307233659,-0.08079982548952103,-0.1109938621520996,-0.9905310273170471,0,0,0,-1,-1,2760.8060365,unknown,2,2022-06-02T10:46:56.528+02:00,2022-06-02T10:17:13.754+02:00,448,1.423373,0,0,345.1212,0,0,2022-06-02T10:46:56.527+02:00,675852416.5274439,0,6.703125,101.3023,1,0.81
2022-06-02T10:46:56.590+02:00,1654159607.99977,53.2290892146608,10.39854600557297,36.85167,0.0979749,0.8212841,33.42964030767001,121.7631351360658,2.400000095367432,7.999579855010836,-9999,2760.8683885,-0.070648193359375,-0.105682373046875,-1.026260375976562,2760.8583935,0.1702267040358066,-0.08133283185558332,0.1105878462983406,-0.07879295200109482,0.0227990560233593,-0.0015347795560956,-0.02255508303642273,0.02326536923646927,-0.08671039342880249,XArbitraryZVertical,0.05847100854959845,-0.03575183729662902,0.0825718187335525,0.9942257418684637,-0.08074691146612167,-0.1103625744581223,-0.990605890750885,0,0,0,-1,-1,2760.8060365,unknown,2,2022-06-02T10:46:56.528+02:00,2022-06-02T10:17:13.754+02:00,448,1.423373,0,0,345.1212,0,0,2022-06-02T10:46:56.527+02:00,675852416.5274439,0,6.703125,101.3023,1,0.81
2022-06-02T10:46:56.600+02:00,1654159607.99977,53.2290892146608,10.39854600557297,36.85167,0.0979749,0.8212841,33.42964030767001,121.7631351360658,2.400000095367432,7.999579855010836,-9999,2760.8783825,-0.0578460693359375,-0.0996856689453125,-1.00494384765625,2760.8683885,0.1700494518641452,-0.08113844795910355,0.1098448539595738,-0.1042730063199997,0.01868766732513905,-0.01683890074491501,-0.01596611738204956,0.01408877968788147,-0.0732160210609436,XArbitraryZVertical,0.05809060670396362,-0.03569268965921258,0.08250611444644081,0.994255594782821,-0.08056097477674484,-0.1096240878105164,-0.9907030463218689,0,0,0,-1,-1,2760.8060365,unknown,2,2022-06-02T10:46:56.528+02:00,2022-06-02T10:17:13.754+02:00,448,1.423373,0,0,345.1212,0,0,2022-06-02T10:46:56.527+02:00,675852416.5274439,0,6.703125,101.3023,1,0.81
2022-06-02T10:46:56.610+02:00,1654159607.99977,53.2290892146608,10.39854600557297,36.85167,0.0979749,0.8212841,33.42964030767001,121.7631351360658,2.400000095367432,7.999579855010836,-9999,2760.8883775,-0.0655059814453125,-0.0805816650390625,-1.003524780273438,2760.8783825,0.1697924271136533,-0.08078355896070058,0.1084528462034422,-0.1166438236832619,0.008093546144664288,-0.009436046704649925,0.009573429822921753,0.002557955682277679,-0.03537768125534058,XArbitraryZVertical,0.05737963547257115,-0.03558413773368951,0.08241982985223419,0.9943078526723385,-0.08022161573171616,-0.1082403659820557,-0.9908826947212219,0,0,0,-1,-1,2760.8060365,unknown,2,2022-06-02T10:46:56.528+02:00,2022-06-02T10:17:13.754+02:00,448,1.423373,0,0,345.1212,0,0,2022-06-02T10:46:56.527+02:00,675852416.5274439,0,6.703125,101.3023,1,0.81
2022-06-02T10:46:56.620+02:00,1654159607.99977,53.2290892146608,10.39854600557297,36.85167,0.0979749,0.8212841,33.42964030767001,121.7631351360658,2.400000095367432,7.999579855010836,-9999,2760.8983715,-0.081207275390625,-0.0570220947265625,-1.028030395507812,2760.8883775,0.1696523975379668,-0.0804695014296118,0.1066007616723148,-0.1058297902345657,0.00297841290012002,0.005770603194832802,0.02208033949136734,0.006713278591632843,-0.01383787393569946,XArbitraryZVertical,0.05644374705020654,-0.03551229469281071,0.08240049567334722,0.9943656001122287,-0.07992639392614365,-0.1063989773392677,-0.9911059737205505,0,0,0,-1,-1,2760.8060365,unknown,2,2022-06-02T10:46:56.528+02:00,2022-06-02T10:17:13.754+02:00,448,1.423373,0,0,345.1212,0,0,2022-06-02T10:46:56.527+02:00,675852416.5274439,0,6.703125,101.3023,1,0.81
2022-06-02T10:46:56.631+02:00,1654159607.99977,53.2290892146608,10.39854600557297,36.85167,0.0979749,0.8212841,33.42964030767001,121.7631351360658,2.400000095367432,7.999579855010836,-9999,2760.9083665,-0.0900726318359375,-0.0304718017578125,-1.021041870117188,2760.8983715,0.1697678933688522,-0.08026952942091252,0.105424077482553,-0.03932809829711914,0.01032427605241537,0.02743162587285042,0.01423221081495285,0.02464720606803894,-0.01227873563766479,XArbitraryZVertical,0.05585272474248649,-0.03546062754647701,0.08248968443261112,0.9943935032591634,-0.07973818480968475,-0.1052289009094238,-0.9912460446357727,0,0,0,-1,-1,2760.8060365,unknown,2,2022-06-02T10:46:56.528+02:00,2022-06-02T10:17:13.754+02:00,448,1.423373,0,0,345.1212,0,0,2022-06-02T10:46:56.527+02:00,675852416.5274439,0,6.703125,101.3023,1,0.81
2022-06-02T10:46:56.640+02:00,1654159607.99977,53.2290892146608,10.39854600557297,36.85167,0.0979749,0.8212841,33.42964030767001,121.7631351360658,2.400000095367432,7.999579855010836,-9999,2760.9183605,-0.0873565673828125,-0.044708251953125,-1.00823974609375,2760.9083665,0.1700891634002352,-0.08013292437402626,0.1053838322960376,0.02592866867780685,0.003086869837716222,0.04108059033751488,-0.001604147255420685,0.04816675186157227,-0.03676921129226685,XArbitraryZVertical,0.0558327716631661,-0.03538548385088802,0.08265412367224871,0.9943836609930299,-0.07960311323404312,-0.1051888763904572,-0.9912611246109009,0,0,0,-1,-1,2760.8060365,unknown,2,2022-06-02T10:46:56.528+02:00,2022-06-02T10:17:13.754+02:00,448,1.423373,0,0,345.1212,0,0,2022-06-02T10:46:56.527+02:00,675852416.5274439,0,6.703125,101.3023,1,0.81
2022-06-02T10:46:56.650+02:00,1654159607.99977,53.2290892146608,10.39854600557297,36.85167,0.0979749,0.8212841,33.42964030767001,121.7631351360658,2.400000095367432,7.999579855010836,-9999,2760.9283545,-0.0767822265625,-0.0776824951171875,-1.0040283203125,2760.9183605,0.1705732958692197,-0.08007287057070861,0.1061290157879956,0.08949113637208939,0.006027000024914742,0.04281457513570786,-0.01053532958030701,0.07545806467533112,-0.02985435724258423,XArbitraryZVertical,0.05620920018441924,-0.03530965541508933,0.08287998928841978,0.9943463610541067,-0.0795372873544693,-0.105929896235466,-0.9911875128746033,0,0,0,-1,-1,2760.8060365,unknown,2,2022-06-02T10:46:56.528+02:00,2022-06-02T10:17:13.754+02:00,448,1.423373,0,0,345.1212,0,0,2022-06-02T10:46:56.527+02:00,675852416.5274439,0,6.703125,101.3023,1,0.81
2022-06-02T10:46:56.660+02:00,1654159607.99977,53.2290892146608,10.39854600557297,36.85167,0.0979749,0.8212841,33.42964030767001,121.7631351360658,2.400000095367432,7.999579855010836,-9999,2760.9383495,-0.07818603515625,-0.11798095703125,-1.01043701171875,2760.9283545,0.1710849703530664,-0.08010617237882037,0.1069442224777641,0.09659218788146973,0.01135065872222185,0.04321112111210823,-0.007793188095092773,0.06203220039606094,-0.01714128255844116,XArbitraryZVertical,0.05662475328046682,-0.03527621673264665,0.08311534965078295,0.9943043278099092,-0.07956336438655853,-0.1067404821515083,-0.9910984635353088,0,0,0,-1,-1,2760.8060365,unknown,2,2022-06-02T10:46:56.528+02:00,2022-06-02T10:17:13.754+02:00,448,1.423373,0,0,345.1212,0,0,2022-06-02T10:46:56.527+02:00,675852416.5274439,0,6.703125,101.3023,1,0.81
2022-06-02T10:46:56.670+02:00,1654159607.99977,53.2290892146608,10.39854600557297,36.85167,0.0979749,0.8212841,33.42964030767001,121.7631351360658,2.400000095367432,7.999579855010836,-9999,2760.9483435,-0.0837554931640625,-0.137481689453125,-1.008682250976562,2760.9383495,0.1716047665150983,-0.08023722484525025,0.1073225882686466,0.0651746392250061,0.02220363914966583,0.04188240319490433,0.002907790243625641,0.02943415194749832,-0.01298063993453979,XArbitraryZVertical,0.05682741521923353,-0.03531007041025463,0.08336163994794275,0.9942709090435282,-0.07969000190496445,-0.1071166843175888,-0.9910476803779602,0,0,0,-1,-1,2760.8060365,unknown,2,2022-06-02T10:46:56.528+02:00,2022-06-02T10:17:13.754+02:00,448,1.423373,0,0,345.1212,0,0,2022-06-02T10:46:56.527+02:00,675852416.5274439,0,6.703125,101.3023,1,0.81
2022-06-02T10:46:56.681+02:00,1654159607.99977,53.2290892146608,10.39854600557297,36.85167,0.0979749,0.8212841,33.42964030767001,121.7631351360658,2.400000095367432,7.999579855010836,-9999,2760.9583385,-0.089202880859375,-0.1476287841796875,-1.01116943359375,2760.9483435,0.1721554895949231,-0.08026390384865481,0.1072967041509727,0.01010899338871241,0.02145342715084553,0.05666560679674149,0.001530639827251434,-0.01089005172252655,-0.01938867568969727,XArbitraryZVertical,0.05682538542716228,-0.03530882023149336,0.08363523444022079,0.9942481486333434,-0.07971666753292084,-0.1070909425616264,-0.9910483360290527,0,0,0,-1,-1,2760.8060365,unknown,2,2022-06-02T10:46:56.528+02:00,2022-06-02T10:17:13.754+02:00,448,1.423373,0,0,345.1212,0,0,2022-06-02T10:46:56.527+02:00,675852416.5274439,0,6.703125,101.3023,1,0.81
2022-06-02T10:46:56.690+02:00,1654159607.99977,53.2290892146608,10.39854600557297,36.85167,0.0979749,0.8212841,33.42964030767001,121.7631351360658,2.400000095367432,7.999579855010836,-9999,2760.9683325,-0.08837890625,-0.1636505126953125,-0.97515869140625,2760.9583385,0.1726795785541789,-0.07983782347494578,0.1070290947700529,-0.03752117604017258,0.03315842151641846,0.05239110440015793,-0.004458807408809662,-0.03065685927867889,-0.01757150888442993,XArbitraryZVertical,0.05668377925851324,-0.03509391563269588,0.08391380729552241,0.9942403361819688,-0.07929667830467224,-0.1068248748779297,-0.9911107420921326,0,0,0,-1,-1,2760.8060365,unknown,2,2022-06-02T10:46:56.528+02:00,2022-06-02T10:17:13.754+02:00,448,1.423373,0,0,345.1212,0,0,2022-06-02T10:46:56.527+02:00,675852416.5274439,0,6.703125,101.3023,1,0.81
2022-06-02T10:46:56.700+02:00,1654159607.99977,53.2290892146608,10.39854600557297,36.85167,0.0979749,0.8212841,33.42964030767001,121.7631351360658,2.400000095367432,7.999579855010836,-9999,2760.9783275,-0.0845184326171875,-0.1731414794921875,-0.9300689697265625,2760.9683325,0.1730420345384066,-0.07926456539361368,0.1062909200647404,-0.08451905101537704,0.03276081010699272,0.03326001763343811,-0.01046814769506454,-0.04153792560100555,-0.01993507146835327,XArbitraryZVertical,0.05629920848736602,-0.03483126921430755,0.08412648870509953,0.9942533767945605,-0.07873472571372986,-0.1060908883810043,-0.9912343621253967,0,0,0,-1,-1,2760.8060365,unknown,2,2022-06-02T10:46:56.528+02:00,2022-06-02T10:17:13.754+02:00,448,1.423373,0,0,345.1212,0,0,2022-06-02T10:46:56.527+02:00,675852416.5274439,0,6.703125,101.3023,1,0.81
2022-06-02T10:46:56.710+02:00,1654159607.99977,53.2290892146608,10.39854600557297,36.85167,0.0979749,0.8212841,33.42964030767001,121.7631351360658,2.400000095367432,7.999579855010836,-9999,2760.9883215,-0.0822601318359375,-0.1311492919921875,-0.9185333251953125,2760.9783275,0.1731535858713917,-0.07877983095109317,0.1048790314187725,-0.1169568076729774,0.02968845330178738,0.01225393544882536,-0.0101129561662674,-0.05896367877721786,0.01626205444335938,XArbitraryZVertical,0.05557909259105189,-0.03464952381418795,0.08422645602107813,0.9942918617669591,-0.07826594263315201,-0.104686863720417,-0.9914207458496094,0,0,0,-1,-1,2760.8060365,unknown,2,2022-06-02T10:46:56.528+02:00,2022-06-02T10:17:13.754+02:00,448,1.423373,0,0,345.1212,0,0,2022-06-02T10:46:56.527+02:00,675852416.5274439,0,6.703125,101.3023,1,0.81
2022-06-02T10:46:56.720+02:00,1654159607.99977,53.2290892146608,10.39854600557297,36.85167,0.0979749,0.8212841,33.42964030767001,121.7631351360658,2.400000095367432,7.999579855010836,-9999,2760.9983155,-0.0845794677734375,-0.0962982177734375,-0.9343414306640625,2760.9883215,0.1731812902506656,-0.07858688802489591,0.1028582814049226,-0.1147423908114433,0.0164251122623682,0.01078200619667768,-0.00642731785774231,-0.07046449929475784,0.06157577037811279,XArbitraryZVertical,0.05456717316283877,-0.03464208273192313,0.08428961950138338,0.9943427203979877,-0.078091099858284,-0.102677009999752,-0.9916446805000305,0,0,0,-1,-1,2760.8060365,unknown,2,2022-06-02T10:46:56.528+02:00,2022-06-02T10:17:13.754+02:00,448,1.423373,0,0,345.1212,0,0,2022-06-02T10:46:56.527+02:00,675852416.5274439,0,6.703125,101.3023,1,0.81
2022-06-02T10:46:56.730+02:00,1654159607.99977,53.2290892146608,10.39854600557297,36.85167,0.0979749,0.8212841,33.42964030767001,121.7631351360658,2.400000095367432,7.999579855010836,-9999,2761.0083105,-0.084564208984375,-0.059906005859375,-0.972869873046875,2760.9983155,0.1732402216740472,-0.07870221133660565,0.1008893281721785,-0.05752051621675491,-0.004983240272849798,0.0102720120921731,-0.004038907587528229,-0.03043105453252792,0.07330203056335449,XArbitraryZVertical,0.05359447029525777,-0.03478476691567953,0.08435863883711225,0.994384801993529,-0.07822120189666748,-0.1007182598114014,-0.9918352961540222,0,0,0,-1,-1,2760.8060365,unknown,2,2022-06-02T10:46:56.528+02:00,2022-06-02T10:17:13.754+02:00,448,1.423373,0,0,345.1212,0,0,2022-06-02T10:46:56.527+02:00,675852416.5274439,0,6.703125,101.3023,1,0.81
2022-06-02T10:46:56.740+02:00,1654159607.99977,53.2290892146608,10.39854600557297,36.85167,0.0979749,0.8212841,33.42964030767001,121.7631351360658,2.400000095367432,7.999579855010836,-9999,2761.0183045,-0.0872650146484375,-0.0377655029296875,-0.975982666015625,2761.0083105,0.1734449506698854,-0.07906092761927273,0.09998974348572531,0.04046569764614105,-0.03350569680333138,0.0290539525449276,-0.00599534809589386,0.003524959087371826,0.0575556755065918,XArbitraryZVertical,0.0531660657688944,-0.03499739604837467,0.08447045089179273,0.9943908909421759,-0.07858410477638245,-0.09982321411371231,-0.9918971061706543,0,0,0,-1,-1,2760.8060365,unknown,2,2022-06-02T10:46:56.528+02:00,2022-06-02T10:17:13.754+02:00,448,1.423373,0,0,345.1212,0,0,2022-06-02T10:46:56.527+02:00,675852416.5274439,0,6.703125,101.3023,1,0.81
2022-06-02T10:46:56.750+02:00,1654159607.99977,53.2290892146608,10.39854600557297,36.85167,0.0979749,0.8212841,33.42964030767001,121.7631351360658,2.400000095367432,7.999579855010836,-9999,2761.0282995,-0.0804595947265625,-0.064300537109375,-0.9761199951171875,2761.0183045,0.1737790413824518,-0.07945885758793729,0.100353713535341,0.1009716242551804,-0.04452432319521904,0.02610430493950844,-0.005588270723819733,0.0402793288230896,0.018959641456604,XArbitraryZVertical,0.05336964547179353,-0.03517023839242141,0.08461799346418487,0.9943613631101302,-0.07897591590881348,-0.1001853570342064,-0.9918294548988342,0,0,0,-1,-1,2760.8060365,unknown,2,2022-06-02T10:46:56.528+02:00,2022-06-02T10:17:13.754+02:00,448,1.423373,0,0,345.1212,0,0,2022-06-02T10:46:56.527+02:00,675852416.5274439,0,6.703125,101.3023,1,0.81
2022-06-02T10:46:56.760+02:00,1654159607.99977,53.2290892146608,10.39854600557297,36.85167,0.0979749,0.8212841,33.42964030767001,121.7631351360658,2.400000095367432,7.999579855010836,-9999,2761.0382935,-0.075714111328125,-0.1083526611328125,-0.9686279296875,2761.0282995,0.1741009113278501,-0.07995161604442436,0.1014845472541616,0.07398554682731628,-0.05282299965620041,0.02369068190455437,-0.007809460163116455,0.06354489922523499,0.01569420099258423,XArbitraryZVertical,0.05395820265215296,-0.03535644376166894,0.08473990839968908,0.9943125894908076,-0.07945553958415985,-0.1013104394078255,-0.9916768670082092,0,0,0,-1,-1,2760.8060365,unknown,2,2022-06-02T10:46:56.528+02:00,2022-06-02T10:17:13.754+02:00,448,1.423373,0,0,345.1212,0,0,2022-06-02T10:46:56.527+02:00,675852416.5274439,0,6.703125,101.3023,1,0.81
2022-06-02T10:46:56.770+02:00,1654159607.99977,53.2290892146608,10.39854600557297,36.85167,0.0979749,0.8212841,33.42964030767001,121.7631351360658,2.400000095367432,7.999579855010836,-9999,2761.0482885,-0.07354736328125,-0.11767578125,-0.9596099853515625,2761.0382935,0.1743450894021068,-0.08054486132857742,0.1021291498977569,-0.02925582230091095,-0.0576929897069931,0.01937809400260448,-0.0004210174083709717,0.03765112906694412,0.01544427871704102,XArbitraryZVertical,0.05430803478083361,-0.03561612888401013,0.08483095836363236,0.9942764722140903,-0.08003856241703033,-0.1019517034292221,-0.9915642738342285,0,0,0,-1,-1,2760.8060365,unknown,2,2022-06-02T10:46:56.528+02:00,2022-06-02T10:17:13.754+02:00,448,1.423373,0,0,345.1212,0,0,2022-06-02T10:46:56.527+02:00,675852416.5274439,0,6.703125,101.3023,1,0.81
2022-06-02T10:46:56.780+02:00,1654159607.99977,53.2290892146608,10.39854600557297,36.85167,0.0979749,0.8212841,33.42964030767001,121.7631351360658,2.400000095367432,7.999579855010836,-9999,2761.0582825,-0.074615478515625,-0.1115264892578125,-0.948150634765625,2761.0482885,0.1744076876806019,-0.08122964995474952,0.1017382655743023,-0.1536688655614853,-0.06767052412033081,0.006585331633687019,0.005006693303585052,-0.006789848208427429,0.02292096614837646,XArbitraryZVertical,0.05414394971224588,-0.03597224828546577,0.08485223757431472,0.9942708144065208,-0.08072078227996826,-0.1015628427267075,-0.9915488362312317,0,0,0,-1,-1,2760.8060365,unknown,2,2022-06-02T10:46:56.528+02:00,2022-06-02T10:17:13.754+02:00,448,1.423373,0,0,345.1212,0,0,2022-06-02T10:46:56.527+02:00,675852416.5274439,0,6.703125,101.3023,1,0.81
2022-06-02T10:46:56.790+02:00,1654159607.99977,53.2290892146608,10.39854600557297,36.85167,0.0979749,0.8212841,33.42964030767001,121.7631351360658,2.400000095367432,7.999579855010836,-9999,2761.0682765,-0.08343505859375,-0.1264190673828125,-0.92236328125,2761.0582825,0.1741947738296496,-0.08201654697881186,0.1003838525532755,-0.2750205993652344,-0.0797504186630249,-0.014081796631217,0.007964856922626495,-0.01746046543121338,0.03201127052307129,XArbitraryZVertical,0.0535003699111983,-0.036429388316035,0.08475567889625969,0.9942972303325813,-0.0815121978521347,-0.100215345621109,-0.991621196269989,0,0,0,-1,-1,2760.8060365,unknown,2,2022-06-02T10:46:56.528+02:00,2022-06-02T10:17:13.754+02:00,448,1.423373,0,0,345.1212,0,0,2022-06-02T10:46:56.527+02:00,675852416.5274439,0,6.703125,101.3023,1,0.81
2022-06-02T10:46:56.800+02:00,1654159607.99977,53.2290892146608,10.39854600557297,36.85167,0.0979749,0.8212841,33.42964030767001,121.7631351360658,2.400000095367432,7.999579855010836,-9999,2761.0782715,-0.0799560546875,-0.150421142578125,-0.880645751953125,2761.0682765,0.1736622613618674,-0.08292058491884084,0.09805323754397113,-0.415963888168335,-0.09803275763988495,-0.03711414709687233,0.007812291383743286,-0.01363032311201096,0.04362660646438599,XArbitraryZVertical,0.05237057149057117,-0.03699631335164352,0.08451981912641511,0.9943564906840895,-0.0824277475476265,-0.09789618849754333,-0.9917771816253662,0,0,0,-1,-1,2760.8060365,unknown,2,2022-06-02T10:46:56.528+02:00,2022-06-02T10:17:13.754+02:00,448,1.423373,0,0,345.1212,0,0,2022-06-02T10:46:56.527+02:00,675852416.5274439,0,6.703125,101.3023,1,0.81
2022-06-02T10:46:56.810+02:00,1654159607.99977,53.2290892146608,10.39854600557297,36.85167,0.0979749,0.8212841,33.42964030767001,121.7631351360658,2.400000095367432,7.999579855010836,-9999,2761.0882655,-0.0764007568359375,-0.1864776611328125,-0.824554443359375,2761.0782715,0.1726576482223968,-0.08402487402622667,0.0935864818295352,-0.6376177072525024,-0.1291501224040985,-0.07918816059827805,0.000123731791973114,-0.0329691618680954,0.0697481632232666,XArbitraryZVertical,0.05017820567205691,-0.03776831133414674,0.08409397712788912,0.9944766214346252,-0.08355877548456192,-0.09344992786645889,-0.9921113848686218,0,0,0,-1,-1,2760.8060365,unknown,2,2022-06-02T10:46:56.528+02:00,2022-06-02T10:17:13.754+02:00,448,1.423373,0,0,345.1212,0,0,2022-06-02T10:46:56.527+02:00,675852416.5274439,0,6.703125,101.3023,1,0.81
2022-06-02T10:46:56.820+02:00,1654159607.99977,53.2290892146608,10.39854600557297,36.85167,0.0979749,0.8212841,33.42964030767001,121.7631351360658,2.400000095367432,7.999579855010836,-9999,2761.0982605,-0.0964202880859375,-0.2578125,-0.7743988037109375,2761.0882655,0.1708612464652973,-0.08549441901729883,0.08588531367106221,-0.972395122051239,-0.1804718971252441,-0.1495715081691742,0.005119524896144867,-0.06464141607284546,0.1120294332504272,XArbitraryZVertical,0.04637682985907959,-0.03887940316641962,0.08334233839096949,0.9946816960945263,-0.08507556468248367,-0.08577976375818253,-0.9926751852035522,0,0,0,-1,-1,2760.8060365,unknown,2,2022-06-02T10:46:56.528+02:00,2022-06-02T10:17:13.754+02:00,448,1.423373,0,0,345.1212,0,0,2022-06-02T10:46:56.527+02:00,675852416.5274439,0,6.703125,101.3023,1,0.81
