loggingTime(txt),locationTimestamp_since1970(s),locationLatitude(WGS84),locationLongitude(WGS84),locationAltitude(m),locationSpeed(m/s),locationSpeedAccuracy(m/s),locationCourse(°),locationCourseAccuracy(°),locationVerticalAccuracy(m),locationHorizontalAccuracy(m),locationFloor(Z),accelerometerTimestamp_sinceReboot(s),accelerometerAccelerationX(G),accelerometerAccelerationY(G),accelerometerAccelerationZ(G),motionTimestamp_sinceReboot(s),motionYaw(rad),motionRoll(rad),motionPitch(rad),motionRotationRateX(rad/s),motionRotationRateY(rad/s),motionRotationRateZ(rad/s),motionUserAccelerationX(G),motionUserAccelerationY(G),motionUserAccelerationZ(G),motionAttitudeReferenceFrame(txt),motionQuaternionX(R),motionQuaternionY(R),motionQuaternionZ(R),motionQuaternionW(R),motionGravityX(G),motionGravityY(G),motionGravityZ(G),motionMagneticFieldX(µT),motionMagneticFieldY(µT),motionMagneticFieldZ(µT),motionHeading(°),motionMagneticFieldCalibrationAccuracy(Z),activityTimestamp_sinceReboot(s),activity(txt),activityActivityConfidence(Z),activityActivityStartDate(txt),pedometerStartDate(txt),pedometerNumberofSteps(N),pedometerAverageActivePace(s/m),pedometerCurrentPace(s/m),pedometerCurrentCadence(steps/s),pedometerDistance(m),pedometerFloorAscended(N),pedometerFloorDescended(N),pedometerEndDate(txt),altimeterTimestamp_sinceReboot(s),altimeterReset(bool),altimeterRelativeAltitude(m),altimeterPressure(kPa),batteryState(N),batteryLevel(R)
2022-06-02T10:47:15.652+02:00,1654159633.999854,53.22910076581099,10.39854009441299,36.92992,0.2498327,0.8066205,47.54172637826515,180,2.400000095367432,7.999579855010836,-9999,2779.89378425,0.0618133544921875,-0.0872802734375,-0.8880767822265625,2779.88379025,0.03336132504639953,0.03314306365023312,0.1496053811764701,0.2524665594100952,0.1185779795050621,-0.2870290279388428,0.08774706721305847,-0.03686517477035522,0.1118525862693787,XArbitraryZVertical,0.07443667431250064,0.01776850339474082,0.01786917326484992,0.9969072208542931,0.03276685625314713,-0.149047926068306,-0.9882869124412537,0,0,0,-1,-1,2776.148117666667,unknown,2,2022-06-02T10:47:11.870+02:00,2022-06-02T10:17:13.754+02:00,448,1.423373,0,0,345.1212,0,0,2022-06-02T10:47:14.422+02:00,675852424.2018327,0,7.230469,101.293,1,0.81
2022-06-02T10:47:15.655+02:00,1654159633.999854,53.22910076581099,10.39854009441299,36.92992,0.2498327,0.8066205,47.54172637826515,180,2.400000095367432,7.999579855010836,-9999,2779.90377825,-0.0130157470703125,-0.090240478515625,-0.933929443359375,2779.89378425,0.03029020365865187,0.03442897335279996,0.1525589495415136,0.2981058359146118,0.04559538140892982,-0.283575177192688,0.05682846531271935,0.009359180927276611,0.1130896210670471,XArbitraryZVertical,0.07592556874667285,0.0183155407828661,0.01640987316482423,0.9968100787929259,0.03402237221598625,-0.151967853307724,-0.9877997040748596,0,0,0,-1,-1,2776.148117666667,unknown,2,2022-06-02T10:47:11.870+02:00,2022-06-02T10:17:13.754+02:00,448,1.423373,0,0,345.1212,0,0,2022-06-02T10:47:14.422+02:00,675852424.2018327,0,7.230469,101.293,1,0.81
2022-06-02T10:47:15.658+02:00,1654159633.999854,53.22910076581099,10.39854009441299,36.92992,0.2498327,0.8066205,47.54172637826515,180,2.400000095367432,7.999579855010836,-9999,2779.91377325,-0.0900421142578125,-0.0690460205078125,-0.9750823974609375,2779.90377825,0.02816516304593148,0.03491427878765695,0.1555723586704225,0.3928589820861816,-0.09398169070482254,-0.03858247771859169,-0.01274183019995689,0.08719652891159058,0.07876688241958618,XArbitraryZVertical,0.07744313400555604,0.01849586450764435,0.0153937460254008,0.9967063680995629,0.03448561206459999,-0.1549455672502518,-0.9873208999633789,0,0,0,-1,-1,2776.148117666667,unknown,2,2022-06-02T10:47:11.870+02:00,2022-06-02T10:17:13.754+02:00,448,1.423373,0,0,345.1212,0,0,2022-06-02T10:47:14.422+02:00,675852424.2018327,0,7.230469,101.293,1,0.81
2022-06-02T10:47:15.667+02:00,1654159633.999854,53.22910076581099,10.39854009441299,36.92992,0.2498327,0.8066205,47.54172637826515,180,2.400000095367432,7.999579855010836,-9999,2779.92376725,-0.03369140625,-0.161865234375,-1.021148681640625,2779.91377325,0.02934133588091459,0.03365844364108978,0.159707914773858,0.26032355427742,-0.06849497556686401,0.1457317024469376,-0.07420892268419266,0.08291897177696228,0.02237439155578613,XArbitraryZVertical,0.07950314905986741,0.01794305452591292,0.01596356666076112,0.9965452746069426,0.03322382643818855,-0.1590298414230347,-0.9867146015167236,0,0,0,-1,-1,2776.148117666667,unknown,2,2022-06-02T10:47:11.870+02:00,2022-06-02T10:17:13.754+02:00,448,1.423373,0,0,345.1212,0,0,2022-06-02T10:47:14.422+02:00,675852424.2018327,0,7.230469,101.293,1,0.81
2022-06-02T10:47:15.671+02:00,1654159633.999854,53.22910076581099,10.39854009441299,36.92992,0.2498327,0.8066205,47.54172637826515,180,2.400000095367432,7.999579855010836,-9999,2779.93376225,0.0688018798828125,-0.1803131103515625,-1.022750854492188,2779.92376725,0.03083627132384394,0.03343285826357528,0.1612994642251194,0.05118845403194427,0.02417717501521111,0.2118465453386307,-0.1330140829086304,0.04846407473087311,-0.006497800350189209,XArbitraryZVertical,0.08028462438339402,0.01790123534689111,0.01671175577469599,0.9964711011578125,0.03299273177981377,-0.160600945353508,-0.9864678382873535,0,0,0,-1,-1,2776.148117666667,unknown,2,2022-06-02T10:47:11.870+02:00,2022-06-02T10:17:13.754+02:00,448,1.423373,0,0,345.1212,0,0,2022-06-02T10:47:14.422+02:00,675852424.2018327,0,7.230469,101.293,1,0.81
2022-06-02T10:47:15.673+02:00,1654159633.999854,53.22910076581099,10.39854009441299,36.92992,0.2498327,0.8066205,47.54172637826515,180,2.400000095367432,7.999579855010836,-9999,2779.94375625,0.0365447998046875,-0.17022705078125,-1.015457153320312,2779.93376225,0.03345099704827274,0.03330512938389711,0.1610301562646727,-0.1610824316740036,0.02935402654111385,0.2783936858177185,0.008239012211561203,-0.02449460327625275,-0.04545187950134277,XArbitraryZVertical,0.08012811993212332,0.01794047950749536,0.01800731113302497,0.9964604237036454,0.03286817297339439,-0.1603351235389709,-0.98651522397995,0,0,0,-1,-1,2776.148117666667,unknown,2,2022-06-02T10:47:11.870+02:00,2022-06-02T10:17:13.754+02:00,448,1.423373,0,0,345.1212,0,0,2022-06-02T10:47:14.422+02:00,675852424.2018327,0,7.230469,101.293,1,0.81
2022-06-02T10:47:15.676+02:00,1654159633.999854,53.22910076581099,10.39854009441299,36.92992,0.2498327,0.8066205,47.54172637826515,180,2.400000095367432,7.999579855010836,-9999,2779.95375025,0.0463104248046875,-0.16741943359375,-1.006484985351562,2779.94375625,0.03621270076893933,0.03338566785608377,0.1589489262537191,-0.272093653678894,0.05741895362734795,0.2455007135868073,0.02272063866257668,-0.01086322963237762,-0.02850633859634399,XArbitraryZVertical,0.07906549057372815,0.01807384265619021,0.01937067674231575,0.9965173418367528,0.03295869007706642,-0.1582804769277573,-0.9868439435958862,0,0,0,-1,-1,2776.148117666667,unknown,2,2022-06-02T10:47:11.870+02:00,2022-06-02T10:17:13.754+02:00,448,1.423373,0,0,345.1212,0,0,2022-06-02T10:47:14.422+02:00,675852424.2018327,0,7.230469,101.293,1,0.81
2022-06-02T10:47:15.686+02:00,1654159633.999854,53.22910076581099,10.39854009441299,36.92992,0.2498327,0.8066205,47.54172637826515,180,2.400000095367432,7.999579855010836,-9999,2779.96374525,0.0823516845703125,-0.1690826416015625,-0.9919891357421875,2779.95375025,0.03870722135705734,0.03369958512602956,0.1563573667338188,-0.3004888892173767,0.07321848720312119,0.2276920825242996,-0.003909006714820862,-0.0218149870634079,-0.02621805667877197,XArbitraryZVertical,0.07774828819557905,0.01830557617138004,0.02060619836834815,0.9965919351689143,0.03328218683600426,-0.155721053481102,-0.987240195274353,0,0,0,-1,-1,2776.148117666667,unknown,2,2022-06-02T10:47:11.870+02:00,2022-06-02T10:17:13.754+02:00,448,1.423373,0,0,345.1212,0,0,2022-06-02T10:47:14.422+02:00,675852424.2018327,0,7.230469,101.293,1,0.81
2022-06-02T10:47:15.696+02:00,1654159633.999854,53.22910076581099,10.39854009441299,36.92992,0.2498327,0.8066205,47.54172637826515,180,2.400000095367432,7.999579855010836,-9999,2779.97373925,0.097381591796875,-0.1422576904296875,-0.984649658203125,2779.96374525,0.04053278089914206,0.03442206610013417,0.153616610958313,-0.2520648837089539,0.1092004552483559,0.1019796952605247,0.03483766689896584,-0.007387280464172363,-0.008226096630096436,XArbitraryZVertical,0.07635794994679948,0.01871067892482801,0.02152257767334976,0.9966725383790568,0.03401000052690506,-0.1530131548643112,-0.9876387715339661,0,0,0,-1,-1,2776.148117666667,unknown,2,2022-06-02T10:47:11.870+02:00,2022-06-02T10:17:13.754+02:00,448,1.423373,0,0,345.1212,0,0,2022-06-02T10:47:14.422+02:00,675852424.2018327,0,7.230469,101.293,1,0.81
2022-06-02T10:47:15.705+02:00,1654159633.999854,53.22910076581099,10.39854009441299,36.92992,0.2498327,0.8066205,47.54172637826515,180,2.400000095367432,7.999579855010836,-9999,2779.98373325,0.0594329833984375,-0.15472412109375,-0.9758453369140625,2779.97373925,0.04125663229326176,0.03525193952282834,0.1520579902208552,-0.09801138937473297,0.07658212631940842,0.03245434537529945,0.06059050932526588,-0.01306286454200745,-0.002081871032714844,XArbitraryZVertical,0.07556531178409996,0.01913688694715545,0.02190251034540373,0.9967166183912535,0.03483796492218971,-0.1514727026224136,-0.9878473281860352,0,0,0,-1,-1,2776.148117666667,unknown,2,2022-06-02T10:47:11.870+02:00,2022-06-02T10:17:13.754+02:00,448,1.423373,0,0,345.1212,0,0,2022-06-02T10:47:14.422+02:00,675852424.2018327,0,7.230469,101.293,1,0.81
2022-06-02T10:47:15.715+02:00,1654159633.999854,53.22910076581099,10.39854009441299,36.92992,0.2498327,0.8066205,47.54172637826515,180,2.400000095367432,7.999579855010836,-9999,2779.99372825,0.048004150390625,-0.153656005859375,-1.001922607421875,2779.98373325,0.04105424580217034,0.03616688883110745,0.151838712083264,0.03353465721011162,0.08817699551582336,-0.07176686078310013,0.04409101232886314,0.01569682359695435,0.009942948818206787,XArbitraryZVertical,0.07544798944890833,0.01958312105508526,0.02183441411068222,0.996718224780594,0.03574298322200775,-0.1512559503316879,-0.9878482222557068,0,0,0,-1,-1,2776.148117666667,unknown,2,2022-06-02T10:47:11.870+02:00,2022-06-02T10:17:13.754+02:00,448,1.423373,0,0,345.1212,0,0,2022-06-02T10:47:14.422+02:00,675852424.2018327,0,7.230469,101.293,1,0.81
2022-06-02T10:47:15.725+02:00,1654159633.999854,53.22910076581099,10.39854009441299,36.92992,0.2498327,0.8066205,47.54172637826515,180,2.400000095367432,7.999579855010836,-9999,2780.00372225,0.031280517578125,-0.1482086181640625,-1.015960693359375,2779.99372825,0.04026703696098433,0.0370361128628314,0.1528243397308634,0.1175685673952103,0.05704863741993904,-0.06104630976915359,0.01394102349877357,-0.01282419264316559,0.0006678104400634766,XArbitraryZVertical,0.075937583190753,0.01999580796319479,0.02148323472214056,0.9966804482251579,0.03659609332680702,-0.1522301584482193,-0.9876673221588135,0,0,0,-1,-1,2776.148117666667,unknown,2,2022-06-02T10:47:11.870+02:00,2022-06-02T10:17:13.754+02:00,448,1.423373,0,0,345.1212,0,0,2022-06-02T10:47:14.422+02:00,675852424.2018327,0,7.230469,101.293,1,0.81
2022-06-02T10:47:15.735+02:00,1654159633.999854,53.22910076581099,10.39854009441299,36.92992,0.2498327,0.8066205,47.54172637826515,180,2.400000095367432,7.999579855010836,-9999,2780.01371725,0.0294647216796875,-0.1702117919921875,-1.024017333984375,2780.00372225,0.03979825386978179,0.03778063043971392,0.1539571063965766,0.08879205584526062,0.06594013422727585,-0.01866529695689678,0.003736525774002075,0.0112750232219696,-0.02235978841781616,XArbitraryZVertical,0.0764988666792361,0.02035944456144724,0.02128768844466447,0.9966344614770468,0.03732487931847572,-0.1533496230840683,-0.9874668121337891,0,0,0,-1,-1,2776.148117666667,unknown,2,2022-06-02T10:47:11.870+02:00,2022-06-02T10:17:13.754+02:00,448,1.423373,0,0,345.1212,0,0,2022-06-02T10:47:14.422+02:00,675852424.2018327,0,7.230469,101.293,1,0.81
2022-06-02T10:47:15.745+02:00,1654159633.999854,53.22910076581099,10.39854009441299,36.92992,0.2498327,0.8066205,47.54172637826515,180,2.400000095367432,7.999579855010836,-9999,2780.02371125,0.0301055908203125,-0.169769287109375,-1.013259887695312,2780.01371725,0.03984886944953186,0.03843423813716565,0.1548466714596164,0.05705113708972931,0.05964542180299759,0.03564887493848801,-0.009827814996242523,-0.008979424834251404,-0.03607094287872314,XArbitraryZVertical,0.07693468678105422,0.02069525879629694,0.02134574748353377,0.9965927073361986,0.03796502947807312,-0.154228612780571,-0.9873055219650269,0,0,0,-1,-1,2776.148117666667,unknown,2,2022-06-02T10:47:11.870+02:00,2022-06-02T10:17:13.754+02:00,448,1.423373,0,0,345.1212,0,0,2022-06-02T10:47:14.422+02:00,675852424.2018327,0,7.230469,101.293,1,0.81
2022-06-02T10:47:15.755+02:00,1654159633.999854,53.22910076581099,10.39854009441299,36.92992,0.2498327,0.8066205,47.54172637826515,180,2.400000095367432,7.999579855010836,-9999,2780.03370525,0.0193023681640625,-0.1569976806640625,-1.018478393554688,2780.02371125,0.04049632684853077,0.03905813731032262,0.1552880064961,0.004036121070384979,0.07274711132049561,0.1049965247511864,-0.0058329738676548,-0.01658476889133453,-0.02757221460342407,XArbitraryZVertical,0.07714114433336283,0.02103516707568608,0.02169631802542599,0.9965620590870183,0.0385783426463604,-0.1546646505594254,-0.9872135519981384,0,0,0,-1,-1,2776.148117666667,unknown,2,2022-06-02T10:47:11.870+02:00,2022-06-02T10:17:13.754+02:00,448,1.423373,0,0,345.1212,0,0,2022-06-02T10:47:14.422+02:00,675852424.2018327,0,7.230469,101.293,1,0.81
2022-06-02T10:47:15.765+02:00,1654159633.999854,53.22910076581099,10.39854009441299,36.92992,0.2498327,0.8066205,47.54172637826515,180,2.400000095367432,7.999579855010836,-9999,2780.04370025,0.02252197265625,-0.153961181640625,-1.008026123046875,2780.03370525,0.04190478655108448,0.03969586555246817,0.1552144871278685,-0.05833341181278229,0.08982110023498535,0.1664016395807266,-0.01444333419203758,-0.008722841739654541,-0.03194969892501831,XArbitraryZVertical,0.07708253240618634,0.02140653824465309,0.02242204612706512,0.996542601302324,0.03920836001634598,-0.1545920073986053,-0.9872000813484192,0,0,0,-1,-1,2776.148117666667,unknown,2,2022-06-02T10:47:11.870+02:00,2022-06-02T10:17:13.754+02:00,448,1.423373,0,0,345.1212,0,0,2022-06-02T10:47:14.422+02:00,675852424.2018327,0,7.230469,101.293,1,0.81
2022-06-02T10:47:15.775+02:00,1654159633.999854,53.22910076581099,10.39854009441299,36.92992,0.2498327,0.8066205,47.54172637826515,180,2.400000095367432,7.999579855010836,-9999,2780.05369425,0.0425567626953125,-0.16949462890625,-0.9871368408203125,2780.04370025,0.04366309754002238,0.04148309084967308,0.1545815953008072,-0.1134350150823593,0.08374430239200592,0.211692675948143,-0.02278820797801018,0.001546621322631836,-0.02533197402954102,XArbitraryZVertical,0.07672746663683419,0.02235841574919613,0.0233610014275322,0.9965275400146522,0.04097669199109077,-0.1539666950702667,-0.9872260093688965,0,0,0,-1,-1,2776.148117666667,unknown,2,2022-06-02T10:47:11.870+02:00,2022-06-02T10:17:13.754+02:00,448,1.423373,0,0,345.1212,0,0,2022-06-02T10:47:14.422+02:00,675852424.2018327,0,7.230469,101.293,1,0.81
2022-06-02T10:47:15.785+02:00,1654159633.999854,53.22910076581099,10.39854009441299,36.92992,0.2498327,0.8066205,47.54172637826515,180,2.400000095367432,7.999579855010836,-9999,2780.06368825,0.052734375,-0.1806182861328125,-0.9683837890625,2780.05369425,0.0455145728474884,0.04436840047818488,0.1538146715485817,-0.1459750831127167,0.07100114226341248,0.2153355479240417,-0.01119163632392883,-0.01089943945407867,-0.0138314962387085,XArbitraryZVertical,0.07628948158210531,0.0238589838012524,0.02438634491340067,0.996501765156101,0.04383019730448723,-0.1532088667154312,-0.9872213006019592,0,0,0,-1,-1,2776.148117666667,unknown,2,2022-06-02T10:47:11.870+02:00,2022-06-02T10:17:13.754+02:00,448,1.423373,0,0,345.1212,0,0,2022-06-02T10:47:14.422+02:00,675852424.2018327,0,7.230469,101.293,1,0.81
2022-06-02T10:47:15.795+02:00,1654159633.999854,53.22910076581099,10.39854009441299,36.92992,0.2498327,0.8066205,47.54172637826515,180,2.400000095367432,7.999579855010836,-9999,2780.07368325,0.05596923828125,-0.173553466796875,-0.97735595703125,2780.06368825,0.04756632111201482,0.04625649210050702,0.1516061041402837,-0.1835711896419525,0.05899694189429283,0.2247080057859421,0.003042221069335938,-0.02374818921089172,0.01333606243133545,XArbitraryZVertical,0.07514042827012578,0.02485370986209161,0.02545714662338384,0.9965381003637668,0.04570961743593216,-0.1510260105133057,-0.9874724149703979,0,0,0,-1,-1,2776.148117666667,unknown,2,2022-06-02T10:47:11.870+02:00,2022-06-02T10:17:13.754+02:00,448,1.423373,0,0,345.1212,0,0,2022-06-02T10:47:14.422+02:00,675852424.2018327,0,7.230469,101.293,1,0.81
2022-06-02T10:47:15.805+02:00,1654159633.999854,53.22910076581099,10.39854009441299,36.92992,0.2498327,0.8066205,47.54172637826515,180,2.400000095367432,7.999579855010836,-9999,2780.08367725,0.065887451171875,-0.164459228515625,-0.987640380859375,2780.08367725,0.05145262955951539,0.04656718531744011,0.1479006547990314,-0.1275733709335327,0.06479930132627487,0.1106137931346893,0.01320773363113403,-0.02082036435604095,0.008106231689453125,XArbitraryZVertical,0.07324123247693741,0.02511018685442393,0.02736575506608575,0.9966224590447732,0.04604214802384377,-0.1473620384931564,-0.9880104064941406,0,0,0,-1,-1,2776.148117666667,unknown,2,2022-06-02T10:47:11.870+02:00,2022-06-02T10:17:13.754+02:00,448,1.423373,0,0,345.1212,0,0,2022-06-02T10:47:14.422+02:00,675852424.2018327,0,7.230469,101.293,1,0.81
2022-06-02T10:47:15.815+02:00,1654159633.999854,53.22910076581099,10.39854009441299,36.92992,0.2498327,0.8066205,47.54172637826515,180,2.400000095367432,7.999579855010836,-9999,2780.09367125,0.0643463134765625,-0.1556396484375,-1.009658813476562,2780.08367725,0.05145262955951539,0.04656718531744011,0.1479006547990314,-0.1275733709335327,0.06479930132627487,0.1106137931346893,0.01320773363113403,-0.02082036435604095,0.008106231689453125,XArbitraryZVertical,0.07324123247693741,0.02511018685442393,0.02736575506608575,0.9966224590447732,0.04604214802384377,-0.1473620384931564,-0.9880104064941406,0,0,0,-1,-1,2776.148117666667,unknown,2,2022-06-02T10:47:11.870+02:00,2022-06-02T10:17:13.754+02:00,448,1.423373,0,0,345.1212,0,0,2022-06-02T10:47:14.422+02:00,675852424.2018327,0,7.230469,101.293,1,0.81
2022-06-02T10:47:15.825+02:00,1654159633.999854,53.22910076581099,10.39854009441299,36.92992,0.2498327,0.8066205,47.54172637826515,180,2.400000095367432,7.999579855010836,-9999,2780.10366625,0.0470428466796875,-0.171539306640625,-1.014892578125,2780.09367125,0.05270213696296586,0.04469134787563148,0.1483889214293088,-0.02930961921811104,0.04993094131350517,0.05836969986557961,0.02511992305517197,-0.01017509400844574,-0.01194643974304199,XArbitraryZVertical,0.07349507521696334,0.02422720254182904,0.02792466210979048,0.9966101674619242,0.04418550431728363,-0.1478449553251266,-0.988023042678833,0,0,0,-1,-1,2776.148117666667,unknown,2,2022-06-02T10:47:11.870+02:00,2022-06-02T10:17:13.754+02:00,448,1.423373,0,0,345.1212,0,0,2022-06-02T10:47:14.422+02:00,675852424.2018327,0,7.230469,101.293,1,0.81
2022-06-02T10:47:15.835+02:00,1654159633.999854,53.22910076581099,10.39854009441299,36.92992,0.2498327,0.8066205,47.54172637826515,180,2.400000095367432,7.999579855010836,-9999,2780.11366025,0.0347900390625,-0.1776275634765625,-1.032943725585938,2780.10366625,0.05321683706228683,0.04371163666251385,0.150205259782683,0.002554304432123899,0.04367304593324661,0.009964883327484131,0.01309924200177193,-0.01179692149162292,-0.02390754222869873,XArbitraryZVertical,0.07440778057923141,0.02378053231987427,0.02816312173423023,0.9965464300440187,0.04320569708943367,-0.1496410816907883,-0.9877959489822388,0,0,0,-1,-1,2776.148117666667,unknown,2,2022-06-02T10:47:11.870+02:00,2022-06-02T10:17:13.754+02:00,448,1.423373,0,0,345.1212,0,0,2022-06-02T10:47:14.422+02:00,675852424.2018327,0,7.230469,101.293,1,0.81
2022-06-02T10:47:15.845+02:00,1654159633.999854,53.22910076581099,10.39854009441299,36.92992,0.2498327,0.8066205,47.54172637826515,180,2.400000095367432,7.999579855010836,-9999,2780.12365525,0.0354156494140625,-0.1580047607421875,-1.01666259765625,2780.11366025,0.05351913809584155,0.04220392370683751,0.1511065910531092,0.03445937484502792,0.03614881634712219,-0.009974470362067223,-0.00103069469332695,-0.02866703271865845,-0.03325599431991577,XArbitraryZVertical,0.07487465488705591,0.02305182841680165,0.02826622356267533,0.9965256596904417,0.04171063005924225,-0.1505322009325027,-0.987724781036377,0,0,0,-1,-1,2776.148117666667,unknown,2,2022-06-02T10:47:11.870+02:00,2022-06-02T10:17:13.754+02:00,448,1.423373,0,0,345.1212,0,0,2022-06-02T10:47:14.422+02:00,675852424.2018327,0,7.230469,101.293,1,0.81
2022-06-02T10:47:15.855+02:00,1654159633.999854,53.22910076581099,10.39854009441299,36.92992,0.2498327,0.8066205,47.54172637826515,180,2.400000095367432,7.999579855010836,-9999,2780.13364925,0.03369140625,-0.1475830078125,-1.006881713867188,2780.12365525,0.05352433471261645,0.0407170825806718,0.151561758784677,0.09748920798301697,0.03673284873366356,-0.0383555106818676,-0.006715640425682068,-0.01568959653377533,-0.04521125555038452,XArbitraryZVertical,0.07512240806772966,0.02231690171570529,0.02821730135147931,0.9965250707847907,0.04023919999599457,-0.1509821712970734,-0.9877171516418457,0,0,0,-1,-1,2776.148117666667,unknown,2,2022-06-02T10:47:11.870+02:00,2022-06-02T10:17:13.754+02:00,448,1.423373,0,0,345.1212,0,0,2022-06-02T10:47:14.422+02:00,675852424.2018327,0,7.230469,101.293,1,0.81
2022-06-02T10:47:15.865+02:00,1654159633.999854,53.22910076581099,10.39854009441299,36.92992,0.2498327,0.8066205,47.54172637826515,180,2.400000095367432,7.999579855010836,-9999,2780.14364325,0.0296478271484375,-0.156402587890625,-1.0054931640625,2780.13364925,0.05315466900159786,0.04057215819365377,0.1534079192847799,0.13984514772892,0.03165386617183685,-0.03644809126853943,-0.003417808562517166,0.001989021897315979,-0.01985085010528564,XArbitraryZVertical,0.07604848745360636,0.02225383437204392,0.02804446272250755,0.9964610843272871,0.04008468240499496,-0.1528069078922272,-0.9874427914619446,0,0,0,-1,-1,2776.148117666667,unknown,2,2022-06-02T10:47:11.870+02:00,2022-06-02T10:17:13.754+02:00,448,1.423373,0,0,345.1212,0,0,2022-06-02T10:47:14.422+02:00,675852424.2018327,0,7.230469,101.293,1,0.81
2022-06-02T10:47:15.875+02:00,1654159633.999854,53.22910076581099,10.39854009441299,36.92992,0.2498327,0.8066205,47.54172637826515,180,2.400000095367432,7.999579855010836,-9999,2780.15363825,0.0349578857421875,-0.1636962890625,-0.9927215576171875,2780.14364325,0.0528297077223691,0.04152780263262019,0.1559296094885751,0.1229990646243095,0.03311407566070557,0.01078573614358902,-0.01137960329651833,0.006036996841430664,-0.02152901887893677,XArbitraryZVertical,0.07729518550525057,0.02274877928805431,0.02794240911762689,0.9963569201928087,0.04101217910647392,-0.1552985012531281,-0.9870159029960632,0,0,0,-1,-1,2776.148117666667,unknown,2,2022-06-02T10:47:11.870+02:00,2022-06-02T10:17:13.754+02:00,448,1.423373,0,0,345.1212,0,0,2022-06-02T10:47:14.422+02:00,675852424.2018327,0,7.230469,101.293,1,0.81
2022-06-02T10:47:15.885+02:00,1654159633.999854,53.22910076581099,10.39854009441299,36.92992,0.2498327,0.8066205,47.54172637826515,180,2.400000095367432,7.999579855010836,-9999,2780.16363225,0.0308837890625,-0.1855010986328125,-0.9778289794921875,2780.15363825,0.05305364764919918,0.04248674096520619,0.1583185093452128,0.08947941660881042,0.0136018292978406,0.05894853547215462,-0.009166885167360306,-0.003123924136161804,-0.01293957233428955,XArbitraryZVertical,0.07846931254260503,0.0232647393270629,0.02811382791985981,0.9962483542558406,0.0419427715241909,-0.1576579660177231,-0.9866026639938354,0,0,0,-1,-1,2776.148117666667,unknown,2,2022-06-02T10:47:11.870+02:00,2022-06-02T10:17:13.754+02:00,448,1.423373,0,0,345.1212,0,0,2022-06-02T10:47:14.422+02:00,675852424.2018327,0,7.230469,101.293,1,0.81
2022-06-02T10:47:15.895+02:00,1654159633.999854,53.22910076581099,10.39854009441299,36.92992,0.2498327,0.8066205,47.54172637826515,180,2.400000095367432,7.999579855010836,-9999,2780.17362625,0.02789306640625,-0.214447021484375,-0.9838104248046875,2780.16363225,0.05357103078698251,0.04351542599493794,0.1592671592906849,-0.03252984583377838,0.01805836334824562,0.08235906064510345,-0.00906134769320488,-0.01347871124744415,0.0006760954856872559,XArbitraryZVertical,0.07892126054954668,0.02380928666047568,0.02842117758995703,0.996191055054112,0.04295112565159798,-0.1585946828126907,-0.9864091277122498,0,0,0,-1,-1,2776.148117666667,unknown,2,2022-06-02T10:47:11.870+02:00,2022-06-02T10:17:13.754+02:00,448,1.423373,0,0,345.1212,0,0,2022-06-02T10:47:14.422+02:00,675852424.2018327,0,7.230469,101.293,1,0.81
2022-06-02T10:47:15.905+02:00,1654159633.999854,53.22910076581099,10.39854009441299,36.92992,0.2498327,0.8066205,47.54172637826515,180,2.400000095367432,7.999579855010836,-9999,2780.18362125,0.0442657470703125,-0.160980224609375,-0.9976043701171875,2780.17362625,0.05429343544474448,0.04525010409451326,0.1582948685352876,-0.1254899799823761,0.02791372314095497,0.09896700084209442,-0.01674553006887436,-0.04707731306552887,0.01172477006912231,XArbitraryZVertical,0.07840332329810544,0.0246895287773264,0.02883952052762172,0.9961985576916761,0.04466911777853966,-0.1576346307992935,-0.9864866733551025,0,0,0,-1,-1,2776.148117666667,unknown,2,2022-06-02T10:47:11.870+02:00,2022-06-02T10:17:13.754+02:00,448,1.423373,0,0,345.1212,0,0,2022-06-02T10:47:14.422+02:00,675852424.2018327,0,7.230469,101.293,1,0.81
2022-06-02T10:47:15.915+02:00,1654159633.999854,53.22910076581099,10.39854009441299,36.92992,0.2498327,0.8066205,47.54172637826515,180,2.400000095367432,7.999579855010836,-9999,2780.19361525,0.0506591796875,-0.0996246337890625,-1.008926391601562,2780.18362125,0.05502194225642325,0.04601178446095201,0.1573851739731508,-0.04779651761054993,0.02080175280570984,0.05194888636469841,-0.01172039657831192,-0.04199425876140594,-0.01129907369613647,XArbitraryZVertical,0.07793003571276046,0.02508582784754419,0.02922280064915889,0.9962146147766192,0.04542706906795502,-0.1567362397909164,-0.9865952134132385,0,0,0,-1,-1,2776.148117666667,unknown,2,2022-06-02T10:47:11.870+02:00,2022-06-02T10:17:13.754+02:00,448,1.423373,0,0,345.1212,0,0,2022-06-02T10:47:14.422+02:00,675852424.2018327,0,7.230469,101.293,1,0.81
2022-06-02T10:47:15.925+02:00,1654159633.999854,53.22910076581099,10.39854009441299,36.92992,0.2498327,0.8066205,47.54172637826515,180,2.400000095367432,7.999579855010836,-9999,2780.20360925,0.0507354736328125,-0.1281585693359375,-0.9983367919921875,2780.19361525,0.05532377457917237,0.04565608777735688,0.1588159325975604,0.1314731985330582,0.003471696749329567,-0.003396862186491489,0.004204779863357544,0.0365976095199585,-0.01271343231201172,XArbitraryZVertical,0.07864419075730535,0.02493884274635143,0.02937399426567092,0.9961577784869784,0.04506585747003555,-0.1581491529941559,-0.9863862991333008,0,0,0,-1,-1,2776.148117666667,unknown,2,2022-06-02T10:47:11.870+02:00,2022-06-02T10:17:13.754+02:00,448,1.423373,0,0,345.1212,0,0,2022-06-02T10:47:14.422+02:00,675852424.2018327,0,7.230469,101.293,1,0.81
2022-06-02T10:47:15.935+02:00,1654159633.999854,53.22910076581099,10.39854009441299,36.92992,0.2498327,0.8066205,47.54172637826515,180,2.400000095367432,7.999579855010836,-9999,2780.21360425,0.0561676025390625,-0.1644287109375,-0.989776611328125,2780.20360925,0.05520785371872262,0.0449236825298967,0.1607361045825806,0.2395027428865433,0.002996055874973536,-0.02015267312526703,0.006009060889482498,0.05442351102828979,-0.02267521619796753,XArbitraryZVertical,0.07961283258977461,0.02459417422198522,0.02930682690438854,0.996091373336533,0.0443296916782856,-0.160044863820076,-0.9861138463020325,0,0,0,-1,-1,2776.148117666667,unknown,2,2022-06-02T10:47:11.870+02:00,2022-06-02T10:17:13.754+02:00,448,1.423373,0,0,345.1212,0,0,2022-06-02T10:47:14.422+02:00,675852424.2018327,0,7.230469,101.293,1,0.81
2022-06-02T10:47:15.945+02:00,1654159633.999854,53.22910076581099,10.39854009441299,36.92992,0.2498327,0.8066205,47.54172637826515,180,2.400000095367432,7.999579855010836,-9999,2780.22359825,0.0469207763671875,-0.1644134521484375,-0.98809814453125,2780.21360425,0.05519305423707218,0.04437384813491081,0.1625623541452666,0.2634035348892212,-0.01226305775344372,0.02385606244206429,0.009905979037284851,0.01098363101482391,-0.003932178020477295,XArbitraryZVertical,0.08053068749236673,0.02434321489954587,0.029295719248546,0.9960240485368289,0.04377444460988045,-0.1618473082780838,-0.9858444333076477,0,0,0,-1,-1,2776.148117666667,unknown,2,2022-06-02T10:47:11.870+02:00,2022-06-02T10:17:13.754+02:00,448,1.423373,0,0,345.1212,0,0,2022-06-02T10:47:14.422+02:00,675852424.2018327,0,7.230469,101.293,1,0.81
2022-06-02T10:47:15.955+02:00,1654159633.999854,53.22910076581099,10.39854009441299,36.92992,0.2498327,0.8066205,47.54172637826515,180,2.400000095367432,7.999579855010836,-9999,2780.23359325,0.040008544921875,-0.1878204345703125,-0.9789581298828125,2780.22359825,0.05553147463579668,0.04326721925893675,0.1644140446155964,0.2732154428958893,-0.03348845243453979,0.03800357505679131,0.01110155880451202,-0.001837804913520813,-0.00789332389831543,XArbitraryZVertical,0.08146508283844203,0.02382970171527097,0.02943754913865722,0.9959563287431283,0.04267042130231857,-0.1636743098497391,-0.9855911731719971,0,0,0,-1,-1,2776.148117666667,unknown,2,2022-06-02T10:47:11.870+02:00,2022-06-02T10:17:13.754+02:00,448,1.423373,0,0,345.1212,0,0,2022-06-02T10:47:14.422+02:00,675852424.2018327,0,7.230469,101.293,1,0.81
2022-06-02T10:47:15.965+02:00,1654159633.999854,53.22910076581099,10.39854009441299,36.92992,0.2498327,0.8066205,47.54172637826515,180,2.400000095367432,7.999579855010836,-9999,2780.24358725,0.03607177734375,-0.23419189453125,-0.9742431640625,2780.23359325,0.05601351649794464,0.04224616424272831,0.1664722247258351,0.1893257945775986,-0.04145969450473785,0.06010075658559799,0.0006323717534542084,-0.003134146332740784,0.003728210926055908,XArbitraryZVertical,0.08249947358805793,0.02336779263515289,0.02965527826741192,0.9958755978794009,0.04164974018931389,-0.1657043844461441,-0.9852955937385559,0,0,0,-1,-1,2776.148117666667,unknown,2,2022-06-02T10:47:11.870+02:00,2022-06-02T10:17:13.754+02:00,448,1.423373,0,0,345.1212,0,0,2022-06-02T10:47:14.422+02:00,675852424.2018327,0,7.230469,101.293,1,0.81
2022-06-02T10:47:15.975+02:00,1654159633.999854,53.22910076581099,10.39854009441299,36.92992,0.2498327,0.8066205,47.54172637826515,180,2.400000095367432,7.999579855010836,-9999,2780.25358125,0.033416748046875,-0.213897705078125,-0.96087646484375,2780.24358725,0.05660730187389269,0.0415181601303533,0.1679181674550026,0.05296821147203445,-0.02636303007602692,0.05420291423797607,-0.004484448581933975,-0.04824766516685486,0.006294965744018555,XArbitraryZVertical,0.08322346779048057,0.02304891768017742,0.02993415663586855,0.9958144382919236,0.04092244058847427,-0.1671301573514938,-0.9850851893424988,0,0,0,-1,-1,2776.148117666667,unknown,2,2022-06-02T10:47:11.870+02:00,2022-06-02T10:17:13.754+02:00,448,1.423373,0,0,345.1212,0,0,2022-06-02T10:47:14.422+02:00,675852424.2018327,0,7.230469,101.293,1,0.81
2022-06-02T10:47:15.985+02:00,1654159633.999854,53.22910076581099,10.39854009441299,36.92992,0.2498327,0.8066205,47.54172637826515,180,2.400000095367432,7.999579855010836,-9999,2780.26357625,0.027984619140625,-0.1561126708984375,-0.9758758544921875,2780.25358125,0.05722200031172545,0.04089956766551222,0.1687647223877021,-0.07722984254360199,-0.01358991116285324,0.05749664828181267,-0.005273081362247467,-0.06395360827445984,0.02113193273544312,XArbitraryZVertical,0.08364726544905456,0.02277783044469503,0.03022208041454013,0.9957765012365603,0.04030726850032806,-0.1679647564888,-0.9849686026573181,0,0,0,-1,-1,2776.148117666667,unknown,2,2022-06-02T10:47:11.870+02:00,2022-06-02T10:17:13.754+02:00,448,1.423373,0,0,345.1212,0,0,2022-06-02T10:47:14.422+02:00,675852424.2018327,0,7.230469,101.293,1,0.81
2022-06-02T10:47:15.995+02:00,1654159633.999854,53.22910076581099,10.39854009441299,36.92992,0.2498327,0.8066205,47.54172637826515,180,2.400000095367432,7.999579855010836,-9999,2780.27357025,0.037933349609375,-0.09716796875,-0.9586334228515625,2780.26357625,0.05764992536463868,0.04053218922486309,0.1689535554850178,-0.006534365005791187,-0.02079669199883938,0.008769056759774685,-0.0122036375105381,-0.01918129622936249,0.0150267481803894,XArbitraryZVertical,0.08374200226861347,0.02261536321659834,0.03042144879136661,0.9957662111283123,0.0399441234767437,-0.1681509017944336,-0.9849516153335571,0,0,0,-1,-1,2776.148117666667,unknown,2,2022-06-02T10:47:11.870+02:00,2022-06-02T10:17:13.754+02:00,448,1.423373,0,0,345.1212,0,0,2022-06-02T10:47:14.422+02:00,675852424.2018327,0,7.230469,101.293,1,0.81
2022-06-02T10:47:16.006+02:00,1654159633.999854,53.22910076581099,10.39854009441299,36.92992,0.2498327,0.8066205,47.54172637826515,180,2.400000095367432,7.999579855010836,-9999,2780.28356425,0.0349273681640625,-0.1154327392578125,-0.95758056640625,2780.27357025,0.05745436955051298,0.04046645368800792,0.1685867978915483,0.1410841196775436,-0.02937526628375053,-0.03113255277276039,-0.006938137114048004,0.04707704484462738,0.0115814208984375,XArbitraryZVertical,0.08356259090633091,0.02256951262502226,0.03031808217301937,0.9957854324392309,0.0398818701505661,-0.1677893549203873,-0.9850158095359802,0,0,0,-1,-1,2776.148117666667,unknown,2,2022-06-02T10:47:11.870+02:00,2022-06-02T10:17:13.754+02:00,448,1.423373,0,0,345.1212,0,0,2022-06-02T10:47:14.422+02:00,675852424.2018327,0,7.230469,101.293,1,0.81
2022-06-02T10:47:16.015+02:00,1654159633.999854,53.22910076581099,10.39854009441299,36.92992,0.2498327,0.8066205,47.54172637826515,180,2.400000095367432,7.999579855010836,-9999,2780.29355925,0.0284423828125,-0.15777587890625,-0.97021484375,2780.28356425,0.05690578468915037,0.04036972942363729,0.1693788654752933,0.2355499118566513,-0.03728219121694565,-0.05136432126164436,-0.001161213964223862,0.07051712274551392,0.03145641088485718,XArbitraryZVertical,0.08396463287661617,0.02250898291826238,0.03004791454370619,0.9957611557712804,0.03978121653199196,-0.1685701310634613,-0.9848865866661072,0,0,0,-1,-1,2776.148117666667,unknown,2,2022-06-02T10:47:11.870+02:00,2022-06-02T10:17:13.754+02:00,448,1.423373,0,0,345.1212,0,0,2022-06-02T10:47:14.422+02:00,675852424.2018327,0,7.230469,101.293,1,0.81
2022-06-02T10:47:16.029+02:00,1654159633.999854,53.22910076581099,10.39854009441299,36.92992,0.2498327,0.8066205,47.54172637826515,180,2.400000095367432,7.999579855010836,-9999,2780.30355325,0.041015625,-0.170379638671875,-0.9744110107421875,2780.29355925,0.05641015646284325,0.04029192600799214,0.1715200484024924,0.2622552514076233,-0.04420221596956253,-0.01771974191069603,-0.00959961861371994,0.03155063092708588,0.01969826221466064,XArbitraryZVertical,0.0850374890999568,0.02247768033384882,0.02981679545149423,0.9956777098401446,0.03968995809555054,-0.1706802845001221,-0.9845267534255981,0,0,0,-1,-1,2776.148117666667,unknown,2,2022-06-02T10:47:11.870+02:00,2022-06-02T10:17:13.754+02:00,448,1.423373,0,0,345.1212,0,0,2022-06-02T10:47:14.422+02:00,675852424.2018327,0,7.230469,101.293,1,0.81
2022-06-02T10:47:16.046+02:00,1654159633.999854,53.22910076581099,10.39854009441299,36.92992,0.2498327,0.8066205,47.54172637826515,180,2.400000095367432,7.999579855010836,-9999,2780.31354825,0.0298309326171875,-0.202362060546875,-0.9851837158203125,2780.30355325,0.05614677955265114,0.03992186304599518,0.1740591586782931,0.2581808865070343,-0.08670573681592941,-0.005514208693057299,-0.00641024112701416,0.00698283314704895,0.009648382663726807,XArbitraryZVertical,0.08631006139316591,0.02231555615384774,0.02969209753229128,0.9955756903630544,0.03930819779634476,-0.1731815934181213,-0.9841051697731018,0,0,0,-1,-1,2776.148117666667,unknown,2,2022-06-02T10:47:11.870+02:00,2022-06-02T10:17:13.754+02:00,448,1.423373,0,0,345.1212,0,0,2022-06-02T10:47:14.422+02:00,675852424.2018327,0,7.230469,101.293,1,0.81
2022-06-02T10:47:16.049+02:00,1654159633.999854,53.22910076581099,10.39854009441299,36.92992,0.2498327,0.8066205,47.54172637826515,180,2.400000095367432,7.999579855010836,-9999,2780.32354225,0.0022735595703125,-0.2304534912109375,-1.007568359375,2780.31354825,0.05618971116758195,0.03902964575652629,0.1760712516533101,0.1415810734033585,-0.09351111203432083,0.03512822836637497,0.001882001757621765,-0.006904974579811096,0.006464242935180664,XArbitraryZVertical,0.08732448477801356,0.02189970357794741,0.02969204007653435,0.9954964756594827,0.03841647133231163,-0.1751629263162613,-0.9837896823883057,0,0,0,-1,-1,2776.148117666667,unknown,2,2022-06-02T10:47:11.870+02:00,2022-06-02T10:17:13.754+02:00,448,1.423373,0,0,345.1212,0,0,2022-06-02T10:47:14.422+02:00,675852424.2018327,0,7.230469,101.293,1,0.81
2022-06-02T10:47:16.055+02:00,1654159633.999854,53.22910076581099,10.39854009441299,36.92992,0.2498327,0.8066205,47.54172637826515,180,2.400000095367432,7.999579855010836,-9999,2780.33353625,-0.0112457275390625,-0.221221923828125,-1.016586303710938,2780.32354225,0.05690864444161547,0.03804791554828056,0.1770641654340167,-0.06306209415197372,-0.07163723558187485,0.1064617931842804,-0.02096450328826904,-0.04471533000469208,-0.01144927740097046,XArbitraryZVertical,0.08782560443982991,0.02145567515558856,0.03001517996306825,0.9954523679564257,0.03744400292634964,-0.1761403977870941,-0.983652651309967,0,0,0,-1,-1,2776.148117666667,unknown,2,2022-06-02T10:47:11.870+02:00,2022-06-02T10:17:13.754+02:00,448,1.423373,0,0,345.1212,0,0,2022-06-02T10:47:14.422+02:00,675852424.2018327,0,7.230469,101.293,1,0.81
2022-06-02T10:47:16.065+02:00,1654159633.999854,53.22910076581099,10.39854009441299,36.92992,0.2498327,0.8066205,47.54172637826515,180,2.400000095367432,7.999579855010836,-9999,2780.34353125,0.001953125,-0.194854736328125,-0.9949951171875,2780.33353625,0.05820188927204928,0.03730234057092092,0.1763794706463005,-0.2308841496706009,-0.03163103014230728,0.128456637263298,-0.04510742053389549,-0.05364437401294708,-0.03188544511795044,XArbitraryZVertical,0.08748231181356346,0.02113201712269456,0.03062064021960367,0.9954710698750768,0.03671509400010109,-0.1754663735628128,-0.9838005900382996,0,0,0,-1,-1,2776.148117666667,unknown,2,2022-06-02T10:47:11.870+02:00,2022-06-02T10:17:13.754+02:00,448,1.423373,0,0,345.1212,0,0,2022-06-02T10:47:14.422+02:00,675852424.2018327,0,7.230469,101.293,1,0.81
2022-06-02T10:47:16.076+02:00,1654159633.999854,53.22910076581099,10.39854009441299,36.92992,0.2498327,0.8066205,47.54172637826515,180,2.400000095367432,7.999579855010836,-9999,2780.35352525,0.032501220703125,-0.162078857421875,-0.989166259765625,2780.34353125,0.05963510585821836,0.03680887083154222,0.1737132258798032,-0.3440730273723602,0.004276104271411896,0.1234296634793282,-0.04331151396036148,-0.03426669538021088,-0.02351462841033936,XArbitraryZVertical,0.0861476058733549,0.02091164742676131,0.03129145717948282,0.9955712616475154,0.03624670207500458,-0.172840878367424,-0.9842826128005981,0,0,0,-1,-1,2776.148117666667,unknown,2,2022-06-02T10:47:11.870+02:00,2022-06-02T10:17:13.754+02:00,448,1.423373,0,0,345.1212,0,0,2022-06-02T10:47:14.422+02:00,675852424.2018327,0,7.230469,101.293,1,0.81
2022-06-02T10:47:16.085+02:00,1654159633.999854,53.22910076581099,10.39854009441299,36.92992,0.2498327,0.8066205,47.54172637826515,180,2.400000095367432,7.999579855010836,-9999,2780.36351925,0.0657501220703125,-0.08868408203125,-0.98681640625,2780.35352525,0.06073113500677848,0.03661692701091194,0.1699162051855026,-0.2615705132484436,-0.007780757732689381,0.06359501928091049,-0.02100585028529167,-0.01356323063373566,-0.002488493919372559,XArbitraryZVertical,0.08424877912602877,0.02080887212312605,0.03179910595397072,0.9957197971414198,0.03608154132962227,-0.1690997630357742,-0.9849382638931274,0,0,0,-1,-1,2776.148117666667,unknown,2,2022-06-02T10:47:11.870+02:00,2022-06-02T10:17:13.754+02:00,448,1.423373,0,0,345.1212,0,0,2022-06-02T10:47:14.422+02:00,675852424.2018327,0,7.230469,101.293,1,0.81
2022-06-02T10:47:16.095+02:00,1654159633.999854,53.22910076581099,10.39854009441299,36.92992,0.2498327,0.8066205,47.54172637826515,180,2.400000095367432,7.999579855010836,-9999,2780.37351425,0.072479248046875,-0.0960845947265625,-0.9490509033203125,2780.36351925,0.06111328696425539,0.03626518167839621,0.1672894427987422,-0.06179269403219223,-0.05474933236837387,0.004715193994343281,0.01658657938241959,0.04057945311069489,-0.008520305156707764,XArbitraryZVertical,0.08294247412260579,0.02061187755725786,0.03195420679701307,0.9958285926560241,0.03575107082724571,-0.1665102541446686,-0.98539137840271,0,0,0,-1,-1,2776.148117666667,unknown,2,2022-06-02T10:47:11.870+02:00,2022-06-02T10:17:13.754+02:00,448,1.423373,0,0,345.1212,0,0,2022-06-02T10:47:14.422+02:00,675852424.2018327,0,7.230469,101.293,1,0.81
2022-06-02T10:47:16.105+02:00,1654159633.999854,53.22910076581099,10.39854009441299,36.92992,0.2498327,0.8066205,47.54172637826515,180,2.400000095367432,7.999579855010836,-9999,2780.38350825,0.078125,-0.1550140380859375,-0.9652862548828125,2780.37351425,0.06087922179182079,0.03562860840346809,0.1673459982263021,0.1217865496873856,-0.06846201419830322,-0.05205827206373215,0.03438033908605576,0.08866986632347107,0.02179676294326782,XArbitraryZVertical,0.08298317644826125,0.02028602429631646,0.0318116896105718,0.9958364709499118,0.03512345626950264,-0.166566014289856,-0.9854045510292053,0,0,0,-1,-1,2776.148117666667,unknown,2,2022-06-02T10:47:11.870+02:00,2022-06-02T10:17:13.754+02:00,448,1.423373,0,0,345.1212,0,0,2022-06-02T10:47:14.422+02:00,675852424.2018327,0,7.230469,101.293,1,0.81
2022-06-02T10:47:16.115+02:00,1654159633.999854,53.22910076581099,10.39854009441299,36.92992,0.2498327,0.8066205,47.54172637826515,180,2.400000095367432,7.999579855010836,-9999,2780.39350325,0.0718994140625,-0.188079833984375,-0.987945556640625,2780.38350825,0.06023963283785193,0.03503179657949991,0.168744522016522,0.1361183524131775,-0.06825349479913712,-0.04649972170591354,0.04289595037698746,0.04161730408668518,0.03099846839904785,XArbitraryZVertical,0.08369545649159456,0.01998227176787347,0.03147889067938586,0.9957935805116118,0.03452715650200844,-0.1679448336362839,-0.9851915836334229,0,0,0,-1,-1,2776.148117666667,unknown,2,2022-06-02T10:47:11.870+02:00,2022-06-02T10:17:13.754+02:00,448,1.423373,0,0,345.1212,0,0,2022-06-02T10:47:14.422+02:00,675852424.2018327,0,7.230469,101.293,1,0.81
2022-06-02T10:47:16.125+02:00,1654159633.999854,53.22910076581099,10.39854009441299,36.92992,0.2498327,0.8066205,47.54172637826515,180,2.400000095367432,7.999579855010836,-9999,2780.40349725,0.068939208984375,-0.156829833984375,-1.00775146484375,2780.39350325,0.06004934818414679,0.03440850871349049,0.1702014387313446,0.1406374424695969,-0.08118213713169098,0.01169946603477001,0.04141274839639664,-0.008811280131340027,0.009411931037902832,XArbitraryZVertical,0.08443257579091533,0.01968470033451598,0.03136869390107986,0.9957407571928214,0.03390463814139366,-0.1693808734416962,-0.9849672913551331,0,0,0,-1,-1,2776.148117666667,unknown,2,2022-06-02T10:47:11.870+02:00,2022-06-02T10:17:13.754+02:00,448,1.423373,0,0,345.1212,0,0,2022-06-02T10:47:14.422+02:00,675852424.2018327,0,7.230469,101.293,1,0.81
2022-06-02T10:47:16.135+02:00,1654159633.999854,53.22910076581099,10.39854009441299,36.92992,0.2498327,0.8066205,47.54172637826515,180,2.400000095367432,7.999579855010836,-9999,2780.41349125,0.0318756103515625,-0.162506103515625,-1.04351806640625,2780.40349725,0.06023151150238469,0.03319286737771876,0.1720720089557307,0.1100579649209976,-0.1165103018283844,0.04265152662992477,0.03888231515884399,-0.007395282387733459,-0.01320487260818481,XArbitraryZVertical,0.08538124547181665,0.01911388788689372,0.03142111612373689,0.9956692747901744,0.0326966755092144,-0.1712241321802139,-0.9846894145011902,0,0,0,-1,-1,2776.148117666667,unknown,2,2022-06-02T10:47:11.870+02:00,2022-06-02T10:17:13.754+02:00,448,1.423373,0,0,345.1212,0,0,2022-06-02T10:47:14.422+02:00,675852424.2018327,0,7.230469,101.293,1,0.81
2022-06-02T10:47:16.145+02:00,1654159633.999854,53.22910076581099,10.39854009441299,36.92992,0.2498327,0.8066205,47.54172637826515,180,2.400000095367432,7.999579855010836,-9999,2780.42348625,0.0009613037109375,-0.170806884765625,-1.042861938476562,2780.41349125,0.06128233307192399,0.03133827225225119,0.173425342171522,0.03061573207378387,-0.1085871309041977,0.145377904176712,0.02283255383372307,0.0198931097984314,-0.04000496864318848,XArbitraryZVertical,0.08607454409079952,0.01825520622602376,0.03187383665986426,0.9956113617208493,0.03086313046514988,-0.1725573092699051,-0.9845158457756042,0,0,0,-1,-1,2776.148117666667,unknown,2,2022-06-02T10:47:11.870+02:00,2022-06-02T10:17:13.754+02:00,448,1.423373,0,0,345.1212,0,0,2022-06-02T10:47:14.422+02:00,675852424.2018327,0,7.230469,101.293,1,0.81
2022-06-02T10:47:16.155+02:00,1654159633.999854,53.22910076581099,10.39854009441299,36.92992,0.2498327,0.8066205,47.54172637826515,180,2.400000095367432,7.999579855010836,-9999,2780.43348025,0.01129150390625,-0.1704254150390625,-1.0145263671875,2780.42348625,0.06299054138527191,0.02962276753996731,0.1737636227860048,-0.04917576909065247,-0.07577059417963028,0.1617507636547089,-0.01704166643321514,0.0002983212471008301,-0.0659518837928772,XArbitraryZVertical,0.08625536864107473,0.01747983426605143,0.03265238498655589,0.9955843765186638,0.02917241305112839,-0.1728905141353607,-0.9845089316368103,0,0,0,-1,-1,2776.148117666667,unknown,2,2022-06-02T10:47:11.870+02:00,2022-06-02T10:17:13.754+02:00,448,1.423373,0,0,345.1212,0,0,2022-06-02T10:47:14.422+02:00,675852424.2018327,0,7.230469,101.293,1,0.81
2022-06-02T10:47:16.165+02:00,1654159633.999854,53.22910076581099,10.39854009441299,36.92992,0.2498327,0.8066205,47.54172637826515,180,2.400000095367432,7.999579855010836,-9999,2780.44347425,0.029144287109375,-0.1754913330078125,-1.01324462890625,2780.43348025,0.06463756882959991,0.02857647537738035,0.1730971787292095,-0.1179987788200378,-0.03975267335772514,0.1520136892795563,-0.02697066217660904,0.004356831312179565,-0.04424625635147095,XArbitraryZVertical,0.08592666654436172,0.01701972255217571,0.0334233214601286,0.9955952004534381,0.02814559824764729,-0.172234058380127,-0.9846538901329041,0,0,0,-1,-1,2776.148117666667,unknown,2,2022-06-02T10:47:11.870+02:00,2022-06-02T10:17:13.754+02:00,448,1.423373,0,0,345.1212,0,0,2022-06-02T10:47:14.422+02:00,675852424.2018327,0,7.230469,101.293,1,0.81
2022-06-02T10:47:16.175+02:00,1654159633.999854,53.22910076581099,10.39854009441299,36.92992,0.2498327,0.8066205,47.54172637826515,180,2.400000095367432,7.999579855010836,-9999,2780.45346925,0.044189453125,-0.1289215087890625,-0.9873046875,2780.44347425,0.06607911485589536,0.02847035283210212,0.1712155678316513,-0.08498463034629822,-0.02234145812690258,0.1358065009117126,-0.005192605778574944,-0.006011351943016052,-0.01987320184707642,XArbitraryZVertical,0.08497944263563832,0.01699901841240748,0.03412569196681799,0.9956529316803866,0.02805028110742569,-0.1703802645206451,-0.9849790334701538,0,0,0,-1,-1,2776.148117666667,unknown,2,2022-06-02T10:47:11.870+02:00,2022-06-02T10:17:13.754+02:00,448,1.423373,0,0,345.1212,0,0,2022-06-02T10:47:14.422+02:00,675852424.2018327,0,7.230469,101.293,1,0.81
2022-06-02T10:47:16.185+02:00,1654159633.999854,53.22910076581099,10.39854009441299,36.92992,0.2498327,0.8066205,47.54172637826515,180,2.400000095367432,7.999579855010836,-9999,2780.46346325,0.04132080078125,-0.1234588623046875,-0.9564208984375,2780.45346925,0.06700263050277845,0.02880399214552905,0.1695407172756128,0.06086468324065208,-0.02952087484300137,0.06599792838096619,0.008829111233353615,0.01308999955654144,-0.03139382600784302,XArbitraryZVertical,0.08413193746392791,0.01717742661195281,0.03458998661215493,0.9957059133524159,0.02838708460330963,-0.1687296628952026,-0.9852535128593445,0,0,0,-1,-1,2776.148117666667,unknown,2,2022-06-02T10:47:11.870+02:00,2022-06-02T10:17:13.754+02:00,448,1.423373,0,0,345.1212,0,0,2022-06-02T10:47:14.422+02:00,675852424.2018327,0,7.230469,101.293,1,0.81
2022-06-02T10:47:16.195+02:00,1654159633.999854,53.22910076581099,10.39854009441299,36.92992,0.2498327,0.8066205,47.54172637826515,180,2.400000095367432,7.999579855010836,-9999,2780.47345725,0.020233154296875,-0.1874847412109375,-0.9512176513671875,2780.46346325,0.06717186249125982,0.02915126513408089,0.1702537334890402,0.174575001001358,-0.04535603150725365,0.009505621157586575,0.01720324158668518,0.0575396865606308,0.02211040258407593,XArbitraryZVertical,0.08447946065060857,0.01736892182130922,0.03469300544092194,0.9956695863458783,0.02872572094202042,-0.1694324165582657,-0.9851230978965759,0,0,0,-1,-1,2776.148117666667,unknown,2,2022-06-02T10:47:11.870+02:00,2022-06-02T10:17:13.754+02:00,448,1.423373,0,0,345.1212,0,0,2022-06-02T10:47:14.422+02:00,675852424.2018327,0,7.230469,101.293,1,0.81
2022-06-02T10:47:16.205+02:00,1654159633.999854,53.22910076581099,10.39854009441299,36.92992,0.2498327,0.8066205,47.54172637826515,180,2.400000095367432,7.999579855010836,-9999,2780.48345225,0.0175018310546875,-0.2136688232421875,-0.9618988037109375,2780.47345725,0.06716421500278619,0.02939658705589162,0.1720556721795559,0.1502002477645874,-0.04832259193062782,0.02952226996421814,0.002032235264778137,0.01784190535545349,0.03069239854812622,XArbitraryZVertical,0.08537237634849301,0.01751973343665253,0.03471016033552449,0.9955902079765307,0.02895837277173996,-0.1712080240249634,-0.9848092198371887,0,0,0,-1,-1,2776.148117666667,unknown,2,2022-06-02T10:47:11.870+02:00,2022-06-02T10:17:13.754+02:00,448,1.423373,0,0,345.1212,0,0,2022-06-02T10:47:14.422+02:00,675852424.2018327,0,7.230469,101.293,1,0.81
2022-06-02T10:47:16.216+02:00,1654159633.999854,53.22910076581099,10.39854009441299,36.92992,0.2498327,0.8066205,47.54172637826515,180,2.400000095367432,7.999579855010836,-9999,2780.49344625,0.0168914794921875,-0.2035369873046875,-0.974029541015625,2780.48345225,0.06726904250743003,0.02949721556883763,0.1734427038643306,0.1110669672489166,-0.06530104577541351,0.01751754060387611,-0.0139747504144907,-0.03749334812164307,0.03125995397567749,XArbitraryZVertical,0.08606021126766127,0.01759665300062856,0.03477481433870004,0.9955272770806732,0.02905043959617615,-0.1725744158029556,-0.9845679998397827,0,0,0,-1,-1,2776.148117666667,unknown,2,2022-06-02T10:47:11.870+02:00,2022-06-02T10:17:13.754+02:00,448,1.423373,0,0,345.1212,0,0,2022-06-02T10:47:14.422+02:00,675852424.2018327,0,7.230469,101.293,1,0.81
2022-06-02T10:47:16.226+02:00,1654159633.999854,53.22910076581099,10.39854009441299,36.92992,0.2498327,0.8066205,47.54172637826515,180,2.400000095367432,7.999579855010836,-9999,2780.50344125,-0.0045318603515625,-0.2229156494140625,-0.9719085693359375,2780.49344625,0.06746257319370944,0.02910716149807042,0.1737403861145056,0.03611769154667854,-0.08082021027803421,0.04131887853145599,-0.008172344416379929,-0.03388899564743042,0.01379424333572388,XArbitraryZVertical,0.08621349813728288,0.017415639699972,0.03485608557658525,0.9955143117415794,0.02866490744054317,-0.172867625951767,-0.9845278859138489,0,0,0,-1,-1,2776.148117666667,unknown,2,2022-06-02T10:47:11.870+02:00,2022-06-02T10:17:13.754+02:00,448,1.423373,0,0,345.1212,0,0,2022-06-02T10:47:14.422+02:00,675852424.2018327,0,7.230469,101.293,1,0.81
2022-06-02T10:47:16.236+02:00,1654159633.999854,53.22910076581099,10.39854009441299,36.92992,0.2498327,0.8066205,47.54172637826515,180,2.400000095367432,7.999579855010836,-9999,2780.51343525,0.0034942626953125,-0.2214813232421875,-0.9572601318359375,2780.50344125,0.06796044789463467,0.02803302814425501,0.1733255353478643,-0.08928284049034119,-0.06105343624949455,0.04100329428911209,-0.02170422300696373,-0.04032483696937561,0.01003557443618774,XArbitraryZVertical,0.08602148295607766,0.01689567640770981,0.03505531440630612,0.9955329303500399,0.02760938368737698,-0.1724590063095093,-0.9846296906471252,0,0,0,-1,-1,2776.148117666667,unknown,2,2022-06-02T10:47:11.870+02:00,2022-06-02T10:17:13.754+02:00,448,1.423373,0,0,345.1212,0,0,2022-06-02T10:47:14.422+02:00,675852424.2018327,0,7.230469,101.293,1,0.81
2022-06-02T10:47:16.246+02:00,1654159633.999854,53.22910076581099,10.39854009441299,36.92992,0.2498327,0.8066205,47.54172637826515,180,2.400000095367432,7.999579855010836,-9999,2780.52342925,0.0264739990234375,-0.20306396484375,-0.9373931884765625,2780.51343525,0.06840599154286164,0.02708858363754493,0.1716873426097848,-0.2026796340942383,-0.03928595408797264,0.01901397109031677,-0.03059330396354198,-0.05564111471176147,0.0186583399772644,XArbitraryZVertical,0.08521882674662473,0.01641777791882171,0.03522783032547786,0.9956039510133956,0.02668705955147743,-0.1708451211452484,-0.9849364161491394,0,0,0,-1,-1,2776.148117666667,unknown,2,2022-06-02T10:47:11.870+02:00,2022-06-02T10:17:13.754+02:00,448,1.423373,0,0,345.1212,0,0,2022-06-02T10:47:14.422+02:00,675852424.2018327,0,7.230469,101.293,1,0.81
2022-06-02T10:47:16.255+02:00,1654159633.999854,53.22910076581099,10.39854009441299,36.92992,0.2498327,0.8066205,47.54172637826515,180,2.400000095367432,7.999579855010836,-9999,2780.53342425,0.0379180908203125,-0.1912689208984375,-0.9117584228515625,2780.52342925,0.0683479054830895,0.02665811488327833,0.1693479161234592,-0.2720075845718384,-0.04437445476651192,-0.04414289072155952,-0.01194564625620842,-0.0455411970615387,0.03676682710647583,XArbitraryZVertical,0.0840621536997252,0.01616252423968972,0.03516845088736201,0.9957085320813451,0.02627365477383137,-0.1685396283864975,-0.9853446483612061,0,0,0,-1,-1,2776.148117666667,unknown,2,2022-06-02T10:47:11.870+02:00,2022-06-02T10:17:13.754+02:00,448,1.423373,0,0,345.1212,0,0,2022-06-02T10:47:14.422+02:00,675852424.2018327,0,7.230469,101.293,1,0.81
2022-06-02T10:47:16.266+02:00,1654159633.999854,53.22910076581099,10.39854009441299,36.92992,0.2498327,0.8066205,47.54172637826515,180,2.400000095367432,7.999579855010836,-9999,2780.54341825,0.031890869140625,-0.1999053955078125,-0.88116455078125,2780.53342425,0.06767883387430251,0.02638485901348774,0.1659223757666033,-0.3619023561477661,-0.07216061651706696,-0.09883483499288559,0.009472472593188286,-0.02900600433349609,0.0621713399887085,XArbitraryZVertical,0.08236662148009452,0.01594250974292171,0.03480621176704846,0.9958664668329608,0.02601948194205761,-0.1651621162891388,-0.985923171043396,0,0,0,-1,-1,2776.148117666667,unknown,2,2022-06-02T10:47:11.870+02:00,2022-06-02T10:17:13.754+02:00,448,1.423373,0,0,345.1212,0,0,2022-06-02T10:47:14.422+02:00,675852424.2018327,0,7.230469,101.293,1,0.81
2022-06-02T10:47:16.275+02:00,1654159633.999854,53.22910076581099,10.39854009441299,36.92992,0.2498327,0.8066205,47.54172637826515,180,2.400000095367432,7.999579855010836,-9999,2780.55341225,0.024932861328125,-0.263641357421875,-0.8767242431640625,2780.54341825,0.06675358234544146,0.02587998571348553,0.1606342649458306,-0.5786415338516235,-0.1163379326462746,-0.09186986833810806,0.0109855942428112,-0.0341017097234726,0.08809858560562134,XArbitraryZVertical,0.07974899941511798,0.01556786063032358,0.03429781249309836,0.9961030998572096,0.02554395608603954,-0.1599443405866623,-0.9867954850196838,0,0,0,-1,-1,2776.148117666667,unknown,2,2022-06-02T10:47:11.870+02:00,2022-06-02T10:17:13.754+02:00,448,1.423373,0,0,345.1212,0,0,2022-06-02T10:47:14.422+02:00,675852424.2018327,0,7.230469,101.293,1,0.81
2022-06-02T10:47:16.286+02:00,1654159633.999854,53.22910076581099,10.39854009441299,36.92992,0.2498327,0.8066205,47.54172637826515,180,2.400000095367432,7.999579855010836,-9999,2780.56340775,0.2111663818359375,-0.2998809814453125,-0.81201171875,2780.55341225,0.06432586754576776,0.02625008369207196,0.1529133540318926,-0.9788130521774292,0.3294805586338043,-0.7673937082290649,0.0003195777535438538,-0.05840577185153961,0.1238400340080261,XArbitraryZVertical,0.07591531426288251,0.01553559724824452,0.03306265823341494,0.9964447858916249,0.02594080567359924,-0.1523181349039078,-0.9879910349845886,0,0,0,-1,-1,2776.148117666667,unknown,2,2022-06-02T10:47:11.870+02:00,2022-06-02T10:17:13.754+02:00,448,1.423373,0,0,345.1212,0,0,2022-06-02T10:47:14.422+02:00,675852424.2018327,0,7.230469,101.293,1,0.81
2022-06-02T10:47:16.295+02:00,1654159633.999854,53.22910076581099,10.39854009441299,36.92992,0.2498327,0.8066205,47.54172637826515,180,2.400000095367432,7.999579855010836,-9999,2780.57340175,-0.0054779052734375,-0.167999267578125,-0.7769012451171875,2780.56340775,0.05475241201893741,0.02863792330204004,0.141709992152582,-1.219171643257141,-0.08881655335426331,-0.8454432487487793,0.07049946486949921,-0.2191611975431442,0.128165602684021,XArbitraryZVertical,0.0703709876492615,0.01621487055049357,0.02831461112118959,0.9969871147478961,0.02834697999060154,-0.1412361711263657,-0.9895700216293335,0,0,0,-1,-1,2776.148117666667,unknown,2,2022-06-02T10:47:11.870+02:00,2022-06-02T10:17:13.754+02:00,448,1.423373,0,0,345.1212,0,0,2022-06-02T10:47:14.422+02:00,675852424.2018327,0,7.230469,101.293,1,0.81
2022-06-02T10:47:16.305+02:00,1654159633.999854,53.22910076581099,10.39854009441299,36.92992,0.2498327,0.8066205,47.54172637826515,180,2.400000095367432,7.999579855010836,-9999,2780.58339675,-0.2935028076171875,-0.26409912109375,-0.7357025146484375,2780.57340175,0.05048878107674346,0.02715527590153183,0.1277976366832134,-1.558599948883057,-0.2571022510528564,-0.2206688672304153,0.1604016423225403,-0.06009575724601746,0.2059416174888611,XArbitraryZVertical,0.06348710350098562,0.01515686494851608,0.02605457629652019,0.9975273093436624,0.02693051472306252,-0.1274500489234924,-0.9914793372154236,0,0,0,-1,-1,2776.148117666667,unknown,2,2022-06-02T10:47:11.870+02:00,2022-06-02T10:17:13.754+02:00,448,1.423373,0,0,345.1212,0,0,2022-06-02T10:47:14.422+02:00,675852424.2018327,0,7.230469,101.293,1,0.81
2022-06-02T10:47:16.315+02:00,1654159633.999854,53.22910076581099,10.39854009441299,36.92992,0.2498327,0.8066205,47.54172637826515,180,2.400000095367432,7.999579855010836,-9999,2780.59339075,-0.1813812255859375,-0.242950439453125,-0.68157958984375,2780.58339675,0.04751817102388227,0.02562817630622448,0.1101429220112875,-1.963502645492554,-0.1332865506410599,-0.4765602946281433,-0.2318452000617981,-0.1129190325737,0.2285993695259094,XArbitraryZVertical,0.05471962597749778,0.01409825720975953,0.02442400349583011,0.9981033696968696,0.02547009103000164,-0.109920360147953,-0.9936140179634094,0,0,0,-1,-1,2776.148117666667,unknown,2,2022-06-02T10:47:11.870+02:00,2022-06-02T10:17:13.754+02:00,448,1.423373,0,0,345.1212,0,0,2022-06-02T10:47:14.422+02:00,675852424.2018327,0,7.230469,101.293,1,0.81
2022-06-02T10:47:16.325+02:00,1654159633.999854,53.22910076581099,10.39854009441299,36.92992,0.2498327,0.8066205,47.54172637826515,180,2.400000095367432,7.999579855010836,-9999,2780.60338475,-0.0970306396484375,-0.2670745849609375,-0.6818084716796875,2780.59339075,0.04246990308189474,0.02450984265486447,0.08830744145687992,-2.405639171600342,-0.2009999603033066,-0.6125773787498474,-0.2782723605632782,-0.1664765179157257,0.2932438254356384,XArbitraryZVertical,0.04386616053695271,0.01317706864209035,0.02175185915087626,0.9987135915400076,0.0244118943810463,-0.08819271624088287,-0.9958042502403259,0,0,0,-1,-1,2776.148117666667,unknown,2,2022-06-02T10:47:11.870+02:00,2022-06-02T10:17:13.754+02:00,448,1.423373,0,0,345.1212,0,0,2022-06-02T10:47:14.422+02:00,675852424.2018327,0,7.230469,101.293,1,0.81
