loggingTime(txt),locationTimestamp_since1970(s),locationLatitude(WGS84),locationLongitude(WGS84),locationAltitude(m),locationSpeed(m/s),locationSpeedAccuracy(m/s),locationCourse(°),locationCourseAccuracy(°),locationVerticalAccuracy(m),locationHorizontalAccuracy(m),locationFloor(Z),accelerometerTimestamp_sinceReboot(s),accelerometerAccelerationX(G),accelerometerAccelerationY(G),accelerometerAccelerationZ(G),motionTimestamp_sinceReboot(s),motionYaw(rad),motionRoll(rad),motionPitch(rad),motionRotationRateX(rad/s),motionRotationRateY(rad/s),motionRotationRateZ(rad/s),motionUserAccelerationX(G),motionUserAccelerationY(G),motionUserAccelerationZ(G),motionAttitudeReferenceFrame(txt),motionQuaternionX(R),motionQuaternionY(R),motionQuaternionZ(R),motionQuaternionW(R),motionGravityX(G),motionGravityY(G),motionGravityZ(G),motionMagneticFieldX(µT),motionMagneticFieldY(µT),motionMagneticFieldZ(µT),motionHeading(°),motionMagneticFieldCalibrationAccuracy(Z),activityTimestamp_sinceReboot(s),activity(txt),activityActivityConfidence(Z),activityActivityStartDate(txt),pedometerStartDate(txt),pedometerNumberofSteps(N),pedometerAverageActivePace(s/m),pedometerCurrentPace(s/m),pedometerCurrentCadence(steps/s),pedometerDistance(m),pedometerFloorAscended(N),pedometerFloorDescended(N),pedometerEndDate(txt),altimeterTimestamp_sinceReboot(s),altimeterReset(bool),altimeterRelativeAltitude(m),altimeterPressure(kPa),batteryState(N),batteryLevel(R)
2022-06-02T10:49:38.447+02:00,1654159777.999833,53.22908569105719,10.39854064219944,36.81969,0,20,-1,-1,2.400000095367432,7.999579855010836,-9999,2922.694866125,-0.175750732421875,-0.569549560546875,-0.6909942626953125,2922.684872125,0.1029574608051232,-0.1053828976928124,0.6485412629777497,0.1591031551361084,-0.3104453384876251,-0.1177078559994698,-0.01986751705408096,0.03043138980865479,0.07953178882598877,XArbitraryZVertical,0.320322628254439,-0.03348407827843303,0.03194816957107301,0.946177294234231,-0.08383119106292725,-0.6040244698524475,-0.7925444841384888,0,0,0,-1,-1,2921.984468125,unknown,2,2022-06-02T10:49:37.706+02:00,2022-06-02T10:17:13.754+02:00,467,1.474645,0,0,361.8512,0,0,2022-06-02T10:49:24.918+02:00,675852567.4721328,0,6.640625,101.3014,1,0.8
2022-06-02T10:49:38.449+02:00,1654159777.999833,53.22908569105719,10.39854064219944,36.81969,0,20,-1,-1,2.400000095367432,7.999579855010836,-9999,2922.704859125,-0.16265869140625,-0.5486907958984375,-0.6926116943359375,2922.694866125,0.1021658030382297,-0.1082229696113162,0.6498788684820838,0.1022902205586433,-0.2613425254821777,-0.1037888452410698,-0.0920909196138382,0.01767241954803467,0.09362328052520752,XArbitraryZVertical,0.3209853931312369,-0.03491061772582119,0.03107364622574769,0.9459302258321964,-0.08599439263343811,-0.6050899624824524,-0.7914992570877075,0,0,0,-1,-1,2921.984468125,unknown,2,2022-06-02T10:49:37.706+02:00,2022-06-02T10:17:13.754+02:00,467,1.474645,0,0,361.8512,0,0,2022-06-02T10:49:24.918+02:00,675852567.4721328,0,6.640625,101.3014,1,0.8
2022-06-02T10:49:38.452+02:00,1654159777.999833,53.22908569105719,10.39854064219944,36.81969,0,20,-1,-1,2.400000095367432,7.999579855010836,-9999,2922.714854125,-0.1927642822265625,-0.546661376953125,-0.709991455078125,2922.704859125,0.102838605681083,-0.1127456216540048,0.6463390997282777,0.05891777575016022,-0.2272134572267532,-0.05628005042672157,-0.07356224954128265,0.0468176007270813,0.1060154438018799,XArbitraryZVertical,0.3193960364680411,-0.03705938300018434,0.0307892218293609,0.9463956398105652,-0.08981359004974365,-0.6022679805755615,-0.7932255268096924,0,0,0,-1,-1,2921.984468125,unknown,2,2022-06-02T10:49:37.706+02:00,2022-06-02T10:17:13.754+02:00,467,1.474645,0,0,361.8512,0,0,2022-06-02T10:49:24.918+02:00,675852567.4721328,0,6.640625,101.3014,1,0.8
2022-06-02T10:49:38.454+02:00,1654159777.999833,53.22908569105719,10.39854064219944,36.81969,0,20,-1,-1,2.400000095367432,7.999579855010836,-9999,2922.724848125,-0.222503662109375,-0.5466156005859375,-0.71844482421875,2922.714854125,0.1027566963965523,-0.1150852127397156,0.6414759585254318,0.004423111211508512,-0.170058012008667,-0.02515621855854988,-0.08206783980131149,0.05179357528686523,0.09518402814865112,XArbitraryZVertical,0.3171327855918804,-0.03834198266512731,0.03054874396097108,0.9471131283779156,-0.09200440347194672,-0.5983786582946777,-0.7959133982658386,0,0,0,-1,-1,2921.984468125,unknown,2,2022-06-02T10:49:37.706+02:00,2022-06-02T10:17:13.754+02:00,467,1.474645,0,0,361.8512,0,0,2022-06-02T10:49:24.918+02:00,675852567.4721328,0,6.640625,101.3014,1,0.8
2022-06-02T10:49:38.460+02:00,1654159777.999833,53.22908569105719,10.39854064219944,36.81969,0,20,-1,-1,2.400000095367432,7.999579855010836,-9999,2922.734842125,-0.21258544921875,-0.5474090576171875,-0.728729248046875,2922.724848125,0.1033879423577978,-0.1177365391247279,0.6369892480000888,-0.04069722816348076,-0.0919291228055954,-0.01440131012350321,-0.1169207394123077,0.04779601097106934,0.0816195011138916,XArbitraryZVertical,0.3150643855287112,-0.03964866236224539,0.03058871202592016,0.9477482339947036,-0.09442872554063797,-0.5947778224945068,-0.7983248233795166,0,0,0,-1,-1,2921.984468125,unknown,2,2022-06-02T10:49:37.706+02:00,2022-06-02T10:17:13.754+02:00,467,1.474645,0,0,361.8512,0,0,2022-06-02T10:49:24.918+02:00,675852567.4721328,0,6.640625,101.3014,1,0.8
2022-06-02T10:49:38.467+02:00,1654159777.999833,53.22908569105719,10.39854064219944,36.81969,0,20,-1,-1,2.400000095367432,7.999579855010836,-9999,2922.744836125,-0.20867919921875,-0.550262451171875,-0.7442169189453125,2922.734842125,0.1039379711514581,-0.1197053086453215,0.6315585381053149,-0.09358973801136017,-0.05902017652988434,-0.0159283671528101,-0.1227468773722649,0.04386419057846069,0.07890516519546509,XArbitraryZVertical,0.3125363152421709,-0.040679295969939,0.030737207811799,0.9485363629732939,-0.09638457000255585,-0.5904033780097961,-0.8013324737548828,0,0,0,-1,-1,2921.984468125,unknown,2,2022-06-02T10:49:37.706+02:00,2022-06-02T10:17:13.754+02:00,467,1.474645,0,0,361.8512,0,0,2022-06-02T10:49:24.918+02:00,675852567.4721328,0,6.640625,101.3014,1,0.8
2022-06-02T10:49:38.479+02:00,1654159777.999833,53.22908569105719,10.39854064219944,36.81969,0,20,-1,-1,2.400000095367432,7.999579855010836,-9999,2922.754831125,-0.20208740234375,-0.569854736328125,-0.7616119384765625,2922.744836125,0.1054386614838008,-0.1231754222664729,0.6251507682544819,-0.1385784298181534,-0.0468197725713253,-0.01610087230801582,-0.1109285280108452,0.03556746244430542,0.06712144613265991,XArbitraryZVertical,0.3095869620393793,-0.04231155131507958,0.03114591856997149,0.9494185319937922,-0.09962747991085052,-0.5852195620536804,-0.8047313094139099,0,0,0,-1,-1,2921.984468125,unknown,2,2022-06-02T10:49:37.706+02:00,2022-06-02T10:17:13.754+02:00,467,1.474645,0,0,361.8512,0,0,2022-06-02T10:49:24.918+02:00,675852567.4721328,0,6.640625,101.3014,1,0.8
2022-06-02T10:49:38.487+02:00,1654159777.999833,53.22908569105719,10.39854064219944,36.81969,0,20,-1,-1,2.400000095367432,7.999579855010836,-9999,2922.764825125,-0.2110748291015625,-0.595916748046875,-0.7762603759765625,2922.754831125,0.1045550514342828,-0.1228827921693538,0.6227630965587263,-0.2005523145198822,-0.07342341542243958,-0.03601519018411636,-0.1051336526870728,0.02627497911453247,0.05265063047409058,XArbitraryZVertical,0.3084324132030558,-0.04239113658407923,0.03086053411642419,0.9497999652075328,-0.09956298023462296,-0.5832817554473877,-0.8061448931694031,0,0,0,-1,-1,2921.984468125,unknown,2,2022-06-02T10:49:37.706+02:00,2022-06-02T10:17:13.754+02:00,467,1.474645,0,0,361.8512,0,0,2022-06-02T10:49:24.918+02:00,675852567.4721328,0,6.640625,101.3014,1,0.8
2022-06-02T10:49:38.497+02:00,1654159777.999833,53.22908569105719,10.39854064219944,36.81969,0,20,-1,-1,2.400000095367432,7.999579855010836,-9999,2922.774819125,-0.2173309326171875,-0.5872650146484375,-0.7826995849609375,2922.764825125,0.1039213861847554,-0.1239353566733298,0.6224425288035794,-0.2497833967208862,-0.1155352517962456,-0.0793444886803627,-0.104872427880764,-0.001558125019073486,0.03760945796966553,XArbitraryZVertical,0.308283065398834,-0.04299966304176676,0.03040926688001199,0.9498357015212421,-0.1004345566034317,-0.583021342754364,-0.8062251806259155,0,0,0,-1,-1,2921.984468125,unknown,2,2022-06-02T10:49:37.706+02:00,2022-06-02T10:17:13.754+02:00,467,1.474645,0,0,361.8512,0,0,2022-06-02T10:49:24.918+02:00,675852567.4721328,0,6.640625,101.3014,1,0.8
2022-06-02T10:49:38.506+02:00,1654159777.999833,53.22908569105719,10.39854064219944,36.81969,0,20,-1,-1,2.400000095367432,7.999579855010836,-9999,2922.784813125,-0.218353271484375,-0.5595855712890625,-0.7925872802734375,2922.774819125,0.1048052141031014,-0.1285664152165619,0.6223374617361416,-0.2717659473419189,-0.1508873701095581,-0.1093420684337616,-0.111095979809761,-0.01462870836257935,0.02535557746887207,XArbitraryZVertical,0.3083228247298159,-0.04506629488404672,0.03011909375631599,0.9497361956288025,-0.1041749939322472,-0.5829359889030457,-0.8058121204376221,0,0,0,-1,-1,2921.984468125,unknown,2,2022-06-02T10:49:37.706+02:00,2022-06-02T10:17:13.754+02:00,467,1.474645,0,0,361.8512,0,0,2022-06-02T10:49:24.918+02:00,675852567.4721328,0,6.640625,101.3014,1,0.8
2022-06-02T10:49:38.517+02:00,1654159777.999833,53.22908569105719,10.39854064219944,36.81969,0,20,-1,-1,2.400000095367432,7.999579855010836,-9999,2922.794808125,-0.24053955078125,-0.5345458984375,-0.7997589111328125,2922.784813125,0.1053092482196065,-0.1332030748881365,0.6217637619993002,-0.2664366960525513,-0.1809936165809631,-0.1241812035441399,-0.108704999089241,0.009273350238800049,0.02026665210723877,XArbitraryZVertical,0.3081319346748728,-0.0472104275723679,0.0296663003356571,0.9497082183204056,-0.1079545319080353,-0.5824697613716125,-0.8056517839431763,0,0,0,-1,-1,2921.984468125,unknown,2,2022-06-02T10:49:37.706+02:00,2022-06-02T10:17:13.754+02:00,467,1.474645,0,0,361.8512,0,0,2022-06-02T10:49:24.918+02:00,675852567.4721328,0,6.640625,101.3014,1,0.8
2022-06-02T10:49:38.526+02:00,1654159777.999833,53.22908569105719,10.39854064219944,36.81969,0,20,-1,-1,2.400000095367432,7.999579855010836,-9999,2922.804802125,-0.2724456787109375,-0.5185699462890625,-0.8114776611328125,2922.794808125,0.1033230454083023,-0.1339057267246511,0.6193217832856586,-0.2631133198738098,-0.1840589195489883,-0.1327030509710312,-0.1179896369576454,0.0346914529800415,0.01027584075927734,XArbitraryZVertical,0.3069377154083186,-0.04793488692859743,0.02871178000703479,0.9500879226517359,-0.1087101697921753,-0.5804830193519592,-0.8069829940795898,0,0,0,-1,-1,2921.984468125,unknown,2,2022-06-02T10:49:37.706+02:00,2022-06-02T10:17:13.754+02:00,467,1.474645,0,0,361.8512,0,0,2022-06-02T10:49:24.918+02:00,675852567.4721328,0,6.640625,101.3014,1,0.8
2022-06-02T10:49:38.536+02:00,1654159777.999833,53.22908569105719,10.39854064219944,36.81969,0,20,-1,-1,2.400000095367432,7.999579855010836,-9999,2922.814796125,-0.27838134765625,-0.509765625,-0.821441650390625,2922.804802125,0.101204535870096,-0.1344204182482014,0.6169293982048832,-0.2580479383468628,-0.1614991426467896,-0.147117018699646,-0.1501033455133438,0.0525323748588562,0.002209484577178955,XArbitraryZVertical,0.3057596394785021,-0.04858640414435855,0.02772119503500901,0.9504640246271011,-0.1093113049864769,-0.5785333514213562,-0.808300793170929,0,0,0,-1,-1,2921.984468125,unknown,2,2022-06-02T10:49:37.706+02:00,2022-06-02T10:17:13.754+02:00,467,1.474645,0,0,361.8512,0,0,2022-06-02T10:49:24.918+02:00,675852567.4721328,0,6.640625,101.3014,1,0.8
2022-06-02T10:49:38.546+02:00,1654159777.999833,53.22908569105719,10.39854064219944,36.81969,0,20,-1,-1,2.400000095367432,7.999579855010836,-9999,2922.824790125,-0.275726318359375,-0.520263671875,-0.8452911376953125,2922.814796125,0.09894083511528237,-0.1346553192223068,0.6145699848872458,-0.2574439346790314,-0.1482267379760742,-0.1574024111032486,-0.1691091954708099,0.0644155740737915,-0.005331158638000488,XArbitraryZVertical,0.3045884804065402,-0.04912357395936584,0.02670266812726427,0.9508414504695104,-0.1096841096878052,-0.5766072273254395,-0.8096254467964172,0,0,0,-1,-1,2921.984468125,unknown,2,2022-06-02T10:49:37.706+02:00,2022-06-02T10:17:13.754+02:00,467,1.474645,0,0,361.8512,0,0,2022-06-02T10:49:24.918+02:00,675852567.4721328,0,6.640625,101.3014,1,0.8
2022-06-02T10:49:38.556+02:00,1654159777.999833,53.22908569105719,10.39854064219944,36.81969,0,20,-1,-1,2.400000095367432,7.999579855010836,-9999,2922.834785125,-0.27978515625,-0.5321044921875,-0.86260986328125,2922.824790125,0.09653467929775374,-0.1347597747128896,0.6122695714043289,-0.2505761086940765,-0.1474919319152832,-0.1680380702018738,-0.1669241040945053,0.06100863218307495,-0.02141010761260986,XArbitraryZVertical,0.3034388417711837,-0.04961578339485482,0.02563326787286867,0.9512128684043394,-0.1099466010928154,-0.5747262239456177,-0.8109262585639954,0,0,0,-1,-1,2921.984468125,unknown,2,2022-06-02T10:49:37.706+02:00,2022-06-02T10:17:13.754+02:00,467,1.474645,0,0,361.8512,0,0,2022-06-02T10:49:24.918+02:00,675852567.4721328,0,6.640625,101.3014,1,0.8
2022-06-02T10:49:38.566+02:00,1654159777.999833,53.22908569105719,10.39854064219944,36.81969,0,20,-1,-1,2.400000095367432,7.999579855010836,-9999,2922.844779125,-0.2821807861328125,-0.542877197265625,-0.86444091796875,2922.834785125,0.09412482334312765,-0.1348905805083621,0.6099727189401103,-0.2609113156795502,-0.1562824845314026,-0.160621166229248,-0.1663203537464142,0.04595911502838135,-0.04253369569778442,XArbitraryZVertical,0.3022899746788656,-0.05011824659551949,0.02455721248629561,0.9515807272371248,-0.110229916870594,-0.5728451013565063,-0.8122178912162781,0,0,0,-1,-1,2921.984468125,unknown,2,2022-06-02T10:49:37.706+02:00,2022-06-02T10:17:13.754+02:00,467,1.474645,0,0,361.8512,0,0,2022-06-02T10:49:24.918+02:00,675852567.4721328,0,6.640625,101.3014,1,0.8
2022-06-02T10:49:38.576+02:00,1654159777.999833,53.22908569105719,10.39854064219944,36.81969,0,20,-1,-1,2.400000095367432,7.999579855010836,-9999,2922.854773125,-0.293701171875,-0.556488037109375,-0.8646240234375,2922.844779125,0.09183189902730339,-0.1352465711542837,0.6075385673118776,-0.2762678861618042,-0.1817760467529297,-0.1494785845279694,-0.1709247231483459,0.03122115135192871,-0.05243945121765137,XArbitraryZVertical,0.3010803674931955,-0.05071195404465041,0.02350752981787091,0.9519591872248969,-0.1107067316770554,-0.5708482265472412,-0.8135578036308289,0,0,0,-1,-1,2921.984468125,unknown,2,2022-06-02T10:49:37.706+02:00,2022-06-02T10:17:13.754+02:00,467,1.474645,0,0,361.8512,0,0,2022-06-02T10:49:24.918+02:00,675852567.4721328,0,6.640625,101.3014,1,0.8
2022-06-02T10:49:38.586+02:00,1654159777.999833,53.22908569105719,10.39854064219944,36.81969,0,20,-1,-1,2.400000095367432,7.999579855010836,-9999,2922.864767125,-0.3023223876953125,-0.5772857666015625,-0.8593292236328125,2922.854773125,0.08956898020360815,-0.1358997173945098,0.6049532331124345,-0.2904523909091949,-0.2050129473209381,-0.151641845703125,-0.1751681566238403,0.02055168151855469,-0.04888570308685303,XArbitraryZVertical,0.2998016500997062,-0.0514447527932534,0.02243302180487381,0.952349215066386,-0.1114376559853554,-0.5687236189842224,-0.8149448037147522,0,0,0,-1,-1,2921.984468125,unknown,2,2022-06-02T10:49:37.706+02:00,2022-06-02T10:17:13.754+02:00,467,1.474645,0,0,361.8512,0,0,2022-06-02T10:49:24.918+02:00,675852567.4721328,0,6.640625,101.3014,1,0.8
2022-06-02T10:49:38.596+02:00,1654159777.999833,53.22908569105719,10.39854064219944,36.81969,0,20,-1,-1,2.400000095367432,7.999579855010836,-9999,2922.874762125,-0.3067474365234375,-0.5831298828125,-0.8485107421875,2922.864767125,0.08715265556620264,-0.1366568321726929,0.6022431833234622,-0.3011200428009033,-0.22039894759655,-0.1708036959171295,-0.1874184012413025,-0.001363396644592285,-0.04625624418258667,XArbitraryZVertical,0.2984589581788165,-0.05225114993279559,0.02127469799882017,0.9527535857300846,-0.1122641861438751,-0.5664924383163452,-0.8163841366767883,0,0,0,-1,-1,2921.984468125,unknown,2,2022-06-02T10:49:37.706+02:00,2022-06-02T10:17:13.754+02:00,467,1.474645,0,0,361.8512,0,0,2022-06-02T10:49:24.918+02:00,675852567.4721328,0,6.640625,101.3014,1,0.8
2022-06-02T10:49:38.606+02:00,1654159777.999833,53.22908569105719,10.39854064219944,36.81969,0,20,-1,-1,2.400000095367432,7.999579855010836,-9999,2922.884756125,-0.3150177001953125,-0.5827789306640625,-0.8460540771484375,2922.874762125,0.08453169331811065,-0.1373958329421161,0.5995995087460594,-0.2827045321464539,-0.222674623131752,-0.1831786036491394,-0.1911117434501648,-0.01915359497070312,-0.03547459840774536,XArbitraryZVertical,0.2971402409585356,-0.0530743346938833,0.02001894133831607,0.9531473599544756,-0.1130721867084503,-0.5643118619918823,-0.8177815675735474,0,0,0,-1,-1,2921.984468125,unknown,2,2022-06-02T10:49:37.706+02:00,2022-06-02T10:17:13.754+02:00,467,1.474645,0,0,361.8512,0,0,2022-06-02T10:49:24.918+02:00,675852567.4721328,0,6.640625,101.3014,1,0.8
2022-06-02T10:49:38.616+02:00,1654159777.999833,53.22908569105719,10.39854064219944,36.81969,0,20,-1,-1,2.400000095367432,7.999579855010836,-9999,2922.894750125,-0.315826416015625,-0.5889129638671875,-0.8448486328125,2922.884756125,0.08187189834215924,-0.1381254266484769,0.5971979200680402,-0.2583228349685669,-0.2246106117963791,-0.1866999864578247,-0.1972868591547012,-0.01872706413269043,-0.02790015935897827,XArbitraryZVertical,0.2959334679202739,-0.05388841626789614,0.01873653066618877,0.9535031155229783,-0.1138550788164139,-0.5623276233673096,-0.8190388679504395,0,0,0,-1,-1,2921.984468125,unknown,2,2022-06-02T10:49:37.706+02:00,2022-06-02T10:17:13.754+02:00,467,1.474645,0,0,361.8512,0,0,2022-06-02T10:49:24.918+02:00,675852567.4721328,0,6.640625,101.3014,1,0.8
2022-06-02T10:49:38.626+02:00,1654159777.999833,53.22908569105719,10.39854064219944,36.81969,0,20,-1,-1,2.400000095367432,7.999579855010836,-9999,2922.904744125,-0.3050537109375,-0.5830230712890625,-0.8468170166015625,2922.894750125,0.07928257708187567,-0.1389568416189866,0.5948976925793255,-0.2603503167629242,-0.2351268976926804,-0.1725543290376663,-0.2028052508831024,-0.0260169506072998,-0.02422910928726196,XArbitraryZVertical,0.2947757436378763,-0.05473478129531321,0.01746867262714492,0.9538374949721409,-0.1147148534655571,-0.5604240298271179,-0.8202227354049683,0,0,0,-1,-1,2921.984468125,unknown,2,2022-06-02T10:49:37.706+02:00,2022-06-02T10:17:13.754+02:00,467,1.474645,0,0,361.8512,0,0,2022-06-02T10:49:24.918+02:00,675852567.4721328,0,6.640625,101.3014,1,0.8
2022-06-02T10:49:38.636+02:00,1654159777.999833,53.22908569105719,10.39854064219944,36.81969,0,20,-1,-1,2.400000095367432,7.999579855010836,-9999,2922.914739125,-0.2937164306640625,-0.5761260986328125,-0.854583740234375,2922.904744125,0.07683853504133317,-0.1400364292366349,0.5925649833965921,-0.2531764507293701,-0.2543207108974457,-0.1622517704963684,-0.1927655041217804,-0.0296747088432312,-0.02351891994476318,XArbitraryZVertical,0.2936064934770097,-0.05567642462771849,0.0162350140129124,0.9541654679813651,-0.1157824546098709,-0.558490514755249,-0.8213907480239868,0,0,0,-1,-1,2921.984468125,unknown,2,2022-06-02T10:49:37.706+02:00,2022-06-02T10:17:13.754+02:00,467,1.474645,0,0,361.8512,0,0,2022-06-02T10:49:24.918+02:00,675852567.4721328,0,6.640625,101.3014,1,0.8
2022-06-02T10:49:38.646+02:00,1654159777.999833,53.22908569105719,10.39854064219944,36.81969,0,20,-1,-1,2.400000095367432,7.999579855010836,-9999,2922.924733125,-0.2860107421875,-0.5746002197265625,-0.8568878173828125,2922.914739125,0.07451161817675545,-0.1414138963872131,0.5903443514908444,-0.2379408031702042,-0.285862922668457,-0.1548452526330948,-0.1834793090820312,-0.02164572477340698,-0.0280991792678833,XArbitraryZVertical,0.292493997453921,-0.05673745888905377,0.01500970203221144,0.9544646302949289,-0.1170882880687714,-0.5566471219062805,-0.8224562406539917,0,0,0,-1,-1,2921.984468125,unknown,2,2022-06-02T10:49:37.706+02:00,2022-06-02T10:17:13.754+02:00,467,1.474645,0,0,361.8512,0,0,2022-06-02T10:49:24.918+02:00,675852567.4721328,0,6.640625,101.3014,1,0.8
2022-06-02T10:49:38.656+02:00,1654159777.999833,53.22908569105719,10.39854064219944,36.81969,0,20,-1,-1,2.400000095367432,7.999579855010836,-9999,2922.934727125,-0.287322998046875,-0.5628662109375,-0.8599395751953125,2922.924733125,0.07235616734347082,-0.1432803056235842,0.5882906402014058,-0.21909099817276,-0.3265031576156616,-0.1419386267662048,-0.1680333167314529,-0.02167445421218872,-0.03269779682159424,XArbitraryZVertical,0.2914669591244324,-0.0580001391327503,0.01378918073514144,0.9547212223785413,-0.1187861114740372,-0.5549398064613342,-0.8233659863471985,0,0,0,-1,-1,2921.984468125,unknown,2,2022-06-02T10:49:37.706+02:00,2022-06-02T10:17:13.754+02:00,467,1.474645,0,0,361.8512,0,0,2022-06-02T10:49:24.918+02:00,675852567.4721328,0,6.640625,101.3014,1,0.8
2022-06-02T10:49:38.666+02:00,1654159777.999833,53.22908569105719,10.39854064219944,36.81969,0,20,-1,-1,2.400000095367432,7.999579855010836,-9999,2922.944721125,-0.2908477783203125,-0.5547943115234375,-0.865966796875,2922.934727125,0.07042405037578921,-0.1456554237599587,0.5863617906179823,-0.2050625383853912,-0.361300528049469,-0.1198335960507393,-0.1649768948554993,-0.01600170135498047,-0.03354215621948242,XArbitraryZVertical,0.2905064336854699,-0.05946815763438242,0.01259771461082183,0.9549401883707975,-0.120896503329277,-0.5533342361450195,-0.8241391181945801,0,0,0,-1,-1,2921.984468125,unknown,2,2022-06-02T10:49:37.706+02:00,2022-06-02T10:17:13.754+02:00,467,1.474645,0,0,361.8512,0,0,2022-06-02T10:49:24.918+02:00,675852567.4721328,0,6.640625,101.3014,1,0.8
2022-06-02T10:49:38.678+02:00,1654159777.999833,53.22908569105719,10.39854064219944,36.81969,0,20,-1,-1,2.400000095367432,7.999579855010836,-9999,2922.954716125,-0.2946014404296875,-0.5481109619140625,-0.8664093017578125,2922.944721125,0.06872622628550618,-0.1484623991987896,0.5846873075471217,-0.1644459068775177,-0.3882741928100586,-0.1094687730073929,-0.1652889847755432,-0.005403816699981689,-0.03776079416275024,XArbitraryZVertical,0.2896737971601673,-0.06110032911980364,0.01144707916114887,0.9551045104775655,-0.1233462393283844,-0.5519386529922485,-0.8247116804122925,0,0,0,-1,-1,2921.984468125,unknown,2,2022-06-02T10:49:37.706+02:00,2022-06-02T10:17:13.754+02:00,467,1.474645,0,0,361.8512,0,0,2022-06-02T10:49:24.918+02:00,675852567.4721328,0,6.640625,101.3014,1,0.8
2022-06-02T10:49:38.691+02:00,1654159777.999833,53.22908569105719,10.39854064219944,36.81969,0,20,-1,-1,2.400000095367432,7.999579855010836,-9999,2922.964710125,-0.2906646728515625,-0.53790283203125,-0.86041259765625,2922.954716125,0.0672708324309715,-0.1516098498087718,0.583403906488001,-0.1221767365932465,-0.4049373269081116,-0.09130042046308517,-0.1682785153388977,-0.001271247863769531,-0.04268735647201538,XArbitraryZVertical,0.2890338651858554,-0.06284870545773272,0.01034894821270667,0.955197469191401,-0.1260482370853424,-0.5508679747581482,-0.8250189423561096,0,0,0,-1,-1,2921.984468125,unknown,2,2022-06-02T10:49:37.706+02:00,2022-06-02T10:17:13.754+02:00,467,1.474645,0,0,361.8512,0,0,2022-06-02T10:49:24.918+02:00,675852567.4721328,0,6.640625,101.3014,1,0.8
2022-06-02T10:49:38.696+02:00,1654159777.999833,53.22908569105719,10.39854064219944,36.81969,0,20,-1,-1,2.400000095367432,7.999579855010836,-9999,2922.974704125,-0.2970733642578125,-0.5272369384765625,-0.857757568359375,2922.964710125,0.06608824861316609,-0.1550183212609438,0.5826268364795009,-0.0590122863650322,-0.4111256897449493,-0.08407339453697205,-0.1641957014799118,0.006594419479370117,-0.03922009468078613,XArbitraryZVertical,0.2886423713039802,-0.06466829751202828,0.009324091111836356,0.9552049441268602,-0.1289256066083908,-0.5502192974090576,-0.8250072002410889,0,0,0,-1,-1,2921.984468125,unknown,2,2022-06-02T10:49:37.706+02:00,2022-06-02T10:17:13.754+02:00,467,1.474645,0,0,361.8512,0,0,2022-06-02T10:49:24.918+02:00,675852567.4721328,0,6.640625,101.3014,1,0.8
2022-06-02T10:49:38.706+02:00,1654159777.999833,53.22908569105719,10.39854064219944,36.81969,0,20,-1,-1,2.400000095367432,7.999579855010836,-9999,2922.984698125,-0.2946319580078125,-0.52142333984375,-0.8458709716796875,2922.974704125,0.06498268248803529,-0.1584312165679068,0.5825447916907921,0.01456233114004135,-0.3936385810375214,-0.09643978625535965,-0.1610379815101624,0.01650518178939819,-0.03481376171112061,XArbitraryZVertical,0.2885820294037937,-0.06645996624461104,0.008307055725848566,0.9551096401078976,-0.1317476481199265,-0.5501508116722107,-0.8246069550514221,0,0,0,-1,-1,2921.984468125,unknown,2,2022-06-02T10:49:37.706+02:00,2022-06-02T10:17:13.754+02:00,467,1.474645,0,0,361.8512,0,0,2022-06-02T10:49:24.918+02:00,675852567.4721328,0,6.640625,101.3014,1,0.8
2022-06-02T10:49:38.716+02:00,1654159777.999833,53.22908569105719,10.39854064219944,36.81969,0,20,-1,-1,2.400000095367432,7.999579855010836,-9999,2922.994693125,-0.291839599609375,-0.5146026611328125,-0.822540283203125,2922.984698125,0.06382572208750802,-0.1616704181109392,0.5831961929255127,0.08106522262096405,-0.3864397406578064,-0.1168455332517624,-0.1635522693395615,0.02710455656051636,-0.029998779296875,XArbitraryZVertical,0.2888662551130096,-0.06815623412810598,0.007259054441425473,0.9549127301986089,-0.1343602985143661,-0.5506946444511414,-0.823822021484375,0,0,0,-1,-1,2921.984468125,unknown,2,2022-06-02T10:49:37.706+02:00,2022-06-02T10:17:13.754+02:00,467,1.474645,0,0,361.8512,0,0,2022-06-02T10:49:24.918+02:00,675852567.4721328,0,6.640625,101.3014,1,0.8
2022-06-02T10:49:38.726+02:00,1654159777.999833,53.22908569105719,10.39854064219944,36.81969,0,20,-1,-1,2.400000095367432,7.999579855010836,-9999,2923.004687125,-0.283294677734375,-0.51092529296875,-0.808685302734375,2922.994693125,0.06262565463301542,-0.1648010924894664,0.5843807005201426,0.1168820783495903,-0.3727391064167023,-0.1141605228185654,-0.1569763123989105,0.03277736902236938,-0.01234495639801025,XArbitraryZVertical,0.2894000105852532,-0.06979252092573698,0.006181972308812129,0.9546403760578787,-0.1368316411972046,-0.5516829490661621,-0.8227532505989075,0,0,0,-1,-1,2921.984468125,unknown,2,2022-06-02T10:49:37.706+02:00,2022-06-02T10:17:13.754+02:00,467,1.474645,0,0,361.8512,0,0,2022-06-02T10:49:24.918+02:00,675852567.4721328,0,6.640625,101.3014,1,0.8
2022-06-02T10:49:38.736+02:00,1654159777.999833,53.22908569105719,10.39854064219944,36.81969,0,20,-1,-1,2.400000095367432,7.999579855010836,-9999,2923.014681125,-0.272247314453125,-0.50128173828125,-0.80047607421875,2923.004687125,0.06163759761969961,-0.1678411203059245,0.5857668614139252,0.1276876479387283,-0.3435192704200745,-0.09391823410987854,-0.149247795343399,0.04025012254714966,0.006423771381378174,XArbitraryZVertical,0.2900342930169463,-0.07134934815973312,0.005208770404170706,0.9543386068532922,-0.1392043232917786,-0.5528385639190674,-0.8215787410736084,0,0,0,-1,-1,2921.984468125,unknown,2,2022-06-02T10:49:37.706+02:00,2022-06-02T10:17:13.754+02:00,467,1.474645,0,0,361.8512,0,0,2022-06-02T10:49:24.918+02:00,675852567.4721328,0,6.640625,101.3014,1,0.8
2022-06-02T10:49:38.746+02:00,1654159777.999833,53.22908569105719,10.39854064219944,36.81969,0,20,-1,-1,2.400000095367432,7.999579855010836,-9999,2923.024675125,-0.2664947509765625,-0.492218017578125,-0.801116943359375,2923.014681125,0.06101408424985964,-0.1707907257463016,0.5872968721336407,0.1565821617841721,-0.310496598482132,-0.05902151018381119,-0.1360437124967575,0.04651397466659546,0.01666492223739624,XArbitraryZVertical,0.2907477402869464,-0.07280604342055615,0.004414375607016231,0.9540153949329448,-0.1414831131696701,-0.5541128516197205,-0.8203300833702087,0,0,0,-1,-1,2921.984468125,unknown,2,2022-06-02T10:49:37.706+02:00,2022-06-02T10:17:13.754+02:00,467,1.474645,0,0,361.8512,0,0,2022-06-02T10:49:24.918+02:00,675852567.4721328,0,6.640625,101.3014,1,0.8
2022-06-02T10:49:38.756+02:00,1654159777.999833,53.22908569105719,10.39854064219944,36.81969,0,20,-1,-1,2.400000095367432,7.999579855010836,-9999,2923.034670125,-0.269195556640625,-0.504791259765625,-0.8048553466796875,2923.024675125,0.06093791437959668,-0.173662017118312,0.589106738721764,0.1917342096567154,-0.2741068005561829,-0.02153818309307098,-0.1240967810153961,0.06085234880447388,0.01862317323684692,XArbitraryZVertical,0.2916126780099647,-0.07413764665079967,0.003877595808078945,0.9536511055779564,-0.1436644047498703,-0.5556185245513916,-0.8189312815666199,0,0,0,-1,-1,2921.984468125,unknown,2,2022-06-02T10:49:37.706+02:00,2022-06-02T10:17:13.754+02:00,467,1.474645,0,0,361.8512,0,0,2022-06-02T10:49:24.918+02:00,675852567.4721328,0,6.640625,101.3014,1,0.8
2022-06-02T10:49:38.767+02:00,1654159777.999833,53.22908569105719,10.39854064219944,36.81969,0,20,-1,-1,2.400000095367432,7.999579855010836,-9999,2923.044664125,-0.266082763671875,-0.525390625,-0.8055572509765625,2923.034670125,0.06147871834007225,-0.1768592323915493,0.5912655209570256,0.2197823524475098,-0.2434961348772049,-0.005440704990178347,-0.1212786287069321,0.06084543466567993,0.01404726505279541,XArbitraryZVertical,0.2926663167479172,-0.07552388210040198,0.003568480232270358,0.9532206629004177,-0.1460705995559692,-0.5574121475219727,-0.8172851204872131,0,0,0,-1,-1,2921.984468125,unknown,2,2022-06-02T10:49:37.706+02:00,2022-06-02T10:17:13.754+02:00,467,1.474645,0,0,361.8512,0,0,2022-06-02T10:49:24.918+02:00,675852567.4721328,0,6.640625,101.3014,1,0.8
2022-06-02T10:49:38.776+02:00,1654159777.999833,53.22908569105719,10.39854064219944,36.81969,0,20,-1,-1,2.400000095367432,7.999579855010836,-9999,2923.054658125,-0.2581939697265625,-0.536376953125,-0.798187255859375,2923.044664125,0.06213943366982611,-0.1798617280652569,0.5935301585390123,0.2189277857542038,-0.2245407551527023,-0.01007706858217716,-0.1207300573587418,0.04445934295654297,0.008027434349060059,XArbitraryZVertical,0.2937739282435252,-0.07679494826223207,0.003336536095106012,0.952779172827386,-0.1482976227998734,-0.559290885925293,-0.8155988454818726,0,0,0,-1,-1,2921.984468125,unknown,2,2022-06-02T10:49:37.706+02:00,2022-06-02T10:17:13.754+02:00,467,1.474645,0,0,361.8512,0,0,2022-06-02T10:49:24.918+02:00,675852567.4721328,0,6.640625,101.3014,1,0.8
2022-06-02T10:49:38.786+02:00,1654159777.999833,53.22908569105719,10.39854064219944,36.81969,0,20,-1,-1,2.400000095367432,7.999579855010836,-9999,2923.064652125,-0.25958251953125,-0.534912109375,-0.7940673828125,2923.054658125,0.06274358356426964,-0.1827405865994986,0.5957409852145048,0.213759645819664,-0.2217686772346497,-0.01501004211604595,-0.1121075004339218,0.02718675136566162,0.01248276233673096,XArbitraryZVertical,0.2948530659559723,-0.07801502896670719,0.003094942135543801,0.9523474828713622,-0.1504199355840683,-0.5611222386360168,-0.8139506578445435,0,0,0,-1,-1,2921.984468125,unknown,2,2022-06-02T10:49:37.706+02:00,2022-06-02T10:17:13.754+02:00,467,1.474645,0,0,361.8512,0,0,2022-06-02T10:49:24.918+02:00,675852567.4721328,0,6.640625,101.3014,1,0.8
2022-06-02T10:49:38.796+02:00,1654159777.999833,53.22908569105719,10.39854064219944,36.81969,0,20,-1,-1,2.400000095367432,7.999579855010836,-9999,2923.074647125,-0.273223876953125,-0.5423583984375,-0.7967987060546875,2923.064652125,0.06328464028345943,-0.1854991922374195,0.5978493038210859,0.1939565539360046,-0.2080021947622299,-0.01331846881657839,-0.1046643555164337,0.02770990133285522,0.01686638593673706,XArbitraryZVertical,0.2958803160380584,-0.07918832722171733,0.00284282498032965,0.9519328074743141,-0.1524462103843689,-0.5628661513328552,-0.8123680949211121,0,0,0,-1,-1,2921.984468125,unknown,2,2022-06-02T10:49:37.706+02:00,2022-06-02T10:17:13.754+02:00,467,1.474645,0,0,361.8512,0,0,2022-06-02T10:49:24.918+02:00,675852567.4721328,0,6.640625,101.3014,1,0.8
2022-06-02T10:49:38.806+02:00,1654159777.999833,53.22908569105719,10.39854064219944,36.81969,0,20,-1,-1,2.400000095367432,7.999579855010836,-9999,2923.084641125,-0.2735137939453125,-0.548553466796875,-0.7969970703125,2923.074647125,0.06386100046921203,-0.1880907396422009,0.5996199375936767,0.1505654007196426,-0.1802318245172501,0.001165132969617844,-0.112252414226532,0.02641069889068604,0.01774650812149048,XArbitraryZVertical,0.2967479553178116,-0.08028509530887634,0.002646020386135317,0.9515712163460779,-0.1543643772602081,-0.5643287301063538,-0.8109899163246155,0,0,0,-1,-1,2921.984468125,unknown,2,2022-06-02T10:49:37.706+02:00,2022-06-02T10:17:13.754+02:00,467,1.474645,0,0,361.8512,0,0,2022-06-02T10:49:24.918+02:00,675852567.4721328,0,6.640625,101.3014,1,0.8
2022-06-02T10:49:38.816+02:00,1654159777.999833,53.22908569105719,10.39854064219944,36.81969,0,20,-1,-1,2.400000095367432,7.999579855010836,-9999,2923.094635125,-0.272186279296875,-0.5342254638671875,-0.795135498046875,2923.084641125,0.064526413405584,-0.1904961006387723,0.6009581801724895,0.1175185069441795,-0.1667879074811935,0.01682185754179955,-0.1189291477203369,0.01771879196166992,0.01318216323852539,XArbitraryZVertical,0.2974133303461399,-0.08129139900017618,0.002538582039642382,0.9512784168190644,-0.156171515583992,-0.5654330253601074,-0.8098740577697754,0,0,0,-1,-1,2921.984468125,unknown,2,2022-06-02T10:49:37.706+02:00,2022-06-02T10:17:13.754+02:00,467,1.474645,0,0,361.8512,0,0,2022-06-02T10:49:24.918+02:00,675852567.4721328,0,6.640625,101.3014,1,0.8
2022-06-02T10:49:38.826+02:00,1654159777.999833,53.22908569105719,10.39854064219944,36.81969,0,20,-1,-1,2.400000095367432,7.999579855010836,-9999,2923.104629125,-0.27349853515625,-0.524200439453125,-0.8004150390625,2923.094635125,0.0652620668453707,-0.1928032408645761,0.6020263069464458,0.09591387957334518,-0.1479985117912292,0.02105095610022545,-0.1131485849618912,0.02296352386474609,0.01257741451263428,XArbitraryZVertical,0.2979533162105015,-0.08224752633639179,0.002491152459877272,0.9510273049066824,-0.1579237878322601,-0.5663136839866638,-0.8089183568954468,0,0,0,-1,-1,2921.984468125,unknown,2,2022-06-02T10:49:37.706+02:00,2022-06-02T10:17:13.754+02:00,467,1.474645,0,0,361.8512,0,0,2022-06-02T10:49:24.918+02:00,675852567.4721328,0,6.640625,101.3014,1,0.8
2022-06-02T10:49:38.836+02:00,1654159777.999833,53.22908569105719,10.39854064219944,36.81969,0,20,-1,-1,2.400000095367432,7.999579855010836,-9999,2923.114624125,-0.2724609375,-0.5128936767578125,-0.8046722412109375,2923.104629125,0.06605888903668364,-0.1949386759733311,0.6029497124076512,0.09561124444007874,-0.125840425491333,0.02859296090900898,-0.1141321659088135,0.03809809684753418,0.01047372817993164,XArbitraryZVertical,0.298427094104985,-0.08311637691808338,0.00250449926581009,0.9508031562291562,-0.1595494449138641,-0.5670745372772217,-0.8080658912658691,0,0,0,-1,-1,2921.984468125,unknown,2,2022-06-02T10:49:37.706+02:00,2022-06-02T10:17:13.754+02:00,467,1.474645,0,0,361.8512,0,0,2022-06-02T10:49:24.918+02:00,675852567.4721328,0,6.640625,101.3014,1,0.8
2022-06-02T10:49:38.846+02:00,1654159777.999833,53.22908569105719,10.39854064219944,36.81969,0,20,-1,-1,2.400000095367432,7.999579855010836,-9999,2923.124618125,-0.26788330078125,-0.521575927734375,-0.8136138916015625,2923.114624125,0.06698006468908296,-0.1968600823072708,0.6038461118417252,0.09104978293180466,-0.08804883062839508,0.04427578300237656,-0.1132896840572357,0.04997509717941284,0.005562186241149902,XArbitraryZVertical,0.2988932598399068,-0.08386497949356282,0.002609216058232948,0.9505906329309073,-0.1610022783279419,-0.5678126215934753,-0.8072589635848999,0,0,0,-1,-1,2921.984468125,unknown,2,2022-06-02T10:49:37.706+02:00,2022-06-02T10:17:13.754+02:00,467,1.474645,0,0,361.8512,0,0,2022-06-02T10:49:24.918+02:00,675852567.4721328,0,6.640625,101.3014,1,0.8
2022-06-02T10:49:38.856+02:00,1654159777.999833,53.22908569105719,10.39854064219944,36.81969,0,20,-1,-1,2.400000095367432,7.999579855010836,-9999,2923.134612125,-0.2634735107421875,-0.5286407470703125,-0.81927490234375,2923.124618125,0.06809700447485795,-0.1985095703969263,0.6046465174854712,0.08477341383695602,-0.05369824916124344,0.06322038173675537,-0.108385905623436,0.05246490240097046,-0.002825438976287842,XArbitraryZVertical,0.2993221264824201,-0.08445727530193396,0.002851666517238521,0.9504024899133999,-0.1622439473867416,-0.5684713125228882,-0.8065464496612549,0,0,0,-1,-1,2921.984468125,unknown,2,2022-06-02T10:49:37.706+02:00,2022-06-02T10:17:13.754+02:00,467,1.474645,0,0,361.8512,0,0,2022-06-02T10:49:24.918+02:00,675852567.4721328,0,6.640625,101.3014,1,0.8
2022-06-02T10:49:38.866+02:00,1654159777.999833,53.22908569105719,10.39854064219944,36.81969,0,20,-1,-1,2.400000095367432,7.999579855010836,-9999,2923.144607125,-0.2670440673828125,-0.536895751953125,-0.82257080078125,2923.134612125,0.069421332861738,-0.2000083192919246,0.6052785674443936,0.06761573255062103,-0.03111650608479977,0.08476428687572479,-0.1004280149936676,0.04280710220336914,-0.01173782348632812,XArbitraryZVertical,0.2996801376975951,-0.08495142102616685,0.003223296649656457,0.9502445309399129,-0.1633811593055725,-0.5689911842346191,-0.8059501647949219,0,0,0,-1,-1,2921.984468125,unknown,2,2022-06-02T10:49:37.706+02:00,2022-06-02T10:17:13.754+02:00,467,1.474645,0,0,361.8512,0,0,2022-06-02T10:49:24.918+02:00,675852567.4721328,0,6.640625,101.3014,1,0.8
2022-06-02T10:49:38.876+02:00,1654159777.999833,53.22908569105719,10.39854064219944,36.81969,0,20,-1,-1,2.400000095367432,7.999579855010836,-9999,2923.154601125,-0.2765350341796875,-0.5396270751953125,-0.8184967041015625,2923.144607125,0.09159087373805221,-0.2380593621178702,0.5934566107549321,0.03124783374369144,-0.01222970150411129,0.09715791046619415,-0.06961077451705933,0.02674400806427002,-0.01713687181472778,XArbitraryZVertical,0.2952185090220448,-0.1001493488348654,0.008784093146206588,0.9501256818476623,-0.1954953968524933,-0.5592299103736877,-0.8056322932243347,0,0,0,-1,-1,2921.984468125,unknown,2,2022-06-02T10:49:37.706+02:00,2022-06-02T10:17:13.754+02:00,467,1.474645,0,0,361.8512,0,0,2022-06-02T10:49:24.918+02:00,675852567.4721328,0,6.640625,101.3014,1,0.8
2022-06-02T10:49:38.886+02:00,1654159777.999833,53.22908569105719,10.39854064219944,36.81969,0,20,-1,-1,2.400000095367432,7.999579855010836,-9999,2923.164595125,-0.2816619873046875,-0.5321197509765625,-0.807647705078125,2923.154601125,0.1070651865890071,-0.2643183412693588,0.5871804220226736,-0.005836416967213154,0.01502136047929525,0.1087019145488739,-0.05394524335861206,0.01473981142044067,-0.01839715242385864,XArbitraryZVertical,0.2932053318664091,-0.1106061902315021,0.01269111932902402,0.9495450536519209,-0.2174933254718781,-0.5540159344673157,-0.8035938143730164,0,0,0,-1,-1,2921.984468125,unknown,2,2022-06-02T10:49:37.706+02:00,2022-06-02T10:17:13.754+02:00,467,1.474645,0,0,361.8512,0,0,2022-06-02T10:49:24.918+02:00,675852567.4721328,0,6.640625,101.3014,1,0.8
2022-06-02T10:49:38.897+02:00,1654159777.999833,53.22908569105719,10.39854064219944,36.81969,0,20,-1,-1,2.400000095367432,7.999579855010836,-9999,2923.174589125,-0.284088134765625,-0.5280303955078125,-0.7894744873046875,2923.164595125,0.1171029978658251,-0.2806235801930448,0.5851922597722157,-0.03539444506168365,0.04466340690851212,0.1135374084115028,-0.04781526327133179,0.01639473438262939,-0.01403528451919556,XArbitraryZVertical,0.2929509414194551,-0.1169654247017967,0.01521068481302135,0.9488242419429693,-0.2308712303638458,-0.5523596405982971,-0.8009976744651794,0,0,0,-1,-1,2921.984468125,unknown,2,2022-06-02T10:49:37.706+02:00,2022-06-02T10:17:13.754+02:00,467,1.474645,0,0,361.8512,0,0,2022-06-02T10:49:24.918+02:00,675852567.4721328,0,6.640625,101.3014,1,0.8
2022-06-02T10:49:38.907+02:00,1654159777.999833,53.22908569105719,10.39854064219944,36.81969,0,20,-1,-1,2.400000095367432,7.999579855010836,-9999,2923.184584125,-0.27789306640625,-0.530914306640625,-0.767913818359375,2923.174589125,0.123156516407353,-0.2895347284264002,0.5824311664375135,-0.06470252573490143,0.07822296023368835,0.117918573319912,-0.0455469936132431,0.02144569158554077,0.001920461654663086,XArbitraryZVertical,0.2920789909386564,-0.1204420876385064,0.01699002554291935,0.9486278380603351,-0.238434299826622,-0.5500559210777283,-0.8003671169281006,0,0,0,-1,-1,2921.984468125,unknown,2,2022-06-02T10:49:37.706+02:00,2022-06-02T10:17:13.754+02:00,467,1.474645,0,0,361.8512,0,0,2022-06-02T10:49:24.918+02:00,675852567.4721328,0,6.640625,101.3014,1,0.8
2022-06-02T10:49:38.917+02:00,1654159777.999833,53.22908569105719,10.39854064219944,36.81969,0,20,-1,-1,2.400000095367432,7.999579855010836,-9999,2923.194578125,-0.2688140869140625,-0.539459228515625,-0.7474212646484375,2923.184584125,0.1275655915913902,-0.2953739921662648,0.577134477900982,-0.09832386672496796,0.103120855987072,0.1056523323059082,-0.03815600275993347,0.01812845468521118,0.02282190322875977,XArbitraryZVertical,0.2899002444767163,-0.122838077515946,0.01864806727776837,0.9489577602018665,-0.2439484596252441,-0.5456247925758362,-0.8017373085021973,0,0,0,-1,-1,2921.984468125,unknown,2,2022-06-02T10:49:37.706+02:00,2022-06-02T10:17:13.754+02:00,467,1.474645,0,0,361.8512,0,0,2022-06-02T10:49:24.918+02:00,675852567.4721328,0,6.640625,101.3014,1,0.8
2022-06-02T10:49:38.927+02:00,1654159777.999833,53.22908569105719,10.39854064219944,36.81969,0,20,-1,-1,2.400000095367432,7.999579855010836,-9999,2923.204572125,-0.2662506103515625,-0.5553741455078125,-0.7256622314453125,2923.194578125,0.1304820740865684,-0.2989132424840845,0.5708786333422102,-0.1392934173345566,0.1049706935882568,0.06670359522104263,-0.02586628496646881,0.005581557750701904,0.04511255025863647,XArbitraryZVertical,0.2871624458842808,-0.1244192304146733,0.0200213227332693,0.9495559840054092,-0.2477847933769226,-0.5403715372085571,-0.8041151762008667,0,0,0,-1,-1,2921.984468125,unknown,2,2022-06-02T10:49:37.706+02:00,2022-06-02T10:17:13.754+02:00,467,1.474645,0,0,361.8512,0,0,2022-06-02T10:49:24.918+02:00,675852567.4721328,0,6.640625,101.3014,1,0.8
2022-06-02T10:49:38.937+02:00,1654159777.999833,53.22908569105719,10.39854064219944,36.81969,0,20,-1,-1,2.400000095367432,7.999579855010836,-9999,2923.214566125,-0.2628326416015625,-0.5838165283203125,-0.698089599609375,2923.204572125,0.1314848498820661,-0.2999769910591615,0.5655333564416375,-0.2150913029909134,0.09429793804883957,0.008233495987951756,-0.01761506497859955,-0.01096302270889282,0.07112544775009155,XArbitraryZVertical,0.2847118050630573,-0.1250586078704544,0.02077583050010104,0.9501934761105679,-0.2494899928569794,-0.5358662009239197,-0.8065990805625916,0,0,0,-1,-1,2921.984468125,unknown,2,2022-06-02T10:49:37.706+02:00,2022-06-02T10:17:13.754+02:00,467,1.474645,0,0,361.8512,0,0,2022-06-02T10:49:24.918+02:00,675852567.4721328,0,6.640625,101.3014,1,0.8
2022-06-02T10:49:38.947+02:00,1654159777.999833,53.22908569105719,10.39854064219944,36.81969,0,20,-1,-1,2.400000095367432,7.999579855010836,-9999,2923.224561125,-0.2609405517578125,-0.5876617431640625,-0.6533050537109375,2923.214566125,0.1302570800937908,-0.2989625691856478,0.5621149656734097,-0.3323590755462646,0.05419312790036201,-0.1139848232269287,-0.01513351500034332,-0.03680151700973511,0.0951424241065979,XArbitraryZVertical,0.2830093017294044,-0.1249277019700644,0.02061146830162359,0.9507228340069583,-0.2492097169160843,-0.5329769253730774,-0.8085976243019104,0,0,0,-1,-1,2921.984468125,unknown,2,2022-06-02T10:49:37.706+02:00,2022-06-02T10:17:13.754+02:00,467,1.474645,0,0,361.8512,0,0,2022-06-02T10:49:24.918+02:00,675852567.4721328,0,6.640625,101.3014,1,0.8
2022-06-02T10:49:38.957+02:00,1654159777.999833,53.22908569105719,10.39854064219944,36.81969,0,20,-1,-1,2.400000095367432,7.999579855010836,-9999,2923.234555125,-0.2562255859375,-0.5628662109375,-0.5892791748046875,2923.224561125,0.1270183653205558,-0.2972358317897121,0.5584246180728849,-0.4936008155345917,-0.003772700671106577,-0.2341884672641754,-0.01481133699417114,-0.06042015552520752,0.1320841312408447,XArbitraryZVertical,0.2810446886408314,-0.1247516219847949,0.01961009997063099,0.951349721409893,-0.2483874708414078,-0.5298507809638977,-0.8109018206596375,0,0,0,-1,-1,2921.984468125,unknown,2,2022-06-02T10:49:37.706+02:00,2022-06-02T10:17:13.754+02:00,467,1.474645,0,0,361.8512,0,0,2022-06-02T10:49:24.918+02:00,675852567.4721328,0,6.640625,101.3014,1,0.8
2022-06-02T10:49:38.967+02:00,1654159777.999833,53.22908569105719,10.39854064219944,36.81969,0,20,-1,-1,2.400000095367432,7.999579855010836,-9999,2923.244549125,-0.2694854736328125,-0.51007080078125,-0.517730712890625,2923.234555125,0.1217543210270709,-0.2951593157245669,0.5537421748519599,-0.6943514943122864,-0.08630672842264175,-0.372751384973526,-0.01006993651390076,-0.05437207221984863,0.1912068724632263,XArbitraryZVertical,0.2784804994714898,-0.1247328379702023,0.01776660551664857,0.9521421010701034,-0.2474220842123032,-0.5258738398551941,-0.813780665397644,0,0,0,-1,-1,2921.984468125,unknown,2,2022-06-02T10:49:37.706+02:00,2022-06-02T10:17:13.754+02:00,467,1.474645,0,0,361.8512,0,0,2022-06-02T10:49:24.918+02:00,675852567.4721328,0,6.640625,101.3014,1,0.8
2022-06-02T10:49:38.977+02:00,1654159777.999833,53.22908569105719,10.39854064219944,36.81969,0,20,-1,-1,2.400000095367432,7.999579855010836,-9999,2923.254543125,-0.2771148681640625,-0.46044921875,-0.4490814208984375,2923.244549125,0.1144235953455278,-0.2928843283532895,0.5472442409523107,-0.9489103555679321,-0.1774820387363434,-0.4613413214683533,-0.01434326171875,-0.01718544960021973,0.2655481100082397,XArbitraryZVertical,0.2749242359076127,-0.1249750329795715,0.01509823385289357,0.9531893357088809,-0.2465514838695526,-0.5203359127044678,-0.8175958395004272,0,0,0,-1,-1,2921.984468125,unknown,2,2022-06-02T10:49:37.706+02:00,2022-06-02T10:17:13.754+02:00,467,1.474645,0,0,361.8512,0,0,2022-06-02T10:49:24.918+02:00,675852567.4721328,0,6.640625,101.3014,1,0.8
2022-06-02T10:49:38.987+02:00,1654159777.999833,53.22908569105719,10.39854064219944,36.81969,0,20,-1,-1,2.400000095367432,7.999579855010836,-9999,2923.264538125,-0.3422088623046875,-0.42462158203125,-0.3778533935546875,2923.254543125,0.1051413891099656,-0.2905408205118729,0.5384349703179619,-1.204915761947632,-0.3151664137840271,-0.5518350005149841,-0.02960480749607086,0.02461856603622437,0.3374848365783691,XArbitraryZVertical,0.270144659798451,-0.1255239102017694,0.01167050990124657,0.9545309529227137,-0.2459383606910706,-0.5127930045127869,-0.8225312232971191,0,0,0,-1,-1,2921.984468125,unknown,2,2022-06-02T10:49:37.706+02:00,2022-06-02T10:17:13.754+02:00,467,1.474645,0,0,361.8512,0,0,2022-06-02T10:49:24.918+02:00,675852567.4721328,0,6.640625,101.3014,1,0.8
2022-06-02T10:49:38.997+02:00,1654159777.999833,53.22908569105719,10.39854064219944,36.81969,0,20,-1,-1,2.400000095367432,7.999579855010836,-9999,2923.274532125,-1.111770629882812,-1.076461791992188,-0.2461090087890625,2923.264538125,0.0931122750341212,-0.288031135627044,0.5275306385866171,-1.528066039085388,-0.3853568136692047,-0.9163499474525452,-0.03671832382678986,0.07821506261825562,0.4138158559799194,XArbitraryZVertical,0.2641871149682293,-0.1263965634161731,0.007087463128804742,0.9561270268674719,-0.2454471737146378,-0.5034012198448181,-0.8284581303596497,0,0,0,-1,-1,2921.984468125,unknown,2,2022-06-02T10:49:37.706+02:00,2022-06-02T10:17:13.754+02:00,467,1.474645,0,0,361.8512,0,0,2022-06-02T10:49:24.918+02:00,675852567.4721328,0,6.640625,101.3014,1,0.8
2022-06-02T10:49:39.007+02:00,1654159777.999833,53.22908569105719,10.39854064219944,36.81969,0,20,-1,-1,2.400000095367432,7.999579855010836,-9999,2923.284526125,-0.531707763671875,-0.2912750244140625,-0.140106201171875,2923.274532125,0.06549240345431456,-0.277004998766949,0.5132858199609766,-2.305910587310791,0.4085485637187958,-2.203094482421875,-0.4264532923698425,-0.148331493139267,0.543584942817688,XArbitraryZVertical,0.2556414018077461,-0.1252356571125798,-0.003660913637102207,0.9586188512559781,-0.2382347583770752,-0.491042286157608,-0.837926983833313,0,0,0,-1,-1,2921.984468125,unknown,2,2022-06-02T10:49:37.706+02:00,2022-06-02T10:17:13.754+02:00,467,1.474645,0,0,361.8512,0,0,2022-06-02T10:49:24.918+02:00,675852567.4721328,0,6.640625,101.3014,1,0.8
2022-06-02T10:49:39.018+02:00,1654159777.999833,53.22908569105719,10.39854064219944,36.81969,0,20,-1,-1,2.400000095367432,7.999579855010836,-9999,2923.294520125,-0.350189208984375,-0.3337249755859375,-0.1080474853515625,2923.284526125,0.04156782202515522,-0.2615377560500613,0.4938282582423466,-2.717361211776733,0.2999652028083801,-1.015257596969604,-0.6974052786827087,-0.3391711711883545,0.584650993347168,XArbitraryZVertical,0.244901465260965,-0.1213783069640121,-0.01188364650476622,0.9618468289509379,-0.2276740372180939,-0.4740002155303955,-0.850581169128418,0,0,0,-1,-1,2921.984468125,unknown,2,2022-06-02T10:49:37.706+02:00,2022-06-02T10:17:13.754+02:00,467,1.474645,0,0,361.8512,0,0,2022-06-02T10:49:24.918+02:00,675852567.4721328,0,6.640625,101.3014,1,0.8
2022-06-02T10:49:39.027+02:00,1654159777.999833,53.22908569105719,10.39854064219944,36.81969,0,20,-1,-1,2.400000095367432,7.999579855010836,-9999,2923.304515125,-0.4304351806640625,-0.591033935546875,-0.1246185302734375,2923.294520125,0.02272782688645319,-0.2507327379812167,0.4699323028429515,-2.720325469970703,0.03026076592504978,-1.064940929412842,-0.1526527553796768,0.293295294046402,0.7730974555015564,XArbitraryZVertical,0.2323499009507606,-0.118969801484627,-0.01814359532161096,0.9651582505531391,-0.2212180495262146,-0.4528259336948395,-0.8637194037437439,0,0,0,-1,-1,2921.984468125,unknown,2,2022-06-02T10:49:37.706+02:00,2022-06-02T10:17:13.754+02:00,467,1.474645,0,0,361.8512,0,0,2022-06-02T10:49:24.918+02:00,675852567.4721328,0,6.640625,101.3014,1,0.8
2022-06-02T10:49:39.039+02:00,1654159777.999833,53.22908569105719,10.39854064219944,36.81969,0,20,-1,-1,2.400000095367432,7.999579855010836,-9999,2923.314509125,-0.603546142578125,-0.726806640625,-0.1616973876953125,2923.304515125,0.00254094381489222,-0.2430054701254494,0.4455449243964754,-2.956493139266968,-0.3140675723552704,-1.231519460678101,-0.1766988337039948,-0.08809331059455872,0.7483915090560913,XArbitraryZVertical,0.2194556275512253,-0.1179301792654784,-0.02554817825730442,0.9681316291496207,-0.2171304970979691,-0.4309496581554413,-0.8758633732795715,0,0,0,-1,-1,2921.984468125,unknown,2,2022-06-02T10:49:37.706+02:00,2022-06-02T10:17:13.754+02:00,467,1.474645,0,0,361.8512,0,0,2022-06-02T10:49:24.918+02:00,675852567.4721328,0,6.640625,101.3014,1,0.8
2022-06-02T10:49:39.046+02:00,1654159777.999833,53.22908569105719,10.39854064219944,36.81969,0,20,-1,-1,2.400000095367432,7.999579855010836,-9999,2923.324503125,-0.759307861328125,-0.77874755859375,-0.214447021484375,2923.314509125,-0.01954296115950549,-0.2381436627429208,0.4182373298396214,-3.335248708724976,-0.5663008689880371,-1.348498582839966,-0.299814760684967,-0.2461934089660645,0.7503973841667175,XArbitraryZVertical,0.2049826143867362,-0.1182113128615606,-0.03415027627843509,0.9710005139002884,-0.2155660688877106,-0.4061503410339355,-0.888016402721405,0,0,0,-1,-1,2921.984468125,unknown,2,2022-06-02T10:49:37.706+02:00,2022-06-02T10:17:13.754+02:00,467,1.474645,0,0,361.8512,0,0,2022-06-02T10:49:24.918+02:00,675852567.4721328,0,6.640625,101.3014,1,0.8
2022-06-02T10:49:39.056+02:00,1654159777.999833,53.22908569105719,10.39854064219944,36.81969,0,20,-1,-1,2.400000095367432,7.999579855010836,-9999,2923.334497125,-0.86981201171875,-0.791778564453125,-0.27435302734375,2923.324503125,-0.04308156872212985,-0.2351298282849288,0.3868063827776432,-3.817137718200684,-0.6688032746315002,-1.389375686645508,-0.4815084636211395,-0.3950146436691284,0.7116249203681946,XArbitraryZVertical,0.1883494359721403,-0.1191919600130815,-0.04353033317390726,0.9738700370419537,-0.2157571315765381,-0.3772326707839966,-0.9006355404853821,0,0,0,-1,-1,2921.984468125,unknown,2,2022-06-02T10:49:37.706+02:00,2022-06-02T10:17:13.754+02:00,467,1.474645,0,0,361.8512,0,0,2022-06-02T10:49:24.918+02:00,675852567.4721328,0,6.640625,101.3014,1,0.8
2022-06-02T10:49:39.066+02:00,1654159777.999833,53.22908569105719,10.39854064219944,36.81969,0,20,-1,-1,2.400000095367432,7.999579855010836,-9999,2923.344492125,-0.9454803466796875,-0.78277587890625,-0.3189697265625,2923.334497125,-0.06808704511589836,-0.2326749903354053,0.350516952313886,-4.343297481536865,-0.6349440813064575,-1.4805988073349,-0.6055216789245605,-0.4390568137168884,0.6665571928024292,XArbitraryZVertical,0.1691933761053217,-0.1201255830093618,-0.05351646696469044,0.9767698550981063,-0.2165608406066895,-0.3433833718299866,-0.9138869047164917,0,0,0,-1,-1,2921.984468125,unknown,2,2022-06-02T10:49:37.706+02:00,2022-06-02T10:17:13.754+02:00,467,1.474645,0,0,361.8512,0,0,2022-06-02T10:49:24.918+02:00,675852567.4721328,0,6.640625,101.3014,1,0.8
2022-06-02T10:49:39.076+02:00,1654159777.999833,53.22908569105719,10.39854064219944,36.81969,0,20,-1,-1,2.400000095367432,7.999579855010836,-9999,2923.354486125,-1.013687133789062,-0.7446441650390625,-0.3919525146484375,2923.344492125,-0.0950705181459443,-0.2299233398987568,0.3091385511334672,-4.903337478637695,-0.5588697791099548,-1.597869157791138,-0.7009456157684326,-0.4936897456645966,0.6283330321311951,XArbitraryZVertical,0.147379873915272,-0.1204802432488072,-0.06428090145304055,0.9796079061610361,-0.2170993685722351,-0.3042381405830383,-0.9275273680686951,0,0,0,-1,-1,2921.984468125,unknown,2,2022-06-02T10:49:37.706+02:00,2022-06-02T10:17:13.754+02:00,467,1.474645,0,0,361.8512,0,0,2022-06-02T10:49:24.918+02:00,675852567.4721328,0,6.640625,101.3014,1,0.8
2022-06-02T10:49:39.086+02:00,1654159778.999833,53.2290865432144,10.39854237285117,36.85035,0,20,-1,-1,2.400000095367432,7.999579855010837,-9999,2923.364480125,-1.094879150390625,-0.7003173828125,-0.4863433837890625,2923.354486125,-0.1241488034748245,-0.2265629693497999,0.2624635331655852,-5.4639573097229,-0.3994428217411041,-1.732058644294739,-0.7640353441238403,-0.5045166015625,0.5905176997184753,XArbitraryZVertical,0.1228142361524872,-0.1199170635545643,-0.07587026732999017,0.9822323183197862,-0.216936931014061,-0.2594605088233948,-0.9410731196403503,0,0,0,-1,-1,2921.984468125,unknown,2,2022-06-02T10:49:37.706+02:00,2022-06-02T10:17:13.754+02:00,467,1.474645,0,0,361.8512,0,0,2022-06-02T10:49:24.918+02:00,675852567.4721328,0,6.640625,101.3014,1,0.8
2022-06-02T10:49:39.096+02:00,1654159778.999833,53.2290865432144,10.39854237285117,36.85035,0,20,-1,-1,2.400000095367432,7.999579855010837,-9999,2923.374474125,-1.175506591796875,-0.6526336669921875,-0.581085205078125,2923.364480125,-0.1552099257434382,-0.2222402462792262,0.2104522190836071,-6.028977394104004,-0.1800180971622467,-1.840823173522949,-0.8406458497047424,-0.515432596206665,0.5110294818878174,XArbitraryZVertical,0.09552053082003388,-0.1180389315695399,-0.08823489319606415,0.9844577710423528,-0.2155521959066391,-0.2089021652936935,-0.9538852572441101,0,0,0,-1,-1,2921.984468125,unknown,2,2022-06-02T10:49:37.706+02:00,2022-06-02T10:17:13.754+02:00,467,1.474645,0,0,361.8512,0,0,2022-06-02T10:49:24.918+02:00,675852567.4721328,0,6.640625,101.3014,1,0.8
2022-06-02T10:49:39.106+02:00,1654159778.999833,53.2290865432144,10.39854237285117,36.85035,0,20,-1,-1,2.400000095367432,7.999579855010837,-9999,2923.384469125,-1.231033325195312,-0.5541534423828125,-0.6314697265625,2923.374474125,-0.1878009922730572,-0.2165520356471669,0.1537599272297037,-6.431594848632812,0.1530285626649857,-1.956301808357239,-0.9260686039924622,-0.526258111000061,0.4294010400772095,XArbitraryZVertical,0.06591562536757405,-0.1144299135006828,-0.1012014102721035,0.9860623845689253,-0.2123285531997681,-0.1531547755002975,-0.965121865272522,0,0,0,-1,-1,2921.984468125,unknown,2,2022-06-02T10:49:37.706+02:00,2022-06-02T10:17:13.754+02:00,467,1.474645,0,0,361.8512,0,0,2022-06-02T10:49:24.918+02:00,675852567.4721328,0,6.640625,101.3014,1,0.8
2022-06-02T10:49:39.118+02:00,1654159778.999833,53.2290865432144,10.39854237285117,36.85035,0,20,-1,-1,2.400000095367432,7.999579855010837,-9999,2923.394463125,-1.244552612304688,-0.3956146240234375,-0.689727783203125,2923.384469125,-0.2213869153687179,-0.2086837461339195,0.09399839555019303,-6.651008605957031,0.6094970107078552,-2.035628080368042,-1.00458812713623,-0.5176664590835571,0.3644885420799255,XArbitraryZVertical,0.03494761816593912,-0.1085626431927225,-0.1146087639152796,0.9868422519891334,-0.2062578052282333,-0.09386003017425537,-0.9739856123924255,0,0,0,-1,-1,2921.984468125,unknown,2,2022-06-02T10:49:37.706+02:00,2022-06-02T10:17:13.754+02:00,467,1.474645,0,0,361.8512,0,0,2022-06-02T10:49:24.918+02:00,675852567.4721328,0,6.640625,101.3014,1,0.8
2022-06-02T10:49:39.126+02:00,1654159778.999833,53.2290865432144,10.39854237285117,36.85035,0,20,-1,-1,2.400000095367432,7.999579855010837,-9999,2923.404457125,-1.195205688476562,-0.2356109619140625,-0.737060546875,2923.394463125,-0.2553859809574957,-0.198071859659953,0.03271048838321115,-6.737321853637695,1.088794589042664,-2.145868539810181,-1.047603845596313,-0.4467723071575165,0.3181802034378052,XArbitraryZVertical,0.003552310897686973,-0.1001284838612072,-0.1283091829294285,0.9866601985190157,-0.1966739892959595,-0.03270465508103371,-0.9799233078956604,0,0,0,-1,-1,2921.984468125,unknown,2,2022-06-02T10:49:37.706+02:00,2022-06-02T10:17:13.754+02:00,467,1.474645,0,0,361.8512,0,0,2022-06-02T10:49:24.918+02:00,675852567.4721328,0,6.640625,101.3014,1,0.8
2022-06-02T10:49:39.136+02:00,1654159778.999833,53.2290865432144,10.39854237285117,36.85035,0,20,-1,-1,2.400000095367432,7.999579855010837,-9999,2923.414451125,-1.099456787109375,-0.095977783203125,-0.8297576904296875,2923.404457125,-0.2902177265090717,-0.1848166006804605,-0.02969860815195384,-6.875019550323486,1.544597268104553,-2.326478242874146,-1.044692993164062,-0.3407294452190399,0.2665330767631531,XArbitraryZVertical,-0.02797178469480088,-0.08915898525252805,-0.1426115237325666,0.9853579365225473,-0.183685228228569,0.02969424240291119,-0.9825364947319031,0,0,0,-1,-1,2921.984468125,unknown,2,2022-06-02T10:49:37.706+02:00,2022-06-02T10:17:13.754+02:00,467,1.474645,0,0,361.8512,0,0,2022-06-02T10:49:24.918+02:00,675852567.4721328,0,6.640625,101.3014,1,0.8
2022-06-02T10:49:39.146+02:00,1654159778.999833,53.2290865432144,10.39854237285117,36.85035,0,20,-1,-1,2.400000095367432,7.999579855010837,-9999,2923.424446125,-1.019821166992188,0.0493316650390625,-0.976898193359375,2923.414451125,-0.3267998177252803,-0.1698583282263147,-0.09375123133035256,-7.039898872375488,1.908594608306885,-2.619516134262085,-0.9823191165924072,-0.2600568532943726,0.209277331829071,XArbitraryZVertical,-0.05985164095792753,-0.07601009762812086,-0.1579874767969583,0.9826902182351174,-0.1683003753423691,0.09361395984888077,-0.981280505657196,0,0,0,-1,-1,2921.984468125,unknown,2,2022-06-02T10:49:37.706+02:00,2022-06-02T10:17:13.754+02:00,467,1.474645,0,0,361.8512,0,0,2022-06-02T10:49:24.918+02:00,675852567.4721328,0,6.640625,101.3014,1,0.8
2022-06-02T10:49:39.156+02:00,1654159778.999833,53.2290865432144,10.39854237285117,36.85035,0,20,-1,-1,2.400000095367432,7.999579855010837,-9999,2923.434440125,-0.9983062744140625,0.1821136474609375,-1.12335205078125,2923.424446125,-0.3662808017694883,-0.1538008825203233,-0.1591135845085315,-7.123690605163574,2.318079471588135,-3.001051187515259,-0.9017336368560791,-0.1803699880838394,0.07787078619003296,XArbitraryZVertical,-0.09185982947178573,-0.060870274072223,-0.1750024198833853,0.9783816393810091,-0.151260107755661,0.1584430485963821,-0.9757131338119507,0,0,0,-1,-1,2921.984468125,unknown,2,2022-06-02T10:49:37.706+02:00,2022-06-02T10:17:13.754+02:00,467,1.474645,0,0,361.8512,0,0,2022-06-02T10:49:24.918+02:00,675852567.4721328,0,6.640625,101.3014,1,0.8
2022-06-02T10:49:39.166+02:00,1654159778.999833,53.2290865432144,10.39854237285117,36.85035,0,20,-1,-1,2.400000095367432,7.999579855010837,-9999,2923.444434125,-0.9971160888671875,0.349273681640625,-1.151458740234375,2923.434440125,-0.4087286776101309,-0.1365828699665579,-0.2247050090251926,-7.076425552368164,2.755763292312622,-3.331071138381958,-0.8695989847183228,-0.1097054332494736,-0.09452170133590698,XArbitraryZVertical,-0.1232885770165049,-0.04369667847131967,-0.1937037349366809,0.9723010128548319,-0.1327355653047562,0.2228187918663025,-0.965781033039093,0,0,0,-1,-1,2921.984468125,unknown,2,2022-06-02T10:49:37.706+02:00,2022-06-02T10:17:13.754+02:00,467,1.474645,0,0,361.8512,0,0,2022-06-02T10:49:24.918+02:00,675852567.4721328,0,6.640625,101.3014,1,0.8
