loggingTime(txt),locationTimestamp_since1970(s),locationLatitude(WGS84),locationLongitude(WGS84),locationAltitude(m),locationSpeed(m/s),locationSpeedAccuracy(m/s),locationCourse(°),locationCourseAccuracy(°),locationVerticalAccuracy(m),locationHorizontalAccuracy(m),locationFloor(Z),accelerometerTimestamp_sinceReboot(s),accelerometerAccelerationX(G),accelerometerAccelerationY(G),accelerometerAccelerationZ(G),motionTimestamp_sinceReboot(s),motionYaw(rad),motionRoll(rad),motionPitch(rad),motionRotationRateX(rad/s),motionRotationRateY(rad/s),motionRotationRateZ(rad/s),motionUserAccelerationX(G),motionUserAccelerationY(G),motionUserAccelerationZ(G),motionAttitudeReferenceFrame(txt),motionQuaternionX(R),motionQuaternionY(R),motionQuaternionZ(R),motionQuaternionW(R),motionGravityX(G),motionGravityY(G),motionGravityZ(G),motionMagneticFieldX(µT),motionMagneticFieldY(µT),motionMagneticFieldZ(µT),motionHeading(°),motionMagneticFieldCalibrationAccuracy(Z),activityTimestamp_sinceReboot(s),activity(txt),activityActivityConfidence(Z),activityActivityStartDate(txt),pedometerStartDate(txt),pedometerNumberofSteps(N),pedometerAverageActivePace(s/m),pedometerCurrentPace(s/m),pedometerCurrentCadence(steps/s),pedometerDistance(m),pedometerFloorAscended(N),pedometerFloorDescended(N),pedometerEndDate(txt),altimeterTimestamp_sinceReboot(s),altimeterReset(bool),altimeterRelativeAltitude(m),altimeterPressure(kPa),batteryState(N),batteryLevel(R)
2022-06-02T10:51:16.221+02:00,1654159852.491319,53.22880421162223,10.39819542043123,42.81302,-1,-1,-1,-1,42.47970962524414,45.752,-9999,3020.479153125,-0.100341796875,-0.4637451171875,-0.8543701171875,3020.474156125,0.121422006760622,-0.1085535636784147,0.4348748405206722,0.1090220883488655,0.01346680615097284,0.01037008222192526,-0.007227532565593719,-0.01139658689498901,0.02579104900360107,XArbitraryZVertical,0.2182276070640536,-0.03980539047837486,0.0474760982176936,0.9739292605061647,-0.09825646132230759,-0.4212968945503235,-0.9015845060348511,0,0,0,-1,-1,2991.035571166667,unknown,2,2022-06-02T10:50:46.757+02:00,2022-06-02T10:17:13.754+02:00,512,1.445976,0,0,397.4887,0,0,2022-06-02T10:51:14.838+02:00,675852674.8377889,0,5.5625,101.3225,1,0.79
2022-06-02T10:51:16.224+02:00,1654159852.491319,53.22880421162223,10.39819542043123,42.81302,-1,-1,-1,-1,42.47970962524414,45.752,-9999,3020.489147125,-0.07843017578125,-0.44586181640625,-0.847320556640625,3020.484150125,0.1214827684599209,-0.1085917494904608,0.435300008141349,0.01409005280584097,-0.003534946823492646,-0.01093107834458351,-0.002070315182209015,-0.0420626699924469,0.04703247547149658,XArbitraryZVertical,0.2184364544137172,-0.03980228807574076,0.04748749485311444,0.9738820240333129,-0.09827146679162979,-0.4216824471950531,-0.9014025926589966,0,0,0,-1,-1,2991.035571166667,unknown,2,2022-06-02T10:50:46.757+02:00,2022-06-02T10:17:13.754+02:00,512,1.445976,0,0,397.4887,0,0,2022-06-02T10:51:14.838+02:00,675852674.8377889,0,5.5625,101.3225,1,0.79
2022-06-02T10:51:16.226+02:00,1654159852.491319,53.22880421162223,10.39819542043123,42.81302,-1,-1,-1,-1,42.47970962524414,45.752,-9999,3020.499141125,-0.0828094482421875,-0.42657470703125,-0.864898681640625,3020.494144125,0.1214913129423486,-0.10881992999172,0.4349342254421844,-0.03506897017359734,-0.02053922973573208,0.007987219840288162,0.02006372809410095,-0.02451106905937195,0.05421286821365356,XArbitraryZVertical,0.2182641866470259,-0.03992543328609927,0.04747882074539178,0.9739160211999647,-0.09849388897418976,-0.4213507473468781,-0.9015334248542786,0,0,0,-1,-1,2991.035571166667,unknown,2,2022-06-02T10:50:46.757+02:00,2022-06-02T10:17:13.754+02:00,512,1.445976,0,0,397.4887,0,0,2022-06-02T10:51:14.838+02:00,675852674.8377889,0,5.5625,101.3225,1,0.79
2022-06-02T10:51:16.234+02:00,1654159852.491319,53.22880421162223,10.39819542043123,42.81302,-1,-1,-1,-1,42.47970962524414,45.752,-9999,3020.509135125,-0.1028900146484375,-0.4229278564453125,-0.886932373046875,3020.504138125,0.1216839551595555,-0.1092437389918027,0.4341723678637635,-0.05974971503019333,-0.03851643204689026,0.03137623518705368,0.01610150933265686,-0.005914986133575439,0.03691178560256958,XArbitraryZVertical,0.2179076426422798,-0.04013784329396538,0.0475516312402678,0.9739836038637141,-0.09891092777252197,-0.4206596910953522,-0.9018104076385498,0,0,0,-1,-1,2991.035571166667,unknown,2,2022-06-02T10:50:46.757+02:00,2022-06-02T10:17:13.754+02:00,512,1.445976,0,0,397.4887,0,0,2022-06-02T10:51:14.838+02:00,675852674.8377889,0,5.5625,101.3225,1,0.79
2022-06-02T10:51:16.241+02:00,1654159852.491319,53.22880421162223,10.39819542043123,42.81302,-1,-1,-1,-1,42.47970962524414,45.752,-9999,3020.519129125,-0.1129150390625,-0.4228363037109375,-0.9046630859375,3020.514132125,0.12191008332002,-0.1097088160057248,0.4330567499938024,-0.06426084786653519,-0.04503824934363365,0.02568718604743481,-0.003508344292640686,-0.003280520439147949,0.01529788970947266,XArbitraryZVertical,0.2173807338551967,-0.04037939303825127,0.04764818899855143,0.9740866496838567,-0.09938165545463562,-0.4196473360061646,-0.9022302627563477,0,0,0,-1,-1,2991.035571166667,unknown,2,2022-06-02T10:50:46.757+02:00,2022-06-02T10:17:13.754+02:00,512,1.445976,0,0,397.4887,0,0,2022-06-02T10:51:14.838+02:00,675852674.8377889,0,5.5625,101.3225,1,0.79
2022-06-02T10:51:16.251+02:00,1654159852.491319,53.22880421162223,10.39819542043123,42.81302,-1,-1,-1,-1,42.47970962524414,45.752,-9999,3020.529123125,-0.1182098388671875,-0.4210205078125,-0.9188995361328125,3020.524126125,0.1221926150731407,-0.1105750603038444,0.4316091617767823,-0.06139248609542847,-0.04954644665122032,0.01765056699514389,-0.01268492639064789,-0.004503369331359863,-0.001916408538818359,XArbitraryZVertical,0.2167030827722132,-0.04082223767551883,0.04774009132846149,0.9742146819605935,-0.1002300977706909,-0.4183329343795776,-0.9027466177940369,0,0,0,-1,-1,2991.035571166667,unknown,2,2022-06-02T10:50:46.757+02:00,2022-06-02T10:17:13.754+02:00,512,1.445976,0,0,397.4887,0,0,2022-06-02T10:51:14.838+02:00,675852674.8377889,0,5.5625,101.3225,1,0.79
2022-06-02T10:51:16.261+02:00,1654159852.491319,53.22880421162223,10.39819542043123,42.81302,-1,-1,-1,-1,42.47970962524414,45.752,-9999,3020.539118125,-0.1224517822265625,-0.421966552734375,-0.9267425537109375,3020.534121125,0.1222438853613168,-0.1111322092990416,0.4308783597960635,-0.04982265084981918,-0.0529923103749752,0.001103547401726246,-0.01744289696216583,-0.003351479768753052,-0.01590532064437866,XArbitraryZVertical,0.2163619881059491,-0.04111417651787033,0.04772925203395677,0.9742786659590379,-0.1007669195532799,-0.4176690280437469,-0.9029942154884338,0,0,0,-1,-1,2991.035571166667,unknown,2,2022-06-02T10:50:46.757+02:00,2022-06-02T10:17:13.754+02:00,512,1.445976,0,0,397.4887,0,0,2022-06-02T10:51:14.838+02:00,675852674.8377889,0,5.5625,101.3225,1,0.79
2022-06-02T10:51:16.271+02:00,1654159852.491319,53.22880421162223,10.39819542043123,42.81302,-1,-1,-1,-1,42.47970962524414,45.752,-9999,3020.549112125,-0.1200714111328125,-0.421661376953125,-0.9258880615234375,3020.544115125,0.1220028809083771,-0.1111737690466318,0.4304369630478153,-0.02097325958311558,-0.03625720739364624,-0.007479887455701828,-0.02162685990333557,-0.004698604345321655,-0.02356934547424316,XArbitraryZVertical,0.2161432943010405,-0.04117623118520509,0.04762217761222003,0.9743299046467816,-0.1008248925209045,-0.4172679483890533,-0.9031732082366943,0,0,0,-1,-1,2991.035571166667,unknown,2,2022-06-02T10:50:46.757+02:00,2022-06-02T10:17:13.754+02:00,512,1.445976,0,0,397.4887,0,0,2022-06-02T10:51:14.838+02:00,675852674.8377889,0,5.5625,101.3225,1,0.79
2022-06-02T10:51:16.281+02:00,1654159852.491319,53.22880421162223,10.39819542043123,42.81302,-1,-1,-1,-1,42.47970962524414,45.752,-9999,3020.559106125,-0.1121368408203125,-0.42645263671875,-0.9215545654296875,3020.554109125,0.1218778606600201,-0.1114724918385483,0.4305608971048077,-0.0001880861818790436,-0.0252692699432373,-0.01832348108291626,-0.01898246258497238,-0.004280805587768555,-0.02279645204544067,XArbitraryZVertical,0.2162081264807452,-0.04133085378672033,0.04752481953683436,0.9743136455545296,-0.1010889336466789,-0.4173805713653564,-0.9030916094779968,0,0,0,-1,-1,2991.035571166667,unknown,2,2022-06-02T10:50:46.757+02:00,2022-06-02T10:17:13.754+02:00,512,1.445976,0,0,397.4887,0,0,2022-06-02T10:51:14.838+02:00,675852674.8377889,0,5.5625,101.3225,1,0.79
2022-06-02T10:51:16.291+02:00,1654159852.491319,53.22880421162223,10.39819542043123,42.81302,-1,-1,-1,-1,42.47970962524414,45.752,-9999,3020.569100125,-0.1115264892578125,-0.4252777099609375,-0.9188995361328125,3020.564103125,0.1217622075869564,-0.1116337530421466,0.4311328138829229,0.01148814521729946,-0.007173623889684677,-0.008353937417268753,-0.01092886924743652,-0.008552402257919312,-0.01871663331985474,XArbitraryZVertical,0.2164877514430584,-0.0414015419160983,0.04743177643814764,0.974253088915935,-0.1012079566717148,-0.4179002344608307,-0.9028379321098328,0,0,0,-1,-1,2991.035571166667,unknown,2,2022-06-02T10:50:46.757+02:00,2022-06-02T10:17:13.754+02:00,512,1.445976,0,0,397.4887,0,0,2022-06-02T10:51:14.838+02:00,675852674.8377889,0,5.5625,101.3225,1,0.79
2022-06-02T10:51:16.301+02:00,1654159852.491319,53.22880421162223,10.39819542043123,42.81302,-1,-1,-1,-1,42.47970962524414,45.752,-9999,3020.579094125,-0.1056365966796875,-0.425811767578125,-0.915618896484375,3020.574097125,0.1216130955065487,-0.1114668242955663,0.4316842718899645,0.005198291037231684,-0.002024401910603046,-0.009035173803567886,-0.01049487292766571,-0.006876558065414429,-0.0162738561630249,XArbitraryZVertical,0.2167489294588882,-0.04131674258164438,0.04735865141833721,0.9742021964228654,-0.101031593978405,-0.4184011518955231,-0.9026256799697876,0,0,0,-1,-1,2991.035571166667,unknown,2,2022-06-02T10:50:46.757+02:00,2022-06-02T10:17:13.754+02:00,512,1.445976,0,0,397.4887,0,0,2022-06-02T10:51:14.838+02:00,675852674.8377889,0,5.5625,101.3225,1,0.79
2022-06-02T10:51:16.311+02:00,1654159852.491319,53.22880421162223,10.39819542043123,42.81302,-1,-1,-1,-1,42.47970962524414,45.752,-9999,3020.589088125,-0.1063690185546875,-0.416290283203125,-0.9150238037109375,3020.584091125,0.1215008339977854,-0.1112634352624569,0.4319400555844811,-0.0004892898723483086,0.005629789549857378,-0.002809768542647362,-0.004800446331501007,-0.007178276777267456,-0.01307904720306396,XArbitraryZVertical,0.2168662073660967,-0.04122074411209919,0.04731741644199403,0.9741821564820506,-0.1008361205458641,-0.4186334609985352,-0.9025397896766663,0,0,0,-1,-1,2991.035571166667,unknown,2,2022-06-02T10:50:46.757+02:00,2022-06-02T10:17:13.754+02:00,512,1.445976,0,0,397.4887,0,0,2022-06-02T10:51:14.838+02:00,675852674.8377889,0,5.5625,101.3225,1,0.79
2022-06-02T10:51:16.321+02:00,1654159852.491319,53.22880421162223,10.39819542043123,42.81302,-1,-1,-1,-1,42.47970962524414,45.752,-9999,3020.599083125,-0.108001708984375,-0.4155120849609375,-0.916961669921875,3020.594085125,0.1215023710440021,-0.1111724008028171,0.4321727132557509,0.01738984137773514,0.02112645655870438,-0.0005468800663948059,-0.00562584400177002,0.002554476261138916,-0.01257163286209106,XArbitraryZVertical,0.2169772340781625,-0.04116796412248189,0.04732022283694037,0.9741595589964759,-0.1007431522011757,-0.4188447296619415,-0.9024521708488464,0,0,0,-1,-1,2991.035571166667,unknown,2,2022-06-02T10:50:46.757+02:00,2022-06-02T10:17:13.754+02:00,512,1.445976,0,0,397.4887,0,0,2022-06-02T10:51:14.838+02:00,675852674.8377889,0,5.5625,101.3225,1,0.79
2022-06-02T10:51:16.331+02:00,1654159852.491319,53.22880421162223,10.39819542043123,42.81302,-1,-1,-1,-1,42.47970962524414,45.752,-9999,3020.609077125,-0.1035003662109375,-0.422576904296875,-0.920257568359375,3020.604080125,0.1216816970666798,-0.1111894514254351,0.4324649231252223,0.02875658124685287,0.02623220346868038,0.007723100483417511,-0.007256731390953064,0.00359797477722168,-0.01463288068771362,XArbitraryZVertical,0.2171234337933853,-0.04114641191099997,0.04739590058818709,0.9741242562871681,-0.1007449552416801,-0.4191100597381592,-0.9023287892341614,0,0,0,-1,-1,2991.035571166667,unknown,2,2022-06-02T10:50:46.757+02:00,2022-06-02T10:17:13.754+02:00,512,1.445976,0,0,397.4887,0,0,2022-06-02T10:51:14.838+02:00,675852674.8377889,0,5.5625,101.3225,1,0.79
2022-06-02T10:51:16.341+02:00,1654159852.491319,53.22880421162223,10.39819542043123,42.81302,-1,-1,-1,-1,42.47970962524414,45.752,-9999,3020.619071125,-0.1068267822265625,-0.4308929443359375,-0.9246673583984375,3020.614074125,0.1219901834636005,-0.1113683849927201,0.432539069760516,0.008844924159348011,0.01318058371543884,0.01798319444060326,-0.002597391605377197,-0.003399550914764404,-0.01797771453857422,XArbitraryZVertical,0.2171701169367131,-0.04119742857247684,0.04752423307773143,0.9741053281287501,-0.1009029522538185,-0.419177383184433,-0.9022798538208008,0,0,0,-1,-1,2991.035571166667,unknown,2,2022-06-02T10:50:46.757+02:00,2022-06-02T10:17:13.754+02:00,512,1.445976,0,0,397.4887,0,0,2022-06-02T10:51:14.838+02:00,675852674.8377889,0,5.5625,101.3225,1,0.79
2022-06-02T10:51:16.351+02:00,1654159852.491319,53.22880421162223,10.39819542043123,42.81302,-1,-1,-1,-1,42.47970962524414,45.752,-9999,3020.629065125,-0.1123809814453125,-0.432586669921875,-0.924957275390625,3020.624068125,0.1223533253962239,-0.1117412094663858,0.4323707331033849,-0.008510762825608253,-0.001036701956763864,0.01902608759701252,-0.005579560995101929,-0.01186838746070862,-0.02235507965087891,XArbitraryZVertical,0.2171046213832983,-0.04134560400338542,0.04766630100526098,0.9741066897492852,-0.1012472063302994,-0.4190245568752289,-0.9023122191429138,0,0,0,-1,-1,2991.035571166667,unknown,2,2022-06-02T10:50:46.757+02:00,2022-06-02T10:17:13.754+02:00,512,1.445976,0,0,397.4887,0,0,2022-06-02T10:51:14.838+02:00,675852674.8377889,0,5.5625,101.3225,1,0.79
2022-06-02T10:51:16.361+02:00,1654159852.491319,53.22880421162223,10.39819542043123,42.81302,-1,-1,-1,-1,42.47970962524414,45.752,-9999,3020.639059125,-0.1168975830078125,-0.4224853515625,-0.921875,3020.634062125,0.122561829656093,-0.1120782400150968,0.4320785330587431,-0.01814847625792027,0.003460577921941876,0.002368282526731491,-0.01081596314907074,-0.01382747292518616,-0.02255755662918091,XArbitraryZVertical,0.2169748518663948,-0.04149759623119863,0.04774115756627556,0.9741255699683321,-0.1015650033950806,-0.4187592267990112,-0.9023997187614441,0,0,0,-1,-1,2991.035571166667,unknown,2,2022-06-02T10:50:46.757+02:00,2022-06-02T10:17:13.754+02:00,512,1.445976,0,0,397.4887,0,0,2022-06-02T10:51:14.838+02:00,675852674.8377889,0,5.5625,101.3225,1,0.79
2022-06-02T10:51:16.371+02:00,1654159852.491319,53.22880421162223,10.39819542043123,42.81302,-1,-1,-1,-1,42.47970962524414,45.752,-9999,3020.649053125,-0.107452392578125,-0.4103240966796875,-0.9153594970703125,3020.644056125,0.1226829010789888,-0.1122359112698085,0.4319422623825901,-0.0004007723182439804,0.01127509213984013,0.005664210766553879,-0.01518389582633972,-0.003849893808364868,-0.01943457126617432,XArbitraryZVertical,0.2169148578293928,-0.04156614773529382,0.04778764062689961,0.9741337349900445,-0.1017136722803116,-0.4186354577541351,-0.9024404287338257,0,0,0,-1,-1,2991.035571166667,unknown,2,2022-06-02T10:50:46.757+02:00,2022-06-02T10:17:13.754+02:00,512,1.445976,0,0,397.4887,0,0,2022-06-02T10:51:14.838+02:00,675852674.8377889,0,5.5625,101.3225,1,0.79
2022-06-02T10:51:16.381+02:00,1654159852.491319,53.22880421162223,10.39819542043123,42.81302,-1,-1,-1,-1,42.47970962524414,45.752,-9999,3020.659048125,-0.1059417724609375,-0.411865234375,-0.909698486328125,3020.654050125,0.122829138854845,-0.1123431806376359,0.4319481741642379,0.008348776958882809,0.01285061798989773,0.006368616595864296,-0.005642175674438477,0.008316725492477417,-0.0129324197769165,XArbitraryZVertical,0.2169233257351513,-0.04160232090606033,0.0478470317738781,0.9741274423005527,-0.1018102020025253,-0.4186408221721649,-0.9024270176887512,0,0,0,-1,-1,2991.035571166667,unknown,2,2022-06-02T10:50:46.757+02:00,2022-06-02T10:17:13.754+02:00,512,1.445976,0,0,397.4887,0,0,2022-06-02T10:51:14.838+02:00,675852674.8377889,0,5.5625,101.3225,1,0.79
2022-06-02T10:51:16.391+02:00,1654159852.491319,53.22880421162223,10.39819542043123,42.81302,-1,-1,-1,-1,42.47970962524414,45.752,-9999,3020.669042125,-0.1032562255859375,-0.421356201171875,-0.908416748046875,3020.664045125,0.1229599774709055,-0.1122996107194868,0.432052905653652,0.007995275780558586,0.01296919491142035,0.01115105487406254,-0.004175789654254913,0.006870687007904053,-0.007310628890991211,XArbitraryZVertical,0.2169759599348273,-0.04156314379697201,0.0479119330691114,0.9741141020071937,-0.1017659679055214,-0.4187359511852264,-0.9023878574371338,0,0,0,-1,-1,2991.035571166667,unknown,2,2022-06-02T10:50:46.757+02:00,2022-06-02T10:17:13.754+02:00,512,1.445976,0,0,397.4887,0,0,2022-06-02T10:51:14.838+02:00,675852674.8377889,0,5.5625,101.3225,1,0.79
2022-06-02T10:51:16.401+02:00,1654159852.491319,53.22880421162223,10.39819542043123,42.81302,-1,-1,-1,-1,42.47970962524414,45.752,-9999,3020.679036125,-0.1096649169921875,-0.42822265625,-0.90570068359375,3020.674039125,0.1230512841453133,-0.112267109543482,0.4319392233780977,-0.006704041734337807,0.01221312396228313,0.002484596334397793,-0.001514241099357605,-0.002723515033721924,-0.005978226661682129,XArbitraryZVertical,0.2169217828349587,-0.04154149815303724,0.04796378653520565,0.9741245777467002,-0.1017419695854187,-0.4186327159404755,-0.9024384617805481,0,0,0,-1,-1,2991.035571166667,unknown,2,2022-06-02T10:50:46.757+02:00,2022-06-02T10:17:13.754+02:00,512,1.445976,0,0,397.4887,0,0,2022-06-02T10:51:14.838+02:00,675852674.8377889,0,5.5625,101.3225,1,0.79
2022-06-02T10:51:16.411+02:00,1654159852.491319,53.22880421162223,10.39819542043123,42.81302,-1,-1,-1,-1,42.47970962524414,45.752,-9999,3020.689030125,-0.1043548583984375,-0.429351806640625,-0.9066314697265625,3020.684033125,0.1230801262424039,-0.1121835590456285,0.4316590738286111,-0.01343717891722918,0.01548401825129986,-0.0007996140047907829,-0.007985204458236694,-0.009844392538070679,-0.003137171268463135,XArbitraryZVertical,0.2167841277158512,-0.04150775598424715,0.04799639463404468,0.9741550708150872,-0.1016796976327896,-0.4183782637119293,-0.9025635123252869,0,0,0,-1,-1,2991.035571166667,unknown,2,2022-06-02T10:50:46.757+02:00,2022-06-02T10:17:13.754+02:00,512,1.445976,0,0,397.4887,0,0,2022-06-02T10:51:14.838+02:00,675852674.8377889,0,5.5625,101.3225,1,0.79
2022-06-02T10:51:16.421+02:00,1654159852.491319,53.22880421162223,10.39819542043123,42.81302,-1,-1,-1,-1,42.47970962524414,45.752,-9999,3020.699024125,-0.1087646484375,-0.43377685546875,-0.90484619140625,3020.694027125,0.1229898999292688,-0.1119977100786544,0.4315110527344572,-0.006262090988457203,0.01553088985383511,-0.01092974655330181,-0.002835966646671295,-0.01110801100730896,-0.003987550735473633,XArbitraryZVertical,0.2167058207792677,-0.04143233458675764,0.04797760387521164,0.9741765770903289,-0.1015188694000244,-0.4182438254356384,-0.9026439189910889,0,0,0,-1,-1,2991.035571166667,unknown,2,2022-06-02T10:50:46.757+02:00,2022-06-02T10:17:13.754+02:00,512,1.445976,0,0,397.4887,0,0,2022-06-02T10:51:14.838+02:00,675852674.8377889,0,5.5625,101.3225,1,0.79
2022-06-02T10:51:16.431+02:00,1654159852.491319,53.22880421162223,10.39819542043123,42.81302,-1,-1,-1,-1,42.47970962524414,45.752,-9999,3020.709018125,-0.1071624755859375,-0.4359893798828125,-0.908172607421875,3020.704021125,0.1227621870250882,-0.1118302421746205,0.4315635800436473,0.006102134473621845,0.008355202153325081,-0.02968871966004372,-0.007399365305900574,-0.01548528671264648,-0.002207100391387939,XArbitraryZVertical,0.2167226414343191,-0.04137355057076979,0.04788305703615358,0.974179980334532,-0.101365253329277,-0.4182915389537811,-0.9026390314102173,0,0,0,-1,-1,2991.035571166667,unknown,2,2022-06-02T10:50:46.757+02:00,2022-06-02T10:17:13.754+02:00,512,1.445976,0,0,397.4887,0,0,2022-06-02T10:51:14.838+02:00,675852674.8377889,0,5.5625,101.3225,1,0.79
2022-06-02T10:51:16.441+02:00,1654159852.491319,53.22880421162223,10.39819542043123,42.81302,-1,-1,-1,-1,42.47970962524414,45.752,-9999,3020.719012125,-0.1122589111328125,-0.430572509765625,-0.9069366455078125,3020.714015125,0.122457312498072,-0.1118023996827722,0.4317107162459121,0.006937035359442234,0.00642307847738266,-0.04193393513560295,-0.005829200148582458,-0.01756423711776733,-0.005591869354248047,XArbitraryZVertical,0.2167872301646712,-0.04138775597016847,0.04773260224234951,0.9741723818677654,-0.1013332530856133,-0.4184251725673676,-0.9025806784629822,0,0,0,-1,-1,2991.035571166667,unknown,2,2022-06-02T10:50:46.757+02:00,2022-06-02T10:17:13.754+02:00,512,1.445976,0,0,397.4887,0,0,2022-06-02T10:51:14.838+02:00,675852674.8377889,0,5.5625,101.3225,1,0.79
2022-06-02T10:51:16.451+02:00,1654159852.491319,53.22880421162223,10.39819542043123,42.81302,-1,-1,-1,-1,42.47970962524414,45.752,-9999,3020.729007125,-0.104339599609375,-0.42840576171875,-0.9018402099609375,3020.724010125,0.1220499726096973,-0.1117951069392974,0.4317474963020873,0.01252641063183546,0.01262651290744543,-0.05535240471363068,-0.01093393564224243,-0.01211392879486084,-0.004370450973510742,XArbitraryZVertical,0.2167964958712487,-0.04142704142795926,0.04753373888173641,0.9741784387272014,-0.1013249605894089,-0.4184585809707642,-0.902566134929657,0,0,0,-1,-1,2991.035571166667,unknown,2,2022-06-02T10:50:46.757+02:00,2022-06-02T10:17:13.754+02:00,512,1.445976,0,0,397.4887,0,0,2022-06-02T10:51:14.838+02:00,675852674.8377889,0,5.5625,101.3225,1,0.79
2022-06-02T10:51:16.461+02:00,1654159852.491319,53.22880421162223,10.39819542043123,42.81302,-1,-1,-1,-1,42.47970962524414,45.752,-9999,3020.739001125,-0.096466064453125,-0.424407958984375,-0.9012603759765625,3020.734004125,0.1215030693670672,-0.1115251199865612,0.4316077566309988,0.008480536751449108,0.01360762119293213,-0.05345463380217552,-0.003251805901527405,-0.01007410883903503,0.0008113980293273926,XArbitraryZVertical,0.2167108041136363,-0.04135978261034075,0.0473013137602518,0.9742117024713346,-0.1010877788066864,-0.418331652879715,-0.9026516079902649,0,0,0,-1,-1,2991.035571166667,unknown,2,2022-06-02T10:50:46.757+02:00,2022-06-02T10:17:13.754+02:00,512,1.445976,0,0,397.4887,0,0,2022-06-02T10:51:14.838+02:00,675852674.8377889,0,5.5625,101.3225,1,0.79
2022-06-02T10:51:16.471+02:00,1654159852.491319,53.22880421162223,10.39819542043123,42.81302,-1,-1,-1,-1,42.47970962524414,45.752,-9999,3020.748995125,-0.092926025390625,-0.4243011474609375,-0.9028472900390625,3020.743998125,0.1210585327942581,-0.1113024606447599,0.4314912215033126,0.001636512111872435,0.008403338491916656,-0.03861530125141144,0.004426158964633942,-0.00618213415145874,0.001462161540985107,XArbitraryZVertical,0.216639699499784,-0.04130362104848574,0.04711281677417586,0.9742389518817313,-0.1008922085165977,-0.4182257950305939,-0.9027224779129028,0,0,0,-1,-1,2991.035571166667,unknown,2,2022-06-02T10:50:46.757+02:00,2022-06-02T10:17:13.754+02:00,512,1.445976,0,0,397.4887,0,0,2022-06-02T10:51:14.838+02:00,675852674.8377889,0,5.5625,101.3225,1,0.79
2022-06-02T10:51:16.480+02:00,1654159852.491319,53.22880421162223,10.39819542043123,42.81302,-1,-1,-1,-1,42.47970962524414,45.752,-9999,3020.758989125,-0.0982666015625,-0.423248291015625,-0.9047698974609375,3020.753992125,0.120651732628265,-0.111113228334545,0.4315431724701426,-0.004478904418647289,0.005056277848780155,-0.03997191786766052,0.007792964577674866,-0.006028175354003906,-0.0001273155212402344,XArbitraryZVertical,0.2166521322089163,-0.0412536698800473,0.04693341189571509,0.9742469254443652,-0.1007189676165581,-0.418273001909256,-0.9027199745178223,0,0,0,-1,-1,2991.035571166667,unknown,2,2022-06-02T10:50:46.757+02:00,2022-06-02T10:17:13.754+02:00,512,1.445976,0,0,397.4887,0,0,2022-06-02T10:51:14.838+02:00,675852674.8377889,0,5.5625,101.3225,1,0.79
2022-06-02T10:51:16.490+02:00,1654159852.491319,53.22880421162223,10.39819542043123,42.81302,-1,-1,-1,-1,42.47970962524414,45.752,-9999,3020.768983125,-0.0942840576171875,-0.42608642578125,-0.9106292724609375,3020.763986125,0.1202812176555486,-0.1111618586202118,0.4316803046390536,-0.01575952209532261,-0.005271194502711296,-0.04569185525178909,0.002489924430847168,-0.00485074520111084,-0.00211179256439209,XArbitraryZVertical,0.2167123215415847,-0.04131266105261751,0.04674306137788504,0.9742402048805654,-0.1007565036416054,-0.4183975458145142,-0.9026580452919006,0,0,0,-1,-1,2991.035571166667,unknown,2,2022-06-02T10:50:46.757+02:00,2022-06-02T10:17:13.754+02:00,512,1.445976,0,0,397.4887,0,0,2022-06-02T10:51:14.838+02:00,675852674.8377889,0,5.5625,101.3225,1,0.79
2022-06-02T10:51:16.501+02:00,1654159852.491319,53.22880421162223,10.39819542043123,42.81302,-1,-1,-1,-1,42.47970962524414,45.752,-9999,3020.778977125,-0.097076416015625,-0.4249420166015625,-0.91229248046875,3020.773980125,0.1198311819696626,-0.1111544043677936,0.4318079942384813,-0.01351713947951794,-0.01342685893177986,-0.04029549285769463,0.006459817290306091,-0.007572919130325317,-0.008023560047149658,XArbitraryZVertical,0.2167649532809086,-0.04135330600200469,0.04652037055498882,0.9742374421575446,-0.1007438525557518,-0.4185135364532471,-0.9026057124137878,0,0,0,-1,-1,2991.035571166667,unknown,2,2022-06-02T10:50:46.757+02:00,2022-06-02T10:17:13.754+02:00,512,1.445976,0,0,397.4887,0,0,2022-06-02T10:51:14.838+02:00,675852674.8377889,0,5.5625,101.3225,1,0.79
2022-06-02T10:51:16.511+02:00,1654159852.491319,53.22880421162223,10.39819542043123,42.81302,-1,-1,-1,-1,42.47970962524414,45.752,-9999,3020.788972125,-0.09783935546875,-0.43048095703125,-0.9141845703125,3020.783975125,0.1194210627119552,-0.1113308784394944,0.4321822547625382,0.004677542950958014,-0.01820596866309643,-0.05087216943502426,0.003809332847595215,-0.006088614463806152,-0.00986027717590332,XArbitraryZVertical,0.2169425806197504,-0.04147060032398235,0.04628892427780758,0.9742040055522154,-0.1008857265114784,-0.4188534021377563,-0.9024322032928467,0,0,0,-1,-1,2991.035571166667,unknown,2,2022-06-02T10:50:46.757+02:00,2022-06-02T10:17:13.754+02:00,512,1.445976,0,0,397.4887,0,0,2022-06-02T10:51:14.838+02:00,675852674.8377889,0,5.5625,101.3225,1,0.79
2022-06-02T10:51:16.521+02:00,1654159852.491319,53.22880421162223,10.39819542043123,42.81302,-1,-1,-1,-1,42.47970962524414,45.752,-9999,3020.798966125,-0.1019287109375,-0.4325103759765625,-0.9144134521484375,3020.793969125,0.1188953224171402,-0.1114584677469184,0.4327619642039981,0.02568801864981651,-0.02488650754094124,-0.06247449666261673,0.003134503960609436,-0.01110121607780457,-0.01200670003890991,XArbitraryZVertical,0.2172165862479949,-0.0415695258546889,0.04599956584744993,0.974152360224807,-0.1009738370776176,-0.4193797409534454,-0.9021778702735901,0,0,0,-1,-1,2991.035571166667,unknown,2,2022-06-02T10:50:46.757+02:00,2022-06-02T10:17:13.754+02:00,512,1.445976,0,0,397.4887,0,0,2022-06-02T10:51:14.838+02:00,675852674.8377889,0,5.5625,101.3225,1,0.79
2022-06-02T10:51:16.531+02:00,1654159852.491319,53.22880421162223,10.39819542043123,42.81302,-1,-1,-1,-1,42.47970962524414,45.752,-9999,3020.808958375,-0.1006011962890625,-0.4314117431640625,-0.90936279296875,3020.803961375,0.1182858759705225,-0.1116927382055123,0.4333741392562905,0.03960010409355164,-0.01988082937896252,-0.07917358726263046,-0.0007721260190010071,-0.0125749409198761,-0.01251453161239624,XArbitraryZVertical,0.2175069893273504,-0.04172851679117418,0.04565673579502819,0.9740969190803881,-0.1011565551161766,-0.419935405254364,-0.9018988609313965,0,0,0,-1,-1,2991.035571166667,unknown,2,2022-06-02T10:50:46.757+02:00,2022-06-02T10:17:13.754+02:00,512,1.445976,0,0,397.4887,0,0,2022-06-02T10:51:14.838+02:00,675852674.8377889,0,5.5625,101.3225,1,0.79
2022-06-02T10:51:16.541+02:00,1654159852.491319,53.22880421162223,10.39819542043123,42.81302,-1,-1,-1,-1,42.47970962524414,45.752,-9999,3020.818952375,-0.096099853515625,-0.4258880615234375,-0.90997314453125,3020.813955375,0.1174651690263519,-0.1116329362336859,0.4340682377201459,0.03871779888868332,-0.01853992789983749,-0.08920305222272873,0.0004689544439315796,-0.01084652543067932,-0.00774770975112915,XArbitraryZVertical,0.2178260429686781,-0.04176461795454857,0.04524025820529685,0.9740435755007036,-0.1010701283812523,-0.4205652177333832,-0.9016150832176208,0,0,0,-1,-1,2991.035571166667,unknown,2,2022-06-02T10:50:46.757+02:00,2022-06-02T10:17:13.754+02:00,512,1.445976,0,0,397.4887,0,0,2022-06-02T10:51:14.838+02:00,675852674.8377889,0,5.5625,101.3225,1,0.79
2022-06-02T10:51:16.551+02:00,1654159852.491319,53.22880421162223,10.39819542043123,42.81302,-1,-1,-1,-1,42.47970962524414,45.752,-9999,3020.828946375,-0.095306396484375,-0.4197540283203125,-0.9096832275390625,3020.823949375,0.1164420203803844,-0.111259847585623,0.4346595343115745,0.0386822484433651,-0.01399923861026764,-0.1020477339625359,0.004606269299983978,-0.004786461591720581,-0.008567750453948975,XArbitraryZVertical,0.2180838681624497,-0.04167403070022196,0.04476286053800412,0.9740117873991124,-0.1007061079144478,-0.4211016297340393,-0.901405394077301,0,0,0,-1,-1,2991.035571166667,unknown,2,2022-06-02T10:50:46.757+02:00,2022-06-02T10:17:13.754+02:00,512,1.445976,0,0,397.4887,0,0,2022-06-02T10:51:14.838+02:00,675852674.8377889,0,5.5625,101.3225,1,0.79
2022-06-02T10:51:16.561+02:00,1654159852.491319,53.22880421162223,10.39819542043123,42.81302,-1,-1,-1,-1,42.47970962524414,45.752,-9999,3020.838940375,-0.0915374755859375,-0.41796875,-0.9082183837890625,3020.833943375,0.1152379534399707,-0.1106980992579001,0.4351736822940338,0.0259731113910675,-0.01343731209635735,-0.1063463464379311,0.004869423806667328,0.001813888549804688,-0.008436679840087891,XArbitraryZVertical,0.2182963639461905,-0.04151423636229379,0.04422065729594678,0.9739957831412566,-0.1001757979393005,-0.4215679168701172,-0.9012465476989746,0,0,0,-1,-1,2991.035571166667,unknown,2,2022-06-02T10:50:46.757+02:00,2022-06-02T10:17:13.754+02:00,512,1.445976,0,0,397.4887,0,0,2022-06-02T10:51:14.838+02:00,675852674.8377889,0,5.5625,101.3225,1,0.79
2022-06-02T10:51:16.580+02:00,1654159852.491319,53.22880421162223,10.39819542043123,42.81302,-1,-1,-1,-1,42.47970962524414,45.752,-9999,3020.848935375,-0.08868408203125,-0.420623779296875,-0.9057159423828125,3020.843937375,0.1140503057382,-0.1102762213010289,0.4354999322858982,0.01472198776900768,-0.01544200722128153,-0.1095643788576126,0.008242979645729065,0.003894984722137451,-0.00706636905670166,XArbitraryZVertical,0.2184211459150717,-0.04142739764684429,0.0436775421001202,0.9739959341529738,-0.09978043287992477,-0.4218637347221375,-0.9011519551277161,0,0,0,-1,-1,2991.035571166667,unknown,2,2022-06-02T10:50:46.757+02:00,2022-06-02T10:17:13.754+02:00,512,1.445976,0,0,397.4887,0,0,2022-06-02T10:51:14.838+02:00,675852674.8377889,0,5.5625,101.3225,1,0.79
2022-06-02T10:51:16.596+02:00,1654159852.491319,53.22880421162223,10.39819542043123,42.81302,-1,-1,-1,-1,42.47970962524414,45.752,-9999,3020.858929375,-0.08807373046875,-0.420196533203125,-0.9048309326171875,3020.853932375,0.1127739475067256,-0.1097301762959713,0.4357292815504655,0.007171659264713526,-0.01629954390227795,-0.1110440343618393,0.01059368252754211,0.001447856426239014,-0.00460582971572876,XArbitraryZVertical,0.218494426171761,-0.04129319061239545,0.04310804836917882,0.9740106372702914,-0.09927774965763092,-0.4220716655254364,-0.9011101126670837,0,0,0,-1,-1,2991.035571166667,unknown,2,2022-06-02T10:50:46.757+02:00,2022-06-02T10:17:13.754+02:00,512,1.445976,0,0,397.4887,0,0,2022-06-02T10:51:14.838+02:00,675852674.8377889,0,5.5625,101.3225,1,0.79
2022-06-02T10:51:16.598+02:00,1654159852.491319,53.22880421162223,10.39819542043123,42.81302,-1,-1,-1,-1,42.47970962524414,45.752,-9999,3020.868923375,-0.092926025390625,-0.4188995361328125,-0.8997344970703125,3020.863926375,0.1114968607958641,-0.1092582355334818,0.4358366566771047,0.0006535402499139309,-0.01131310779601336,-0.1160046309232712,0.01077381521463394,0.001972436904907227,-0.003719091415405273,XArbitraryZVertical,0.2185102024907782,-0.04119930575747083,0.042534138706774,0.9740363190849662,-0.09884752333164215,-0.4221689999103546,-0.9011118412017822,0,0,0,-1,-1,2991.035571166667,unknown,2,2022-06-02T10:50:46.757+02:00,2022-06-02T10:17:13.754+02:00,512,1.445976,0,0,397.4887,0,0,2022-06-02T10:51:14.838+02:00,675852674.8377889,0,5.5625,101.3225,1,0.79
2022-06-02T10:51:16.601+02:00,1654159852.491319,53.22880421162223,10.39819542043123,42.81302,-1,-1,-1,-1,42.47970962524414,45.752,-9999,3020.878917375,-0.0929412841796875,-0.420257568359375,-0.88995361328125,3020.873920375,0.1102154131355495,-0.1087477596841349,0.4360311212099112,-0.002819221466779709,-0.004683434963226318,-0.1163114309310913,0.005452603101730347,0.003445714712142944,0.001346051692962646,XArbitraryZVertical,0.2185676477036819,-0.04108432120337185,0.04195949845836366,0.9740531812690549,-0.09837860614061356,-0.4223452806472778,-0.9010805487632751,0,0,0,-1,-1,2991.035571166667,unknown,2,2022-06-02T10:50:46.757+02:00,2022-06-02T10:17:13.754+02:00,512,1.445976,0,0,397.4887,0,0,2022-06-02T10:51:14.838+02:00,675852674.8377889,0,5.5625,101.3225,1,0.79
2022-06-02T10:51:16.610+02:00,1654159852.491319,53.22880421162223,10.39819542043123,42.81302,-1,-1,-1,-1,42.47970962524414,45.752,-9999,3020.888911375,-0.0876922607421875,-0.41864013671875,-0.8888092041015625,3020.883914375,0.1089032818788731,-0.108236915157059,0.4362253583630878,-0.003156378865242004,0.005094627384096384,-0.1272769868373871,0.004968151450157166,0.002263754606246948,0.01109546422958374,XArbitraryZVertical,0.2186245649432976,-0.04097261627883347,0.04137000241811156,0.9740703202409488,-0.09790941327810287,-0.4225213229656219,-0.9010490775108337,0,0,0,-1,-1,2991.035571166667,unknown,2,2022-06-02T10:50:46.757+02:00,2022-06-02T10:17:13.754+02:00,512,1.445976,0,0,397.4887,0,0,2022-06-02T10:51:14.838+02:00,675852674.8377889,0,5.5625,101.3225,1,0.79
2022-06-02T10:51:16.620+02:00,1654159852.491319,53.22880421162223,10.39819542043123,42.81302,-1,-1,-1,-1,42.47970962524414,45.752,-9999,3020.898905375,-0.079986572265625,-0.410888671875,-0.896240234375,3020.893908375,0.1075702642646971,-0.1076501069636355,0.4365077831510902,0.009945308789610863,0.007645668927580118,-0.122079573571682,0.009675592184066772,0.004137128591537476,0.01217854022979736,XArbitraryZVertical,0.2187226320419446,-0.04082347381849043,0.04077585553782558,0.9740796033845469,-0.09736783057451248,-0.4227772951126099,-0.9009876847267151,0,0,0,-1,-1,2991.035571166667,unknown,2,2022-06-02T10:50:46.757+02:00,2022-06-02T10:17:13.754+02:00,512,1.445976,0,0,397.4887,0,0,2022-06-02T10:51:14.838+02:00,675852674.8377889,0,5.5625,101.3225,1,0.79
2022-06-02T10:51:16.631+02:00,1654159852.491319,53.22880421162223,10.39819542043123,42.81302,-1,-1,-1,-1,42.47970962524414,45.752,-9999,3020.908900375,-0.072418212890625,-0.412628173828125,-0.9063568115234375,3020.903902375,0.1062656805355287,-0.1069903591545769,0.4367883909332292,0.02805190719664097,0.003694137558341026,-0.1149130761623383,0.01677417010068893,0.01214289665222168,0.004693567752838135,XArbitraryZVertical,0.2188192141123214,-0.04063591614862441,0.04020367831441456,0.9740894854396103,-0.09676071256399155,-0.4230315685272217,-0.9009337425231934,0,0,0,-1,-1,2991.035571166667,unknown,2,2022-06-02T10:50:46.757+02:00,2022-06-02T10:17:13.754+02:00,512,1.445976,0,0,397.4887,0,0,2022-06-02T10:51:14.838+02:00,675852674.8377889,0,5.5625,101.3225,1,0.79
2022-06-02T10:51:16.641+02:00,1654159852.491319,53.22880421162223,10.39819542043123,42.81302,-1,-1,-1,-1,42.47970962524414,45.752,-9999,3020.918894375,-0.077850341796875,-0.4148712158203125,-0.908782958984375,3020.913897375,0.1049986493478801,-0.1064841113486538,0.4370122557568056,0.02618902735412121,-0.01707052998244762,-0.1172486692667007,0.02387634664773941,0.01060622930526733,-0.005468368530273438,XArbitraryZVertical,0.218892275824059,-0.0405209434158131,0.03963486994158415,0.9741012661497588,-0.09629453718662262,-0.4232344031333923,-0.9008884429931641,0,0,0,-1,-1,2991.035571166667,unknown,2,2022-06-02T10:50:46.757+02:00,2022-06-02T10:17:13.754+02:00,512,1.445976,0,0,397.4887,0,0,2022-06-02T10:51:14.838+02:00,675852674.8377889,0,5.5625,101.3225,1,0.79
2022-06-02T10:51:16.651+02:00,1654159852.491319,53.22880421162223,10.39819542043123,42.81302,-1,-1,-1,-1,42.47970962524414,45.752,-9999,3020.928888375,-0.08331298828125,-0.4141693115234375,-0.907135009765625,3020.923891375,0.1035784796157543,-0.105986204223201,0.437150557275198,0.01445790193974972,-0.02842099033296108,-0.1351186782121658,0.01798944920301437,0.008488506078720093,-0.007904887199401855,XArbitraryZVertical,0.2189210375815256,-0.04042956940335996,0.03899330603355041,0.9741244404785643,-0.09583977609872818,-0.4233596920967102,-0.9008780717849731,0,0,0,-1,-1,2991.035571166667,unknown,2,2022-06-02T10:50:46.757+02:00,2022-06-02T10:17:13.754+02:00,512,1.445976,0,0,397.4887,0,0,2022-06-02T10:51:14.838+02:00,675852674.8377889,0,5.5625,101.3225,1,0.79
2022-06-02T10:51:16.660+02:00,1654159852.491319,53.22880421162223,10.39819542043123,42.81302,-1,-1,-1,-1,42.47970962524414,45.752,-9999,3020.938882375,-0.0767059326171875,-0.4217529296875,-0.9020233154296875,3020.933885375,0.101918814528623,-0.1054020775022613,0.4373153173819239,0.009859688580036163,-0.02930542454123497,-0.1523282825946808,0.01199322193861008,0.009339660406112671,-0.006270468235015869,XArbitraryZVertical,0.2189564026111255,-0.04032167524384472,0.03824372003249371,0.9741506952258848,-0.09530618786811829,-0.4235089719295502,-0.9008645415306091,0,0,0,-1,-1,2991.035571166667,unknown,2,2022-06-02T10:50:46.757+02:00,2022-06-02T10:17:13.754+02:00,512,1.445976,0,0,397.4887,0,0,2022-06-02T10:51:14.838+02:00,675852674.8377889,0,5.5625,101.3225,1,0.79
2022-06-02T10:51:16.670+02:00,1654159852.491319,53.22880421162223,10.39819542043123,42.81302,-1,-1,-1,-1,42.47970962524414,45.752,-9999,3020.948876375,-0.071990966796875,-0.4298095703125,-0.8952484130859375,3020.943879375,0.1000496199997764,-0.1047552244371361,0.4374102637818303,-0.002585063688457012,-0.03209787979722023,-0.1712917238473892,0.01801332831382751,0.001842021942138672,-0.001137316226959229,XArbitraryZVertical,0.2189527273720858,-0.04020836101414967,0.03740112927259088,0.974188932333278,-0.09471923857927322,-0.4235949814319611,-0.9008859992027283,0,0,0,-1,-1,2991.035571166667,unknown,2,2022-06-02T10:50:46.757+02:00,2022-06-02T10:17:13.754+02:00,512,1.445976,0,0,397.4887,0,0,2022-06-02T10:51:14.838+02:00,675852674.8377889,0,5.5625,101.3225,1,0.79
2022-06-02T10:51:16.681+02:00,1654159852.491319,53.22880421162223,10.39819542043123,42.81302,-1,-1,-1,-1,42.47970962524414,45.752,-9999,3020.958870375,-0.0684356689453125,-0.4337158203125,-0.8930511474609375,3020.953873375,0.09813078907707756,-0.1041987223141598,0.437415446758054,-0.01476582884788513,-0.02724027633666992,-0.1764342933893204,0.02222669869661331,-0.006209880113601685,0.005687952041625977,XArbitraryZVertical,0.2189064351986038,-0.04014717697659499,0.03652721388366697,0.9742349393692747,-0.09421765059232712,-0.4235996603965759,-0.9009363651275635,0,0,0,-1,-1,2991.035571166667,unknown,2,2022-06-02T10:50:46.757+02:00,2022-06-02T10:17:13.754+02:00,512,1.445976,0,0,397.4887,0,0,2022-06-02T10:51:14.838+02:00,675852674.8377889,0,5.5625,101.3225,1,0.79
2022-06-02T10:51:16.691+02:00,1654159852.491319,53.22880421162223,10.39819542043123,42.81302,-1,-1,-1,-1,42.47970962524414,45.752,-9999,3020.968865375,-0.0650787353515625,-0.425567626953125,-0.898040771484375,3020.963867375,0.09617849921882182,-0.1036706460409625,0.4374314969946824,-0.02516454085707664,-0.03042887896299362,-0.1716659069061279,0.02530552446842194,-0.01010161638259888,0.007928073406219482,XArbitraryZVertical,0.2188655517216198,-0.04010313026250107,0.03563350101374892,0.9742790305769455,-0.09374117106199265,-0.4236142039299011,-0.900979220867157,0,0,0,-1,-1,2991.035571166667,unknown,2,2022-06-02T10:50:46.757+02:00,2022-06-02T10:17:13.754+02:00,512,1.445976,0,0,397.4887,0,0,2022-06-02T10:51:14.838+02:00,675852674.8377889,0,5.5625,101.3225,1,0.79
2022-06-02T10:51:16.701+02:00,1654159852.491319,53.22880421162223,10.39819542043123,42.81302,-1,-1,-1,-1,42.47970962524414,45.752,-9999,3020.978859375,-0.0766143798828125,-0.4146881103515625,-0.906402587890625,3020.973862375,0.09429073681744847,-0.1031042546641643,0.4374377864879492,-0.01150412391871214,-0.03334983438253403,-0.1597882062196732,0.02815186232328415,-0.001947730779647827,0.002988815307617188,XArbitraryZVertical,0.2188207876926421,-0.04003359015015777,0.03477565899748589,0.9743230887448561,-0.09323057532310486,-0.4236198961734772,-0.9010295271873474,0,0,0,-1,-1,2991.035571166667,unknown,2,2022-06-02T10:50:46.757+02:00,2022-06-02T10:17:13.754+02:00,512,1.445976,0,0,397.4887,0,0,2022-06-02T10:51:14.838+02:00,675852674.8377889,0,5.5625,101.3225,1,0.79
2022-06-02T10:51:16.711+02:00,1654159852.491319,53.22880421162223,10.39819542043123,42.81302,-1,-1,-1,-1,42.47970962524414,45.752,-9999,3020.988853375,-0.0721893310546875,-0.420379638671875,-0.905517578125,3020.983856375,0.09240099954499188,-0.1023508739177269,0.4372789583146898,-0.004631336778402328,-0.03597071766853333,-0.1550069600343704,0.01594424247741699,0.008787930011749268,-0.005236148834228516,XArbitraryZVertical,0.218692801039742,-0.03987775227767943,0.03394220345362453,0.9743875879957149,-0.0925586074590683,-0.4234760105609894,-0.9011664390563965,0,0,0,-1,-1,2991.035571166667,unknown,2,2022-06-02T10:50:46.757+02:00,2022-06-02T10:17:13.754+02:00,512,1.445976,0,0,397.4887,0,0,2022-06-02T10:51:14.838+02:00,675852674.8377889,0,5.5625,101.3225,1,0.79
2022-06-02T10:51:16.721+02:00,1654159852.491319,53.22880421162223,10.39819542043123,42.81302,-1,-1,-1,-1,42.47970962524414,45.752,-9999,3020.998847375,-0.069732666015625,-0.4286346435546875,-0.9053802490234375,3020.993850375,0.09056942260860629,-0.1015924206513475,0.4371347569586633,0.00441648717969656,-0.05975914001464844,-0.1400477141141891,0.01969196647405624,0.002965748310089111,-0.004220426082611084,XArbitraryZVertical,0.2185734624722065,-0.03971245960408874,0.03313705170770836,0.974448795484018,-0.09188127517700195,-0.4233453869819641,-0.9012971520423889,0,0,0,-1,-1,2991.035571166667,unknown,2,2022-06-02T10:50:46.757+02:00,2022-06-02T10:17:13.754+02:00,512,1.445976,0,0,397.4887,0,0,2022-06-02T10:51:14.838+02:00,675852674.8377889,0,5.5625,101.3225,1,0.79
2022-06-02T10:51:16.731+02:00,1654159852.491319,53.22880421162223,10.39819542043123,42.81302,-1,-1,-1,-1,42.47970962524414,45.752,-9999,3021.008841375,-0.0756988525390625,-0.4402923583984375,-0.9006500244140625,3021.003844375,0.08881005717372686,-0.1011772766330053,0.4370596121573499,-0.003506950102746487,-0.06784076988697052,-0.1524647176265717,0.02177766710519791,-0.005357325077056885,-0.004013419151306152,XArbitraryZVertical,0.2184951509025171,-0.03970448107975593,0.03232740854973457,0.9744939212655241,-0.09151031821966171,-0.4232773184776306,-0.9013668298721313,0,0,0,-1,-1,2991.035571166667,unknown,2,2022-06-02T10:50:46.757+02:00,2022-06-02T10:17:13.754+02:00,512,1.445976,0,0,397.4887,0,0,2022-06-02T10:51:14.838+02:00,675852674.8377889,0,5.5625,101.3225,1,0.79
2022-06-02T10:51:16.741+02:00,1654159852.491319,53.22880421162223,10.39819542043123,42.81302,-1,-1,-1,-1,42.47970962524414,45.752,-9999,3021.018835375,-0.0670166015625,-0.44915771484375,-0.896270751953125,3021.013838375,0.0869737391432529,-0.1009634465578241,0.4368363993982249,-0.02161458134651184,-0.08196324110031128,-0.1613311767578125,0.01562825590372086,-0.01721730828285217,0.0008303523063659668,XArbitraryZVertical,0.2183465968690155,-0.03980683744273644,0.0314625544968514,0.9745512894264705,-0.09132709354162216,-0.4230750799179077,-0.9014803767204285,0,0,0,-1,-1,2991.035571166667,unknown,2,2022-06-02T10:50:46.757+02:00,2022-06-02T10:17:13.754+02:00,512,1.445976,0,0,397.4887,0,0,2022-06-02T10:51:14.838+02:00,675852674.8377889,0,5.5625,101.3225,1,0.79
2022-06-02T10:51:16.751+02:00,1654159852.491319,53.22880421162223,10.39819542043123,42.81302,-1,-1,-1,-1,42.47970962524414,45.752,-9999,3021.028829375,-0.0599822998046875,-0.453033447265625,-0.8918304443359375,3021.023832375,0.08491523874751014,-0.1006348105663135,0.4367131642320096,-0.03519726917147636,-0.09331929683685303,-0.1772773116827011,0.02401948720216751,-0.02619433403015137,0.005291461944580078,XArbitraryZVertical,0.2182405114193923,-0.03987462879563317,0.0304989408223987,0.9746028925661792,-0.09103606641292572,-0.422963410615921,-0.9015622138977051,0,0,0,-1,-1,2991.035571166667,unknown,2,2022-06-02T10:50:46.757+02:00,2022-06-02T10:17:13.754+02:00,512,1.445976,0,0,397.4887,0,0,2022-06-02T10:51:14.838+02:00,675852674.8377889,0,5.5625,101.3225,1,0.79
2022-06-02T10:51:16.761+02:00,1654159852.491319,53.22880421162223,10.39819542043123,42.81302,-1,-1,-1,-1,42.47970962524414,45.752,-9999,3021.038824375,-0.0547637939453125,-0.4464569091796875,-0.8896942138671875,3021.033827375,0.0826476051977249,-0.1002428047803644,0.4367379324929238,-0.04455801472067833,-0.1029791161417961,-0.1884503364562988,0.03069931268692017,-0.03004759550094604,0.009756922721862793,XArbitraryZVertical,0.2182014503237361,-0.03993038195248317,0.02943595051454637,0.9746420565356638,-0.09068159013986588,-0.422985851764679,-0.9015873670578003,0,0,0,-1,-1,2991.035571166667,unknown,2,2022-06-02T10:50:46.757+02:00,2022-06-02T10:17:13.754+02:00,512,1.445976,0,0,397.4887,0,0,2022-06-02T10:51:14.838+02:00,675852674.8377889,0,5.5625,101.3225,1,0.79
2022-06-02T10:51:16.771+02:00,1654159852.491319,53.22880421162223,10.39819542043123,42.81302,-1,-1,-1,-1,42.47970962524414,45.752,-9999,3021.048818375,-0.057830810546875,-0.440704345703125,-0.88946533203125,3021.043821375,0.08027318532865917,-0.09987137560065291,0.4368632394561611,-0.04117413610219955,-0.1192237287759781,-0.1928231120109558,0.03557766228914261,-0.02335751056671143,0.01187407970428467,XArbitraryZVertical,0.2182096605710385,-0.04000526538307635,0.02831574483452643,0.9746702817753612,-0.09034142643213272,-0.4230993986129761,-0.9015682339668274,0,0,0,-1,-1,2991.035571166667,unknown,2,2022-06-02T10:50:46.757+02:00,2022-06-02T10:17:13.754+02:00,512,1.445976,0,0,397.4887,0,0,2022-06-02T10:51:14.838+02:00,675852674.8377889,0,5.5625,101.3225,1,0.79
2022-06-02T10:51:16.781+02:00,1654159852.491319,53.22880421162223,10.39819542043123,42.81302,-1,-1,-1,-1,42.47970962524414,45.752,-9999,3021.058812375,-0.0626068115234375,-0.43756103515625,-0.8884124755859375,3021.053815375,0.07778122798056747,-0.0994961361977833,0.4367781845969847,-0.04014908522367477,-0.1275261342525482,-0.1996866166591644,0.03217589855194092,-0.01768204569816589,0.01217257976531982,XArbitraryZVertical,0.2181131123504037,-0.04009631151540854,0.02714465524967818,0.974721586300231,-0.09000669419765472,-0.4230223298072815,-0.9016379117965698,0,0,0,-1,-1,2991.035571166667,unknown,2,2022-06-02T10:50:46.757+02:00,2022-06-02T10:17:13.754+02:00,512,1.445976,0,0,397.4887,0,0,2022-06-02T10:51:14.838+02:00,675852674.8377889,0,5.5625,101.3225,1,0.79
2022-06-02T10:51:16.791+02:00,1654159852.491319,53.22880421162223,10.39819542043123,42.81302,-1,-1,-1,-1,42.47970962524414,45.752,-9999,3021.068806375,-0.0666656494140625,-0.439239501953125,-0.8881683349609375,3021.063809375,0.07537511855673709,-0.09946773979492896,0.4363630953291255,-0.041216179728508,-0.1300709843635559,-0.2025279998779297,0.02739172428846359,-0.014914870262146,0.01340264081954956,XArbitraryZVertical,0.2178622025623791,-0.04035470203045068,0.0259868457253673,0.9747986058220582,-0.0899985209107399,-0.422646164894104,-0.9018151164054871,0,0,0,-1,-1,2991.035571166667,unknown,2,2022-06-02T10:50:46.757+02:00,2022-06-02T10:17:13.754+02:00,512,1.445976,0,0,397.4887,0,0,2022-06-02T10:51:14.838+02:00,675852674.8377889,0,5.5625,101.3225,1,0.79
2022-06-02T10:51:16.801+02:00,1654159852.491319,53.22880421162223,10.39819542043123,42.81302,-1,-1,-1,-1,42.47970962524414,45.752,-9999,3021.078800375,-0.0715179443359375,-0.4380035400390625,-0.8917388916015625,3021.073803375,0.07285369973808267,-0.09932663730490486,0.436082673161087,-0.04292752593755722,-0.1333179026842117,-0.2094034850597382,0.02321738004684448,-0.01684749126434326,0.01377737522125244,XArbitraryZVertical,0.2176728499461187,-0.04056704155706834,0.02478114941804626,0.9748634108185267,-0.08988301455974579,-0.4223920106887817,-0.9019457101821899,0,0,0,-1,-1,2991.035571166667,unknown,2,2022-06-02T10:50:46.757+02:00,2022-06-02T10:17:13.754+02:00,512,1.445976,0,0,397.4887,0,0,2022-06-02T10:51:14.838+02:00,675852674.8377889,0,5.5625,101.3225,1,0.79
2022-06-02T10:51:16.811+02:00,1654159852.491319,53.22880421162223,10.39819542043123,42.81302,-1,-1,-1,-1,42.47970962524414,45.752,-9999,3021.088794375,-0.069305419921875,-0.4358673095703125,-0.897186279296875,3021.083797375,0.07026755187209666,-0.09912628578883778,0.4359793694768582,-0.04503259062767029,-0.1340206414461136,-0.2119679003953934,0.01818870007991791,-0.0157051682472229,0.01026821136474609,XArbitraryZVertical,0.2175675319745968,-0.04075313535586077,0.02354524740295052,0.9749098163253388,-0.08970662951469421,-0.4222983717918396,-0.9020071029663086,0,0,0,-1,-1,2991.035571166667,unknown,2,2022-06-02T10:50:46.757+02:00,2022-06-02T10:17:13.754+02:00,512,1.445976,0,0,397.4887,0,0,2022-06-02T10:51:14.838+02:00,675852674.8377889,0,5.5625,101.3225,1,0.79
2022-06-02T10:51:16.821+02:00,1654159852.491319,53.22880421162223,10.39819542043123,42.81302,-1,-1,-1,-1,42.47970962524414,45.752,-9999,3021.098789375,-0.0574188232421875,-0.438446044921875,-0.90155029296875,3021.093792375,0.06776596299932701,-0.09909327303917527,0.436154203219666,-0.05341861769556999,-0.1325764209032059,-0.204039677977562,0.02036415040493011,-0.01341047883033752,0.004750311374664307,XArbitraryZVertical,0.2176011745654146,-0.04100531848037482,0.02232454357678717,0.9749204792771846,-0.08966954052448273,-0.422456830739975,-0.9019365906715393,0,0,0,-1,-1,2991.035571166667,unknown,2,2022-06-02T10:50:46.757+02:00,2022-06-02T10:17:13.754+02:00,512,1.445976,0,0,397.4887,0,0,2022-06-02T10:51:14.838+02:00,675852674.8377889,0,5.5625,101.3225,1,0.79
2022-06-02T10:51:16.831+02:00,1654159852.491319,53.22880421162223,10.39819542043123,42.81302,-1,-1,-1,-1,42.47970962524414,45.752,-9999,3021.108783375,-0.052093505859375,-0.4450531005859375,-0.906707763671875,3021.103786375,0.06531002258048578,-0.09893406945602054,0.4364777505006666,-0.06175161898136139,-0.1404196321964264,-0.1890235245227814,0.03209364414215088,-0.0156959593296051,0.0002645254135131836,XArbitraryZVertical,0.2177065807139821,-0.04118800700591244,0.02113572395593652,0.9749157414348146,-0.08951244503259659,-0.4227500557899475,-0.9018147587776184,0,0,0,-1,-1,2991.035571166667,unknown,2,2022-06-02T10:50:46.757+02:00,2022-06-02T10:17:13.754+02:00,512,1.445976,0,0,397.4887,0,0,2022-06-02T10:51:14.838+02:00,675852674.8377889,0,5.5625,101.3225,1,0.79
2022-06-02T10:51:16.841+02:00,1654159852.491319,53.22880421162223,10.39819542043123,42.81302,-1,-1,-1,-1,42.47970962524414,45.752,-9999,3021.118777375,-0.0507965087890625,-0.43597412109375,-0.9096527099609375,3021.113780375,0.06294634222451294,-0.09875059129589554,0.4368437953448885,-0.0627865195274353,-0.1481582373380661,-0.1641338914632797,0.0372382327914238,-0.02197134494781494,-0.005030632019042969,XArbitraryZVertical,0.217834221129078,-0.04134826021495584,0.01999342232419589,0.974904565335557,-0.08933171629905701,-0.4230817556381226,-0.901677131652832,0,0,0,-1,-1,2991.035571166667,unknown,2,2022-06-02T10:50:46.757+02:00,2022-06-02T10:17:13.754+02:00,512,1.445976,0,0,397.4887,0,0,2022-06-02T10:51:14.838+02:00,675852674.8377889,0,5.5625,101.3225,1,0.79
2022-06-02T10:51:16.851+02:00,1654159852.491319,53.22880421162223,10.39819542043123,42.81302,-1,-1,-1,-1,42.47970962524414,45.752,-9999,3021.128771375,-0.0618438720703125,-0.4380340576171875,-0.913116455078125,3021.123774375,0.06066961622114669,-0.09852943995880128,0.4370937281064661,-0.06303995102643967,-0.1446123123168945,-0.1697544157505035,0.03832542151212692,-0.01266589760780334,-0.008061051368713379,XArbitraryZVertical,0.2179066770450344,-0.04148337604804193,0.01890087076219346,0.9749044068518649,-0.08912190049886703,-0.4233082234859467,-0.9015915989875793,0,0,0,-1,-1,2991.035571166667,unknown,2,2022-06-02T10:50:46.757+02:00,2022-06-02T10:17:13.754+02:00,512,1.445976,0,0,397.4887,0,0,2022-06-02T10:51:14.838+02:00,675852674.8377889,0,5.5625,101.3225,1,0.79
2022-06-02T10:51:16.861+02:00,1654159852.491319,53.22880421162223,10.39819542043123,42.81302,-1,-1,-1,-1,42.47970962524414,45.752,-9999,3021.138765375,-0.06121826171875,-0.440032958984375,-0.922210693359375,3021.133768375,0.05841471685126568,-0.09847211352602947,0.437115617949385,-0.07241640985012054,-0.1660422384738922,-0.1709483116865158,0.02722545713186264,-0.01470601558685303,-0.01152896881103516,XArbitraryZVertical,0.2178699255817865,-0.04170065608393347,0.01780735299922498,0.9749239204639834,-0.08906930685043335,-0.4233280420303345,-0.9015874862670898,0,0,0,-1,-1,2991.035571166667,unknown,2,2022-06-02T10:50:46.757+02:00,2022-06-02T10:17:13.754+02:00,512,1.445976,0,0,397.4887,0,0,2022-06-02T10:51:14.838+02:00,675852674.8377889,0,5.5625,101.3225,1,0.79
2022-06-02T10:51:16.870+02:00,1654159852.491319,53.22880421162223,10.39819542043123,42.81302,-1,-1,-1,-1,42.47970962524414,45.752,-9999,3021.148759375,-0.0849609375,-0.437469482421875,-0.9270782470703125,3021.143762375,0.05605718216810213,-0.09867949644291588,0.4369639331766527,-0.09807320684194565,-0.1825882643461227,-0.1934042870998383,0.02804436534643173,-0.01684236526489258,-0.02057778835296631,XArbitraryZVertical,0.2177484587935786,-0.04206142260067938,0.01663965630420722,0.974956142679156,-0.08926260471343994,-0.4231906235218048,-0.9016329050064087,0,0,0,-1,-1,2991.035571166667,unknown,2,2022-06-02T10:50:46.757+02:00,2022-06-02T10:17:13.754+02:00,512,1.445976,0,0,397.4887,0,0,2022-06-02T10:51:14.838+02:00,675852674.8377889,0,5.5625,101.3225,1,0.79
2022-06-02T10:51:16.881+02:00,1654159852.491319,53.22880421162223,10.39819542043123,42.81302,-1,-1,-1,-1,42.47970962524414,45.752,-9999,3021.158754375,-0.0897979736328125,-0.4388885498046875,-0.9275665283203125,3021.153757375,0.05341481718642295,-0.09895848043820947,0.4366679103034886,-0.1088661998510361,-0.1880810260772705,-0.2252343744039536,0.004565596580505371,-0.01454707980155945,-0.02534568309783936,XArbitraryZVertical,0.2175506060428831,-0.04249051100629041,0.01532918011291624,0.9750032176327661,-0.08952651172876358,-0.4229224026203156,-0.9017325639724731,0,0,0,-1,-1,2991.035571166667,unknown,2,2022-06-02T10:50:46.757+02:00,2022-06-02T10:17:13.754+02:00,512,1.445976,0,0,397.4887,0,0,2022-06-02T10:51:14.838+02:00,675852674.8377889,0,5.5625,101.3225,1,0.79
2022-06-02T10:51:16.891+02:00,1654159852.491319,53.22880421162223,10.39819542043123,42.81302,-1,-1,-1,-1,42.47970962524414,45.752,-9999,3021.168748375,-0.087554931640625,-0.440673828125,-0.927093505859375,3021.163751375,0.05052944040443038,-0.09924378512612184,0.4363537817249041,-0.09270230680704117,-0.1787909269332886,-0.2470203042030334,-1.020729541778564e-06,-0.01625081896781921,-0.02572739124298096,XArbitraryZVertical,0.21733801734581,-0.04294897050074113,0.01389997432504808,0.9750519105391421,-0.08979693800210953,-0.4226377308368683,-0.9018391370773315,0,0,0,-1,-1,2991.035571166667,unknown,2,2022-06-02T10:50:46.757+02:00,2022-06-02T10:17:13.754+02:00,512,1.445976,0,0,397.4887,0,0,2022-06-02T10:51:14.838+02:00,675852674.8377889,0,5.5625,101.3225,1,0.79
2022-06-02T10:51:16.901+02:00,1654159852.491319,53.22880421162223,10.39819542043123,42.81302,-1,-1,-1,-1,42.47970962524414,45.752,-9999,3021.178742375,-0.08184814453125,-0.44879150390625,-0.922698974609375,3021.173745375,0.04747563668715161,-0.09924729232814737,0.4361867870134258,-0.06303974986076355,-0.1624902486801147,-0.2543021738529205,0.002252183854579926,-0.01818746328353882,-0.02518445253372192,XArbitraryZVertical,0.2171908126810396,-0.04328530962032962,0.01241524055700265,0.9750899583805323,-0.08980709314346313,-0.4224863648414612,-0.9019090533256531,0,0,0,-1,-1,2991.035571166667,unknown,2,2022-06-02T10:50:46.757+02:00,2022-06-02T10:17:13.754+02:00,512,1.445976,0,0,397.4887,0,0,2022-06-02T10:51:14.838+02:00,675852674.8377889,0,5.5625,101.3225,1,0.79
2022-06-02T10:51:16.911+02:00,1654159852.491319,53.22880421162223,10.39819542043123,42.81302,-1,-1,-1,-1,42.47970962524414,45.752,-9999,3021.188736375,-0.0750579833984375,-0.465606689453125,-0.9179534912109375,3021.183739375,0.04430636249593534,-0.09888634603625629,0.4361714927172936,-0.05592132359743118,-0.1526944637298584,-0.2525912523269653,0.007634066045284271,-0.0263189971446991,-0.02075111865997314,XArbitraryZVertical,0.2171125393600825,-0.04345369053184322,0.01090965150885498,0.9751178676549541,-0.08948218077421188,-0.4224725067615509,-0.9019478559494019,0,0,0,-1,-1,2991.035571166667,unknown,2,2022-06-02T10:50:46.757+02:00,2022-06-02T10:17:13.754+02:00,512,1.445976,0,0,397.4887,0,0,2022-06-02T10:51:14.838+02:00,675852674.8377889,0,5.5625,101.3225,1,0.79
2022-06-02T10:51:16.921+02:00,1654159852.491319,53.22880421162223,10.39819542043123,42.81302,-1,-1,-1,-1,42.47970962524414,45.752,-9999,3021.198730375,-0.0684967041015625,-0.491607666015625,-0.9134063720703125,3021.193733375,0.04143805135516675,-0.09923517408686873,0.4357866670635004,-0.07188031822443008,-0.1591081619262695,-0.25713911652565,0.01475494354963303,-0.04348298907279968,-0.01587516069412231,XArbitraryZVertical,0.2168641133781904,-0.04394104662362963,0.009483489280201077,0.9751661950725483,-0.08981290459632874,-0.4221236705780029,-0.9020782709121704,0,0,0,-1,-1,2991.035571166667,unknown,2,2022-06-02T10:50:46.757+02:00,2022-06-02T10:17:13.754+02:00,512,1.445976,0,0,397.4887,0,0,2022-06-02T10:51:14.838+02:00,675852674.8377889,0,5.5625,101.3225,1,0.79
2022-06-02T10:51:16.931+02:00,1654159852.491319,53.22880421162223,10.39819542043123,42.81302,-1,-1,-1,-1,42.47970962524414,45.752,-9999,3021.208724375,-0.066253662109375,-0.49835205078125,-0.90966796875,3021.203727375,0.03841657162178415,-0.09966222652433722,0.4352014152241845,-0.09435086697340012,-0.1780594736337662,-0.2773059010505676,0.02172601222991943,-0.07001462578773499,-0.01112085580825806,XArbitraryZVertical,0.2165139403257536,-0.0444854763624357,0.007979405961068598,0.9752327840081444,-0.09022269397974014,-0.42159304022789,-0.9022855162620544,0,0,0,-1,-1,2991.035571166667,unknown,2,2022-06-02T10:50:46.757+02:00,2022-06-02T10:17:13.754+02:00,512,1.445976,0,0,397.4887,0,0,2022-06-02T10:51:14.838+02:00,675852674.8377889,0,5.5625,101.3225,1,0.79
2022-06-02T10:51:16.941+02:00,1654159852.491319,53.22880421162223,10.39819542043123,42.81302,-1,-1,-1,-1,42.47970962524414,45.752,-9999,3021.218719375,-0.06512451171875,-0.502655029296875,-0.9016571044921875,3021.213722375,0.03506008981055873,-0.1000903601802609,0.434489448091375,-0.1110536828637123,-0.1926259100437164,-0.3144617974758148,0.02438531816005707,-0.07740470767021179,-0.00712275505065918,XArbitraryZVertical,0.2160932772510041,-0.04506746784007993,0.00631511798440967,0.975311588468376,-0.09063895791769028,-0.4209473431110382,-0.9025452136993408,0,0,0,-1,-1,2991.035571166667,unknown,2,2022-06-02T10:50:46.757+02:00,2022-06-02T10:17:13.754+02:00,512,1.445976,0,0,397.4887,0,0,2022-06-02T10:51:14.838+02:00,675852674.8377889,0,5.5625,101.3225,1,0.79
2022-06-02T10:51:16.951+02:00,1654159852.491319,53.22880421162223,10.39819542043123,42.81302,-1,-1,-1,-1,42.47970962524414,45.752,-9999,3021.228713375,-0.060638427734375,-0.5181732177734375,-0.8865814208984375,3021.223716375,0.03110987503906134,-0.1004897493322227,0.4334377183019871,-0.1793965846300125,-0.218376949429512,-0.3868690133094788,0.02591928839683533,-0.08266192674636841,0.001291871070861816,XArbitraryZVertical,0.215491984883588,-0.04570261650685083,0.004373173530391889,0.975425680850539,-0.09104377776384354,-0.4199931025505066,-0.9029489755630493,0,0,0,-1,-1,2991.035571166667,unknown,2,2022-06-02T10:50:46.757+02:00,2022-06-02T10:17:13.754+02:00,512,1.445976,0,0,397.4887,0,0,2022-06-02T10:51:14.838+02:00,675852674.8377889,0,5.5625,101.3225,1,0.79
