loggingTime(txt),locationTimestamp_since1970(s),locationLatitude(WGS84),locationLongitude(WGS84),locationAltitude(m),locationSpeed(m/s),locationSpeedAccuracy(m/s),locationCourse(°),locationCourseAccuracy(°),locationVerticalAccuracy(m),locationHorizontalAccuracy(m),locationFloor(Z),accelerometerTimestamp_sinceReboot(s),accelerometerAccelerationX(G),accelerometerAccelerationY(G),accelerometerAccelerationZ(G),motionTimestamp_sinceReboot(s),motionYaw(rad),motionRoll(rad),motionPitch(rad),motionRotationRateX(rad/s),motionRotationRateY(rad/s),motionRotationRateZ(rad/s),motionUserAccelerationX(G),motionUserAccelerationY(G),motionUserAccelerationZ(G),motionAttitudeReferenceFrame(txt),motionQuaternionX(R),motionQuaternionY(R),motionQuaternionZ(R),motionQuaternionW(R),motionGravityX(G),motionGravityY(G),motionGravityZ(G),motionMagneticFieldX(µT),motionMagneticFieldY(µT),motionMagneticFieldZ(µT),motionHeading(°),motionMagneticFieldCalibrationAccuracy(Z),activityTimestamp_sinceReboot(s),activity(txt),activityActivityConfidence(Z),activityActivityStartDate(txt),pedometerStartDate(txt),pedometerNumberofSteps(N),pedometerAverageActivePace(s/m),pedometerCurrentPace(s/m),pedometerCurrentCadence(steps/s),pedometerDistance(m),pedometerFloorAscended(N),pedometerFloorDescended(N),pedometerEndDate(txt),altimeterTimestamp_sinceReboot(s),altimeterReset(bool),altimeterRelativeAltitude(m),altimeterPressure(kPa),batteryState(N),batteryLevel(R)
2022-06-02T10:54:32.129+02:00,1654160066.156963,53.22882181228334,10.39823083518258,38.3259,-1,-1,-1,-1,23.04750061035156,40,-9999,3212.26399775,0.252166748046875,-0.4833984375,-0.8523101806640625,3212.25900075,1.237033668935758,0.3217520109136199,0.4741050700839405,0.07078702002763748,0.09320864081382751,-0.07144235819578171,-0.05628249049186707,-0.01853996515274048,-0.007334709167480469,XArbitraryZVertical,0.09858056617818908,0.2612652714751646,0.5869826256469939,0.7599168132736009,0.2813495993614197,-0.4565424025058746,-0.8440446853637695,0,0,0,-1,-1,3211.941419125,running,2,2022-06-02T10:54:31.775+02:00,2022-06-02T10:17:13.754+02:00,521,1.61832,0,0,405.4342,0,0,2022-06-02T10:54:31.775+02:00,675852871.775038,0,5.691406,101.3134,1,0.78
2022-06-02T10:54:32.135+02:00,1654160066.156963,53.22882181228334,10.39823083518258,38.3259,-1,-1,-1,-1,23.04750061035156,40,-9999,3212.27399175,0.360870361328125,-0.5288543701171875,-0.8591156005859375,3212.26899475,1.236572153079094,0.3225078558596036,0.4741201277456059,-0.09585949033498764,0.05315975844860077,-0.03861809894442558,-0.02981859445571899,-0.0268426239490509,-0.008484959602355957,XArbitraryZVertical,0.09842513131445763,0.2615336878662904,0.5868444317072649,0.7599513833705576,0.2819852828979492,-0.4565558135509491,-0.8438252210617065,0,0,0,-1,-1,3211.941419125,running,2,2022-06-02T10:54:31.775+02:00,2022-06-02T10:17:13.754+02:00,521,1.61832,0,0,405.4342,0,0,2022-06-02T10:54:31.775+02:00,675852871.775038,0,5.691406,101.3134,1,0.78
2022-06-02T10:54:32.140+02:00,1654160066.156963,53.22882181228334,10.39823083518258,38.3259,-1,-1,-1,-1,23.04750061035156,40,-9999,3212.28398575,0.324951171875,-0.5042266845703125,-0.86248779296875,3212.27898875,1.236720937247756,0.3231592174655482,0.4714429863584786,-0.3489859700202942,0.004649812821298838,-0.05855352431535721,0.07794827222824097,-0.07468199729919434,-0.01431822776794434,XArbitraryZVertical,0.0971387361869455,0.2610849980899166,0.5869417426611191,0.7601960483649703,0.2829219996929169,-0.4541723430156708,-0.8447973728179932,0,0,0,-1,-1,3211.941419125,running,2,2022-06-02T10:54:31.775+02:00,2022-06-02T10:17:13.754+02:00,521,1.61832,0,0,405.4342,0,0,2022-06-02T10:54:31.775+02:00,675852871.775038,0,5.691406,101.3134,1,0.78
2022-06-02T10:54:32.142+02:00,1654160066.156963,53.22882181228334,10.39823083518258,38.3259,-1,-1,-1,-1,23.04750061035156,40,-9999,3212.29397975,0.2186431884765625,-0.397369384765625,-0.835113525390625,3212.28898275,1.236921484637559,0.3235679944755057,0.4679241018080058,-0.3730377852916718,0.03237571567296982,-0.1097381487488747,0.04117739200592041,-0.053192138671875,-0.0162961483001709,XArbitraryZVertical,0.0955783451864835,0.2603247018074267,0.5870475009497979,0.7605727758779137,0.2837736904621124,-0.4510345160961151,-0.8461916446685791,0,0,0,-1,-1,3211.941419125,running,2,2022-06-02T10:54:31.775+02:00,2022-06-02T10:17:13.754+02:00,521,1.61832,0,0,405.4342,0,0,2022-06-02T10:54:31.775+02:00,675852871.775038,0,5.691406,101.3134,1,0.78
2022-06-02T10:54:32.144+02:00,1654160066.156963,53.22882181228334,10.39823083518258,38.3259,-1,-1,-1,-1,23.04750061035156,40,-9999,3212.30397375,0.2204742431640625,-0.402099609375,-0.7952423095703125,3212.29897675,1.23728126093728,0.3236350697939703,0.4651040133645911,-0.2524060904979706,0.05172218382358551,-0.04620091989636421,-0.06559070944786072,0.05114641785621643,0.01226168870925903,XArbitraryZVertical,0.0943783548178069,0.2596250007846431,0.5871940067787791,0.7608486063570508,0.2842338383197784,-0.448515772819519,-0.8473751544952393,0,0,0,-1,-1,3211.941419125,running,2,2022-06-02T10:54:31.775+02:00,2022-06-02T10:17:13.754+02:00,521,1.61832,0,0,405.4342,0,0,2022-06-02T10:54:31.775+02:00,675852871.775038,0,5.691406,101.3134,1,0.78
2022-06-02T10:54:32.149+02:00,1654160066.156963,53.22882181228334,10.39823083518258,38.3259,-1,-1,-1,-1,23.04750061035156,40,-9999,3212.31396775,0.271270751953125,-0.456085205078125,-0.785614013671875,3212.30897075,1.237946727683597,0.3235785890454996,0.4625801798763295,-0.1962594538927078,0.05870819091796875,-0.02323621325194836,-0.06407085061073303,0.04415902495384216,0.0532194972038269,XArbitraryZVertical,0.09329424085458199,0.2589696768155639,0.5874494094552113,0.7610085817961167,0.2845450043678284,-0.4462586045265198,-0.8484618067741394,0,0,0,-1,-1,3211.941419125,running,2,2022-06-02T10:54:31.775+02:00,2022-06-02T10:17:13.754+02:00,521,1.61832,0,0,405.4342,0,0,2022-06-02T10:54:31.775+02:00,675852871.775038,0,5.691406,101.3134,1,0.78
2022-06-02T10:54:32.159+02:00,1654160066.156963,53.22882181228334,10.39823083518258,38.3259,-1,-1,-1,-1,23.04750061035156,40,-9999,3212.32396175,0.2992401123046875,-0.4801788330078125,-0.8112335205078125,3212.31896475,1.2383248095038,0.3238755161396145,0.4602290947894524,-0.2032338380813599,0.03584874421358109,-0.03930472955107689,-0.0138593316078186,-0.01193180680274963,0.06375551223754883,XArbitraryZVertical,0.0922131335618321,0.2584800918745979,0.5876107909600966,0.7611822111539581,0.2851300239562988,-0.444153368473053,-0.8493695855140686,0,0,0,-1,-1,3211.941419125,running,2,2022-06-02T10:54:31.775+02:00,2022-06-02T10:17:13.754+02:00,521,1.61832,0,0,405.4342,0,0,2022-06-02T10:54:31.775+02:00,675852871.775038,0,5.691406,101.3134,1,0.78
2022-06-02T10:54:32.169+02:00,1654160066.156963,53.22882181228334,10.39823083518258,38.3259,-1,-1,-1,-1,23.04750061035156,40,-9999,3212.33395575,0.26800537109375,-0.46807861328125,-0.842041015625,3212.32895875,1.238767409609732,0.3238369393076673,0.4579327392030212,-0.2326383292675018,0.01820716820657253,-0.03417468070983887,0.01381897926330566,-0.03808403015136719,0.0391116738319397,XArbitraryZVertical,0.09124434760399633,0.2578795445926445,0.5877803790652606,0.7613716145977422,0.2854210436344147,-0.4420947730541229,-0.8503451943397522,0,0,0,-1,-1,3211.941419125,running,2,2022-06-02T10:54:31.775+02:00,2022-06-02T10:17:13.754+02:00,521,1.61832,0,0,405.4342,0,0,2022-06-02T10:54:31.775+02:00,675852871.775038,0,5.691406,101.3134,1,0.78
2022-06-02T10:54:32.178+02:00,1654160066.156963,53.22882181228334,10.39823083518258,38.3259,-1,-1,-1,-1,23.04750061035156,40,-9999,3212.34394975,0.261505126953125,-0.4347381591796875,-0.8717498779296875,3212.33895275,1.239219052749616,0.3237802000962814,0.4559238110902297,-0.1955689340829849,0.04679739847779274,-0.04394089430570602,-0.01764953136444092,-0.02778661251068115,0.009160697460174561,XArbitraryZVertical,0.09039542097274736,0.2573476736266579,0.5879517103822766,0.761520541849239,0.2856547832489014,-0.4402919411659241,-0.8512017130851746,0,0,0,-1,-1,3211.941419125,running,2,2022-06-02T10:54:31.775+02:00,2022-06-02T10:17:13.754+02:00,521,1.61832,0,0,405.4342,0,0,2022-06-02T10:54:31.775+02:00,675852871.775038,0,5.691406,101.3134,1,0.78
2022-06-02T10:54:32.188+02:00,1654160066.156963,53.22882181228334,10.39823083518258,38.3259,-1,-1,-1,-1,23.04750061035156,40,-9999,3212.35394375,0.294708251953125,-0.427032470703125,-0.888458251953125,3212.34894675,1.239350874563596,0.3241994586305286,0.45427599668481,-0.1537120342254639,0.06119977682828903,-0.06097739934921265,-0.02473732829093933,0.00407370924949646,-0.01998144388198853,XArbitraryZVertical,0.08959291341983715,0.2570776176051516,0.5880219077711214,0.7616523852902382,0.2862423658370972,-0.438811868429184,-0.851768434047699,0,0,0,-1,-1,3211.941419125,running,2,2022-06-02T10:54:31.775+02:00,2022-06-02T10:17:13.754+02:00,521,1.61832,0,0,405.4342,0,0,2022-06-02T10:54:31.775+02:00,675852871.775038,0,5.691406,101.3134,1,0.78
2022-06-02T10:54:32.199+02:00,1654160066.156963,53.22882181228334,10.39823083518258,38.3259,-1,-1,-1,-1,23.04750061035156,40,-9999,3212.36393775,0.3097076416015625,-0.42694091796875,-0.8735198974609375,3212.35894075,1.23899072289011,0.3251251042156618,0.4530847314981903,-0.1204125285148621,0.0423472598195076,-0.07318506389856339,0.007510721683502197,0.01070863008499146,-0.03646039962768555,XArbitraryZVertical,0.08888822432397331,0.2570991328861184,0.5879264479160689,0.7618013459296462,0.2871974408626556,-0.4377411007881165,-0.8519978523254395,0,0,0,-1,-1,3211.941419125,running,2,2022-06-02T10:54:31.775+02:00,2022-06-02T10:17:13.754+02:00,521,1.61832,0,0,405.4342,0,0,2022-06-02T10:54:31.775+02:00,675852871.775038,0,5.691406,101.3134,1,0.78
2022-06-02T10:54:32.208+02:00,1654160066.156963,53.22882181228334,10.39823083518258,38.3259,-1,-1,-1,-1,23.04750061035156,40,-9999,3212.37393175,0.309906005859375,-0.4366302490234375,-0.8484344482421875,3212.36893475,1.238363769763734,0.3258814471805122,0.452098215988553,-0.08678985387086868,0.01818066835403442,-0.09912612289190292,0.02172768115997314,0.009913027286529541,-0.02133083343505859,XArbitraryZVertical,0.08834988935442253,0.257098726001202,0.5877210846139721,0.7620225930640622,0.2879799008369446,-0.4368539154529572,-0.8521890640258789,0,0,0,-1,-1,3211.941419125,running,2,2022-06-02T10:54:31.775+02:00,2022-06-02T10:17:13.754+02:00,521,1.61832,0,0,405.4342,0,0,2022-06-02T10:54:31.775+02:00,675852871.775038,0,5.691406,101.3134,1,0.78
2022-06-02T10:54:32.218+02:00,1654160066.156963,53.22882181228334,10.39823083518258,38.3259,-1,-1,-1,-1,23.04750061035156,40,-9999,3212.38392575,0.30633544921875,-0.4424591064453125,-0.835601806640625,3212.37892875,1.237838489289345,0.3257108351600505,0.450896581111458,-0.06031803414225578,-0.003331814194098115,-0.09798548370599747,0.02190369367599487,-0.0008575320243835449,0.004300475120544434,XArbitraryZVertical,0.08798423326432205,0.2566930349456374,0.5875130461928211,0.76236198390182,0.2880022525787354,-0.4357726871967316,-0.8527349233627319,0,0,0,-1,-1,3211.941419125,running,2,2022-06-02T10:54:31.775+02:00,2022-06-02T10:17:13.754+02:00,521,1.61832,0,0,405.4342,0,0,2022-06-02T10:54:31.775+02:00,675852871.775038,0,5.691406,101.3134,1,0.78
2022-06-02T10:54:32.228+02:00,1654160066.156963,53.22882181228334,10.39823083518258,38.3259,-1,-1,-1,-1,23.04750061035156,40,-9999,3212.39391975,0.2852935791015625,-0.4261322021484375,-0.82196044921875,3212.38892275,1.237221998718548,0.3254621167198559,0.4500533650257912,-0.05118632316589355,-0.0108805438503623,-0.09928110986948013,0.01842784881591797,-0.00744551420211792,0.01755255460739136,XArbitraryZVertical,0.08779715967077009,0.2563483338361858,0.5872667101608986,0.7626892546551962,0.2879075407981873,-0.4350135922431946,-0.8531543612480164,0,0,0,-1,-1,3211.941419125,running,2,2022-06-02T10:54:31.775+02:00,2022-06-02T10:17:13.754+02:00,521,1.61832,0,0,405.4342,0,0,2022-06-02T10:54:31.775+02:00,675852871.775038,0,5.691406,101.3134,1,0.78
2022-06-02T10:54:32.238+02:00,1654160066.156963,53.22882181228334,10.39823083518258,38.3259,-1,-1,-1,-1,23.04750061035156,40,-9999,3212.40391375,0.2781829833984375,-0.428009033203125,-0.8323211669921875,3212.39891675,1.23646440747061,0.3257476515607202,0.4500907529180602,-0.05376392602920532,-0.02034049108624458,-0.06986317038536072,-0.002852439880371094,0.008915066719055176,0.03109627962112427,XArbitraryZVertical,0.08782551195409453,0.2564338208065449,0.5869903127345333,0.7628700943420459,0.2881459295749664,-0.4350472390651703,-0.8530567288398743,0,0,0,-1,-1,3211.941419125,running,2,2022-06-02T10:54:31.775+02:00,2022-06-02T10:17:13.754+02:00,521,1.61832,0,0,405.4342,0,0,2022-06-02T10:54:31.775+02:00,675852871.775038,0,5.691406,101.3134,1,0.78
2022-06-02T10:54:32.249+02:00,1654160066.156963,53.22882181228334,10.39823083518258,38.3259,-1,-1,-1,-1,23.04750061035156,40,-9999,3212.41390775,0.290069580078125,-0.4327392578125,-0.849700927734375,3212.40891075,1.235914534057286,0.3260761479314193,0.4501970897858259,-0.07679335027933121,-0.02944557368755341,-0.04807558283209801,-0.01022842526435852,0.007133990526199341,0.02059704065322876,XArbitraryZVertical,0.08784241134378924,0.2565630877532538,0.5867950790987272,0.7629747282327777,0.2884113192558289,-0.435142993927002,-0.8529182076454163,0,0,0,-1,-1,3211.941419125,running,2,2022-06-02T10:54:31.775+02:00,2022-06-02T10:17:13.754+02:00,521,1.61832,0,0,405.4342,0,0,2022-06-02T10:54:31.775+02:00,675852871.775038,0,5.691406,101.3134,1,0.78
2022-06-02T10:54:32.258+02:00,1654160066.156963,53.22882181228334,10.39823083518258,38.3259,-1,-1,-1,-1,23.04750061035156,40,-9999,3212.42390175,0.2966766357421875,-0.4293670654296875,-0.8474884033203125,3212.41890475,1.235886169034174,0.3255693494755831,0.4498008539620941,-0.1154513284564018,-0.03942590206861496,-0.04176242649555206,0.002035379409790039,0.002046972513198853,0.003526628017425537,XArbitraryZVertical,0.08783526403972744,0.2562639125978189,0.5867617304780802,0.7631017726767811,0.2880341410636902,-0.4347862005233765,-0.8532275557518005,0,0,0,-1,-1,3211.941419125,running,2,2022-06-02T10:54:31.775+02:00,2022-06-02T10:17:13.754+02:00,521,1.61832,0,0,405.4342,0,0,2022-06-02T10:54:31.775+02:00,675852871.775038,0,5.691406,101.3134,1,0.78
2022-06-02T10:54:32.268+02:00,1654160066.156963,53.22882181228334,10.39823083518258,38.3259,-1,-1,-1,-1,23.04750061035156,40,-9999,3212.43389575,0.2836151123046875,-0.4278564453125,-0.8545989990234375,3212.42889875,1.236310753774599,0.3244823163029805,0.4482635508348963,-0.1651815921068192,-0.04647449031472206,-0.02365000173449516,0.009357333183288574,0.004034221172332764,0.006684243679046631,XArbitraryZVertical,0.08748116705576683,0.255461759985798,0.5868751369560692,0.7633242230831417,0.2873192429542542,-0.4334012866020203,-0.8541726469993591,0,0,0,-1,-1,3211.941419125,running,2,2022-06-02T10:54:31.775+02:00,2022-06-02T10:17:13.754+02:00,521,1.61832,0,0,405.4342,0,0,2022-06-02T10:54:31.775+02:00,675852871.775038,0,5.691406,101.3134,1,0.78
2022-06-02T10:54:32.278+02:00,1654160066.156963,53.22882181228334,10.39823083518258,38.3259,-1,-1,-1,-1,23.04750061035156,40,-9999,3212.44388975,0.2836151123046875,-0.4237213134765625,-0.8754425048828125,3212.43889275,1.236775099900828,0.3237042289219324,0.4460301579551403,-0.1795580685138702,-0.04623201116919518,-0.0139554301276803,-0.003346681594848633,0.003531038761138916,0.0007125139236450195,XArbitraryZVertical,0.08675145174170364,0.2545946216557238,0.5870169628434067,0.7635881446724722,0.2869617342948914,-0.4313874840736389,-0.8553115129470825,0,0,0,-1,-1,3211.941419125,running,2,2022-06-02T10:54:31.775+02:00,2022-06-02T10:17:13.754+02:00,521,1.61832,0,0,405.4342,0,0,2022-06-02T10:54:31.775+02:00,675852871.775038,0,5.691406,101.3134,1,0.78
2022-06-02T10:54:32.288+02:00,1654160066.156963,53.22882181228334,10.39823083518258,38.3259,-1,-1,-1,-1,23.04750061035156,40,-9999,3212.45388375,0.2759246826171875,-0.407073974609375,-0.8917694091796875,3212.44888675,1.237116485870641,0.3234689239468506,0.4440624455128429,-0.1565725952386856,-0.03739937022328377,-0.000100867822766304,-0.003414660692214966,0.005890130996704102,-0.01926034688949585,XArbitraryZVertical,0.08598518299434672,0.2539989485742794,0.5871354808690623,0.7637819119556642,0.2870297133922577,-0.4296114444732666,-0.8561821579933167,0,0,0,-1,-1,3211.941419125,running,2,2022-06-02T10:54:31.775+02:00,2022-06-02T10:17:13.754+02:00,521,1.61832,0,0,405.4342,0,0,2022-06-02T10:54:31.775+02:00,675852871.775038,0,5.691406,101.3134,1,0.78
2022-06-02T10:54:32.299+02:00,1654160066.156963,53.22882181228334,10.39823083518258,38.3259,-1,-1,-1,-1,23.04750061035156,40,-9999,3212.46387775,0.271392822265625,-0.40313720703125,-0.9015045166015625,3212.45888075,1.237411895344841,0.3235696423640069,0.4429075936735097,-0.1307231485843658,-0.007370631210505962,-0.0004508066922426224,-0.0113489031791687,0.02149435877799988,-0.03514629602432251,XArbitraryZVertical,0.08545336079896329,0.2537443140525784,0.5872513763244627,0.7638372239591873,0.287273496389389,-0.4285683035850525,-0.856623113155365,0,0,0,-1,-1,3211.941419125,running,2,2022-06-02T10:54:31.775+02:00,2022-06-02T10:17:13.754+02:00,521,1.61832,0,0,405.4342,0,0,2022-06-02T10:54:31.775+02:00,675852871.775038,0,5.691406,101.3134,1,0.78
2022-06-02T10:54:32.308+02:00,1654160066.156963,53.22882181228334,10.39823083518258,38.3259,-1,-1,-1,-1,23.04750061035156,40,-9999,3212.47387175,0.2858123779296875,-0.416259765625,-0.9068450927734375,3212.46887475,1.237499069544202,0.3240549605267546,0.4422836138403027,-0.09659315645694733,0.0114736296236515,-0.007615775335580111,-0.01638153195381165,0.02486723661422729,-0.04476761817932129,XArbitraryZVertical,0.08504867176377562,0.2537681538726019,0.5873045938592782,0.7638335102307321,0.2877742946147919,-0.4280044436454773,-0.8567368984222412,0,0,0,-1,-1,3211.941419125,running,2,2022-06-02T10:54:31.775+02:00,2022-06-02T10:17:13.754+02:00,521,1.61832,0,0,405.4342,0,0,2022-06-02T10:54:31.775+02:00,675852871.775038,0,5.691406,101.3134,1,0.78
2022-06-02T10:54:32.318+02:00,1654160066.156963,53.22882181228334,10.39823083518258,38.3259,-1,-1,-1,-1,23.04750061035156,40,-9999,3212.48386575,0.2936248779296875,-0.4188995361328125,-0.8951568603515625,3212.47886875,1.237589616901231,0.3243415514785445,0.4419449091467198,-0.05163389816880226,0.01244681607931852,-0.008175637573003769,-0.002253681421279907,0.01143854856491089,-0.05005335807800293,XArbitraryZVertical,0.0848167257034043,0.2537917245819771,0.5873508615629542,0.7638159861250662,0.2880659997463226,-0.4276983141899109,-0.8567917943000793,0,0,0,-1,-1,3211.941419125,running,2,2022-06-02T10:54:31.775+02:00,2022-06-02T10:17:13.754+02:00,521,1.61832,0,0,405.4342,0,0,2022-06-02T10:54:31.775+02:00,675852871.775038,0,5.691406,101.3134,1,0.78
2022-06-02T10:54:32.328+02:00,1654160066.156963,53.22882181228334,10.39823083518258,38.3259,-1,-1,-1,-1,23.04750061035156,40,-9999,3212.49385975,0.3056488037109375,-0.4160614013671875,-0.8777923583984375,3212.48886275,1.237659095720257,0.3244534658862187,0.4418660726389447,-0.03666932880878448,0.01551211439073086,-0.01300820987671614,0.005452185869216919,0.008727550506591797,-0.03836536407470703,XArbitraryZVertical,0.08474331040623401,0.2538165392005731,0.5873820322538182,0.7637918848701665,0.2881726324558258,-0.4276270568370819,-0.8567914962768555,0,0,0,-1,-1,3211.941419125,running,2,2022-06-02T10:54:31.775+02:00,2022-06-02T10:17:13.754+02:00,521,1.61832,0,0,405.4342,0,0,2022-06-02T10:54:31.775+02:00,675852871.775038,0,5.691406,101.3134,1,0.78
2022-06-02T10:54:32.338+02:00,1654160066.156963,53.22882181228334,10.39823083518258,38.3259,-1,-1,-1,-1,23.04750061035156,40,-9999,3212.50385375,0.2990875244140625,-0.4282379150390625,-0.869903564453125,3212.49885675,1.237627594948559,0.324697789759186,0.4416823840337331,-0.04655572026968002,0.007872969843447208,-0.009801897220313549,0.01724174618721008,0.01139962673187256,-0.02099692821502686,XArbitraryZVertical,0.08460162956303564,0.2538598636266703,0.5873800725443152,0.7637946913617211,0.2884069979190826,-0.4274609982967377,-0.8567954897880554,0,0,0,-1,-1,3211.941419125,running,2,2022-06-02T10:54:31.775+02:00,2022-06-02T10:17:13.754+02:00,521,1.61832,0,0,405.4342,0,0,2022-06-02T10:54:31.775+02:00,675852871.775038,0,5.691406,101.3134,1,0.78
2022-06-02T10:54:32.349+02:00,1654160066.156963,53.22882181228334,10.39823083518258,38.3259,-1,-1,-1,-1,23.04750061035156,40,-9999,3212.51384775,0.282928466796875,-0.4348907470703125,-0.861175537109375,3212.50885075,1.237558774775452,0.3251695299141888,0.4413225372980004,-0.05319897085428238,0.02370066754519939,-0.01338837668299675,0.01022717356681824,-0.001102268695831299,-0.01309853792190552,XArbitraryZVertical,0.08432701216602721,0.2539417964781644,0.5873731208416817,0.7638032328134464,0.2888602912425995,-0.4271356463432312,-0.8568050265312195,0,0,0,-1,-1,3211.941419125,running,2,2022-06-02T10:54:31.775+02:00,2022-06-02T10:17:13.754+02:00,521,1.61832,0,0,405.4342,0,0,2022-06-02T10:54:31.775+02:00,675852871.775038,0,5.691406,101.3134,1,0.78
2022-06-02T10:54:32.369+02:00,1654160066.156963,53.22882181228334,10.39823083518258,38.3259,-1,-1,-1,-1,23.04750061035156,40,-9999,3212.52384175,0.3051300048828125,-0.441741943359375,-0.865203857421875,3212.51884475,1.237666369157944,0.3252774364408665,0.4407893448079135,-0.06612379848957062,0.02597241289913654,-0.01639169082045555,-0.006097078323364258,-0.008237242698669434,-0.004186034202575684,XArbitraryZVertical,0.0840670761648523,0.2538463236347474,0.5874178319961978,0.7638292242633091,0.2890254855155945,-0.4266535043716431,-0.8569895625114441,0,0,0,-1,-1,3211.941419125,running,2,2022-06-02T10:54:31.775+02:00,2022-06-02T10:17:13.754+02:00,521,1.61832,0,0,405.4342,0,0,2022-06-02T10:54:31.775+02:00,675852871.775038,0,5.691406,101.3134,1,0.78
2022-06-02T10:54:32.371+02:00,1654160066.156963,53.22882181228334,10.39823083518258,38.3259,-1,-1,-1,-1,23.04750061035156,40,-9999,3212.53383575,0.300811767578125,-0.424072265625,-0.8627777099609375,3212.52883875,1.237867669583684,0.3251980919324975,0.4397681531845724,-0.07016807049512863,0.03492728993296623,-0.02549996599555016,0.01603341102600098,-0.01601225137710571,-0.00777900218963623,XArbitraryZVertical,0.08365386079648374,0.253553937751813,0.5874895235534058,0.7639164794162445,0.2890965342521667,-0.4257296919822693,-0.8574248552322388,0,0,0,-1,-1,3211.941419125,running,2,2022-06-02T10:54:31.775+02:00,2022-06-02T10:17:13.754+02:00,521,1.61832,0,0,405.4342,0,0,2022-06-02T10:54:31.775+02:00,675852871.775038,0,5.691406,101.3134,1,0.78
2022-06-02T10:54:32.378+02:00,1654160066.156963,53.22882181228334,10.39823083518258,38.3259,-1,-1,-1,-1,23.04750061035156,40,-9999,3212.54382975,0.30401611328125,-0.4234619140625,-0.86175537109375,3212.53883275,1.238262966725321,0.3246522436269714,0.4380919275141994,-0.08127211779356003,0.02001465484499931,-0.01183608639985323,0.01195600628852844,0.0001401007175445557,-0.004519999027252197,XArbitraryZVertical,0.0830895937278285,0.252917539834623,0.5876144936641079,0.7640928850228237,0.2888556718826294,-0.4242123663425446,-0.8582576513290405,0,0,0,-1,-1,3211.941419125,running,2,2022-06-02T10:54:31.775+02:00,2022-06-02T10:17:13.754+02:00,521,1.61832,0,0,405.4342,0,0,2022-06-02T10:54:31.775+02:00,675852871.775038,0,5.691406,101.3134,1,0.78
2022-06-02T10:54:32.388+02:00,1654160066.156963,53.22882181228334,10.39823083518258,38.3259,-1,-1,-1,-1,23.04750061035156,40,-9999,3212.55382375,0.299072265625,-0.4287567138671875,-0.8700714111328125,3212.54882675,1.238932170293935,0.3236276577488698,0.4361316564882419,-0.08485700190067291,0.0133287888020277,-0.00613931892439723,0.01577597856521606,-0.001025497913360596,-0.00241541862487793,XArbitraryZVertical,0.08251738301756398,0.252033552692065,0.5878237881723484,0.7642860006194954,0.2882400751113892,-0.422436386346817,-0.8593399524688721,0,0,0,-1,-1,3211.941419125,running,2,2022-06-02T10:54:31.775+02:00,2022-06-02T10:17:13.754+02:00,521,1.61832,0,0,405.4342,0,0,2022-06-02T10:54:31.775+02:00,675852871.775038,0,5.691406,101.3134,1,0.78
2022-06-02T10:54:32.398+02:00,1654160066.156963,53.22882181228334,10.39823083518258,38.3259,-1,-1,-1,-1,23.04750061035156,40,-9999,3212.56381775,0.2933807373046875,-0.4122467041015625,-0.870941162109375,3212.55882075,1.239464453611405,0.3229464892212726,0.4342927632289094,-0.08590062707662582,0.01279202848672867,-0.01358431857079268,0.01117148995399475,-0.007987797260284424,-0.009800136089324951,XArbitraryZVertical,0.08191073245571777,0.2513065651602397,0.5879953595658439,0.7644586499740177,0.2879006862640381,-0.4207689166069031,-0.8602712750434875,0,0,0,-1,-1,3211.941419125,running,2,2022-06-02T10:54:31.775+02:00,2022-06-02T10:17:13.754+02:00,521,1.61832,0,0,405.4342,0,0,2022-06-02T10:54:31.775+02:00,675852871.775038,0,5.691406,101.3134,1,0.78
2022-06-02T10:54:32.408+02:00,1654160066.156963,53.22882181228334,10.39823083518258,38.3259,-1,-1,-1,-1,23.04750061035156,40,-9999,3212.57381175,0.2868804931640625,-0.40618896484375,-0.87451171875,3212.56881475,1.2396670468477,0.3227853546013383,0.433037697803132,-0.05905596539378166,0.008577309548854828,-0.01593109592795372,0.005451321601867676,0.007383346557617188,-0.01012337207794189,XArbitraryZVertical,0.08142768845806486,0.25091958486128,0.5880634563240269,0.7645848959794931,0.287929356098175,-0.4196300506591797,-0.8608177900314331,0,0,0,-1,-1,3211.941419125,running,2,2022-06-02T10:54:31.775+02:00,2022-06-02T10:17:13.754+02:00,521,1.61832,0,0,405.4342,0,0,2022-06-02T10:54:31.775+02:00,675852871.775038,0,5.691406,101.3134,1,0.78
2022-06-02T10:54:32.418+02:00,1654160066.156963,53.22882181228334,10.39823083518258,38.3259,-1,-1,-1,-1,23.04750061035156,40,-9999,3212.58380575,0.280181884765625,-0.4092254638671875,-0.87481689453125,3212.57880875,1.239517589956544,0.323191098543205,0.432172024140548,-0.0375276692211628,0.00806085579097271,-0.01915718242526054,-0.001513421535491943,0.01265516877174377,-0.01346671581268311,XArbitraryZVertical,0.08097883524947065,0.2508384060998466,0.5880206987046013,0.7646921759247454,0.2883938848972321,-0.4188441038131714,-0.8610450625419617,0,0,0,-1,-1,3211.941419125,running,2,2022-06-02T10:54:31.775+02:00,2022-06-02T10:17:13.754+02:00,521,1.61832,0,0,405.4342,0,0,2022-06-02T10:54:31.775+02:00,675852871.775038,0,5.691406,101.3134,1,0.78
2022-06-02T10:54:32.428+02:00,1654160066.156963,53.22882181228334,10.39823083518258,38.3259,-1,-1,-1,-1,23.04750061035156,40,-9999,3212.59379975,0.277252197265625,-0.423980712890625,-0.8745880126953125,3212.58880275,1.239359193591782,0.3235405244785419,0.4318288353881807,-0.04653554409742355,0.01275281235575676,-0.02151194959878922,-0.008558571338653564,0.009307026863098145,-0.01373642683029175,XArbitraryZVertical,0.08075787669534841,0.2508743433914048,0.5879733771851043,0.7647401608348876,0.2887403964996338,-0.4185324609279633,-0.8610804677009583,0,0,0,-1,-1,3211.941419125,running,2,2022-06-02T10:54:31.775+02:00,2022-06-02T10:17:13.754+02:00,521,1.61832,0,0,405.4342,0,0,2022-06-02T10:54:31.775+02:00,675852871.775038,0,5.691406,101.3134,1,0.78
2022-06-02T10:54:32.438+02:00,1654160066.156963,53.22882181228334,10.39823083518258,38.3259,-1,-1,-1,-1,23.04750061035156,40,-9999,3212.60379375,0.27655029296875,-0.433074951171875,-0.8733367919921875,3212.59879675,1.239389154148156,0.3235970522076472,0.4316081368180444,-0.07677480578422546,0.02348588593304157,-0.02283554151654243,-0.01156631112098694,-0.005648672580718994,-0.01343631744384766,XArbitraryZVertical,0.08064869130235511,0.2508384773053716,0.5879865243377681,0.7647533591566491,0.2888184487819672,-0.4183320105075836,-0.8611516952514648,0,0,0,-1,-1,3211.941419125,running,2,2022-06-02T10:54:31.775+02:00,2022-06-02T10:17:13.754+02:00,521,1.61832,0,0,405.4342,0,0,2022-06-02T10:54:31.775+02:00,675852871.775038,0,5.691406,101.3134,1,0.78
2022-06-02T10:54:32.448+02:00,1654160066.156963,53.22882181228334,10.39823083518258,38.3259,-1,-1,-1,-1,23.04750061035156,40,-9999,3212.61378775,0.28509521484375,-0.4239501953125,-0.8535003662109375,3212.60879075,1.239326834689593,0.324180975281618,0.4311477216707613,-0.1082701459527016,0.02375353313982487,-0.01723251678049564,-0.01283231377601624,-0.01516115665435791,-0.01217144727706909,XArbitraryZVertical,0.08029954775283492,0.2509368474269326,0.5879849294927525,0.7647589661373059,0.2893825471401215,-0.4179137647151947,-0.8611653447151184,0,0,0,-1,-1,3211.941419125,running,2,2022-06-02T10:54:31.775+02:00,2022-06-02T10:17:13.754+02:00,521,1.61832,0,0,405.4342,0,0,2022-06-02T10:54:31.775+02:00,675852871.775038,0,5.691406,101.3134,1,0.78
2022-06-02T10:54:32.458+02:00,1654160066.156963,53.22882181228334,10.39823083518258,38.3259,-1,-1,-1,-1,23.04750061035156,40,-9999,3212.62378175,0.2926788330078125,-0.404998779296875,-0.8563995361328125,3212.61878475,1.23949120499704,0.3245885643027719,0.4300477816072322,-0.1376980096101761,0.02139543741941452,-0.007227419409900904,-0.004784822463989258,-0.007035940885543823,0.007982134819030762,XArbitraryZVertical,0.07971644916204637,0.2508067738008031,0.5880608043533161,0.7648043082850386,0.2898799777030945,-0.4169142246246338,-0.8614825010299683,0,0,0,-1,-1,3211.941419125,running,2,2022-06-02T10:54:31.775+02:00,2022-06-02T10:17:13.754+02:00,521,1.61832,0,0,405.4342,0,0,2022-06-02T10:54:31.775+02:00,675852871.775038,0,5.691406,101.3134,1,0.78
2022-06-02T10:54:32.468+02:00,1654160066.156963,53.22882181228334,10.39823083518258,38.3259,-1,-1,-1,-1,23.04750061035156,40,-9999,3212.63377575,0.2921600341796875,-0.393524169921875,-0.8677520751953125,3212.62877875,1.239689187359262,0.3251060887986001,0.4288111356884133,-0.145547941327095,0.02038769610226154,-0.0124669224023819,0.002188533544540405,0.0107911229133606,0.0054207444190979,XArbitraryZVertical,0.07904178720052567,0.250683586469908,0.5881530553503176,0.7648437668651524,0.2904902100563049,-0.4157898724079132,-0.8618202805519104,0,0,0,-1,-1,3211.941419125,running,2,2022-06-02T10:54:31.775+02:00,2022-06-02T10:17:13.754+02:00,521,1.61832,0,0,405.4342,0,0,2022-06-02T10:54:31.775+02:00,675852871.775038,0,5.691406,101.3134,1,0.78
2022-06-02T10:54:32.478+02:00,1654160066.156963,53.22882181228334,10.39823083518258,38.3259,-1,-1,-1,-1,23.04750061035156,40,-9999,3212.64376975,0.2906646728515625,-0.3896026611328125,-0.880615234375,3212.63877275,1.239976629992618,0.325331656829374,0.427807461709978,-0.1265569776296616,0.01152915693819523,-0.003952730447053909,0.001342117786407471,0.02135270833969116,-0.005602359771728516,XArbitraryZVertical,0.07853554660290285,0.2505140741264225,0.5882683803751287,0.7648628405974432,0.2908178567886353,-0.4148768484592438,-0.862149715423584,0,0,0,-1,-1,3211.941419125,running,2,2022-06-02T10:54:31.775+02:00,2022-06-02T10:17:13.754+02:00,521,1.61832,0,0,405.4342,0,0,2022-06-02T10:54:31.775+02:00,675852871.775038,0,5.691406,101.3134,1,0.78
2022-06-02T10:54:32.488+02:00,1654160066.156963,53.22882181228334,10.39823083518258,38.3259,-1,-1,-1,-1,23.04750061035156,40,-9999,3212.65376375,0.2889556884765625,-0.3861846923828125,-0.8903961181640625,3212.64876675,1.240424295142286,0.3252547526957902,0.4265069511550356,-0.1038197055459023,0.01119546312838793,0.009744971990585327,-0.0002591311931610107,0.02409058809280396,-0.01793259382247925,XArbitraryZVertical,0.07797881610841043,0.2501559459719147,0.5884318820756176,0.7649111750916767,0.2909237146377563,-0.4136931896209717,-0.8626826405525208,0,0,0,-1,-1,3211.941419125,running,2,2022-06-02T10:54:31.775+02:00,2022-06-02T10:17:13.754+02:00,521,1.61832,0,0,405.4342,0,0,2022-06-02T10:54:31.775+02:00,675852871.775038,0,5.691406,101.3134,1,0.78
2022-06-02T10:54:32.498+02:00,1654160066.156963,53.22882181228334,10.39823083518258,38.3259,-1,-1,-1,-1,23.04750061035156,40,-9999,3212.66375775,0.2871856689453125,-0.3829345703125,-0.88568115234375,3212.65876075,1.240949473666368,0.3248960327506272,0.4253086239102815,-0.07675326615571976,0.008791560307145119,0.005806291475892067,-0.001816660165786743,0.02641725540161133,-0.02714002132415771,XArbitraryZVertical,0.07753659404571053,0.2497198971079278,0.5886143347539691,0.7649582089372682,0.2907722592353821,-0.4126019179821014,-0.8632560968399048,0,0,0,-1,-1,3211.941419125,running,2,2022-06-02T10:54:31.775+02:00,2022-06-02T10:17:13.754+02:00,521,1.61832,0,0,405.4342,0,0,2022-06-02T10:54:31.775+02:00,675852871.775038,0,5.691406,101.3134,1,0.78
2022-06-02T10:54:32.508+02:00,1654160066.156963,53.22882181228334,10.39823083518258,38.3259,-1,-1,-1,-1,23.04750061035156,40,-9999,3212.67375175,0.2848663330078125,-0.3956298828125,-0.8796844482421875,3212.66875475,1.241392717650839,0.3243961975595843,0.4245578716449154,-0.03658374398946762,0.01126883272081614,0.0001460080966353416,-0.003253817558288574,0.02898341417312622,-0.02198648452758789,XArbitraryZVertical,0.07732638797729835,0.2493457063532244,0.5887616956839791,0.7649881672156986,0.2904393970966339,-0.4119179546833038,-0.8636946678161621,0,0,0,-1,-1,3211.941419125,running,2,2022-06-02T10:54:31.775+02:00,2022-06-02T10:17:13.754+02:00,521,1.61832,0,0,405.4342,0,0,2022-06-02T10:54:31.775+02:00,675852871.775038,0,5.691406,101.3134,1,0.78
2022-06-02T10:54:32.518+02:00,1654160066.156963,53.22882181228334,10.39823083518258,38.3259,-1,-1,-1,-1,23.04750061035156,40,-9999,3212.68374575,0.273284912109375,-0.396881103515625,-0.8648223876953125,3212.67874875,1.241712676465622,0.3239175346032021,0.4245925690107076,-0.02209541574120522,0.01541683916002512,-0.002583333291113377,-0.00515514612197876,0.01631969213485718,-0.01586437225341797,XArbitraryZVertical,0.07744140276849903,0.2491842358635066,0.5888656651299837,0.7649492151481823,0.2900214195251465,-0.4119495749473572,-0.8638200759887695,0,0,0,-1,-1,3211.941419125,running,2,2022-06-02T10:54:31.775+02:00,2022-06-02T10:17:13.754+02:00,521,1.61832,0,0,405.4342,0,0,2022-06-02T10:54:31.775+02:00,675852871.775038,0,5.691406,101.3134,1,0.78
2022-06-02T10:54:32.528+02:00,1654160066.156963,53.22882181228334,10.39823083518258,38.3259,-1,-1,-1,-1,23.04750061035156,40,-9999,3212.69373975,0.276947021484375,-0.410797119140625,-0.8498382568359375,3212.68874275,1.241983354895344,0.3235282791721095,0.4249452624517933,-0.02811415866017342,0.01491350214928389,-0.0006826352328062057,-0.01635408401489258,0.0153898298740387,-0.001027286052703857,XArbitraryZVertical,0.07766415606787083,0.249139973429661,0.5889553497355275,0.7648719740586107,0.2896389365196228,-0.4122709035873413,-0.8637951016426086,0,0,0,-1,-1,3211.941419125,running,2,2022-06-02T10:54:31.775+02:00,2022-06-02T10:17:13.754+02:00,521,1.61832,0,0,405.4342,0,0,2022-06-02T10:54:31.775+02:00,675852871.775038,0,5.691406,101.3134,1,0.78
2022-06-02T10:54:32.538+02:00,1654160066.156963,53.22882181228334,10.39823083518258,38.3259,-1,-1,-1,-1,23.04750061035156,40,-9999,3212.70373375,0.2750396728515625,-0.4265899658203125,-0.8461761474609375,3212.69873675,1.242127586601777,0.3235677832998687,0.4251446758733606,-0.04206619411706924,0.01036295853555202,-0.001486909575760365,-0.01269993185997009,0.001655459403991699,0.01386743783950806,XArbitraryZVertical,0.07771474843416412,0.2492139097885747,0.5890127382807051,0.7647985118837467,0.2896468937397003,-0.4124525785446167,-0.8637056946754456,0,0,0,-1,-1,3211.941419125,running,2,2022-06-02T10:54:31.775+02:00,2022-06-02T10:17:13.754+02:00,521,1.61832,0,0,405.4342,0,0,2022-06-02T10:54:31.775+02:00,675852871.775038,0,5.691406,101.3134,1,0.78
2022-06-02T10:54:32.548+02:00,1654160066.156963,53.22882181228334,10.39823083518258,38.3259,-1,-1,-1,-1,23.04750061035156,40,-9999,3212.71372775,0.2752838134765625,-0.4245147705078125,-0.8493194580078125,3212.70873075,1.242189437242461,0.3238296031821782,0.4245039992821314,-0.06182924285531044,0.01489272993057966,-0.004303202964365482,-0.01491743326187134,-0.0147210955619812,0.01770401000976562,XArbitraryZVertical,0.07737226447140608,0.2491454482580609,0.5890442940958134,0.7648312130539437,0.2899570465087891,-0.4118688404560089,-0.8638801574707031,0,0,0,-1,-1,3211.941419125,running,2,2022-06-02T10:54:31.775+02:00,2022-06-02T10:17:13.754+02:00,521,1.61832,0,0,405.4342,0,0,2022-06-02T10:54:31.775+02:00,675852871.775038,0,5.691406,101.3134,1,0.78
2022-06-02T10:54:32.558+02:00,1654160066.156963,53.22882181228334,10.39823083518258,38.3259,-1,-1,-1,-1,23.04750061035156,40,-9999,3212.72372175,0.2992706298828125,-0.425140380859375,-0.86907958984375,3212.71872475,1.2424754570856,0.3237853853939322,0.4231928426458728,-0.0935223251581192,-0.001123787369579077,0.009020859375596046,-0.01480665802955627,-0.01384103298187256,0.01508474349975586,XArbitraryZVertical,0.07682236792993077,0.2487895282332277,0.5891471712458899,0.7649232156584935,0.290090411901474,-0.4106737077236176,-0.8644042015075684,0,0,0,-1,-1,3211.941419125,running,2,2022-06-02T10:54:31.775+02:00,2022-06-02T10:17:13.754+02:00,521,1.61832,0,0,405.4342,0,0,2022-06-02T10:54:31.775+02:00,675852871.775038,0,5.691406,101.3134,1,0.78
2022-06-02T10:54:32.569+02:00,1654160066.156963,53.22882181228334,10.39823083518258,38.3259,-1,-1,-1,-1,23.04750061035156,40,-9999,3212.73371575,0.3065032958984375,-0.413970947265625,-0.8857879638671875,3212.72871875,1.242915681646223,0.3234152150119662,0.4213098069715191,-0.126413956284523,-0.008656539022922516,-0.01765016652643681,0.009254872798919678,-0.01618430018424988,-0.003836393356323242,XArbitraryZVertical,0.07611947520246698,0.2481616683062215,0.5892941555927136,0.7650843055718675,0.2900156676769257,-0.4089560806751251,-0.8652431964874268,0,0,0,-1,-1,3211.941419125,running,2,2022-06-02T10:54:31.775+02:00,2022-06-02T10:17:13.754+02:00,521,1.61832,0,0,405.4342,0,0,2022-06-02T10:54:31.775+02:00,675852871.775038,0,5.691406,101.3134,1,0.78
2022-06-02T10:54:32.578+02:00,1654160066.156963,53.22882181228334,10.39823083518258,38.3259,-1,-1,-1,-1,23.04750061035156,40,-9999,3212.74370975,0.2960205078125,-0.3909149169921875,-0.892608642578125,3212.73871275,1.243129443569354,0.3228961109889087,0.419155685896816,-0.1066803783178329,-0.02724919840693474,-0.03702779114246368,0.01665788888931274,-0.006981581449508667,-0.01956093311309814,XArbitraryZVertical,0.07537965761969957,0.2473952062657518,0.5893476293488815,0.7653644294472892,0.28984534740448,-0.4069893658161163,-0.8662270307540894,0,0,0,-1,-1,3211.941419125,running,2,2022-06-02T10:54:31.775+02:00,2022-06-02T10:17:13.754+02:00,521,1.61832,0,0,405.4342,0,0,2022-06-02T10:54:31.775+02:00,675852871.775038,0,5.691406,101.3134,1,0.78
2022-06-02T10:54:32.588+02:00,1654160066.156963,53.22882181228334,10.39823083518258,38.3259,-1,-1,-1,-1,23.04750061035156,40,-9999,3212.75370375,0.289337158203125,-0.38421630859375,-0.9022369384765625,3212.74870675,1.243129285406674,0.3223915477843469,0.4171994494353344,-0.09307695180177689,-0.02459242939949036,-0.04862452670931816,0.006360501050949097,0.01428681612014771,-0.02548199892044067,XArbitraryZVertical,0.07474161308878408,0.2466786430102983,0.5893203686122935,0.7656792730381607,0.2896599471569061,-0.4052017033100128,-0.8671267032623291,0,0,0,-1,-1,3211.941419125,running,2,2022-06-02T10:54:31.775+02:00,2022-06-02T10:17:13.754+02:00,521,1.61832,0,0,405.4342,0,0,2022-06-02T10:54:31.775+02:00,675852871.775038,0,5.691406,101.3134,1,0.78
2022-06-02T10:54:32.599+02:00,1654160066.156963,53.22882181228334,10.39823083518258,38.3259,-1,-1,-1,-1,23.04750061035156,40,-9999,3212.76369775,0.2900848388671875,-0.372100830078125,-0.901702880859375,3212.75870075,1.243030143455072,0.3219659332352008,0.4159272404806118,-0.06108652427792549,-0.02440174669027328,-0.04159910976886749,-0.0001166462898254395,0.01982200145721436,-0.03449875116348267,XArbitraryZVertical,0.07436753926358768,0.2461714231659428,0.5892609802463982,0.765924640749379,0.2894537448883057,-0.404038280248642,-0.8677381873130798,0,0,0,-1,-1,3211.941419125,running,2,2022-06-02T10:54:31.775+02:00,2022-06-02T10:17:13.754+02:00,521,1.61832,0,0,405.4342,0,0,2022-06-02T10:54:31.775+02:00,675852871.775038,0,5.691406,101.3134,1,0.78
2022-06-02T10:54:32.608+02:00,1654160066.156963,53.22882181228334,10.39823083518258,38.3259,-1,-1,-1,-1,23.04750061035156,40,-9999,3212.77369175,0.28863525390625,-0.3733978271484375,-0.8730926513671875,3212.76869475,1.242950147160848,0.3213214503237422,0.4151284039557983,-0.05275162681937218,-0.02826572582125664,-0.05328106507658958,0.001088500022888184,0.03120660781860352,-0.03347235918045044,XArbitraryZVertical,0.07424592862126862,0.2457076963435047,0.5892028596408525,0.7661300699372696,0.2889962792396545,-0.4033074378967285,-0.8682305216789246,0,0,0,-1,-1,3211.941419125,running,2,2022-06-02T10:54:31.775+02:00,2022-06-02T10:17:13.754+02:00,521,1.61832,0,0,405.4342,0,0,2022-06-02T10:54:31.775+02:00,675852871.775038,0,5.691406,101.3134,1,0.78
2022-06-02T10:54:32.618+02:00,1654160066.156963,53.22882181228334,10.39823083518258,38.3259,-1,-1,-1,-1,23.04750061035156,40,-9999,3212.78368575,0.2938995361328125,-0.3884429931640625,-0.8717803955078125,3212.77868875,1.242484221278572,0.3210586510726083,0.4151144171914481,-0.0130222924053669,-0.03099273703992367,-0.06909897923469543,-0.0001346766948699951,0.02989679574966431,-0.004780828952789307,XArbitraryZVertical,0.07437493734044784,0.2455859588278857,0.5890145335621,0.7663013838042706,0.2887698709964752,-0.4032946228981018,-0.8683118224143982,0,0,0,-1,-1,3211.941419125,running,2,2022-06-02T10:54:31.775+02:00,2022-06-02T10:17:13.754+02:00,521,1.61832,0,0,405.4342,0,0,2022-06-02T10:54:31.775+02:00,675852871.775038,0,5.691406,101.3134,1,0.78
2022-06-02T10:54:32.629+02:00,1654160066.156963,53.22882181228334,10.39823083518258,38.3259,-1,-1,-1,-1,23.04750061035156,40,-9999,3212.79367975,0.278594970703125,-0.400238037109375,-0.870361328125,3212.78868275,1.241901591358582,0.3208348603614725,0.4158161038699467,0.000147571787238121,-0.02891627140343189,-0.06412738561630249,0.005413234233856201,0.01549363136291504,-0.003672778606414795,XArbitraryZVertical,0.0747947055459724,0.2456663025161471,0.5887859919684648,0.7664103356559797,0.2884862422943115,-0.4039366245269775,-0.8681076169013977,0,0,0,-1,-1,3211.941419125,running,2,2022-06-02T10:54:31.775+02:00,2022-06-02T10:17:13.754+02:00,521,1.61832,0,0,405.4342,0,0,2022-06-02T10:54:31.775+02:00,675852871.775038,0,5.691406,101.3134,1,0.78
2022-06-02T10:54:32.639+02:00,1654160066.156963,53.22882181228334,10.39823083518258,38.3259,-1,-1,-1,-1,23.04750061035156,40,-9999,3212.80367375,0.2833709716796875,-0.4091796875,-0.869659423828125,3212.79867675,1.241337881814576,0.3207077259439157,0.4164443966326454,-0.004862399771809578,-0.01190353091806173,-0.05765717104077339,-0.009700894355773926,0.004273265600204468,-0.002458035945892334,XArbitraryZVertical,0.07515421924550168,0.245764521047823,0.5885678603710817,0.766511213969119,0.2882958054542542,-0.4045113027095795,-0.8679032921791077,0,0,0,-1,-1,3211.941419125,running,2,2022-06-02T10:54:31.775+02:00,2022-06-02T10:17:13.754+02:00,521,1.61832,0,0,405.4342,0,0,2022-06-02T10:54:31.775+02:00,675852871.775038,0,5.691406,101.3134,1,0.78
2022-06-02T10:54:32.649+02:00,1654160066.156963,53.22882181228334,10.39823083518258,38.3259,-1,-1,-1,-1,23.04750061035156,40,-9999,3212.81366775,0.2953033447265625,-0.40606689453125,-0.8867950439453125,3212.80867075,1.240721724144054,0.3211449282569457,0.4165879866145656,-0.03626692667603493,0.0007789746159687638,-0.05024559423327446,-0.005285978317260742,-0.004537045955657959,-0.001937389373779297,XArbitraryZVertical,0.07515911899565932,0.2459473268542394,0.5883487367463108,0.7666203203192192,0.2886568903923035,-0.4046426117420197,-0.8677220344543457,0,0,0,-1,-1,3211.941419125,running,2,2022-06-02T10:54:31.775+02:00,2022-06-02T10:17:13.754+02:00,521,1.61832,0,0,405.4342,0,0,2022-06-02T10:54:31.775+02:00,675852871.775038,0,5.691406,101.3134,1,0.78
2022-06-02T10:54:32.659+02:00,1654160066.156963,53.22882181228334,10.39823083518258,38.3259,-1,-1,-1,-1,23.04750061035156,40,-9999,3212.82366175,0.275482177734375,-0.3741455078125,-0.889892578125,3212.81866475,1.24024177408067,0.3217224642236888,0.416032202468658,-0.04326757788658142,0.02082831598818302,-0.0428025908768177,0.006074219942092896,-0.001932591199874878,-0.01902663707733154,XArbitraryZVertical,0.07482454197987676,0.2460021932650119,0.588183937524936,0.7667619498252018,0.2892290651798248,-0.4041343033313751,-0.867768406867981,0,0,0,-1,-1,3211.941419125,running,2,2022-06-02T10:54:31.775+02:00,2022-06-02T10:17:13.754+02:00,521,1.61832,0,0,405.4342,0,0,2022-06-02T10:54:31.775+02:00,675852871.775038,0,5.691406,101.3134,1,0.78
2022-06-02T10:54:32.668+02:00,1654160066.156963,53.22882181228334,10.39823083518258,38.3259,-1,-1,-1,-1,23.04750061035156,40,-9999,3212.83365575,0.286407470703125,-0.3668365478515625,-0.8901519775390625,3212.82865875,1.239896172097027,0.3221315556667578,0.4151241420625724,0.01340848300606012,0.04217221960425377,-0.03764192014932632,-0.01421797275543213,0.02915802597999573,-0.02189481258392334,XArbitraryZVertical,0.07438111310100068,0.245903594099142,0.588062479015467,0.7669297531323161,0.2897000908851624,-0.4033035337924957,-0.8679977655410767,0,0,0,-1,-1,3211.941419125,running,2,2022-06-02T10:54:31.775+02:00,2022-06-02T10:17:13.754+02:00,521,1.61832,0,0,405.4342,0,0,2022-06-02T10:54:31.775+02:00,675852871.775038,0,5.691406,101.3134,1,0.78
2022-06-02T10:54:32.678+02:00,1654160066.156963,53.22882181228334,10.39823083518258,38.3259,-1,-1,-1,-1,23.04750061035156,40,-9999,3212.84364975,0.3116912841796875,-0.35906982421875,-0.891204833984375,3212.83865275,1.239589203868582,0.3223946602275923,0.4145131504692823,0.05752145126461983,0.03499839827418327,-0.02366212010383606,-0.003599047660827637,0.0359078049659729,-0.02199691534042358,XArbitraryZVertical,0.07409546100691658,0.2458298851151817,0.5879515489690372,0.7670661174926271,0.2900064587593079,-0.4027443528175354,-0.8681550621986389,0,0,0,-1,-1,3211.941419125,running,2,2022-06-02T10:54:31.775+02:00,2022-06-02T10:17:13.754+02:00,521,1.61832,0,0,405.4342,0,0,2022-06-02T10:54:31.775+02:00,675852871.775038,0,5.691406,101.3134,1,0.78
2022-06-02T10:54:32.688+02:00,1654160066.156963,53.22882181228334,10.39823083518258,38.3259,-1,-1,-1,-1,23.04750061035156,40,-9999,3212.85364375,0.3097381591796875,-0.36553955078125,-0.8845672607421875,3212.84864675,1.239401925609335,0.3224010878108035,0.4140271768589914,0.05669320747256279,-0.001427787239663303,0.003574826754629612,0.02161720395088196,0.04322969913482666,-0.02286612987518311,XArbitraryZVertical,0.07392087505553406,0.2456956064407338,0.5878775230287124,0.7671827765452185,0.2900740206241608,-0.4022994935512543,-0.8683387637138367,0,0,0,-1,-1,3211.941419125,running,2,2022-06-02T10:54:31.775+02:00,2022-06-02T10:17:13.754+02:00,521,1.61832,0,0,405.4342,0,0,2022-06-02T10:54:31.775+02:00,675852871.775038,0,5.691406,101.3134,1,0.78
2022-06-02T10:54:32.698+02:00,1654160066.156963,53.22882181228334,10.39823083518258,38.3259,-1,-1,-1,-1,23.04750061035156,40,-9999,3212.86363775,0.2858428955078125,-0.382293701171875,-0.8719482421875,3212.85864075,1.239330627701958,0.32233907112489,0.4138940483153857,0.05350866541266441,0.001171058393083513,0.01019185036420822,0.01970094442367554,0.0366380512714386,-0.0161597728729248,XArbitraryZVertical,0.07389422029884571,0.2456336677747334,0.5878472419111476,0.7672282140380317,0.2900371253490448,-0.4021776020526886,-0.8684074878692627,0,0,0,-1,-1,3211.941419125,running,2,2022-06-02T10:54:31.775+02:00,2022-06-02T10:17:13.754+02:00,521,1.61832,0,0,405.4342,0,0,2022-06-02T10:54:31.775+02:00,675852871.775038,0,5.691406,101.3134,1,0.78
2022-06-02T10:54:32.709+02:00,1654160066.156963,53.22882181228334,10.39823083518258,38.3259,-1,-1,-1,-1,23.04750061035156,40,-9999,3212.87363175,0.28704833984375,-0.404205322265625,-0.8645782470703125,3212.86863475,1.239259124890173,0.3224771837215678,0.4140715439195976,0.06657599657773972,0.002437391318380833,0.01857494749128819,-0.0042915940284729,0.0200464129447937,-0.003648519515991211,XArbitraryZVertical,0.07393391060781247,0.2457313881126668,0.5878257957338855,0.7672096131108342,0.290134459733963,-0.4023401141166687,-0.8682997226715088,0,0,0,-1,-1,3211.941419125,running,2,2022-06-02T10:54:31.775+02:00,2022-06-02T10:17:13.754+02:00,521,1.61832,0,0,405.4342,0,0,2022-06-02T10:54:31.775+02:00,675852871.775038,0,5.691406,101.3134,1,0.78
2022-06-02T10:54:32.719+02:00,1654160066.156963,53.22882181228334,10.39823083518258,38.3259,-1,-1,-1,-1,23.04750061035156,40,-9999,3212.88362575,0.29638671875,-0.4198760986328125,-0.866943359375,3212.87862875,1.239394782846031,0.3220949207704303,0.4147051257714345,0.05116668343544006,-0.01094978675246239,0.02314013987779617,-0.002673447132110596,-0.001285254955291748,0.00359034538269043,XArbitraryZVertical,0.07428478523043276,0.2457589674899513,0.5878667913607191,0.7671355376152054,0.2897217571735382,-0.4029200673103333,-0.8681685924530029,0,0,0,-1,-1,3211.941419125,running,2,2022-06-02T10:54:31.775+02:00,2022-06-02T10:17:13.754+02:00,521,1.61832,0,0,405.4342,0,0,2022-06-02T10:54:31.775+02:00,675852871.775038,0,5.691406,101.3134,1,0.78
2022-06-02T10:54:32.729+02:00,1654160066.156963,53.22882181228334,10.39823083518258,38.3259,-1,-1,-1,-1,23.04750061035156,40,-9999,3212.89361975,0.13739013671875,-0.4383544921875,-0.5016021728515625,3212.88862275,1.239605584680667,0.3213080654130766,0.4151588990807686,-0.01051878742873669,-0.1751927882432938,0.01795576512813568,0.007405906915664673,-0.01654073596000671,0.001279354095458984,XArbitraryZVertical,0.07467293111200574,0.2455862069492792,0.5879204942173402,0.7671120338109985,0.2889807820320129,-0.4033353328704834,-0.868222713470459,0,0,0,-1,-1,3211.941419125,running,2,2022-06-02T10:54:31.775+02:00,2022-06-02T10:17:13.754+02:00,521,1.61832,0,0,405.4342,0,0,2022-06-02T10:54:31.775+02:00,675852871.775038,0,5.691406,101.3134,1,0.78
2022-06-02T10:54:32.738+02:00,1654160066.156963,53.22882181228334,10.39823083518258,38.3259,-1,-1,-1,-1,23.04750061035156,40,-9999,3212.90361375,0.2365264892578125,-0.375274658203125,-0.945159912109375,3212.89861675,1.239493339893614,0.3204710709128449,0.4129625622693233,-0.05048491060733795,0.3601115047931671,-0.05536145716905594,-0.1511422693729401,-0.03702989220619202,0.3677008152008057,XArbitraryZVertical,0.07404817704994579,0.2446740251304055,0.5878359779673121,0.767528770741862,0.2885323464870453,-0.401324599981308,-0.8693029880523682,0,0,0,-1,-1,3211.941419125,running,2,2022-06-02T10:54:31.775+02:00,2022-06-02T10:17:13.754+02:00,521,1.61832,0,0,405.4342,0,0,2022-06-02T10:54:31.775+02:00,675852871.775038,0,5.691406,101.3134,1,0.78
2022-06-02T10:54:32.748+02:00,1654160066.156963,53.22882181228334,10.39823083518258,38.3259,-1,-1,-1,-1,23.04750061035156,40,-9999,3212.91360775,0.36767578125,-0.336761474609375,-0.886474609375,3212.90861075,1.240034603932786,0.3220701148177057,0.4140653668716207,0.178934171795845,0.1033660024404526,0.09467464685440063,-0.05325531959533691,0.02705982327461243,-0.07673978805541992,XArbitraryZVertical,0.0739558359076658,0.2456022810419535,0.5881081629938062,0.7670323939001177,0.2897817492485046,-0.402334451675415,-0.8684201240539551,0,0,0,-1,-1,3211.941419125,running,2,2022-06-02T10:54:31.775+02:00,2022-06-02T10:17:13.754+02:00,521,1.61832,0,0,405.4342,0,0,2022-06-02T10:54:31.775+02:00,675852871.775038,0,5.691406,101.3134,1,0.78
2022-06-02T10:54:32.758+02:00,1654160066.156963,53.22882181228334,10.39823083518258,38.3259,-1,-1,-1,-1,23.04750061035156,40,-9999,3212.92360175,0.4276885986328125,-0.524993896484375,-1.01141357421875,3212.91860475,1.239379832917828,0.3231977456641637,0.4155005898932713,0.07967701554298401,0.0205833725631237,-0.05114500969648361,0.07709860801696777,0.06688651442527771,-0.01893025636672974,XArbitraryZVertical,0.0742828029815014,0.246393768826867,0.5879059445475755,0.7669019643264693,0.2905771136283875,-0.4036479890346527,-0.8675443530082703,0,0,0,-1,-1,3211.941419125,running,2,2022-06-02T10:54:31.775+02:00,2022-06-02T10:17:13.754+02:00,521,1.61832,0,0,405.4342,0,0,2022-06-02T10:54:31.775+02:00,675852871.775038,0,5.691406,101.3134,1,0.78
2022-06-02T10:54:32.768+02:00,1654160066.156963,53.22882181228334,10.39823083518258,38.3259,-1,-1,-1,-1,23.04750061035156,40,-9999,3212.93359575,0.4107666015625,-0.4746551513671875,-1.002609252929688,3212.92859875,1.239195818106062,0.3227671754171317,0.4150484412423144,-0.1284652650356293,-0.1243969798088074,-0.03480065613985062,0.1374271214008331,-0.1217596232891083,-0.1435711979866028,XArbitraryZVertical,0.07424991934990234,0.246101113537954,0.587817142800767,0.7670671798796915,0.2902614176273346,-0.4032342731952667,-0.8678423762321472,0,0,0,-1,-1,3211.941419125,running,2,2022-06-02T10:54:31.775+02:00,2022-06-02T10:17:13.754+02:00,521,1.61832,0,0,405.4342,0,0,2022-06-02T10:54:31.775+02:00,675852871.775038,0,5.691406,101.3134,1,0.78
2022-06-02T10:54:32.778+02:00,1654160066.156963,53.22882181228334,10.39823083518258,38.3259,-1,-1,-1,-1,23.04750061035156,40,-9999,3212.94358975,0.3987579345703125,-0.3770599365234375,-0.9838104248046875,3212.93859275,1.238733541826446,0.3213966570092887,0.4136530638657113,-0.09579786658287048,-0.2179562300443649,-0.1204079687595367,0.1215173006057739,-0.07269817590713501,-0.1338368654251099,XArbitraryZVertical,0.07414735700109229,0.2451856014195939,0.5875820571690975,0.7675502286331642,0.2892492115497589,-0.4019569754600525,-0.8687723875045776,0,0,0,-1,-1,3211.941419125,running,2,2022-06-02T10:54:31.775+02:00,2022-06-02T10:17:13.754+02:00,521,1.61832,0,0,405.4342,0,0,2022-06-02T10:54:31.775+02:00,675852871.775038,0,5.691406,101.3134,1,0.78
2022-06-02T10:54:32.788+02:00,1654160066.156963,53.22882181228334,10.39823083518258,38.3259,-1,-1,-1,-1,23.04750061035156,40,-9999,3212.95358375,0.38336181640625,-0.3794097900390625,-0.9719390869140625,3212.94858675,1.237561700219178,0.3190597249243988,0.412900850259886,0.01421358995139599,-0.3484481871128082,-0.1360346078872681,0.1114449501037598,0.02420815825462341,-0.114077627658844,XArbitraryZVertical,0.0746738374490561,0.2440438744479142,0.5870415877810544,0.7682762405664583,0.287312924861908,-0.4012680649757385,-0.8697327971458435,0,0,0,-1,-1,3211.941419125,running,2,2022-06-02T10:54:31.775+02:00,2022-06-02T10:17:13.754+02:00,521,1.61832,0,0,405.4342,0,0,2022-06-02T10:54:31.775+02:00,675852871.775038,0,5.691406,101.3134,1,0.78
2022-06-02T10:54:32.798+02:00,1654160066.156963,53.22882181228334,10.39823083518258,38.3259,-1,-1,-1,-1,23.04750061035156,40,-9999,3212.96357775,0.121246337890625,-0.544708251953125,-0.9731292724609375,3212.95858075,1.235439693270018,0.3168909635122682,0.412178662025377,-0.08174489438533783,-0.1562651693820953,-0.3150578737258911,0.09784552454948425,0.02119669318199158,-0.1013100743293762,XArbitraryZVertical,0.07527710823958804,0.2429379448049857,0.5861413398038396,0.7692546545312499,0.285516232252121,-0.4006064832210541,-0.8706290125846863,0,0,0,-1,-1,3211.941419125,running,2,2022-06-02T10:54:31.775+02:00,2022-06-02T10:17:13.754+02:00,521,1.61832,0,0,405.4342,0,0,2022-06-02T10:54:31.775+02:00,675852871.775038,0,5.691406,101.3134,1,0.78
2022-06-02T10:54:32.808+02:00,1654160066.156963,53.22882181228334,10.39823083518258,38.3259,-1,-1,-1,-1,23.04750061035156,40,-9999,3212.97357175,0.0746612548828125,-0.3350830078125,-0.9006195068359375,3212.96857475,1.233129615789097,0.3192702482470348,0.4087081444963683,-0.4083864092826843,0.3228817284107208,-0.2176338583230972,-0.1667752861976624,-0.1472840309143066,-0.1018671989440918,XArbitraryZVertical,0.07346046484840091,0.2428425939760713,0.5853234353601527,0.7700828304835433,0.2880215644836426,-0.3974242210388184,-0.8712620735168457,0,0,0,-1,-1,3211.941419125,running,2,2022-06-02T10:54:31.775+02:00,2022-06-02T10:17:13.754+02:00,521,1.61832,0,0,405.4342,0,0,2022-06-02T10:54:31.775+02:00,675852871.775038,0,5.691406,101.3134,1,0.78
2022-06-02T10:54:32.818+02:00,1654160066.156963,53.22882181228334,10.39823083518258,38.3259,-1,-1,-1,-1,23.04750061035156,40,-9999,3212.98356575,0.3599395751953125,-0.2390899658203125,-0.8410491943359375,3212.97856875,1.232721714971162,0.322514599774948,0.4057362839554104,-0.07307031750679016,0.2573884725570679,-0.1033000871539116,-0.2165586054325104,0.05961239337921143,-0.02918010950088501,XArbitraryZVertical,0.07136070084451597,0.2432857718027763,0.5852656420489446,0.7701841888082895,0.2912197709083557,-0.394695371389389,-0.8714393377304077,0,0,0,-1,-1,3211.941419125,running,2,2022-06-02T10:54:31.775+02:00,2022-06-02T10:17:13.754+02:00,521,1.61832,0,0,405.4342,0,0,2022-06-02T10:54:31.775+02:00,675852871.775038,0,5.691406,101.3134,1,0.78
