loggingTime(txt),locationTimestamp_since1970(s),locationLatitude(WGS84),locationLongitude(WGS84),locationAltitude(m),locationSpeed(m/s),locationSpeedAccuracy(m/s),locationCourse(°),locationCourseAccuracy(°),locationVerticalAccuracy(m),locationHorizontalAccuracy(m),locationFloor(Z),accelerometerTimestamp_sinceReboot(s),accelerometerAccelerationX(G),accelerometerAccelerationY(G),accelerometerAccelerationZ(G),motionTimestamp_sinceReboot(s),motionYaw(rad),motionRoll(rad),motionPitch(rad),motionRotationRateX(rad/s),motionRotationRateY(rad/s),motionRotationRateZ(rad/s),motionUserAccelerationX(G),motionUserAccelerationY(G),motionUserAccelerationZ(G),motionAttitudeReferenceFrame(txt),motionQuaternionX(R),motionQuaternionY(R),motionQuaternionZ(R),motionQuaternionW(R),motionGravityX(G),motionGravityY(G),motionGravityZ(G),motionMagneticFieldX(µT),motionMagneticFieldY(µT),motionMagneticFieldZ(µT),motionHeading(°),motionMagneticFieldCalibrationAccuracy(Z),activityTimestamp_sinceReboot(s),activity(txt),activityActivityConfidence(Z),activityActivityStartDate(txt),pedometerStartDate(txt),pedometerNumberofSteps(N),pedometerAverageActivePace(s/m),pedometerCurrentPace(s/m),pedometerCurrentCadence(steps/s),pedometerDistance(m),pedometerFloorAscended(N),pedometerFloorDescended(N),pedometerEndDate(txt),altimeterTimestamp_sinceReboot(s),altimeterReset(bool),altimeterRelativeAltitude(m),altimeterPressure(kPa),batteryState(N),batteryLevel(R)
2022-06-02T10:54:53.130+02:00,1654160091.894676,53.22910610511361,10.39846787354745,36.81321,0.7971722,0.9622152,170.4245032643272,21.77651757265361,2.400000095367432,11.99936978251625,-9999,3231.2254515,-0.0297088623046875,-0.2215118408203125,-1.008773803710938,3231.2204545,-0.09665413918290888,0.08318020117932455,0.1474098286367106,0.1491596251726151,0.1304316967725754,-0.03946718201041222,-0.2102197408676147,-0.03342133760452271,-0.003141462802886963,XArbitraryZVertical,0.07549173521294054,0.03786255937027644,-0.04507728141087106,0.9954071765657188,0.08218324929475784,-0.1468765437602997,-0.9857348203659058,0,0,0,-1,-1,3230.363703125,unknown,2,2022-06-02T10:54:52.222+02:00,2022-06-02T10:17:13.754+02:00,521,1.61832,0,0,405.4342,0,0,2022-06-02T10:54:52.222+02:00,675852892.2216982,0,4.589844,101.3213,1,0.78
2022-06-02T10:54:53.142+02:00,1654160091.894676,53.22910610511361,10.39846787354745,36.81321,0.7971722,0.9622152,170.4245032643272,21.77651757265361,2.400000095367432,11.99936978251625,-9999,3231.2354455,0.0868682861328125,-0.2537384033203125,-1.002059936523438,3231.2304485,-0.09718436369672166,0.08490282173540191,0.1488079157284878,0.08362562209367752,0.1846659183502197,-0.05452895537018776,-0.1135725378990173,-0.07325254380702972,-0.02338755130767822,XArbitraryZVertical,0.07623636534296784,0.03866385052163653,-0.04524406670860353,0.9953120607449439,0.08386368304491043,-0.1482593268156052,-0.9853862524032593,0,0,0,-1,-1,3230.363703125,unknown,2,2022-06-02T10:54:52.222+02:00,2022-06-02T10:17:13.754+02:00,521,1.61832,0,0,405.4342,0,0,2022-06-02T10:54:52.222+02:00,675852892.2216982,0,4.589844,101.3213,1,0.78
2022-06-02T10:54:53.145+02:00,1654160091.894676,53.22910610511361,10.39846787354745,36.81321,0.7971722,0.9622152,170.4245032643272,21.77651757265361,2.400000095367432,11.99936978251625,-9999,3231.2454395,0.138153076171875,-0.2264556884765625,-1.001174926757812,3231.2404425,-0.09793155430919992,0.08662270421343836,0.1495635722699202,0.03955716267228127,0.1352412402629852,-0.08134046196937561,0.001319698989391327,-0.1047318279743195,-0.01693123579025269,XArbitraryZVertical,0.07666592248508654,0.03947160717034123,-0.04553265109687379,0.9952341276740831,0.08554858714342117,-0.1490065902471542,-0.98512864112854,0,0,0,-1,-1,3230.363703125,unknown,2,2022-06-02T10:54:52.222+02:00,2022-06-02T10:17:13.754+02:00,521,1.61832,0,0,405.4342,0,0,2022-06-02T10:54:52.222+02:00,675852892.2216982,0,4.589844,101.3213,1,0.78
2022-06-02T10:54:53.147+02:00,1654160091.894676,53.22910610511361,10.39846787354745,36.81321,0.7971722,0.9622152,170.4245032643272,21.77651757265361,2.400000095367432,11.99936978251625,-9999,3231.2554335,0.0954132080078125,-0.1531829833984375,-1.002334594726562,3231.2504365,-0.09885447009241695,0.08774204921590077,0.1499619334052969,0.04168422892689705,0.0846683531999588,-0.09469461441040039,0.05150705575942993,-0.07705521583557129,-0.01620179414749146,XArbitraryZVertical,0.07690801359638878,0.03998275534746044,-0.04593954375106048,0.9951763485787806,0.08664602041244507,-0.1494004875421524,-0.9849730730056763,0,0,0,-1,-1,3230.363703125,unknown,2,2022-06-02T10:54:52.222+02:00,2022-06-02T10:17:13.754+02:00,521,1.61832,0,0,405.4342,0,0,2022-06-02T10:54:52.222+02:00,675852892.2216982,0,4.589844,101.3213,1,0.78
2022-06-02T10:54:53.150+02:00,1654160091.894676,53.22910610511361,10.39846787354745,36.81321,0.7971722,0.9622152,170.4245032643272,21.77651757265361,2.400000095367432,11.99936978251625,-9999,3231.2654275,0.0440216064453125,-0.117706298828125,-0.99847412109375,3231.2604305,-0.09983386520241348,0.08856301233486227,0.1504143625169824,0.05709857493638992,0.09278879314661026,-0.09463542699813843,0.007964581251144409,-0.003335177898406982,-0.01750040054321289,XArbitraryZVertical,0.07717167272866418,0.04034158317865517,-0.04638447340270694,0.9951208134974082,0.08744863420724869,-0.1498478353023529,-0.9848341941833496,0,0,0,-1,-1,3230.363703125,unknown,2,2022-06-02T10:54:52.222+02:00,2022-06-02T10:17:13.754+02:00,521,1.61832,0,0,405.4342,0,0,2022-06-02T10:54:52.222+02:00,675852892.2216982,0,4.589844,101.3213,1,0.78
2022-06-02T10:54:53.154+02:00,1654160091.894676,53.22910610511361,10.39846787354745,36.81321,0.7971722,0.9622152,170.4245032643272,21.77651757265361,2.400000095367432,11.99936978251625,-9999,3231.2754215,0.0507354736328125,-0.131988525390625,-0.985382080078125,3231.2704245,-0.1008681650089299,0.08998455469904916,0.1513414157121704,0.0829048678278923,0.1182858943939209,-0.08615671843290329,-0.04481440037488937,0.03305803239345551,-0.01390397548675537,XArbitraryZVertical,0.07768690647701354,0.0409840943451906,-0.04682169028080018,0.9950340851570434,0.08883600682020187,-0.1507643461227417,-0.9845700860023499,0,0,0,-1,-1,3230.363703125,unknown,2,2022-06-02T10:54:52.222+02:00,2022-06-02T10:17:13.754+02:00,521,1.61832,0,0,405.4342,0,0,2022-06-02T10:54:52.222+02:00,675852892.2216982,0,4.589844,101.3213,1,0.78
2022-06-02T10:54:53.156+02:00,1654160091.894676,53.22910610511361,10.39846787354745,36.81321,0.7971722,0.9622152,170.4245032643272,21.77651757265361,2.400000095367432,11.99936978251625,-9999,3231.2854155,0.096588134765625,-0.1595916748046875,-0.96844482421875,3231.2804185,-0.1018060430479697,0.09192183705866078,0.1524356610727755,0.06409595906734467,0.1286747455596924,-0.06767478585243225,-0.0399925485253334,0.01985745131969452,-0.001150786876678467,XArbitraryZVertical,0.07829605906129831,0.04188181896023319,-0.04718586468083889,0.994931670905765,0.0907280296087265,-0.1518459916114807,-0.9842312932014465,0,0,0,-1,-1,3230.363703125,unknown,2,2022-06-02T10:54:52.222+02:00,2022-06-02T10:17:13.754+02:00,521,1.61832,0,0,405.4342,0,0,2022-06-02T10:54:52.222+02:00,675852892.2216982,0,4.589844,101.3213,1,0.78
2022-06-02T10:54:53.158+02:00,1654160091.894676,53.22910610511361,10.39846787354745,36.81321,0.7971722,0.9622152,170.4245032643272,21.77651757265361,2.400000095367432,11.99936978251625,-9999,3231.2954095,0.1272735595703125,-0.183685302734375,-0.9409637451171875,3231.2904125,-0.1023257620293475,0.09248884191874804,0.1531781057768659,0.009313140064477921,0.1173597797751427,-0.05204123258590698,0.005312494933605194,-0.007011890411376953,0.01562237739562988,XArbitraryZVertical,0.07868957980412587,0.04212331477649796,-0.04740366735478293,0.9948800791841753,0.09127563983201981,-0.1525797843933105,-0.9840671420097351,0,0,0,-1,-1,3230.363703125,unknown,2,2022-06-02T10:54:52.222+02:00,2022-06-02T10:17:13.754+02:00,521,1.61832,0,0,405.4342,0,0,2022-06-02T10:54:52.222+02:00,675852892.2216982,0,4.589844,101.3213,1,0.78
2022-06-02T10:54:53.165+02:00,1654160091.894676,53.22910610511361,10.39846787354745,36.81321,0.7971722,0.9622152,170.4245032643272,21.77651757265361,2.400000095367432,11.99936978251625,-9999,3231.3054035,0.1287841796875,-0.18170166015625,-0.935455322265625,3231.3004065,-0.1026178617306537,0.09276020758662594,0.1530535322629225,-0.06329551339149475,0.08917322009801865,-0.03387747332453728,0.03572911769151688,-0.03122863173484802,0.04309755563735962,XArbitraryZVertical,0.07864024198008446,0.0422502127203053,-0.04754141272884601,0.9948719710551535,0.09154444187879562,-0.152456670999527,-0.9840612411499023,0,0,0,-1,-1,3230.363703125,unknown,2,2022-06-02T10:54:52.222+02:00,2022-06-02T10:17:13.754+02:00,521,1.61832,0,0,405.4342,0,0,2022-06-02T10:54:52.222+02:00,675852892.2216982,0,4.589844,101.3213,1,0.78
2022-06-02T10:54:53.174+02:00,1654160091.894676,53.22910610511361,10.39846787354745,36.81321,0.7971722,0.9622152,170.4245032643272,21.77651757265361,2.400000095367432,11.99936978251625,-9999,3231.3153975,0.1098785400390625,-0.1625213623046875,-0.923370361328125,3231.3104005,-0.1026735130311372,0.09306764813608313,0.1524338875832788,-0.1103852614760399,0.0669880211353302,-0.01089705526828766,0.0369284451007843,-0.02985742688179016,0.0486716628074646,XArbitraryZVertical,0.07834060007512449,0.04241788583501676,-0.04757256568033223,0.994887071939634,0.0918557420372963,-0.151844248175621,-0.9841269254684448,0,0,0,-1,-1,3230.363703125,unknown,2,2022-06-02T10:54:52.222+02:00,2022-06-02T10:17:13.754+02:00,521,1.61832,0,0,405.4342,0,0,2022-06-02T10:54:52.222+02:00,675852892.2216982,0,4.589844,101.3213,1,0.78
2022-06-02T10:54:53.185+02:00,1654160091.894676,53.22910610511361,10.39846787354745,36.81321,0.7971722,0.9622152,170.4245032643272,21.77651757265361,2.400000095367432,11.99936978251625,-9999,3231.3253915,0.098876953125,-0.1532135009765625,-0.9162750244140625,3231.3203945,-0.1026490524980794,0.09367453440712621,0.1517460259091547,-0.1052098125219345,0.06613873690366745,-0.003903861157596111,0.01741582900285721,-0.01135705411434174,0.06080442667007446,XArbitraryZVertical,0.07801246427289872,0.04273953034333645,-0.04755399900940727,0.9948999582421637,0.09246272593736649,-0.151164323091507,-0.9841747879981995,0,0,0,-1,-1,3230.363703125,unknown,2,2022-06-02T10:54:52.222+02:00,2022-06-02T10:17:13.754+02:00,521,1.61832,0,0,405.4342,0,0,2022-06-02T10:54:52.222+02:00,675852892.2216982,0,4.589844,101.3213,1,0.78
2022-06-02T10:54:53.194+02:00,1654160091.894676,53.22910610511361,10.39846787354745,36.81321,0.7971722,0.9622152,170.4245032643272,21.77651757265361,2.400000095367432,11.99936978251625,-9999,3231.3353855,0.1067657470703125,-0.1602020263671875,-0.9261016845703125,3231.3303885,-0.1025334665422445,0.09444518948698287,0.1510889273102026,-0.08730484545230865,0.06241004541516304,0.01836762204766273,0.005646459758281708,-0.002698794007301331,0.06792688369750977,XArbitraryZVertical,0.07770153806013824,0.04314534035547735,-0.04748315468356822,0.9949101465168526,0.09323050081729889,-0.1505147367715836,-0.9842019081115723,0,0,0,-1,-1,3230.363703125,unknown,2,2022-06-02T10:54:52.222+02:00,2022-06-02T10:17:13.754+02:00,521,1.61832,0,0,405.4342,0,0,2022-06-02T10:54:52.222+02:00,675852892.2216982,0,4.589844,101.3213,1,0.78
2022-06-02T10:54:53.204+02:00,1654160091.894676,53.22910610511361,10.39846787354745,36.81321,0.7971722,0.9622152,170.4245032643272,21.77651757265361,2.400000095367432,11.99936978251625,-9999,3231.3453795,0.1169891357421875,-0.185546875,-0.9383087158203125,3231.3403825,-0.1020963272439996,0.09497802976116546,0.150178316899858,-0.1049351394176483,0.05523755773901939,0.05105346068739891,0.01299788057804108,-0.01058760285377502,0.05818647146224976,XArbitraryZVertical,0.07725186904101139,0.04345215346902292,-0.04726826769121852,0.9949420165638658,0.09376787394285202,-0.1496144384145737,-0.9842880964279175,0,0,0,-1,-1,3230.363703125,unknown,2,2022-06-02T10:54:52.222+02:00,2022-06-02T10:17:13.754+02:00,521,1.61832,0,0,405.4342,0,0,2022-06-02T10:54:52.222+02:00,675852892.2216982,0,4.589844,101.3213,1,0.78
2022-06-02T10:54:53.214+02:00,1654160091.894676,53.22910610511361,10.39846787354745,36.81321,0.7971722,0.9622152,170.4245032643272,21.77651757265361,2.400000095367432,11.99936978251625,-9999,3231.3553735,0.10955810546875,-0.2198486328125,-0.9505462646484375,3231.3503765,-0.1013648649791257,0.09516584315143839,0.1489163641385195,-0.1336791664361954,0.03939547762274742,0.0635351687669754,0.02301854640245438,-0.03718031942844391,0.04614895582199097,XArbitraryZVertical,0.07661279343106905,0.04360791556665759,-0.04692940419493891,0.9950006866214546,0.09397059679031372,-0.1483665704727173,-0.9844576716423035,0,0,0,-1,-1,3230.363703125,unknown,2,2022-06-02T10:54:52.222+02:00,2022-06-02T10:17:13.754+02:00,521,1.61832,0,0,405.4342,0,0,2022-06-02T10:54:52.222+02:00,675852892.2216982,0,4.589844,101.3213,1,0.78
2022-06-02T10:54:53.224+02:00,1654160091.894676,53.22910610511361,10.39846787354745,36.81321,0.7971722,0.9622152,170.4245032643272,21.77651757265361,2.400000095367432,11.99936978251625,-9999,3231.3653675,0.0917510986328125,-0.23626708984375,-0.9504547119140625,3231.3603705,-0.1005573098710139,0.09518468671638383,0.1474220266707219,-0.1648120880126953,0.03104080818593502,0.0621248260140419,0.01554799824953079,-0.07296003401279449,0.03412926197052002,XArbitraryZVertical,0.07585241559996422,0.04368825482332999,-0.04656510013025563,0.9950725232508273,0.0940101146697998,-0.1468886137008667,-0.9846754670143127,0,0,0,-1,-1,3230.363703125,unknown,2,2022-06-02T10:54:52.222+02:00,2022-06-02T10:17:13.754+02:00,521,1.61832,0,0,405.4342,0,0,2022-06-02T10:54:52.222+02:00,675852892.2216982,0,4.589844,101.3213,1,0.78
2022-06-02T10:54:53.234+02:00,1654160091.894676,53.22910610511361,10.39846787354745,36.81321,0.7971722,0.9622152,170.4245032643272,21.77651757265361,2.400000095367432,11.99936978251625,-9999,3231.3753615,0.07232666015625,-0.2372283935546875,-0.9521331787109375,3231.3703645,-0.09982629431012476,0.0953993926337746,0.1459292648905045,-0.1680177301168442,0.03156464919447899,0.05186606198549271,-0.002491205930709839,-0.09085522592067719,0.03441780805587769,XArbitraryZVertical,0.07509893290377286,0.04386250441475992,-0.04623142452795035,0.9951375248227097,0.09424231201410294,-0.145411878824234,-0.9848724603652954,0,0,0,-1,-1,3230.363703125,unknown,2,2022-06-02T10:54:52.222+02:00,2022-06-02T10:17:13.754+02:00,521,1.61832,0,0,405.4342,0,0,2022-06-02T10:54:52.222+02:00,675852892.2216982,0,4.589844,101.3213,1,0.78
2022-06-02T10:54:53.244+02:00,1654160091.894676,53.22910610511361,10.39846787354745,36.81321,0.7971722,0.9622152,170.4245032643272,21.77651757265361,2.400000095367432,11.99936978251625,-9999,3231.3853555,0.064727783203125,-0.2249603271484375,-0.9527435302734375,3231.3803585,-0.09928929670094504,0.09636512273297437,0.1454816684804076,-0.1383277922868729,0.03138242289423943,0.04715978726744652,-0.02287296950817108,-0.09225939214229584,0.03271251916885376,XArbitraryZVertical,0.0748867049115826,0.04437503102936025,-0.04593951082959283,0.9951443407059657,0.09519963711500168,-0.1449690312147141,-0.9848456978797913,0,0,0,-1,-1,3230.363703125,unknown,2,2022-06-02T10:54:52.222+02:00,2022-06-02T10:17:13.754+02:00,521,1.61832,0,0,405.4342,0,0,2022-06-02T10:54:52.222+02:00,675852892.2216982,0,4.589844,101.3213,1,0.78
2022-06-02T10:54:53.254+02:00,1654160091.894676,53.22910610511361,10.39846787354745,36.81321,0.7971722,0.9622152,170.4245032643272,21.77651757265361,2.400000095367432,11.99936978251625,-9999,3231.3953505,0.0689239501953125,-0.219940185546875,-0.9400177001953125,3231.3903535,-0.09886015885201672,0.09734362834445728,0.1453504784474983,-0.09222020208835602,0.02806199342012405,0.03728585317730904,-0.03143732994794846,-0.08012111485004425,0.0320274829864502,XArbitraryZVertical,0.0748342933077101,0.04488143622568434,-0.04569275852145113,0.9951369084586522,0.09616512060165405,-0.1448392271995544,-0.9847709536552429,0,0,0,-1,-1,3230.363703125,unknown,2,2022-06-02T10:54:52.222+02:00,2022-06-02T10:17:13.754+02:00,521,1.61832,0,0,405.4342,0,0,2022-06-02T10:54:52.222+02:00,675852892.2216982,0,4.589844,101.3213,1,0.78
2022-06-02T10:54:53.264+02:00,1654160091.894676,53.22910610511361,10.39846787354745,36.81321,0.7971722,0.9622152,170.4245032643272,21.77651757265361,2.400000095367432,11.99936978251625,-9999,3231.4053445,0.085418701171875,-0.231109619140625,-0.9378204345703125,3231.4003465,-0.09850432456997532,0.09792429116813034,0.1454230890412158,-0.04791080206632614,0.01384018175303936,0.03321627527475357,-0.0278119370341301,-0.0750291496515274,0.04468679428100586,XArbitraryZVertical,0.07487562848183268,0.04518175766222968,-0.04549207703564955,0.9951294759893318,0.09673589468002319,-0.14491106569767,-0.9847044944763184,0,0,0,-1,-1,3230.363703125,unknown,2,2022-06-02T10:54:52.222+02:00,2022-06-02T10:17:13.754+02:00,521,1.61832,0,0,405.4342,0,0,2022-06-02T10:54:52.222+02:00,675852892.2216982,0,4.589844,101.3213,1,0.78
2022-06-02T10:54:53.274+02:00,1654160091.894676,53.22910610511361,10.39846787354745,36.81321,0.7971722,0.9622152,170.4245032643272,21.77651757265361,2.400000095367432,11.99936978251625,-9999,3231.4153385,0.093902587890625,-0.268463134765625,-0.9332733154296875,3231.4103415,-0.09826349890089232,0.09810484177611568,0.1455417511840406,-0.03740382939577103,-0.005687979515641928,0.0104150902479887,-0.01149328798055649,-0.08608117699623108,0.04684948921203613,XArbitraryZVertical,0.07493330966701332,0.04527749789801244,-0.0453623842305459,0.9951266376234642,0.09691199660301208,-0.1450284719467163,-0.9846699237823486,0,0,0,-1,-1,3230.363703125,unknown,2,2022-06-02T10:54:52.222+02:00,2022-06-02T10:17:13.754+02:00,521,1.61832,0,0,405.4342,0,0,2022-06-02T10:54:52.222+02:00,675852892.2216982,0,4.589844,101.3213,1,0.78
2022-06-02T10:54:53.284+02:00,1654160091.894676,53.22910610511361,10.39846787354745,36.81321,0.7971722,0.9622152,170.4245032643272,21.77651757265361,2.400000095367432,11.99936978251625,-9999,3231.4253325,0.0947113037109375,-0.286346435546875,-0.9671478271484375,3231.4203355,-0.09824157343184008,0.09819985566013346,0.1455631236920453,-0.06119288131594658,-0.02407943643629551,-0.00329146720468998,-0.003102660179138184,-0.1234135180711746,0.0513843297958374,XArbitraryZVertical,0.07494559960080015,0.045325034697546,-0.0453473551664454,0.9951242146133206,0.09700524806976318,-0.1450496166944504,-0.9846575856208801,0,0,0,-1,-1,3230.363703125,unknown,2,2022-06-02T10:54:52.222+02:00,2022-06-02T10:17:13.754+02:00,521,1.61832,0,0,405.4342,0,0,2022-06-02T10:54:52.222+02:00,675852892.2216982,0,4.589844,101.3213,1,0.78
2022-06-02T10:54:53.297+02:00,1654160092.391955,53.22882597634408,10.39865767474839,40.02237,-1,-1,-1,-1,18.63969421386719,35,-9999,3231.4353265,0.0716094970703125,-0.26171875,-1.013107299804688,3231.4303295,-0.09818036907439961,0.09824949828706471,0.1455947040395467,-0.1091074123978615,-0.0334702767431736,0.006190984509885311,-0.002342365682125092,-0.1412656009197235,0.01750040054321289,XArbitraryZVertical,0.07496103674187957,0.04535119638833929,-0.04531420933822382,0.9951234733530513,0.09705367684364319,-0.1450808644294739,-0.9846482276916504,0,0,0,-1,-1,3230.363703125,unknown,2,2022-06-02T10:54:52.222+02:00,2022-06-02T10:17:13.754+02:00,521,1.61832,0,0,405.4342,0,0,2022-06-02T10:54:52.222+02:00,675852892.2216982,0,4.589844,101.3213,1,0.78
2022-06-02T10:54:53.307+02:00,1654160092.391955,53.22882597634408,10.39865767474839,40.02237,-1,-1,-1,-1,18.63969421386719,35,-9999,3231.4453205,0.046478271484375,-0.2283935546875,-1.03045654296875,3231.4403235,-0.09814567625522881,0.09814410654912357,0.1460938017965161,-0.1181369200348854,-0.01935964822769165,-0.01814671233296394,-0.02533330023288727,-0.1161441057920456,-0.02852100133895874,XArbitraryZVertical,0.07520611144790702,0.04528697555555698,-0.04528781559579124,0.995109040413969,0.09694279730319977,-0.1455746591091156,-0.984586238861084,0,0,0,-1,-1,3230.363703125,unknown,2,2022-06-02T10:54:52.222+02:00,2022-06-02T10:17:13.754+02:00,521,1.61832,0,0,405.4342,0,0,2022-06-02T10:54:52.222+02:00,675852892.2216982,0,4.589844,101.3213,1,0.78
2022-06-02T10:54:53.314+02:00,1654160092.391955,53.22882597634408,10.39865767474839,40.02237,-1,-1,-1,-1,18.63969421386719,35,-9999,3231.4553145,0.0414886474609375,-0.2114410400390625,-1.036590576171875,3231.4503175,-0.09828193245398312,0.09783088193409975,0.1471960701302808,-0.09545478224754333,0.002419415162876248,-0.03498534858226776,-0.050140380859375,-0.08172847330570221,-0.04600024223327637,XArbitraryZVertical,0.07575032474583515,0.04509706447029637,-0.04533856244766565,0.9950741238225463,0.09661866724491119,-0.1466651111841202,-0.9844563007354736,0,0,0,-1,-1,3230.363703125,unknown,2,2022-06-02T10:54:52.222+02:00,2022-06-02T10:17:13.754+02:00,521,1.61832,0,0,405.4342,0,0,2022-06-02T10:54:52.222+02:00,675852892.2216982,0,4.589844,101.3213,1,0.78
2022-06-02T10:54:53.324+02:00,1654160092.391955,53.22882597634408,10.39865767474839,40.02237,-1,-1,-1,-1,18.63969421386719,35,-9999,3231.4653085,0.0488128662109375,-0.2171478271484375,-1.030166625976562,3231.4603115,-0.09846198012611282,0.09725114534649423,0.1486830181746409,-0.06595827639102936,0.01592537201941013,-0.04003523290157318,-0.05453798919916153,-0.06330525875091553,-0.05229657888412476,XArbitraryZVertical,0.07648074414518746,0.04476269023202038,-0.04541140155605179,0.9950300851409252,0.09602664411067963,-0.1481358110904694,-0.9842939972877502,0,0,0,-1,-1,3230.363703125,unknown,2,2022-06-02T10:54:52.222+02:00,2022-06-02T10:17:13.754+02:00,521,1.61832,0,0,405.4342,0,0,2022-06-02T10:54:52.222+02:00,675852892.2216982,0,4.589844,101.3213,1,0.78
2022-06-02T10:54:53.334+02:00,1654160092.391955,53.22882597634408,10.39865767474839,40.02237,-1,-1,-1,-1,18.63969421386719,35,-9999,3231.4753025,0.065704345703125,-0.23187255859375,-1.019638061523438,3231.4703055,-0.09874926024867846,0.09672395622352288,0.1497771882091391,-0.07103905826807022,0.02315958216786385,-0.05454679951071739,-0.04667913913726807,-0.06793002784252167,-0.04598402976989746,XArbitraryZVertical,0.07701933149700346,0.04446055850486674,-0.04554613729013256,0.9949958623091983,0.09549201279878616,-0.149217814207077,-0.9841825366020203,0,0,0,-1,-1,3230.363703125,unknown,2,2022-06-02T10:54:52.222+02:00,2022-06-02T10:17:13.754+02:00,521,1.61832,0,0,405.4342,0,0,2022-06-02T10:54:52.222+02:00,675852892.2216982,0,4.589844,101.3213,1,0.78
2022-06-02T10:54:53.344+02:00,1654160092.391955,53.22882597634408,10.39865767474839,40.02237,-1,-1,-1,-1,18.63969421386719,35,-9999,3231.4852965,0.0747833251953125,-0.2300262451171875,-1.00128173828125,3231.4802995,-0.09918272043007445,0.09638279035280195,0.1504808274723223,-0.1020006686449051,0.02450081519782543,-0.06469804048538208,-0.02944175153970718,-0.08195903897285461,-0.03552770614624023,XArbitraryZVertical,0.07737108264355494,0.04425549500607241,-0.0457567333136233,0.9949680939151653,0.09514610469341278,-0.1499135494232178,-0.9841103553771973,0,0,0,-1,-1,3230.363703125,unknown,2,2022-06-02T10:54:52.222+02:00,2022-06-02T10:17:13.754+02:00,521,1.61832,0,0,405.4342,0,0,2022-06-02T10:54:52.222+02:00,675852892.2216982,0,4.589844,101.3213,1,0.78
2022-06-02T10:54:53.354+02:00,1654160092.391955,53.22882597634408,10.39865767474839,40.02237,-1,-1,-1,-1,18.63969421386719,35,-9999,3231.4952905,0.0760955810546875,-0.2122802734375,-0.9896240234375,3231.4902935,-0.09965495735717554,0.0963334130989396,0.1511745856715123,-0.1180328950285912,0.0211231280118227,-0.06215951219201088,-0.02030415087938309,-0.0794268399477005,-0.01727044582366943,XArbitraryZVertical,0.07772539802032528,0.04419419755622529,-0.04597564058326644,0.9949330751951394,0.09508749097585678,-0.1505994200706482,-0.9840112924575806,0,0,0,-1,-1,3230.363703125,unknown,2,2022-06-02T10:54:52.222+02:00,2022-06-02T10:17:13.754+02:00,521,1.61832,0,0,405.4342,0,0,2022-06-02T10:54:52.222+02:00,675852892.2216982,0,4.589844,101.3213,1,0.78
2022-06-02T10:54:53.364+02:00,1654160092.391955,53.22882597634408,10.39865767474839,40.02237,-1,-1,-1,-1,18.63969421386719,35,-9999,3231.5052845,0.0764923095703125,-0.19097900390625,-0.97894287109375,3231.5002875,-0.1001679722372665,0.09628142949452792,0.152940142851951,-0.08406829833984375,0.006364888045936823,-0.06794968992471695,-0.01891503483057022,-0.05993568897247314,-0.005873978137969971,XArbitraryZVertical,0.07861347476575502,0.04410116072431492,-0.04618720912489656,0.9948576254281204,0.09501062333583832,-0.1523446142673492,-0.98375004529953,0,0,0,-1,-1,3230.363703125,unknown,2,2022-06-02T10:54:52.222+02:00,2022-06-02T10:17:13.754+02:00,521,1.61832,0,0,405.4342,0,0,2022-06-02T10:54:52.222+02:00,675852892.2216982,0,4.589844,101.3213,1,0.78
2022-06-02T10:54:53.374+02:00,1654160092.391955,53.22882597634408,10.39865767474839,40.02237,-1,-1,-1,-1,18.63969421386719,35,-9999,3231.5152785,0.0765533447265625,-0.1807098388671875,-0.9837493896484375,3231.5102815,-0.1007542501943704,0.09596144676907101,0.1554648083171064,-0.0309441015124321,-0.007692873477935791,-0.07057769596576691,-0.01816636323928833,-0.03613971173763275,0.004451513290405273,XArbitraryZVertical,0.07987426409642069,0.04385098466545703,-0.04642623817418391,0.9947571529392693,0.09465868771076202,-0.1548393219709396,-0.9833943843841553,0,0,0,-1,-1,3230.363703125,unknown,2,2022-06-02T10:54:52.222+02:00,2022-06-02T10:17:13.754+02:00,521,1.61832,0,0,405.4342,0,0,2022-06-02T10:54:52.222+02:00,675852892.2216982,0,4.589844,101.3213,1,0.78
2022-06-02T10:54:53.384+02:00,1654160092.391955,53.22882597634408,10.39865767474839,40.02237,-1,-1,-1,-1,18.63969421386719,35,-9999,3231.5252725,0.0707550048828125,-0.1766357421875,-1.014862060546875,3231.5202755,-0.1012981904787932,0.09485530285060041,0.1578409984463745,0.02659003250300884,-0.0157872848212719,-0.06914278864860535,-0.01698239147663116,-0.02352344989776611,-0.0006199479103088379,XArbitraryZVertical,0.08104172575512369,0.0432147864093489,-0.04668017114159655,0.9946787131340467,0.09353573620319366,-0.1571864187717438,-0.9831294417381287,0,0,0,-1,-1,3230.363703125,unknown,2,2022-06-02T10:54:52.222+02:00,2022-06-02T10:17:13.754+02:00,521,1.61832,0,0,405.4342,0,0,2022-06-02T10:54:52.222+02:00,675852892.2216982,0,4.589844,101.3213,1,0.78
2022-06-02T10:54:53.394+02:00,1654160092.391955,53.22882597634408,10.39865767474839,40.02237,-1,-1,-1,-1,18.63969421386719,35,-9999,3231.5352665,0.056427001953125,-0.1857147216796875,-1.031280517578125,3231.5302695,-0.1016437105091494,0.09315151207271115,0.1596547900689772,0.01476532965898514,0.0007850333349779248,-0.04677436128258705,-0.02107886970043182,-0.01765836775302887,-0.03186017274856567,XArbitraryZVertical,0.08191097036938892,0.04230419446634475,-0.04687535309342095,0.9946374938345809,0.09183388948440552,-0.1589773893356323,-0.9830018877983093,0,0,0,-1,-1,3230.363703125,unknown,2,2022-06-02T10:54:52.222+02:00,2022-06-02T10:17:13.754+02:00,521,1.61832,0,0,405.4342,0,0,2022-06-02T10:54:52.222+02:00,675852892.2216982,0,4.589844,101.3213,1,0.78
2022-06-02T10:54:53.404+02:00,1654160092.391955,53.22882597634408,10.39865767474839,40.02237,-1,-1,-1,-1,18.63969421386719,35,-9999,3231.5452605,0.0427093505859375,-0.22955322265625,-1.026336669921875,3231.5402635,-0.101796837029156,0.09167556519122401,0.1606118125601719,-0.038343396037817,0.03394198790192604,-0.04502979293465614,-0.03394194692373276,-0.02579256892204285,-0.04829609394073486,XArbitraryZVertical,0.08235531425508542,0.04153790740517914,-0.0469881730872557,0.994627711995351,0.09036895632743835,-0.1599221676588058,-0.9829844236373901,0,0,0,-1,-1,3230.363703125,unknown,2,2022-06-02T10:54:52.222+02:00,2022-06-02T10:17:13.754+02:00,521,1.61832,0,0,405.4342,0,0,2022-06-02T10:54:52.222+02:00,675852892.2216982,0,4.589844,101.3213,1,0.78
2022-06-02T10:54:53.414+02:00,1654160092.391955,53.22882597634408,10.39865767474839,40.02237,-1,-1,-1,-1,18.63969421386719,35,-9999,3231.5552545,0.0472564697265625,-0.237640380859375,-1.007354736328125,3231.5502575,-0.101935122292176,0.09078319396608195,0.1610195357079467,-0.1112655401229858,0.07115407288074493,-0.03402002155780792,-0.04677646607160568,-0.06922860443592072,-0.04333698749542236,XArbitraryZVertical,0.08253987062388721,0.04107733689407272,-0.04708364309927912,0.9946270644947289,0.08948581665754318,-0.1603246331214905,-0.9829996228218079,0,0,0,-1,-1,3230.363703125,unknown,2,2022-06-02T10:54:52.222+02:00,2022-06-02T10:17:13.754+02:00,521,1.61832,0,0,405.4342,0,0,2022-06-02T10:54:52.222+02:00,675852892.2216982,0,4.589844,101.3213,1,0.78
2022-06-02T10:54:53.424+02:00,1654160092.391955,53.22882597634408,10.39865767474839,40.02237,-1,-1,-1,-1,18.63969421386719,35,-9999,3231.5652485,0.05609130859375,-0.2212371826171875,-0.9876556396484375,3231.5602515,-0.1018421051066555,0.09078188586465605,0.1608547276645436,-0.1677855104207993,0.09066791832447052,0.0009296434000134468,-0.04223044216632843,-0.07747843861579895,-0.02432864904403687,XArbitraryZVertical,0.08245600171464106,0.04108500302326577,-0.04704149890786698,0.9946356579564044,0.08948692679405212,-0.1601619571447372,-0.9830260872840881,0,0,0,-1,-1,3230.363703125,unknown,2,2022-06-02T10:54:52.222+02:00,2022-06-02T10:17:13.754+02:00,521,1.61832,0,0,405.4342,0,0,2022-06-02T10:54:52.222+02:00,675852892.2216982,0,4.589844,101.3213,1,0.78
2022-06-02T10:54:53.434+02:00,1654160092.391955,53.22882597634408,10.39865767474839,40.02237,-1,-1,-1,-1,18.63969421386719,35,-9999,3231.5752425,0.0588226318359375,-0.2126007080078125,-0.9657135009765625,3231.5702455,-0.1015278831933739,0.09121114811314252,0.1602393352757767,-0.1788506656885147,0.09306662529706955,0.010349509306252,-0.03382653743028641,-0.06168273091316223,-0.004570126533508301,XArbitraryZVertical,0.08215366904245421,0.04132810656160849,-0.04688274668154452,0.9946581362068263,0.089917853474617,-0.1595544815063477,-0.9830855131149292,0,0,0,-1,-1,3230.363703125,unknown,2,2022-06-02T10:54:52.222+02:00,2022-06-02T10:17:13.754+02:00,521,1.61832,0,0,405.4342,0,0,2022-06-02T10:54:52.222+02:00,675852892.2216982,0,4.589844,101.3213,1,0.78
2022-06-02T10:54:53.444+02:00,1654160092.391955,53.22882597634408,10.39865767474839,40.02237,-1,-1,-1,-1,18.63969421386719,35,-9999,3231.5852365,0.0590362548828125,-0.2217559814453125,-0.939361572265625,3231.5802395,-0.1011611565884339,0.091592518144939,0.1593180592987767,-0.1756301075220108,0.07215362042188644,0.02116433903574944,-0.03148353844881058,-0.0539558082818985,0.01748365163803101,XArbitraryZVertical,0.08169697979919849,0.04155770955017846,-0.0467075488915864,0.9946944003093178,0.09030617028474808,-0.1586449444293976,-0.9831970930099487,0,0,0,-1,-1,3230.363703125,unknown,2,2022-06-02T10:54:52.222+02:00,2022-06-02T10:17:13.754+02:00,521,1.61832,0,0,405.4342,0,0,2022-06-02T10:54:52.222+02:00,675852892.2216982,0,4.589844,101.3213,1,0.78
2022-06-02T10:54:53.454+02:00,1654160092.391955,53.22882597634408,10.39865767474839,40.02237,-1,-1,-1,-1,18.63969421386719,35,-9999,3231.5952305,0.0532684326171875,-0.2346343994140625,-0.91876220703125,3231.5902335,-0.1006916945435822,0.09181995537765815,0.1581774866824723,-0.1848861873149872,0.06863026320934296,0.02683580666780472,-0.03151005506515503,-0.06423729658126831,0.04399454593658447,XArbitraryZVertical,0.08112544027660142,0.04172065337151964,-0.04649310311444167,0.9947443913710619,0.09054631739854813,-0.1575187146663666,-0.9833561182022095,0,0,0,-1,-1,3230.363703125,unknown,2,2022-06-02T10:54:52.222+02:00,2022-06-02T10:17:13.754+02:00,521,1.61832,0,0,405.4342,0,0,2022-06-02T10:54:52.222+02:00,675852892.2216982,0,4.589844,101.3213,1,0.78
2022-06-02T10:54:53.464+02:00,1654160092.391955,53.22882597634408,10.39865767474839,40.02237,-1,-1,-1,-1,18.63969421386719,35,-9999,3231.6052245,0.05572509765625,-0.223358154296875,-0.9188385009765625,3231.6002275,-0.1001097550365723,0.09186694277728844,0.1568972968921706,-0.1849500089883804,0.05716315656900406,0.03899267315864563,-0.03734250366687775,-0.0783800482749939,0.06478965282440186,XArbitraryZVertical,0.08047786243956158,0.04180183158099451,-0.04623353717406205,0.9948056504266646,0.09061095118522644,-0.1562543660402298,-0.9835518598556519,0,0,0,-1,-1,3230.363703125,unknown,2,2022-06-02T10:54:52.222+02:00,2022-06-02T10:17:13.754+02:00,521,1.61832,0,0,405.4342,0,0,2022-06-02T10:54:52.222+02:00,675852892.2216982,0,4.589844,101.3213,1,0.78
2022-06-02T10:54:53.474+02:00,1654160092.391955,53.22882597634408,10.39865767474839,40.02237,-1,-1,-1,-1,18.63969421386719,35,-9999,3231.6152185,0.06292724609375,-0.2057037353515625,-0.908172607421875,3231.6102215,-0.09951137836867413,0.09165081824319336,0.1555362082878427,-0.1549606770277023,0.03308897837996483,0.02826412953436375,-0.03469264507293701,-0.06844832003116608,0.06494379043579102,XArbitraryZVertical,0.07978359562250703,0.04175454508177808,-0.04597827830292982,0.994875324890673,0.09041775763034821,-0.1549098640680313,-0.9837822914123535,0,0,0,-1,-1,3230.363703125,unknown,2,2022-06-02T10:54:52.222+02:00,2022-06-02T10:17:13.754+02:00,521,1.61832,0,0,405.4342,0,0,2022-06-02T10:54:52.222+02:00,675852892.2216982,0,4.589844,101.3213,1,0.78
2022-06-02T10:54:53.484+02:00,1654160092.391955,53.22882597634408,10.39865767474839,40.02237,-1,-1,-1,-1,18.63969421386719,35,-9999,3231.6252125,0.080841064453125,-0.214141845703125,-0.8921966552734375,3231.6202155,-0.09905600543070944,0.0908731021581497,0.1546189981341586,-0.1074473261833191,-0.01228056754916906,0.01111410465091467,-0.02673822641372681,-0.05170010030269623,0.07582080364227295,XArbitraryZVertical,0.07930016620278425,0.04141005831116812,-0.04580527012393135,0.9949364498715256,0.089665487408638,-0.1540036499500275,-0.9839934110641479,0,0,0,-1,-1,3230.363703125,unknown,2,2022-06-02T10:54:52.222+02:00,2022-06-02T10:17:13.754+02:00,521,1.61832,0,0,405.4342,0,0,2022-06-02T10:54:52.222+02:00,675852892.2216982,0,4.589844,101.3213,1,0.78
2022-06-02T10:54:53.494+02:00,1654160092.391955,53.22882597634408,10.39865767474839,40.02237,-1,-1,-1,-1,18.63969421386719,35,-9999,3231.6352065,0.0889129638671875,-0.244293212890625,-0.8867340087890625,3231.6302095,-0.0988080618250021,0.08954063021812488,0.1545375075076161,-0.08564350008964539,-0.06613314896821976,-0.006889664102345705,-0.007514312863349915,-0.06021872162818909,0.09192788600921631,XArbitraryZVertical,0.07922405552784618,0.04075915941216526,-0.04573671711158286,0.9949725125674228,0.08835538476705551,-0.1539231389760971,-0.984124481678009,0,0,0,-1,-1,3230.363703125,unknown,2,2022-06-02T10:54:52.222+02:00,2022-06-02T10:17:13.754+02:00,521,1.61832,0,0,405.4342,0,0,2022-06-02T10:54:52.222+02:00,675852892.2216982,0,4.589844,101.3213,1,0.78
2022-06-02T10:54:53.504+02:00,1654160092.391955,53.22882597634408,10.39865767474839,40.02237,-1,-1,-1,-1,18.63969421386719,35,-9999,3231.6452005,0.071563720703125,-0.2734832763671875,-0.8800811767578125,3231.6402035,-0.09879722240262635,0.088076200393059,0.1543596102716257,-0.1247946619987488,-0.08881775289773941,-0.03365782648324966,0.001996457576751709,-0.09054587781429291,0.09754610061645508,XArbitraryZVertical,0.07910185649153158,0.04003572160031357,-0.04579356051978684,0.9950089587339298,0.08691651374101639,-0.1537473499774933,-0.9842800498008728,0,0,0,-1,-1,3230.363703125,unknown,2,2022-06-02T10:54:52.222+02:00,2022-06-02T10:17:13.754+02:00,521,1.61832,0,0,405.4342,0,0,2022-06-02T10:54:52.222+02:00,675852892.2216982,0,4.589844,101.3213,1,0.78
2022-06-02T10:54:53.514+02:00,1654160092.391955,53.22882597634408,10.39865767474839,40.02237,-1,-1,-1,-1,18.63969421386719,35,-9999,3231.6551945,0.03192138671875,-0.3000030517578125,-0.868865966796875,3231.6501975,-0.099146289179773,0.08675700122495714,0.1533669515807891,-0.1963309049606323,-0.1000019609928131,-0.08345121145248413,-0.01406743377447128,-0.1207168847322464,0.1044642925262451,XArbitraryZVertical,0.07858479365351471,0.03939175285572036,-0.04604271137854162,0.9950642002713104,0.08563116192817688,-0.1527664214372635,-0.9845454692840576,0,0,0,-1,-1,3230.363703125,unknown,2,2022-06-02T10:54:52.222+02:00,2022-06-02T10:17:13.754+02:00,521,1.61832,0,0,405.4342,0,0,2022-06-02T10:54:52.222+02:00,675852892.2216982,0,4.589844,101.3213,1,0.78
2022-06-02T10:54:53.524+02:00,1654160092.391955,53.22882597634408,10.39865767474839,40.02237,-1,-1,-1,-1,18.63969421386719,35,-9999,3231.6651885,-0.0092010498046875,-0.3292388916015625,-0.84051513671875,3231.6601915,-0.1000917583796985,0.08559032154178932,0.1511852387604882,-0.3383629620075226,-0.1003281325101852,-0.1614070683717728,-0.05258935689926147,-0.1493931114673615,0.1161084771156311,XArbitraryZVertical,0.0774910971085504,0.03883205129739729,-0.0466095741716223,0.9951455944396871,0.08451074361801147,-0.1506099551916122,-0.9849743843078613,0,0,0,-1,-1,3230.363703125,unknown,2,2022-06-02T10:54:52.222+02:00,2022-06-02T10:17:13.754+02:00,521,1.61832,0,0,405.4342,0,0,2022-06-02T10:54:52.222+02:00,675852892.2216982,0,4.589844,101.3213,1,0.78
2022-06-02T10:54:53.534+02:00,1654160092.391955,53.22882597634408,10.39865767474839,40.02237,-1,-1,-1,-1,18.63969421386719,35,-9999,3231.6751825,-0.0338897705078125,-0.370391845703125,-0.7923431396484375,3231.6701855,-0.1016775095355037,0.08463429635581893,0.1471151503197524,-0.5674453973770142,-0.0924675464630127,-0.2381199598312378,-0.09282121062278748,-0.1826538592576981,0.1451422572135925,XArbitraryZVertical,0.07547457039072651,0.0384043603466854,-0.04752907645140858,0.9952736759146114,0.08362016826868057,-0.1465850621461868,-0.9856573939323425,0,0,0,-1,-1,3230.363703125,unknown,2,2022-06-02T10:54:52.222+02:00,2022-06-02T10:17:13.754+02:00,521,1.61832,0,0,405.4342,0,0,2022-06-02T10:54:52.222+02:00,675852892.2216982,0,4.589844,101.3213,1,0.78
2022-06-02T10:54:53.544+02:00,1654160092.391955,53.22882597634408,10.39865767474839,40.02237,-1,-1,-1,-1,18.63969421386719,35,-9999,3231.6851765,-0.050872802734375,-0.400909423828125,-0.7408905029296875,3231.6801795,-0.1037166577837194,0.08383668956098191,0.1399442389486951,-0.952057957649231,-0.0907929539680481,-0.3007053136825562,-0.1168096289038658,-0.2309039682149887,0.1944027543067932,XArbitraryZVertical,0.07192660215971494,0.03812645734906615,-0.04873689765742002,0.9954886310637272,0.08291986584663391,-0.1394878923892975,-0.9867458939552307,0,0,0,-1,-1,3230.363703125,unknown,2,2022-06-02T10:54:52.222+02:00,2022-06-02T10:17:13.754+02:00,521,1.61832,0,0,405.4342,0,0,2022-06-02T10:54:52.222+02:00,675852892.2216982,0,4.589844,101.3213,1,0.78
2022-06-02T10:54:53.554+02:00,1654160092.391955,53.22882597634408,10.39865767474839,40.02237,-1,-1,-1,-1,18.63969421386719,35,-9999,3231.6951705,-0.0697479248046875,-0.4148406982421875,-0.6981048583984375,3231.6901735,-0.1060558740226473,0.08315818129616555,0.1277895265994593,-1.442486763000488,-0.09597200155258179,-0.3700726628303528,-0.1332578659057617,-0.2734674513339996,0.247528076171875,XArbitraryZVertical,0.06590512792948423,0.03804259097824513,-0.05019883372565524,0.9958359692700021,0.08238508552312851,-0.1274420022964478,-0.9884185791015625,0,0,0,-1,-1,3230.363703125,unknown,2,2022-06-02T10:54:52.222+02:00,2022-06-02T10:17:13.754+02:00,521,1.61832,0,0,405.4342,0,0,2022-06-02T10:54:52.222+02:00,675852892.2216982,0,4.589844,101.3213,1,0.78
2022-06-02T10:54:53.564+02:00,1654160092.391955,53.22882597634408,10.39865767474839,40.02237,-1,-1,-1,-1,18.63969421386719,35,-9999,3231.7051645,-0.1132659912109375,-0.4813690185546875,-0.5859527587890625,3231.7001675,-0.1088059812543762,0.08224687767379213,0.1103987971492122,-2.010287523269653,-0.1565311551094055,-0.4897868633270264,-0.1514019668102264,-0.3046660423278809,0.2924476265907288,XArbitraryZVertical,0.05727526986970985,0.0379910290506164,-0.05198259453950373,0.9962801025085953,0.08165404945611954,-0.1101746782660484,-0.9905524253845215,0,0,0,-1,-1,3230.363703125,unknown,2,2022-06-02T10:54:52.222+02:00,2022-06-02T10:17:13.754+02:00,521,1.61832,0,0,405.4342,0,0,2022-06-02T10:54:52.222+02:00,675852892.2216982,0,4.589844,101.3213,1,0.78
2022-06-02T10:54:53.574+02:00,1654160092.391955,53.22882597634408,10.39865767474839,40.02237,-1,-1,-1,-1,18.63969421386719,35,-9999,3231.7151585,-0.2537994384765625,-0.6024932861328125,-0.5334014892578125,3231.7101615,-0.1143436985486166,0.08075685179760234,0.08654367661117685,-2.658316135406494,-0.182629331946373,-0.9945062398910522,-0.1936331689357758,-0.3949333727359772,0.4070578217506409,XArbitraryZVertical,0.04545692111047876,0.03779397711589087,-0.05529731341587421,0.9967183550571772,0.08036719262599945,-0.08643568307161331,-0.9930105805397034,0,0,0,-1,-1,3230.363703125,unknown,2,2022-06-02T10:54:52.222+02:00,2022-06-02T10:17:13.754+02:00,521,1.61832,0,0,405.4342,0,0,2022-06-02T10:54:52.222+02:00,675852892.2216982,0,4.589844,101.3213,1,0.78
2022-06-02T10:54:53.584+02:00,1654160092.391955,53.22882597634408,10.39865767474839,40.02237,-1,-1,-1,-1,18.63969421386719,35,-9999,3231.7251525,-0.201507568359375,-0.543304443359375,-0.534210205078125,3231.7201555,-0.1218538679309087,0.07950194722051176,0.05616862262454712,-3.295449256896973,-0.1839957386255264,-1.004203915596008,-0.3330924212932587,-0.5463542342185974,0.4618678689002991,XArbitraryZVertical,0.03042519264428777,0.03794267123609237,-0.0597032901597651,0.9970306200259168,0.07929297536611557,-0.05613909289240837,-0.9952692985534668,0,0,0,-1,-1,3230.363703125,unknown,2,2022-06-02T10:54:52.222+02:00,2022-06-02T10:17:13.754+02:00,521,1.61832,0,0,405.4342,0,0,2022-06-02T10:54:52.222+02:00,675852892.2216982,0,4.589844,101.3213,1,0.78
2022-06-02T10:54:53.594+02:00,1654160092.391955,53.22882597634408,10.39865767474839,40.02237,-1,-1,-1,-1,18.63969421386719,35,-9999,3231.7351465,-0.28179931640625,-0.4957427978515625,-0.5381927490234375,3231.7301495,-0.1302188303405718,0.07744640021679959,0.01934027660795234,-3.906702280044556,-0.2821382582187653,-1.237598657608032,-0.2788620889186859,-0.5239654183387756,0.462605893611908,XArbitraryZVertical,0.01216098243386978,0.03800100049670389,-0.06463804735298055,0.9971107189885428,0.07735453546047211,-0.0193390715867281,-0.996816098690033,0,0,0,-1,-1,3230.363703125,unknown,2,2022-06-02T10:54:52.222+02:00,2022-06-02T10:17:13.754+02:00,521,1.61832,0,0,405.4342,0,0,2022-06-02T10:54:52.222+02:00,675852892.2216982,0,4.589844,101.3213,1,0.78
2022-06-02T10:54:53.604+02:00,1654160092.391955,53.22882597634408,10.39865767474839,40.02237,-1,-1,-1,-1,18.63969421386719,35,-9999,3231.7451405,-0.37713623046875,-0.4368896484375,-0.6018218994140625,3231.7401435,-0.1406693626350833,0.07417239479093052,-0.02278108569705414,-4.314695835113525,-0.3611695766448975,-1.494210004806519,-0.3558844923973083,-0.5185219645500183,0.4587990045547485,XArbitraryZVertical,-0.008748792588571138,0.03778354879426849,-0.07064511258359193,0.996747206828264,0.07408517599105835,0.02277911454439163,-0.996991753578186,0,0,0,-1,-1,3230.363703125,unknown,2,2022-06-02T10:54:52.222+02:00,2022-06-02T10:17:13.754+02:00,521,1.61832,0,0,405.4342,0,0,2022-06-02T10:54:52.222+02:00,675852892.2216982,0,4.589844,101.3213,1,0.78
2022-06-02T10:54:53.614+02:00,1654160092.391955,53.22882597634408,10.39865767474839,40.02237,-1,-1,-1,-1,18.63969421386719,35,-9999,3231.7551345,-0.4543609619140625,-0.385986328125,-0.674652099609375,3231.7501375,-0.1538166626888169,0.06964979181405839,-0.06818316997245964,-4.551814079284668,-0.4238540232181549,-1.775014162063599,-0.4465680122375488,-0.5050200223922729,0.3934355974197388,XArbitraryZVertical,-0.03129003165032338,0.0373120125484338,-0.07792459199681565,0.9957692960295522,0.06943178921937943,0.06813035160303116,-0.9952574968338013,0,0,0,-1,-1,3230.363703125,unknown,2,2022-06-02T10:54:52.222+02:00,2022-06-02T10:17:13.754+02:00,521,1.61832,0,0,405.4342,0,0,2022-06-02T10:54:52.222+02:00,675852892.2216982,0,4.589844,101.3213,1,0.78
2022-06-02T10:54:53.624+02:00,1654160092.391955,53.22882597634408,10.39865767474839,40.02237,-1,-1,-1,-1,18.63969421386719,35,-9999,3231.7651285,-0.5438232421875,-0.328765869140625,-0.79071044921875,3231.7601315,-0.1696997837326716,0.06364432918768588,-0.1153660202467647,-4.644645214080811,-0.4726594388484955,-2.003557205200195,-0.5175395607948303,-0.5010966658592224,0.3166894912719727,XArbitraryZVertical,-0.0547226109949204,0.03653294529591668,-0.08639199947844341,0.9940861094098566,0.06317859888076782,0.1151102855801582,-0.9913415312767029,0,0,0,-1,-1,3230.363703125,unknown,2,2022-06-02T10:54:52.222+02:00,2022-06-02T10:17:13.754+02:00,521,1.61832,0,0,405.4342,0,0,2022-06-02T10:54:52.222+02:00,675852892.2216982,0,4.589844,101.3213,1,0.78
2022-06-02T10:54:53.634+02:00,1654160092.391955,53.22882597634408,10.39865767474839,40.02237,-1,-1,-1,-1,18.63969421386719,35,-9999,3231.7751225,-0.627349853515625,-0.2851104736328125,-0.85467529296875,3231.7701255,-0.188196300386895,0.05642967616269824,-0.1628223321628851,-4.610413074493408,-0.4459039866924286,-2.233348846435547,-0.5994769930839539,-0.4908697605133057,0.1944925785064697,XArbitraryZVertical,-0.07828736555890789,0.03563111952000853,-0.09589488998702962,0.9916681064614851,0.05565377324819565,0.1621038466691971,-0.9852030277252197,0,0,0,-1,-1,3230.363703125,unknown,2,2022-06-02T10:54:52.222+02:00,2022-06-02T10:17:13.754+02:00,521,1.61832,0,0,405.4342,0,0,2022-06-02T10:54:52.222+02:00,675852892.2216982,0,4.589844,101.3213,1,0.78
2022-06-02T10:54:53.644+02:00,1654160092.391955,53.22882597634408,10.39865767474839,40.02237,-1,-1,-1,-1,18.63969421386719,35,-9999,3231.7851165,-0.684173583984375,-0.3013763427734375,-0.895782470703125,3231.7801195,-0.209942712618492,0.04827604980626737,-0.2095688294835096,-4.520467758178711,-0.3729294240474701,-2.533008098602295,-0.6745513081550598,-0.4931486845016479,0.1223058104515076,XArbitraryZVertical,-0.1014717138306729,0.03482707823714902,-0.1066841580533263,0.9884882189125059,0.04720146581530571,0.2080381810665131,-0.9769811034202576,0,0,0,-1,-1,3230.363703125,unknown,2,2022-06-02T10:54:52.222+02:00,2022-06-02T10:17:13.754+02:00,521,1.61832,0,0,405.4342,0,0,2022-06-02T10:54:52.222+02:00,675852892.2216982,0,4.589844,101.3213,1,0.78
2022-06-02T10:54:53.654+02:00,1654160092.391955,53.22882597634408,10.39865767474839,40.02237,-1,-1,-1,-1,18.63969421386719,35,-9999,3231.7951105,-0.73016357421875,-0.33856201171875,-0.91802978515625,3231.7901135,-0.2355444067425732,0.03907577240448455,-0.2553248680219283,-4.411057472229004,-0.2747940719127655,-2.840111255645752,-0.7219729423522949,-0.5539361834526062,0.07106024026870728,XArbitraryZVertical,-0.124133002950915,0.03420021100291976,-0.1189917947337352,0.9845112234187552,0.03779936581850052,0.2525597512722015,-0.9668427109718323,0,0,0,-1,-1,3230.363703125,unknown,2,2022-06-02T10:54:52.222+02:00,2022-06-02T10:17:13.754+02:00,521,1.61832,0,0,405.4342,0,0,2022-06-02T10:54:52.222+02:00,675852892.2216982,0,4.589844,101.3213,1,0.78
2022-06-02T10:54:53.664+02:00,1654160092.391955,53.22882597634408,10.39865767474839,40.02237,-1,-1,-1,-1,18.63969421386719,35,-9999,3231.8051045,-0.764068603515625,-0.288177490234375,-0.8813629150390625,3231.8001075,-0.2647313324665551,0.02905100940538216,-0.2999227977665539,-4.336406230926514,-0.1208233535289764,-3.070151090621948,-0.7579138278961182,-0.634008526802063,0.03692638874053955,XArbitraryZVertical,-0.1461819809508116,0.03395200034741042,-0.1326355495250498,0.9797376029517574,0.02775024808943272,0.2954464554786682,-0.9549561738967896,0,0,0,-1,-1,3230.363703125,unknown,2,2022-06-02T10:54:52.222+02:00,2022-06-02T10:17:13.754+02:00,521,1.61832,0,0,405.4342,0,0,2022-06-02T10:54:52.222+02:00,675852892.2216982,0,4.589844,101.3213,1,0.78
2022-06-02T10:54:53.674+02:00,1654160092.391955,53.22882597634408,10.39865767474839,40.02237,-1,-1,-1,-1,18.63969421386719,35,-9999,3231.8150985,-0.77435302734375,-0.220916748046875,-0.8731536865234375,3231.8101015,-0.2969467926681981,0.01851162974631174,-0.3438245074947244,-4.321680068969727,0.06155151128768921,-3.243555068969727,-0.7814957499504089,-0.6252678036689758,0.0599481463432312,XArbitraryZVertical,-0.1678284237471962,0.03432348289181418,-0.147307632034334,0.9741436743176481,0.01742719300091267,0.3370902240276337,-0.9413110613822937,0,0,0,-1,-1,3230.363703125,unknown,2,2022-06-02T10:54:52.222+02:00,2022-06-02T10:17:13.754+02:00,521,1.61832,0,0,405.4342,0,0,2022-06-02T10:54:52.222+02:00,675852892.2216982,0,4.589844,101.3213,1,0.78
2022-06-02T10:54:53.684+02:00,1654160092.391955,53.22882597634408,10.39865767474839,40.02237,-1,-1,-1,-1,18.63969421386719,35,-9999,3231.8250925,-0.764404296875,-0.1467742919921875,-0.86785888671875,3231.8200955,-0.3317882378606721,0.007777082004289234,-0.3879358067099542,-4.458452224731445,0.2900022566318512,-3.375301837921143,-0.7815521359443665,-0.5991952419281006,0.05251020193099976,XArbitraryZVertical,-0.1894760690030475,0.0355932519998845,-0.1627755118714957,0.967644615320628,0.007199109066277742,0.3782784044742584,-0.9256638884544373,0,0,0,-1,-1,3230.363703125,unknown,2,2022-06-02T10:54:52.222+02:00,2022-06-02T10:17:13.754+02:00,521,1.61832,0,0,405.4342,0,0,2022-06-02T10:54:52.222+02:00,675852892.2216982,0,4.589844,101.3213,1,0.78
2022-06-02T10:54:53.694+02:00,1654160092.391955,53.22882597634408,10.39865767474839,40.02237,-1,-1,-1,-1,18.63969421386719,35,-9999,3231.8350865,-0.7658843994140625,-0.053985595703125,-0.9669952392578125,3231.8300895,-0.3688378575813394,-0.002951567396792549,-0.4344528726732164,-4.869064331054688,0.5423612594604492,-3.433599233627319,-0.7617269158363342,-0.567688524723053,0.0392376184463501,XArbitraryZVertical,-0.2121314863556435,0.03810472525116353,-0.1787529674879703,0.9599977506979386,-0.002677364274859428,0.4209141731262207,-0.9070965051651001,0,0,0,-1,-1,3230.363703125,unknown,2,2022-06-02T10:54:52.222+02:00,2022-06-02T10:17:13.754+02:00,521,1.61832,0,0,405.4342,0,0,2022-06-02T10:54:52.222+02:00,675852892.2216982,0,4.589844,101.3213,1,0.78
2022-06-02T10:54:53.704+02:00,1654160092.391955,53.22882597634408,10.39865767474839,40.02237,-1,-1,-1,-1,18.63969421386719,35,-9999,3231.8450805,-0.7873992919921875,0.0100860595703125,-1.03271484375,3231.8400835,-0.4082894196274012,-0.01324404765363388,-0.4850191565563809,-5.289840698242188,0.9235603213310242,-3.583375692367554,-0.7541681528091431,-0.5202109813690186,-0.08240681886672974,XArbitraryZVertical,-0.2364509968351072,0.0423876256841561,-0.1952360143243489,0.9508822769137302,-0.01171621680259705,0.4662252962589264,-0.8845884203910828,0,0,0,-1,-1,3230.363703125,unknown,2,2022-06-02T10:54:52.222+02:00,2022-06-02T10:17:13.754+02:00,521,1.61832,0,0,405.4342,0,0,2022-06-02T10:54:52.222+02:00,675852892.2216982,0,4.589844,101.3213,1,0.78
2022-06-02T10:54:53.714+02:00,1654160092.391955,53.22882597634408,10.39865767474839,40.02237,-1,-1,-1,-1,18.63969421386719,35,-9999,3231.8550745,-0.765106201171875,0.183135986328125,-1.126754760742188,3231.8500775,-0.4518726248620409,-0.02328531134159356,-0.5389076047027689,-5.645753860473633,1.349710464477539,-3.809514284133911,-0.7674160003662109,-0.5031127333641052,-0.1746777296066284,XArbitraryZVertical,-0.2619357475522444,0.04869384653947544,-0.2129004401594768,0.9400489433432957,-0.01998327299952507,0.5131987333297729,-0.8580371737480164,0,0,0,-1,-1,3230.363703125,unknown,2,2022-06-02T10:54:52.222+02:00,2022-06-02T10:17:13.754+02:00,521,1.61832,0,0,405.4342,0,0,2022-06-02T10:54:52.222+02:00,675852892.2216982,0,4.589844,101.3213,1,0.78
2022-06-02T10:54:53.724+02:00,1654160092.391955,53.22882597634408,10.39865767474839,40.02237,-1,-1,-1,-1,18.63969421386719,35,-9999,3231.8650685,-0.7097015380859375,0.38665771484375,-1.163131713867188,3231.8600715,-0.4999162279150474,-0.03340769890643721,-0.5956428640822511,-5.91895055770874,1.79210102558136,-3.958200216293335,-0.7374567985534668,-0.3779051303863525,-0.2994286417961121,XArbitraryZVertical,-0.2882291974212861,0.05710422757816736,-0.2316919787003993,0.9273519951970597,-0.02764934673905373,0.561040997505188,-0.8273260593414307,0,0,0,-1,-1,3230.363703125,unknown,2,2022-06-02T10:54:52.222+02:00,2022-06-02T10:17:13.754+02:00,521,1.61832,0,0,405.4342,0,0,2022-06-02T10:54:52.222+02:00,675852892.2216982,0,4.589844,101.3213,1,0.78
2022-06-02T10:54:53.734+02:00,1654160092.391955,53.22882597634408,10.39865767474839,40.02237,-1,-1,-1,-1,18.63969421386719,35,-9999,3231.8750625,-0.645904541015625,0.6130523681640625,-1.186981201171875,3231.8700655,-0.5517770719010915,-0.04379314574825914,-0.6536970923982767,-6.008286952972412,2.203898429870605,-3.978164434432983,-0.6749478578567505,-0.2214678525924683,-0.3700519800186157,XArbitraryZVertical,-0.3144930758450689,0.06748490438997158,-0.251155161326351,0.9129407583327218,-0.03475368022918701,0.6081254482269287,-0.7930797934532166,0,0,0,-1,-1,3230.363703125,unknown,2,2022-06-02T10:54:52.222+02:00,2022-06-02T10:17:13.754+02:00,521,1.61832,0,0,405.4342,0,0,2022-06-02T10:54:52.222+02:00,675852892.2216982,0,4.589844,101.3213,1,0.78
2022-06-02T10:54:53.744+02:00,1654160092.391955,53.22882597634408,10.39865767474839,40.02237,-1,-1,-1,-1,18.63969421386719,35,-9999,3231.8850565,-0.5849609375,0.8018035888671875,-1.16619873046875,3231.8800595,-0.6064211458898988,-0.05437142775427217,-0.711604203944874,-5.982827186584473,2.586226224899292,-3.919468641281128,-0.6047484874725342,-0.03999727964401245,-0.4307851791381836,XArbitraryZVertical,-0.3399370599473375,0.07965416387678471,-0.270744424703672,0.8971038012477104,-0.04115602001547813,0.6530495285987854,-0.7561960220336914,0,0,0,-1,-1,3230.363703125,unknown,2,2022-06-02T10:54:52.222+02:00,2022-06-02T10:17:13.754+02:00,521,1.61832,0,0,405.4342,0,0,2022-06-02T10:54:52.222+02:00,675852892.2216982,0,4.589844,101.3213,1,0.78
2022-06-02T10:54:53.754+02:00,1654160092.391955,53.22882597634408,10.39865767474839,40.02237,-1,-1,-1,-1,18.63969421386719,35,-9999,3231.8950505,-0.5363311767578125,0.9312286376953125,-1.132476806640625,3231.8900535,-0.6640070732203487,-0.0655622951766979,-0.7681978006005022,-5.821873188018799,2.952942609786987,-3.896299123764038,-0.5378445982933044,0.1069631576538086,-0.4485797882080078,XArbitraryZVertical,-0.3639746594442591,0.09334333576206154,-0.2904155085553987,0.880038718877583,-0.04711627215147018,0.6948403120040894,-0.7176189422607422,0,0,0,-1,-1,3230.363703125,unknown,2,2022-06-02T10:54:52.222+02:00,2022-06-02T10:17:13.754+02:00,521,1.61832,0,0,405.4342,0,0,2022-06-02T10:54:52.222+02:00,675852892.2216982,0,4.589844,101.3213,1,0.78
2022-06-02T10:54:53.764+02:00,1654160092.391955,53.22882597634408,10.39865767474839,40.02237,-1,-1,-1,-1,18.63969421386719,35,-9999,3231.9050445,-0.491912841796875,1.0618896484375,-1.0821533203125,3231.9000475,-0.7250098730165515,-0.07768756146532167,-0.8216506704483993,-5.451764583587646,3.341659784317017,-3.843101739883423,-0.4834780693054199,0.1989575624465942,-0.4535174965858459,XArbitraryZVertical,-0.3857555740772513,0.1082264616900706,-0.310363989025588,0.8620637101292026,-0.0528530664741993,0.7322709560394287,-0.6789593696594238,0,0,0,-1,-1,3230.363703125,unknown,2,2022-06-02T10:54:52.222+02:00,2022-06-02T10:17:13.754+02:00,521,1.61832,0,0,405.4342,0,0,2022-06-02T10:54:52.222+02:00,675852892.2216982,0,4.589844,101.3213,1,0.78
2022-06-02T10:54:53.774+02:00,1654160092.391955,53.22882597634408,10.39865767474839,40.02237,-1,-1,-1,-1,18.63969421386719,35,-9999,3231.9150385,-0.449462890625,1.200546264648438,-1.020584106445312,3231.9100415,-0.7885552415505257,-0.09000600433609461,-0.8700650110009854,-4.906713485717773,3.720729112625122,-3.728699207305908,-0.4339573383331299,0.2975187301635742,-0.4399864673614502,XArbitraryZVertical,-0.4043826617958289,0.1240613075203745,-0.3305033418591775,0.8437126108936637,-0.05795546248555183,0.764370858669281,-0.6421669125556946,0,0,0,-1,-1,3230.363703125,unknown,2,2022-06-02T10:54:52.222+02:00,2022-06-02T10:17:13.754+02:00,521,1.61832,0,0,405.4342,0,0,2022-06-02T10:54:52.222+02:00,675852892.2216982,0,4.589844,101.3213,1,0.78
2022-06-02T10:54:53.784+02:00,1654160092.391955,53.22882597634408,10.39865767474839,40.02237,-1,-1,-1,-1,18.63969421386719,35,-9999,3231.9250335,-0.3978729248046875,1.354904174804688,-0.9371337890625,3231.9200365,-0.8533898652815739,-0.1014347559735724,-0.9123084459222622,-4.320583343505859,4.088991165161133,-3.556788682937622,-0.3874991238117218,0.4096277356147766,-0.4118078947067261,XArbitraryZVertical,-0.4193232954842161,0.1406408480066701,-0.3507411701338893,0.8254506367297755,-0.06196373328566551,0.7909184098243713,-0.6087762713432312,0,0,0,-1,-1,3230.363703125,unknown,2,2022-06-02T10:54:52.222+02:00,2022-06-02T10:17:13.754+02:00,521,1.61832,0,0,405.4342,0,0,2022-06-02T10:54:52.222+02:00,675852892.2216982,0,4.589844,101.3213,1,0.78
2022-06-02T10:54:53.804+02:00,1654160092.391955,53.22882597634408,10.39865767474839,40.02237,-1,-1,-1,-1,18.63969421386719,35,-9999,3231.9350275,-0.3285369873046875,1.482131958007812,-0.8081207275390625,3231.9300305,-0.9181789213615257,-0.110892796520994,-0.9495368301493913,-3.972904682159424,4.42376184463501,-3.329954147338867,-0.3334588706493378,0.541758120059967,-0.3586492538452148,XArbitraryZVertical,-0.4310109633920825,0.1580735992176996,-0.3708050916642952,0.8073077806509704,-0.06441402435302734,0.8131459951400757,-0.5784845948219299,0,0,0,-1,-1,3230.363703125,unknown,2,2022-06-02T10:54:52.222+02:00,2022-06-02T10:17:13.754+02:00,521,1.61832,0,0,405.4342,0,0,2022-06-02T10:54:52.222+02:00,675852892.2216982,0,4.589844,101.3213,1,0.78
2022-06-02T10:54:53.822+02:00,1654160092.391955,53.22882597634408,10.39865767474839,40.02237,-1,-1,-1,-1,18.63969421386719,35,-9999,3231.9450215,-0.2489166259765625,1.541671752929688,-0.693206787109375,3231.9400245,-0.9819119923989895,-0.117700214821383,-0.9850264727445542,-3.992660760879517,4.713406562805176,-3.032157421112061,-0.2636175453662872,0.6488451361656189,-0.2591046094894409,XArbitraryZVertical,-0.4407033473227721,0.1768402744024943,-0.3901887903028248,0.7888351026485511,-0.06491938233375549,0.8332867026329041,-0.5490161776542664,0,0,0,-1,-1,3230.363703125,unknown,2,2022-06-02T10:54:52.222+02:00,2022-06-02T10:17:13.754+02:00,521,1.61832,0,0,405.4342,0,0,2022-06-02T10:54:52.222+02:00,675852892.2216982,0,4.589844,101.3213,1,0.78
2022-06-02T10:54:53.825+02:00,1654160092.391955,53.22882597634408,10.39865767474839,40.02237,-1,-1,-1,-1,18.63969421386719,35,-9999,3231.9550155,-0.1609649658203125,1.53607177734375,-0.545989990234375,3231.9500185,-1.044238691644458,-0.1217894961319119,-1.022363997420576,-4.301259517669678,4.997622966766357,-2.70608115196228,-0.185578465461731,0.6883288025856018,-0.1757184267044067,XArbitraryZVertical,-0.4497131879103634,0.197519226348312,-0.4083541532517339,0.7694095940611584,-0.06333812326192856,0.8533428907394409,-0.517488420009613,0,0,0,-1,-1,3230.363703125,unknown,2,2022-06-02T10:54:52.222+02:00,2022-06-02T10:17:13.754+02:00,521,1.61832,0,0,405.4342,0,0,2022-06-02T10:54:52.222+02:00,675852892.2216982,0,4.589844,101.3213,1,0.78
2022-06-02T10:54:53.827+02:00,1654160092.391955,53.22882597634408,10.39865767474839,40.02237,-1,-1,-1,-1,18.63969421386719,35,-9999,3231.9650095,-0.0649261474609375,1.564376831054688,-0.380218505859375,3231.9600125,-1.104875834537295,-0.1228157283832478,-1.063670597728602,-4.734566211700439,5.279958248138428,-2.321176052093506,-0.1014672517776489,0.6619276404380798,-0.06398147344589233,XArbitraryZVertical,-0.4586239132960155,0.2205897357606047,-0.424938027126567,0.7486200568514105,-0.05949768051505089,0.8741440773010254,-0.4820085465908051,0,0,0,-1,-1,3230.363703125,unknown,2,2022-06-02T10:54:52.222+02:00,2022-06-02T10:17:13.754+02:00,521,1.61832,0,0,405.4342,0,0,2022-06-02T10:54:52.222+02:00,675852892.2216982,0,4.589844,101.3213,1,0.78
2022-06-02T10:54:53.834+02:00,1654160092.391955,53.22882597634408,10.39865767474839,40.02237,-1,-1,-1,-1,18.63969421386719,35,-9999,3231.9750035,0.02191162109375,1.708114624023438,-0.2140350341796875,3231.9700065,-1.162288263418028,-0.1200635393465858,-1.109588696696178,-5.211459159851074,5.411694526672363,-1.803069114685059,-0.01162251830101013,0.6688610315322876,0.0616074800491333,XArbitraryZVertical,-0.4674947993767644,0.2460398328752917,-0.4393821492529827,0.7265371710400393,-0.05330356955528259,0.8955157399177551,-0.4418260157108307,0,0,0,-1,-1,3230.363703125,unknown,2,2022-06-02T10:54:52.222+02:00,2022-06-02T10:17:13.754+02:00,521,1.61832,0,0,405.4342,0,0,2022-06-02T10:54:52.222+02:00,675852892.2216982,0,4.589844,101.3213,1,0.78
