loggingTime(txt),locationTimestamp_since1970(s),locationLatitude(WGS84),locationLongitude(WGS84),locationAltitude(m),locationSpeed(m/s),locationSpeedAccuracy(m/s),locationCourse(°),locationCourseAccuracy(°),locationVerticalAccuracy(m),locationHorizontalAccuracy(m),locationFloor(Z),accelerometerTimestamp_sinceReboot(s),accelerometerAccelerationX(G),accelerometerAccelerationY(G),accelerometerAccelerationZ(G),motionTimestamp_sinceReboot(s),motionYaw(rad),motionRoll(rad),motionPitch(rad),motionRotationRateX(rad/s),motionRotationRateY(rad/s),motionRotationRateZ(rad/s),motionUserAccelerationX(G),motionUserAccelerationY(G),motionUserAccelerationZ(G),motionAttitudeReferenceFrame(txt),motionQuaternionX(R),motionQuaternionY(R),motionQuaternionZ(R),motionQuaternionW(R),motionGravityX(G),motionGravityY(G),motionGravityZ(G),motionMagneticFieldX(µT),motionMagneticFieldY(µT),motionMagneticFieldZ(µT),motionHeading(°),motionMagneticFieldCalibrationAccuracy(Z),activityTimestamp_sinceReboot(s),activity(txt),activityActivityConfidence(Z),activityActivityStartDate(txt),pedometerStartDate(txt),pedometerNumberofSteps(N),pedometerAverageActivePace(s/m),pedometerCurrentPace(s/m),pedometerCurrentCadence(steps/s),pedometerDistance(m),pedometerFloorAscended(N),pedometerFloorDescended(N),pedometerEndDate(txt),altimeterTimestamp_sinceReboot(s),altimeterReset(bool),altimeterRelativeAltitude(m),altimeterPressure(kPa),batteryState(N),batteryLevel(R)
2022-06-02T10:57:56.871+02:00,1654160272.999632,53.22905935069136,10.39852294524522,35.3208,0,20,-1,-1,2.400000095367432,11.99936978251625,-9999,3414.985016916667,0.122650146484375,-0.3727264404296875,-0.929534912109375,3414.980019916667,-0.028405315772532,0.1038971110068911,0.3660897652690612,0.02165695838630199,0.1014664396643639,-0.07302787154912949,0.0235540047287941,-0.01341661810874939,-0.004009604454040527,XArbitraryZVertical,0.1824856782890836,0.04847092778671266,-0.004495378901586104,0.9820026746357005,0.0968378484249115,-0.3579670488834381,-0.9286990761756897,0,0,0,-1,-1,3404.286036541667,unknown,2,2022-06-02T10:57:46.144+02:00,2022-06-02T10:17:13.754+02:00,538,1.652724,0,0,417.4277,0,0,2022-06-02T10:57:56.370+02:00,675853076.370396,0,3.070312,101.3463,1,0.77
2022-06-02T10:57:56.876+02:00,1654160272.999632,53.22905935069136,10.39852294524522,35.3208,0,20,-1,-1,2.400000095367432,11.99936978251625,-9999,3414.995011916667,0.100494384765625,-0.3736724853515625,-0.9286651611328125,3414.990013916667,-0.02931615398435325,0.1053394646939961,0.3658334456104629,-0.01055221073329449,0.08371306955814362,-0.07730124145746231,0.02446325123310089,-0.01499873399734497,-0.0008852481842041016,XArbitraryZVertical,0.1823854397550898,0.04909907156863894,-0.004817954400559466,0.9819885469418035,0.09818690270185471,-0.3577277064323425,-0.9286496639251709,0,0,0,-1,-1,3404.286036541667,unknown,2,2022-06-02T10:57:46.144+02:00,2022-06-02T10:17:13.754+02:00,538,1.652724,0,0,417.4277,0,0,2022-06-02T10:57:56.370+02:00,675853076.370396,0,3.070312,101.3463,1,0.77
2022-06-02T10:57:56.883+02:00,1654160272.999632,53.22905935069136,10.39852294524522,35.3208,0,20,-1,-1,2.400000095367432,11.99936978251625,-9999,3415.005005916667,0.084869384765625,-0.367828369140625,-0.9341888427734375,3415.000008916667,-0.03012830767956669,0.1066191196590115,0.3654827817759267,-0.02433460205793381,0.09163863956928253,-0.06755221635103226,0.00110587477684021,-0.01627227663993835,-1.722574234008789e-05,XArbitraryZVertical,0.1822365348858831,0.04965758668828333,-0.005109673689852101,0.9819866777584269,0.09938851743936539,-0.3574002385139465,-0.9286479353904724,0,0,0,-1,-1,3404.286036541667,unknown,2,2022-06-02T10:57:46.144+02:00,2022-06-02T10:17:13.754+02:00,538,1.652724,0,0,417.4277,0,0,2022-06-02T10:57:56.370+02:00,675853076.370396,0,3.070312,101.3463,1,0.77
2022-06-02T10:57:56.886+02:00,1654160272.999632,53.22905935069136,10.39852294524522,35.3208,0,20,-1,-1,2.400000095367432,11.99936978251625,-9999,3415.015000916667,0.1041717529296875,-0.3558807373046875,-0.937225341796875,3415.010003916667,-0.03078432317721339,0.1079357660648872,0.3651668319630525,-0.03325419500470161,0.1097033992409706,-0.05841677263379097,-0.01575389504432678,-0.01072326302528381,-0.005560338497161865,XArbitraryZVertical,0.182101271138808,0.05024819699138606,-0.005320609935158785,0.9819806064099043,0.1006232872605324,-0.3571051359176636,-0.9286285042762756,0,0,0,-1,-1,3404.286036541667,unknown,2,2022-06-02T10:57:46.144+02:00,2022-06-02T10:17:13.754+02:00,538,1.652724,0,0,417.4277,0,0,2022-06-02T10:57:56.370+02:00,675853076.370396,0,3.070312,101.3463,1,0.77
2022-06-02T10:57:56.892+02:00,1654160272.999632,53.22905935069136,10.39852294524522,35.3208,0,20,-1,-1,2.400000095367432,11.99936978251625,-9999,3415.024995916667,0.128753662109375,-0.35052490234375,-0.9407196044921875,3415.019997916667,-0.03142288471152744,0.1093831990930094,0.3648227525352102,-0.04379338771104813,0.1022835597395897,-0.06292816251516342,0.002191044390201569,0.0009029805660247803,-0.008621394634246826,XArbitraryZVertical,0.1819524549532455,0.05090507522698978,-0.005512071177624247,0.9819732926658349,0.1019807159900665,-0.3567837178707123,-0.9286039471626282,0,0,0,-1,-1,3404.286036541667,unknown,2,2022-06-02T10:57:46.144+02:00,2022-06-02T10:17:13.754+02:00,538,1.652724,0,0,417.4277,0,0,2022-06-02T10:57:56.370+02:00,675853076.370396,0,3.070312,101.3463,1,0.77
2022-06-02T10:57:56.894+02:00,1654160272.999632,53.22905935069136,10.39852294524522,35.3208,0,20,-1,-1,2.400000095367432,11.99936978251625,-9999,3415.034989916667,0.1397705078125,-0.3496856689453125,-0.9438018798828125,3415.029992916667,-0.03197687680268783,0.1104171995468967,0.3641805746434745,-0.040450319647789,0.09299126267433167,-0.06360993534326553,0.0257876068353653,0.005658805370330811,-0.01199406385421753,XArbitraryZVertical,0.1816543162196115,0.05137059761846518,-0.005708347364620364,0.9820031251778329,0.1029660701751709,-0.3561837375164032,-0.92872554063797,0,0,0,-1,-1,3404.286036541667,unknown,2,2022-06-02T10:57:46.144+02:00,2022-06-02T10:17:13.754+02:00,538,1.652724,0,0,417.4277,0,0,2022-06-02T10:57:56.370+02:00,675853076.370396,0,3.070312,101.3463,1,0.77
2022-06-02T10:57:56.904+02:00,1654160272.999632,53.22905935069136,10.39852294524522,35.3208,0,20,-1,-1,2.400000095367432,11.99936978251625,-9999,3415.044984916667,0.1389923095703125,-0.3436279296875,-0.94281005859375,3415.039987916667,-0.03235701706933858,0.1108421390134735,0.3635766979763201,-0.03886999934911728,0.08472054451704025,-0.06304081529378891,0.03638602793216705,0.0059337317943573,-0.01490658521652222,XArbitraryZVertical,0.1813689202754579,0.05155253818533137,-0.005873727457817905,0.9820453353072113,0.1033844798803329,-0.3556194007396698,-0.9288952946662903,0,0,0,-1,-1,3404.286036541667,unknown,2,2022-06-02T10:57:46.144+02:00,2022-06-02T10:17:13.754+02:00,538,1.652724,0,0,417.4277,0,0,2022-06-02T10:57:56.370+02:00,675853076.370396,0,3.070312,101.3463,1,0.77
2022-06-02T10:57:56.915+02:00,1654160272.999632,53.22905935069136,10.39852294524522,35.3208,0,20,-1,-1,2.400000095367432,11.99936978251625,-9999,3415.054979916667,0.1338043212890625,-0.343505859375,-0.9409332275390625,3415.049981916667,-0.03290368605735267,0.1117106209325704,0.3629549121675831,-0.04897476360201836,0.08294755220413208,-0.06144252419471741,0.03477650135755539,0.01141029596328735,-0.01378530263900757,XArbitraryZVertical,0.1810804517225838,0.05193755941213545,-0.006081379751721699,0.9820769853461329,0.1042158007621765,-0.355038195848465,-0.9290246963500977,0,0,0,-1,-1,3404.286036541667,unknown,2,2022-06-02T10:57:46.144+02:00,2022-06-02T10:17:13.754+02:00,538,1.652724,0,0,417.4277,0,0,2022-06-02T10:57:56.370+02:00,675853076.370396,0,3.070312,101.3463,1,0.77
2022-06-02T10:57:56.924+02:00,1654160272.999632,53.22905935069136,10.39852294524522,35.3208,0,20,-1,-1,2.400000095367432,11.99936978251625,-9999,3415.064974916667,0.1309814453125,-0.34454345703125,-0.93817138671875,3415.059976916667,-0.03354721342308974,0.1128876626332515,0.3625280109308455,-0.05046453699469566,0.08082927018404007,-0.05850611627101898,0.02847803384065628,0.01113319396972656,-0.01188129186630249,XArbitraryZVertical,0.1808913395532049,0.05246294215346067,-0.006303282687461954,0.9820825056622736,0.1053262948989868,-0.3546390533447266,-0.92905193567276,0,0,0,-1,-1,3404.286036541667,unknown,2,2022-06-02T10:57:46.144+02:00,2022-06-02T10:17:13.754+02:00,538,1.652724,0,0,417.4277,0,0,2022-06-02T10:57:56.370+02:00,675853076.370396,0,3.070312,101.3463,1,0.77
2022-06-02T10:57:56.934+02:00,1654160272.999632,53.22905935069136,10.39852294524522,35.3208,0,20,-1,-1,2.400000095367432,11.99936978251625,-9999,3415.074968916667,0.1306304931640625,-0.34716796875,-0.93695068359375,3415.069971916667,-0.03417478621151246,0.1140806901162623,0.36213673346911,-0.05012422055006027,0.08150964230298996,-0.06156016886234283,0.02453105896711349,0.009729713201522827,-0.00910794734954834,XArbitraryZVertical,0.1807196386596172,0.05299728451211401,-0.0065151021433158,0.9820840660156372,0.1064503937959671,-0.3542732000350952,-0.9290633797645569,0,0,0,-1,-1,3404.286036541667,unknown,2,2022-06-02T10:57:46.144+02:00,2022-06-02T10:17:13.754+02:00,538,1.652724,0,0,417.4277,0,0,2022-06-02T10:57:56.370+02:00,675853076.370396,0,3.070312,101.3463,1,0.77
2022-06-02T10:57:56.944+02:00,1654160272.999632,53.22905935069136,10.39852294524522,35.3208,0,20,-1,-1,2.400000095367432,11.99936978251625,-9999,3415.084963916667,0.13104248046875,-0.3454437255859375,-0.9394378662109375,3415.079966916667,-0.03471258219842102,0.1150103588272036,0.3618335061162707,-0.03677938506007195,0.07754792273044586,-0.05323965474963188,0.02330411225557327,0.006821632385253906,-0.007879972457885742,XArbitraryZVertical,0.1805881590509945,0.05340933593486764,-0.006704214464180208,0.9820847332549683,0.1073263883590698,-0.3539896011352539,-0.9290707111358643,0,0,0,-1,-1,3404.286036541667,unknown,2,2022-06-02T10:57:46.144+02:00,2022-06-02T10:17:13.754+02:00,538,1.652724,0,0,417.4277,0,0,2022-06-02T10:57:56.370+02:00,675853076.370396,0,3.070312,101.3463,1,0.77
2022-06-02T10:57:56.954+02:00,1654160272.999632,53.22905935069136,10.39852294524522,35.3208,0,20,-1,-1,2.400000095367432,11.99936978251625,-9999,3415.094958916667,0.1319427490234375,-0.345703125,-0.9389801025390625,3415.089960916667,-0.03512774807985009,0.1156916378129621,0.3616029348876892,-0.02108654379844666,0.07392289489507675,-0.0496084988117218,0.02307374775409698,0.008330225944519043,-0.01035940647125244,XArbitraryZVertical,0.1804884097931186,0.05370956866897292,-0.0068534774994768,0.9820856552037524,0.1079687401652336,-0.3537739515304565,-0.9290784597396851,0,0,0,-1,-1,3404.286036541667,unknown,2,2022-06-02T10:57:46.144+02:00,2022-06-02T10:17:13.754+02:00,538,1.652724,0,0,417.4277,0,0,2022-06-02T10:57:56.370+02:00,675853076.370396,0,3.070312,101.3463,1,0.77
2022-06-02T10:57:56.964+02:00,1654160272.999632,53.22905935069136,10.39852294524522,35.3208,0,20,-1,-1,2.400000095367432,11.99936978251625,-9999,3415.104952916667,0.132354736328125,-0.3501129150390625,-0.939697265625,3415.099955916667,-0.03558236328224865,0.116521572242474,0.3613769502910883,-0.008624814450740814,0.06833584606647491,-0.04724148288369179,0.02319368720054626,0.007859468460083008,-0.009912192821502686,XArbitraryZVertical,0.1803926088679524,0.05407922516338386,-0.007008642358844052,0.9820818836123169,0.1087490692734718,-0.353562593460083,-0.9290679097175598,0,0,0,-1,-1,3404.286036541667,unknown,2,2022-06-02T10:57:46.144+02:00,2022-06-02T10:17:13.754+02:00,538,1.652724,0,0,417.4277,0,0,2022-06-02T10:57:56.370+02:00,675853076.370396,0,3.070312,101.3463,1,0.77
2022-06-02T10:57:56.974+02:00,1654160272.999632,53.22905935069136,10.39852294524522,35.3208,0,20,-1,-1,2.400000095367432,11.99936978251625,-9999,3415.114947916667,0.126556396484375,-0.35260009765625,-0.9419403076171875,3415.109950916667,-0.03614864350733665,0.1175455137573814,0.3612356564515516,0.01100531313568354,0.05678671598434448,-0.04348769038915634,0.02264855802059174,0.003317505121231079,-0.01069164276123047,XArbitraryZVertical,0.1803422779596564,0.05453293761239696,-0.007198654104489053,0.9820646121154811,0.1097061783075333,-0.3534304201602936,-0.9290056228637695,0,0,0,-1,-1,3404.286036541667,unknown,2,2022-06-02T10:57:46.144+02:00,2022-06-02T10:17:13.754+02:00,538,1.652724,0,0,417.4277,0,0,2022-06-02T10:57:56.370+02:00,675853076.370396,0,3.070312,101.3463,1,0.77
2022-06-02T10:57:56.986+02:00,1654160272.999632,53.22905935069136,10.39852294524522,35.3208,0,20,-1,-1,2.400000095367432,11.99936978251625,-9999,3415.124942916667,0.1096649169921875,-0.3572998046875,-0.944671630859375,3415.119944916667,-0.03698683596996762,0.1192131108163303,0.3610109408437612,0.01748931035399437,0.05812229216098785,-0.04770347103476524,0.0152917206287384,0.0006200969219207764,-0.01304006576538086,XArbitraryZVertical,0.1802610904808516,0.0552794126785711,-0.007466799257815056,0.9820358598654473,0.1112646758556366,-0.3532201945781708,-0.9289002418518066,0,0,0,-1,-1,3404.286036541667,unknown,2,2022-06-02T10:57:46.144+02:00,2022-06-02T10:17:13.754+02:00,538,1.652724,0,0,417.4277,0,0,2022-06-02T10:57:56.370+02:00,675853076.370396,0,3.070312,101.3463,1,0.77
2022-06-02T10:57:56.997+02:00,1654160272.999632,53.22905935069136,10.39852294524522,35.3208,0,20,-1,-1,2.400000095367432,11.99936978251625,-9999,3415.134936916667,0.1021575927734375,-0.366729736328125,-0.950592041015625,3415.129939916667,-0.03779958353389611,0.1208620159201746,0.3606239386614685,0.01100621186196804,0.07171046733856201,-0.04741844907402992,-0.00314774364233017,-0.004441678524017334,-0.01582050323486328,XArbitraryZVertical,0.1801000439298352,0.0560214681735933,-0.007729382408296623,0.982021219599318,0.1128126680850983,-0.3528580963611603,-0.9288511276245117,0,0,0,-1,-1,3404.286036541667,unknown,2,2022-06-02T10:57:46.144+02:00,2022-06-02T10:17:13.754+02:00,538,1.652724,0,0,417.4277,0,0,2022-06-02T10:57:56.370+02:00,675853076.370396,0,3.070312,101.3463,1,0.77
2022-06-02T10:57:57.004+02:00,1654160272.999632,53.22905935069136,10.39852294524522,35.3208,0,20,-1,-1,2.400000095367432,11.99936978251625,-9999,3415.144931916667,0.1053619384765625,-0.36724853515625,-0.9472808837890625,3415.139934916667,-0.03849297006050641,0.1223873255689491,0.3601881574924551,-0.009381618350744247,0.08505610376596451,-0.04598486796021461,-0.01209049671888351,-0.01427939534187317,-0.02176147699356079,XArbitraryZVertical,0.1799116760828485,0.05671445419967627,-0.007946328436233295,0.9820142697001885,0.1142480820417404,-0.3524503111839294,-0.9288305044174194,0,0,0,-1,-1,3404.286036541667,unknown,2,2022-06-02T10:57:46.144+02:00,2022-06-02T10:17:13.754+02:00,538,1.652724,0,0,417.4277,0,0,2022-06-02T10:57:56.370+02:00,675853076.370396,0,3.070312,101.3463,1,0.77
2022-06-02T10:57:57.015+02:00,1654160272.999632,53.22905935069136,10.39852294524522,35.3208,0,20,-1,-1,2.400000095367432,11.99936978251625,-9999,3415.154926916667,0.1167449951171875,-0.3647613525390625,-0.9406890869140625,3415.149928916667,-0.03905372327468484,0.1237982975475591,0.3596783622835214,-0.02242274954915047,0.08564965426921844,-0.03949601203203201,-0.01021875441074371,-0.01527535915374756,-0.01843428611755371,XArbitraryZVertical,0.1796831262686661,0.05736449919158575,-0.00811112311589327,0.9820170199084342,0.1155806928873062,-0.3519732058048248,-0.9288465976715088,0,0,0,-1,-1,3404.286036541667,unknown,2,2022-06-02T10:57:46.144+02:00,2022-06-02T10:17:13.754+02:00,538,1.652724,0,0,417.4277,0,0,2022-06-02T10:57:56.370+02:00,675853076.370396,0,3.070312,101.3463,1,0.77
2022-06-02T10:57:57.024+02:00,1654160272.999632,53.22905935069136,10.39852294524522,35.3208,0,20,-1,-1,2.400000095367432,11.99936978251625,-9999,3415.164920916667,0.123443603515625,-0.3614959716796875,-0.9301605224609375,3415.159923916667,-0.03959491180736793,0.1251010446723123,0.3591681928050909,-0.02877065911889076,0.07683059573173523,-0.04852066189050674,-6.80387020111084e-05,-0.01326572895050049,-0.01181578636169434,XArbitraryZVertical,0.179453665651281,0.0579633263714559,-0.008276385688190797,0.9820225131481757,0.1168130412697792,-0.351495623588562,-0.9288732409477234,0,0,0,-1,-1,3404.286036541667,unknown,2,2022-06-02T10:57:46.144+02:00,2022-06-02T10:17:13.754+02:00,538,1.652724,0,0,417.4277,0,0,2022-06-02T10:57:56.370+02:00,675853076.370396,0,3.070312,101.3463,1,0.77
2022-06-02T10:57:57.034+02:00,1654160272.999632,53.22905935069136,10.39852294524522,35.3208,0,20,-1,-1,2.400000095367432,11.99936978251625,-9999,3415.174915916667,0.1240997314453125,-0.3561248779296875,-0.92626953125,3415.169918916667,-0.04024690415405205,0.1263424690858049,0.3585919929971578,-0.02144204080104828,0.06888586282730103,-0.05967345088720322,0.00545203685760498,-0.01053982973098755,-0.00123220682144165,XArbitraryZVertical,0.179195084094322,0.05852330539218099,-0.008504041520891301,0.9820344856465001,0.1179915741086006,-0.3509561419487,-0.9289283156394958,0,0,0,-1,-1,3404.286036541667,unknown,2,2022-06-02T10:57:46.144+02:00,2022-06-02T10:17:13.754+02:00,538,1.652724,0,0,417.4277,0,0,2022-06-02T10:57:56.370+02:00,675853076.370396,0,3.070312,101.3463,1,0.77
2022-06-02T10:57:57.044+02:00,1654160272.999632,53.22905935069136,10.39852294524522,35.3208,0,20,-1,-1,2.400000095367432,11.99936978251625,-9999,3415.184910916667,0.11932373046875,-0.34991455078125,-0.9239501953125,3415.179913916667,-0.04097467668114849,0.1275382791845882,0.3580829416957294,-0.02018849179148674,0.0609552301466465,-0.06228042021393776,0.004974715411663055,-0.005645453929901123,0.002694129943847656,XArbitraryZVertical,0.1789717916603324,0.0590532527591732,-0.008771119059572317,0.9820411955239793,0.1191250160336494,-0.3504794239997864,-0.9289636015892029,0,0,0,-1,-1,3404.286036541667,unknown,2,2022-06-02T10:57:46.144+02:00,2022-06-02T10:17:13.754+02:00,538,1.652724,0,0,417.4277,0,0,2022-06-02T10:57:56.370+02:00,675853076.370396,0,3.070312,101.3463,1,0.77
2022-06-02T10:57:57.054+02:00,1654160272.999632,53.22905935069136,10.39852294524522,35.3208,0,20,-1,-1,2.400000095367432,11.99936978251625,-9999,3415.194905916667,0.11334228515625,-0.3517303466796875,-0.9262237548828125,3415.189907916667,-0.04174562157569477,0.128705025302657,0.3576900183900887,-0.01792290806770325,0.06085489690303802,-0.06547361612319946,-0.0009027346968650818,0.0001968443393707275,0.005010306835174561,XArbitraryZVertical,0.1788070077678845,0.05956341714387322,-0.009058404461217036,0.9820378247687257,0.1202264726161957,-0.3501113951206207,-0.9289605021476746,0,0,0,-1,-1,3404.286036541667,unknown,2,2022-06-02T10:57:46.144+02:00,2022-06-02T10:17:13.754+02:00,538,1.652724,0,0,417.4277,0,0,2022-06-02T10:57:56.370+02:00,675853076.370396,0,3.070312,101.3463,1,0.77
2022-06-02T10:57:57.064+02:00,1654160272.999632,53.22905935069136,10.39852294524522,35.3208,0,20,-1,-1,2.400000095367432,11.99936978251625,-9999,3415.204898666667,0.1174163818359375,-0.34808349609375,-0.924896240234375,3415.199902916667,-0.04241037192016676,0.1296646535503305,0.357409313333347,-0.009968046098947525,0.06029989197850227,-0.05383986234664917,-0.007788293063640594,-0.001881897449493408,0.00271838903427124,XArbitraryZVertical,0.1786935327584571,0.05997971348473648,-0.009308477211951296,0.9820307220077433,0.12113057076931,-0.3498484492301941,-0.928942084312439,0,0,0,-1,-1,3404.286036541667,unknown,2,2022-06-02T10:57:46.144+02:00,2022-06-02T10:17:13.754+02:00,538,1.652724,0,0,417.4277,0,0,2022-06-02T10:57:56.370+02:00,675853076.370396,0,3.070312,101.3463,1,0.77
2022-06-02T10:57:57.074+02:00,1654160272.999632,53.22905935069136,10.39852294524522,35.3208,0,20,-1,-1,2.400000095367432,11.99936978251625,-9999,3415.214893666667,0.12322998046875,-0.34197998046875,-0.9267578125,3415.209896666667,-0.04278470629034269,0.1299949007104628,0.3573596160415565,0.001543734688311815,0.05413201078772545,-0.04472705721855164,-0.004023216664791107,0.001718401908874512,0.004023075103759766,XArbitraryZVertical,0.1786819180430088,0.0601092271618343,-0.009464455665470189,0.9820234954367077,0.1214395985007286,-0.3498018682003021,-0.9289193153381348,0,0,0,-1,-1,3404.286036541667,unknown,2,2022-06-02T10:57:46.144+02:00,2022-06-02T10:17:13.754+02:00,538,1.652724,0,0,417.4277,0,0,2022-06-02T10:57:56.370+02:00,675853076.370396,0,3.070312,101.3463,1,0.77
2022-06-02T10:57:57.084+02:00,1654160272.999632,53.22905935069136,10.39852294524522,35.3208,0,20,-1,-1,2.400000095367432,11.99936978251625,-9999,3415.224888666667,0.1273193359375,-0.3391876220703125,-0.929718017578125,3415.219890666667,-0.0430018576923222,0.1299850713449964,0.357624809152278,0.009373161941766739,0.04615424573421478,-0.04214032739400864,0.001811549067497253,0.008070319890975952,0.00207066535949707,XArbitraryZVertical,0.1788185613751848,0.06008067545306464,-0.009562977873265585,0.9819993119048788,0.1214184388518333,-0.350050300359726,-0.9288284778594971,0,0,0,-1,-1,3404.286036541667,unknown,2,2022-06-02T10:57:46.144+02:00,2022-06-02T10:17:13.754+02:00,538,1.652724,0,0,417.4277,0,0,2022-06-02T10:57:56.370+02:00,675853076.370396,0,3.070312,101.3463,1,0.77
2022-06-02T10:57:57.093+02:00,1654160272.999632,53.22905935069136,10.39852294524522,35.3208,0,20,-1,-1,2.400000095367432,11.99936978251625,-9999,3415.234882666667,0.1251068115234375,-0.3415985107421875,-0.929595947265625,3415.229885666667,-0.04324010834594962,0.1299579606409066,0.3580235676296427,0.02097056247293949,0.03285122290253639,-0.03641453385353088,0.005944184958934784,0.01123619079589844,-0.001024723052978516,XArbitraryZVertical,0.1790212794028984,0.06003952778515753,-0.009668880234979482,0.9819638225128597,0.1213751584291458,-0.3504238128662109,-0.9286932945251465,0,0,0,-1,-1,3404.286036541667,unknown,2,2022-06-02T10:57:46.144+02:00,2022-06-02T10:17:13.754+02:00,538,1.652724,0,0,417.4277,0,0,2022-06-02T10:57:56.370+02:00,675853076.370396,0,3.070312,101.3463,1,0.77
2022-06-02T10:57:57.104+02:00,1654160272.999632,53.22905935069136,10.39852294524522,35.3208,0,20,-1,-1,2.400000095367432,11.99936978251625,-9999,3415.244877666667,0.1250762939453125,-0.3462677001953125,-0.9284820556640625,3415.239880666667,-0.0435191423188517,0.1302236050287822,0.3584934808080938,0.02708171680569649,0.03269702568650246,-0.02536747418344021,0.00350634753704071,0.009265393018722534,-0.001098275184631348,XArbitraryZVertical,0.179261547489502,0.06013723344317588,-0.009766153281934382,0.9819130519926605,0.1216004639863968,-0.3508638739585876,-0.9284976124763489,0,0,0,-1,-1,3404.286036541667,unknown,2,2022-06-02T10:57:46.144+02:00,2022-06-02T10:17:13.754+02:00,538,1.652724,0,0,417.4277,0,0,2022-06-02T10:57:56.370+02:00,675853076.370396,0,3.070312,101.3463,1,0.77
2022-06-02T10:57:57.114+02:00,1654160272.999632,53.22905935069136,10.39852294524522,35.3208,0,20,-1,-1,2.400000095367432,11.99936978251625,-9999,3415.254872666667,0.1320648193359375,-0.3548126220703125,-0.924224853515625,3415.249875666667,-0.04381262567819606,0.1306721250449255,0.3589787709736533,0.02461326867341995,0.0251664724200964,-0.02171261981129646,0.00308159738779068,0.005050569772720337,-0.0002079606056213379,XArbitraryZVertical,0.1795107074625326,0.06032308409849101,-0.009853507160005331,0.9818552820867948,0.1219946965575218,-0.3513182699680328,-0.9282740354537964,0,0,0,-1,-1,3404.286036541667,unknown,2,2022-06-02T10:57:46.144+02:00,2022-06-02T10:17:13.754+02:00,538,1.652724,0,0,417.4277,0,0,2022-06-02T10:57:56.370+02:00,675853076.370396,0,3.070312,101.3463,1,0.77
2022-06-02T10:57:57.124+02:00,1654160272.999632,53.22905935069136,10.39852294524522,35.3208,0,20,-1,-1,2.400000095367432,11.99936978251625,-9999,3415.264867666667,0.134765625,-0.3616180419921875,-0.9229583740234375,3415.259869666667,-0.04408985414639358,0.1310342286191988,0.3592903936086911,0.01086310110986233,0.01386827789247036,-0.02045321092009544,0.009748309850692749,-0.003202587366104126,0.003896415233612061,XArbitraryZVertical,0.1796737773945448,0.06047077392588467,-0.009946456788835016,0.9818154080875778,0.1223165094852448,-0.3516100347042084,-0.9281212091445923,0,0,0,-1,-1,3404.286036541667,unknown,2,2022-06-02T10:57:46.144+02:00,2022-06-02T10:17:13.754+02:00,538,1.652724,0,0,417.4277,0,0,2022-06-02T10:57:56.370+02:00,675853076.370396,0,3.070312,101.3463,1,0.77
2022-06-02T10:57:57.134+02:00,1654160272.999632,53.22905935069136,10.39852294524522,35.3208,0,20,-1,-1,2.400000095367432,11.99936978251625,-9999,3415.274861666667,0.1329803466796875,-0.356231689453125,-0.924041748046875,3415.269864666667,-0.04430049497968443,0.131122944092635,0.3592882122021751,-0.0065831677056849,0.002338854596018791,-0.02169417589902878,0.01236668229103088,-0.01001006364822388,0.005152761936187744,XArbitraryZVertical,0.1796795251624956,0.06049543909982948,-0.01004196599761627,0.9818118400513689,0.1223989501595497,-0.3516079783439636,-0.9281111359596252,0,0,0,-1,-1,3404.286036541667,unknown,2,2022-06-02T10:57:46.144+02:00,2022-06-02T10:17:13.754+02:00,538,1.652724,0,0,417.4277,0,0,2022-06-02T10:57:56.370+02:00,675853076.370396,0,3.070312,101.3463,1,0.77
2022-06-02T10:57:57.143+02:00,1654160272.999632,53.22905935069136,10.39852294524522,35.3208,0,20,-1,-1,2.400000095367432,11.99936978251625,-9999,3415.284856666667,0.1236114501953125,-0.348907470703125,-0.9239501953125,3415.279859666667,-0.04442036384150724,0.1309267073425934,0.359190241765723,-0.01200270093977451,-0.002624478656798601,-0.02035833522677422,0.01075903326272964,-0.004715442657470703,0.004127562046051025,XArbitraryZVertical,0.1796340806366037,0.06038997389957575,-0.01012178720081337,0.9818258745322844,0.1222213134169579,-0.3515162765979767,-0.928169310092926,0,0,0,-1,-1,3404.286036541667,unknown,2,2022-06-02T10:57:46.144+02:00,2022-06-02T10:17:13.754+02:00,538,1.652724,0,0,417.4277,0,0,2022-06-02T10:57:56.370+02:00,675853076.370396,0,3.070312,101.3463,1,0.77
2022-06-02T10:57:57.154+02:00,1654160272.999632,53.22905935069136,10.39852294524522,35.3208,0,20,-1,-1,2.400000095367432,11.99936978251625,-9999,3415.294851666667,0.1178131103515625,-0.3445587158203125,-0.930084228515625,3415.289853666667,-0.04461306766942631,0.1308514540569658,0.3589960983322271,-0.00929603073745966,-0.002537193475291133,-0.02550136670470238,0.001451075077056885,0.002427041530609131,0.004296004772186279,XArbitraryZVertical,0.1795442537305752,0.06033898093104352,-0.01022977609681676,0.981844332916518,0.122160367667675,-0.3513345122337341,-0.9282461404800415,0,0,0,-1,-1,3404.286036541667,unknown,2,2022-06-02T10:57:46.144+02:00,2022-06-02T10:17:13.754+02:00,538,1.652724,0,0,417.4277,0,0,2022-06-02T10:57:56.370+02:00,675853076.370396,0,3.070312,101.3463,1,0.77
2022-06-02T10:57:57.163+02:00,1654160272.999632,53.22905935069136,10.39852294524522,35.3208,0,20,-1,-1,2.400000095367432,11.99936978251625,-9999,3415.304845666667,0.119903564453125,-0.342498779296875,-0.9343414306640625,3415.299848666667,-0.0449080153310478,0.1309722866446034,0.3586717102332753,-0.0003715110942721367,-0.0005685848882421851,-0.02588752284646034,-0.004474297165870667,0.006472080945968628,-0.001739919185638428,XArbitraryZVertical,0.1793946062441959,0.06037728915385634,-0.01037481407010466,0.9818678341907259,0.1222874075174332,-0.3510307669639587,-0.9283443093299866,0,0,0,-1,-1,3404.286036541667,unknown,2,2022-06-02T10:57:46.144+02:00,2022-06-02T10:17:13.754+02:00,538,1.652724,0,0,417.4277,0,0,2022-06-02T10:57:56.370+02:00,675853076.370396,0,3.070312,101.3463,1,0.77
2022-06-02T10:57:57.174+02:00,1654160272.999632,53.22905935069136,10.39852294524522,35.3208,0,20,-1,-1,2.400000095367432,11.99936978251625,-9999,3415.314840666667,0.1229400634765625,-0.34161376953125,-0.9384002685546875,3415.309843666667,-0.04522220549176497,0.1311919383980623,0.358340768943698,0.001267431769520044,0.0008432234171777964,-0.02418156899511814,-0.002602942287921906,0.008222103118896484,-0.005908846855163574,XArbitraryZVertical,0.1792428556423457,0.06046254565847865,-0.01052069312411544,0.9818887746287694,0.1225065067410469,-0.3507208824157715,-0.9284325838088989,0,0,0,-1,-1,3404.286036541667,unknown,2,2022-06-02T10:57:46.144+02:00,2022-06-02T10:17:13.754+02:00,538,1.652724,0,0,417.4277,0,0,2022-06-02T10:57:56.370+02:00,675853076.370396,0,3.070312,101.3463,1,0.77
2022-06-02T10:57:57.184+02:00,1654160272.999632,53.22905935069136,10.39852294524522,35.3208,0,20,-1,-1,2.400000095367432,11.99936978251625,-9999,3415.324835666667,0.1253509521484375,-0.3396148681640625,-0.934722900390625,3415.319837666667,-0.04551648151722875,0.1313782379970158,0.3580934610334091,0.006042745895683765,0.003386808326467872,-0.02556268498301506,0.0002492368221282959,0.008875489234924316,-0.009904563426971436,XArbitraryZVertical,0.1791313944282301,0.06053184271454391,-0.01065695399706318,0.9819033721118269,0.1226908341050148,-0.3504892587661743,-0.9284957051277161,0,0,0,-1,-1,3404.286036541667,unknown,2,2022-06-02T10:57:46.144+02:00,2022-06-02T10:17:13.754+02:00,538,1.652724,0,0,417.4277,0,0,2022-06-02T10:57:56.370+02:00,675853076.370396,0,3.070312,101.3463,1,0.77
2022-06-02T10:57:57.194+02:00,1654160272.999632,53.22905935069136,10.39852294524522,35.3208,0,20,-1,-1,2.400000095367432,11.99936978251625,-9999,3415.334829666667,0.13214111328125,-0.33819580078125,-0.9327392578125,3415.329832666667,-0.04580169072107826,0.1315809331141852,0.3580654690247959,0.0138328243046999,0.00391318229958415,-0.02290524914860725,0.002470634877681732,0.01084819436073303,-0.00624239444732666,XArbitraryZVertical,0.1791273874407024,0.06060628999054662,-0.01077978419925847,0.9818981460976691,0.1228803172707558,-0.3504630625247955,-0.9284805059432983,0,0,0,-1,-1,3404.286036541667,unknown,2,2022-06-02T10:57:46.144+02:00,2022-06-02T10:17:13.754+02:00,538,1.652724,0,0,417.4277,0,0,2022-06-02T10:57:56.370+02:00,675853076.370396,0,3.070312,101.3463,1,0.77
2022-06-02T10:57:57.204+02:00,1654160272.999632,53.22905935069136,10.39852294524522,35.3208,0,20,-1,-1,2.400000095367432,11.99936978251625,-9999,3415.344824666667,0.1338348388671875,-0.3402557373046875,-0.9236907958984375,3415.339827666667,-0.0461657463287093,0.1319653637363737,0.3583030806923669,0.01451299525797367,0.0001051282742992043,-0.02536094933748245,0.008914828300476074,0.01248979568481445,-0.004388630390167236,XArbitraryZVertical,0.1792570972369626,0.0607583267689087,-0.01091589066174062,0.9818636287873111,0.1232262849807739,-0.3506855964660645,-0.9283506274223328,0,0,0,-1,-1,3404.286036541667,unknown,2,2022-06-02T10:57:46.144+02:00,2022-06-02T10:17:13.754+02:00,538,1.652724,0,0,417.4277,0,0,2022-06-02T10:57:56.370+02:00,675853076.370396,0,3.070312,101.3463,1,0.77
2022-06-02T10:57:57.214+02:00,1654160272.999632,53.22905935069136,10.39852294524522,35.3208,0,20,-1,-1,2.400000095367432,11.99936978251625,-9999,3415.354819666667,0.1311187744140625,-0.3502197265625,-0.9181976318359375,3415.349822666667,-0.04657335127824791,0.1323891113476,0.3587251064154656,0.0165446549654007,-0.004326238296926022,-0.02740399539470673,0.01023472845554352,0.01082503795623779,0.004460752010345459,XArbitraryZVertical,0.1794788949407214,0.0609225111773293,-0.01106340912947043,0.9818112594966941,0.123600110411644,-0.3510807752609253,-0.928151547908783,0,0,0,-1,-1,3404.286036541667,unknown,2,2022-06-02T10:57:46.144+02:00,2022-06-02T10:17:13.754+02:00,538,1.652724,0,0,417.4277,0,0,2022-06-02T10:57:56.370+02:00,675853076.370396,0,3.070312,101.3463,1,0.77
2022-06-02T10:57:57.224+02:00,1654160272.999632,53.22905935069136,10.39852294524522,35.3208,0,20,-1,-1,2.400000095367432,11.99936978251625,-9999,3415.364814666667,0.12646484375,-0.3567657470703125,-0.911376953125,3415.359816666667,-0.04700285734558034,0.1327240895649863,0.3589779234557934,0.01066865585744381,-0.008088752627372742,-0.03453034535050392,0.007219508290290833,0.001097768545150757,0.009824454784393311,XArbitraryZVertical,0.1796178925954012,0.06104399466092034,-0.01123541825688314,0.9817763580742912,0.1238992661237717,-0.3513174951076508,-0.9280220866203308,0,0,0,-1,-1,3404.286036541667,unknown,2,2022-06-02T10:57:46.144+02:00,2022-06-02T10:17:13.754+02:00,538,1.652724,0,0,417.4277,0,0,2022-06-02T10:57:56.370+02:00,675853076.370396,0,3.070312,101.3463,1,0.77
2022-06-02T10:57:57.234+02:00,1654160272.999632,53.22905935069136,10.39852294524522,35.3208,0,20,-1,-1,2.400000095367432,11.99936978251625,-9999,3415.374808666667,0.117645263671875,-0.3624267578125,-0.9157562255859375,3415.369811666667,-0.04737594817685709,0.1327886703331546,0.3589171035610539,-0.01123271323740482,-0.007885686121881008,-0.03458267822861671,0.002502813935279846,-0.005505204200744629,0.01665830612182617,XArbitraryZVertical,0.1795998044351646,0.06104325504163978,-0.0114148766991228,0.9817776560340385,0.1239620298147202,-0.3512605428695679,-0.9280352592468262,0,0,0,-1,-1,3404.286036541667,unknown,2,2022-06-02T10:57:46.144+02:00,2022-06-02T10:17:13.754+02:00,538,1.652724,0,0,417.4277,0,0,2022-06-02T10:57:56.370+02:00,675853076.370396,0,3.070312,101.3463,1,0.77
2022-06-02T10:57:57.244+02:00,1654160272.999632,53.22905935069136,10.39852294524522,35.3208,0,20,-1,-1,2.400000095367432,11.99936978251625,-9999,3415.384803666667,0.116790771484375,-0.3550567626953125,-0.9115447998046875,3415.379806666667,-0.04768089481129315,0.1326753607129776,0.3584746637152494,-0.03727949410676956,-0.005129847675561905,-0.03354937210679054,-0.00623214989900589,-0.01158049702644348,0.0124470591545105,XArbitraryZVertical,0.179391381752371,0.0609680393320214,-0.01159011121231611,0.9818184014937942,0.1238774210214615,-0.3508462607860565,-0.928203284740448,0,0,0,-1,-1,3404.286036541667,unknown,2,2022-06-02T10:57:46.144+02:00,2022-06-02T10:17:13.754+02:00,538,1.652724,0,0,417.4277,0,0,2022-06-02T10:57:56.370+02:00,675853076.370396,0,3.070312,101.3463,1,0.77
2022-06-02T10:57:57.254+02:00,1654160272.999632,53.22905935069136,10.39852294524522,35.3208,0,20,-1,-1,2.400000095367432,11.99936978251625,-9999,3415.394798666667,0.115814208984375,-0.341583251953125,-0.9110260009765625,3415.389800666667,-0.04795645828347243,0.1326153707365954,0.3576917869478264,-0.06067170575261116,-0.005725197028368711,-0.04131288453936577,-0.0070672407746315,-0.004943728446960449,0.01693785190582275,XArbitraryZVertical,0.1790153346604694,0.06092771028854287,-0.01175794963659882,0.9818874401542454,0.1238580122590065,-0.3501130342483521,-0.9284826517105103,0,0,0,-1,-1,3404.286036541667,unknown,2,2022-06-02T10:57:46.144+02:00,2022-06-02T10:17:13.754+02:00,538,1.652724,0,0,417.4277,0,0,2022-06-02T10:57:56.370+02:00,675853076.370396,0,3.070312,101.3463,1,0.77
2022-06-02T10:57:57.264+02:00,1654160272.999632,53.22905935069136,10.39852294524522,35.3208,0,20,-1,-1,2.400000095367432,11.99936978251625,-9999,3415.404792666667,0.1082916259765625,-0.33642578125,-0.9076995849609375,3415.399795666667,-0.04836851216901542,0.1326687636743179,0.3567394001116178,-0.06024213507771492,-0.001548029016703367,-0.05902237445116043,-0.008137434720993042,0.007637530565261841,0.01778018474578857,XArbitraryZVertical,0.1785608763355868,0.06093394990562555,-0.01198856092003738,0.9819670717881516,0.123951643705368,-0.3492207825183868,-0.9288061261177063,0,0,0,-1,-1,3404.286036541667,unknown,2,2022-06-02T10:57:46.144+02:00,2022-06-02T10:17:13.754+02:00,538,1.652724,0,0,417.4277,0,0,2022-06-02T10:57:56.370+02:00,675853076.370396,0,3.070312,101.3463,1,0.77
2022-06-02T10:57:57.274+02:00,1654160272.999632,53.22905935069136,10.39852294524522,35.3208,0,20,-1,-1,2.400000095367432,11.99936978251625,-9999,3415.414787666667,0.097930908203125,-0.3334503173828125,-0.9015960693359375,3415.409790666667,-0.04896555745484004,0.1328641528166507,0.3558265074381863,-0.05282020568847656,-3.43547435477376e-05,-0.06688742339611053,-0.015883669257164,0.01193943619728088,0.02139794826507568,XArbitraryZVertical,0.1781322844504944,0.0609929134819136,-0.0122960415541665,0.9820374843885731,0.1241752952337265,-0.3483652174472809,-0.9290975332260132,0,0,0,-1,-1,3404.286036541667,unknown,2,2022-06-02T10:57:46.144+02:00,2022-06-02T10:17:13.754+02:00,538,1.652724,0,0,417.4277,0,0,2022-06-02T10:57:56.370+02:00,675853076.370396,0,3.070312,101.3463,1,0.77
2022-06-02T10:57:57.284+02:00,1654160272.999632,53.22905935069136,10.39852294524522,35.3208,0,20,-1,-1,2.400000095367432,11.99936978251625,-9999,3415.424782666667,0.0860137939453125,-0.3390655517578125,-0.8873443603515625,3415.419784666667,-0.04975155871783523,0.1333071555134699,0.3549032924994379,-0.0607934445142746,0.002207227982580662,-0.08475376665592194,-0.02669865638017654,0.01404935121536255,0.02776467800140381,XArbitraryZVertical,0.1777060135160291,0.06115713775276917,-0.01267479479279692,0.9820995575734056,0.1246295720338821,-0.3474996984004974,-0.9293607473373413,0,0,0,-1,-1,3404.286036541667,unknown,2,2022-06-02T10:57:46.144+02:00,2022-06-02T10:17:13.754+02:00,538,1.652724,0,0,417.4277,0,0,2022-06-02T10:57:56.370+02:00,675853076.370396,0,3.070312,101.3463,1,0.77
2022-06-02T10:57:57.294+02:00,1654160272.999632,53.22905935069136,10.39852294524522,35.3208,0,20,-1,-1,2.400000095367432,11.99936978251625,-9999,3415.434777666667,0.0720062255859375,-0.3500518798828125,-0.876190185546875,3415.429779666667,-0.05077759677558707,0.1339224813729072,0.3539685479292626,-0.08303000777959824,0.00405952287837863,-0.1132379397749901,-0.03923092782497406,0.007557481527328491,0.04226106405258179,XArbitraryZVertical,0.1772826620658124,0.06138527340620363,-0.01315680576335495,0.9821555793307896,0.1252447217702866,-0.346623033285141,-0.9296054244041443,0,0,0,-1,-1,3404.286036541667,unknown,2,2022-06-02T10:57:46.144+02:00,2022-06-02T10:17:13.754+02:00,538,1.652724,0,0,417.4277,0,0,2022-06-02T10:57:56.370+02:00,675853076.370396,0,3.070312,101.3463,1,0.77
2022-06-02T10:57:57.304+02:00,1654160272.999632,53.22905935069136,10.39852294524522,35.3208,0,20,-1,-1,2.400000095367432,11.99936978251625,-9999,3415.444771666667,0.0558929443359375,-0.357147216796875,-0.86358642578125,3415.439774666667,-0.05203066118112434,0.1345737243622044,0.352883775786932,-0.1299780756235123,0.01628236658871174,-0.1449135839939117,-0.05389423668384552,-0.004446595907211304,0.05370551347732544,XArbitraryZVertical,0.1767931768486862,0.06161425898970947,-0.01375277752697274,0.9822213129836834,0.1259004771709442,-0.3456053137779236,-0.9298956990242004,0,0,0,-1,-1,3404.286036541667,unknown,2,2022-06-02T10:57:46.144+02:00,2022-06-02T10:17:13.754+02:00,538,1.652724,0,0,417.4277,0,0,2022-06-02T10:57:56.370+02:00,675853076.370396,0,3.070312,101.3463,1,0.77
2022-06-02T10:57:57.314+02:00,1654160272.999632,53.22905935069136,10.39852294524522,35.3208,0,20,-1,-1,2.400000095367432,11.99936978251625,-9999,3415.454766666667,0.037994384765625,-0.3601226806640625,-0.8497467041015625,3415.449769666667,-0.05353601013063054,0.1353395231408822,0.3513297288194794,-0.1866936087608337,0.0265367366373539,-0.1819116771221161,-0.07079191505908966,-0.01300063729286194,0.06674367189407349,XArbitraryZVertical,0.1760822959484983,0.06188688466313867,-0.01447969803117174,0.9823214192095567,0.1266848593950272,-0.3441466093063354,-0.9303300976753235,0,0,0,-1,-1,3404.286036541667,unknown,2,2022-06-02T10:57:46.144+02:00,2022-06-02T10:17:13.754+02:00,538,1.652724,0,0,417.4277,0,0,2022-06-02T10:57:56.370+02:00,675853076.370396,0,3.070312,101.3463,1,0.77
2022-06-02T10:57:57.324+02:00,1654160272.999632,53.22905935069136,10.39852294524522,35.3208,0,20,-1,-1,2.400000095367432,11.99936978251625,-9999,3415.464761666667,0.0170135498046875,-0.3588409423828125,-0.8366241455078125,3415.459763666667,-0.05531987299065491,0.136241252766265,0.3491254549231115,-0.2477463036775589,0.04493331909179688,-0.221183180809021,-0.08963204920291901,-0.01804652810096741,0.08121806383132935,XArbitraryZVertical,0.1750623380395723,0.06221569803281735,-0.01535558270166254,0.9824696536524586,0.127626433968544,-0.3420761525630951,-0.9309647679328918,0,0,0,-1,-1,3404.286036541667,unknown,2,2022-06-02T10:57:46.144+02:00,2022-06-02T10:17:13.754+02:00,538,1.652724,0,0,417.4277,0,0,2022-06-02T10:57:56.370+02:00,675853076.370396,0,3.070312,101.3463,1,0.77
2022-06-02T10:57:57.334+02:00,1654160272.999632,53.22905935069136,10.39852294524522,35.3208,0,20,-1,-1,2.400000095367432,11.99936978251625,-9999,3415.474755666667,-0.0072479248046875,-0.3463287353515625,-0.8155517578125,3415.469758666667,-0.05750514189816013,0.1374396599678273,0.3461309353622832,-0.3230179250240326,0.055804543197155,-0.2725168764591217,-0.1118682324886322,-0.01958021521568298,0.09519755840301514,XArbitraryZVertical,0.1736699349200044,0.06267313040844798,-0.01643275749514992,0.9826702045858958,0.1288817822933197,-0.3392607569694519,-0.9318216443061829,0,0,0,-1,-1,3404.286036541667,unknown,2,2022-06-02T10:57:46.144+02:00,2022-06-02T10:17:13.754+02:00,538,1.652724,0,0,417.4277,0,0,2022-06-02T10:57:56.370+02:00,675853076.370396,0,3.070312,101.3463,1,0.77
2022-06-02T10:57:57.344+02:00,1654160272.999632,53.22905935069136,10.39852294524522,35.3208,0,20,-1,-1,2.400000095367432,11.99936978251625,-9999,3415.484750666667,-0.03497314453125,-0.338104248046875,-0.800689697265625,3415.479753666667,-0.06014150336437448,0.1388930589275913,0.3422056716352674,-0.3897972404956818,0.07079840451478958,-0.3334944844245911,-0.1376672387123108,-0.01076304912567139,0.1173933148384094,XArbitraryZVertical,0.1718378285820395,0.06323952847482786,-0.01774600569830491,0.9829331158554793,0.1304193288087845,-0.3355656862258911,-0.9329450726509094,0,0,0,-1,-1,3404.286036541667,unknown,2,2022-06-02T10:57:46.144+02:00,2022-06-02T10:17:13.754+02:00,538,1.652724,0,0,417.4277,0,0,2022-06-02T10:57:56.370+02:00,675853076.370396,0,3.070312,101.3463,1,0.77
2022-06-02T10:57:57.354+02:00,1654160272.999632,53.22905935069136,10.39852294524522,35.3208,0,20,-1,-1,2.400000095367432,11.99936978251625,-9999,3415.494745666667,-0.0563201904296875,-0.3294830322265625,-0.8064727783203125,3415.489747666667,-0.063353020149335,0.1406803634163175,0.3376116142274653,-0.4481587409973145,0.08584593236446381,-0.398838996887207,-0.1672744750976562,-0.006869792938232422,0.1335372924804688,XArbitraryZVertical,0.1697000186054026,0.06394068213317192,-0.01934198252267753,0.9832290035594444,0.1323013305664062,-0.331234484910965,-0.9342269897460938,0,0,0,-1,-1,3404.286036541667,unknown,2,2022-06-02T10:57:46.144+02:00,2022-06-02T10:17:13.754+02:00,538,1.652724,0,0,417.4277,0,0,2022-06-02T10:57:56.370+02:00,675853076.370396,0,3.070312,101.3463,1,0.77
2022-06-02T10:57:57.364+02:00,1654160272.999632,53.22905935069136,10.39852294524522,35.3208,0,20,-1,-1,2.400000095367432,11.99936978251625,-9999,3415.504739666667,-0.068267822265625,-0.3282623291015625,-0.826019287109375,3415.499742666667,-0.06713208670040989,0.1427073891147163,0.332304824700569,-0.502435028553009,0.08439717441797256,-0.463019847869873,-0.1907630562782288,-0.003260403871536255,0.129210889339447,XArbitraryZVertical,0.1672348405811168,0.06473544906845198,-0.02122888813628676,0.9835604518854562,0.1344428807497025,-0.3262226283550262,-0.9356836676597595,0,0,0,-1,-1,3404.286036541667,unknown,2,2022-06-02T10:57:46.144+02:00,2022-06-02T10:17:13.754+02:00,538,1.652724,0,0,417.4277,0,0,2022-06-02T10:57:56.370+02:00,675853076.370396,0,3.070312,101.3463,1,0.77
2022-06-02T10:57:57.374+02:00,1654160272.999632,53.22905935069136,10.39852294524522,35.3208,0,20,-1,-1,2.400000095367432,11.99936978251625,-9999,3415.514734666667,-0.071624755859375,-0.3310394287109375,-0.8257293701171875,3415.509737666667,-0.07150774858736643,0.1448416666973753,0.3265059496718759,-0.5414333343505859,0.0851399302482605,-0.5299384593963623,-0.2049781531095505,-0.007526755332946777,0.1112315058708191,XArbitraryZVertical,0.164551295104957,0.06555527465850626,-0.02342584631753107,0.9839087346982192,0.1367103159427643,-0.3207355439662933,-0.9372507333755493,0,0,0,-1,-1,3404.286036541667,unknown,2,2022-06-02T10:57:46.144+02:00,2022-06-02T10:17:13.754+02:00,538,1.652724,0,0,417.4277,0,0,2022-06-02T10:57:56.370+02:00,675853076.370396,0,3.070312,101.3463,1,0.77
2022-06-02T10:57:57.384+02:00,1654160272.999632,53.22905935069136,10.39852294524522,35.3208,0,20,-1,-1,2.400000095367432,11.99936978251625,-9999,3415.524729666667,-0.073272705078125,-0.3353424072265625,-0.8163604736328125,3415.519732666667,-0.07643316587657771,0.1474336406110673,0.3199468385651469,-0.6188258528709412,0.1193967014551163,-0.5850908756256104,-0.2110700011253357,-0.0165233314037323,0.1132246851921082,XArbitraryZVertical,0.1615214048568566,0.0665870024747538,-0.02589369287787936,0.9842796517280935,0.1394452303647995,-0.3145160973072052,-0.9389539957046509,0,0,0,-1,-1,3404.286036541667,unknown,2,2022-06-02T10:57:46.144+02:00,2022-06-02T10:17:13.754+02:00,538,1.652724,0,0,417.4277,0,0,2022-06-02T10:57:56.370+02:00,675853076.370396,0,3.070312,101.3463,1,0.77
2022-06-02T10:57:57.394+02:00,1654160272.999632,53.22905935069136,10.39852294524522,35.3208,0,20,-1,-1,2.400000095367432,11.99936978251625,-9999,3415.534724666667,-0.082733154296875,-0.3522186279296875,-0.7924652099609375,3415.529726666667,-0.08178846198318415,0.150450427957896,0.312508691291994,-0.7039269804954529,0.1467980295419693,-0.6445827484130859,-0.2158966213464737,-0.02789562940597534,0.1244556307792664,XArbitraryZVertical,0.1580845320985168,0.06783245776668019,-0.02858487289151048,0.9846780869617331,0.1426239162683487,-0.3074467778205872,-0.9408161044120789,0,0,0,-1,-1,3404.286036541667,unknown,2,2022-06-02T10:57:46.144+02:00,2022-06-02T10:17:13.754+02:00,538,1.652724,0,0,417.4277,0,0,2022-06-02T10:57:56.370+02:00,675853076.370396,0,3.070312,101.3463,1,0.77
2022-06-02T10:57:57.404+02:00,1654160272.999632,53.22905935069136,10.39852294524522,35.3208,0,20,-1,-1,2.400000095367432,11.99936978251625,-9999,3415.544718666667,-0.396209716796875,-0.5325164794921875,-0.822784423828125,3415.539721666667,-0.08970298643804354,0.1535577929499774,0.3029049952210288,-1.061138868331909,-0.03265641257166862,-1.364263534545898,-0.2287247329950333,-0.05392444133758545,0.1507776379585266,XArbitraryZVertical,0.1536781527524165,0.06900447190799311,-0.03263169949652879,0.9851682386414856,0.1459915935993195,-0.2982942163944244,-0.9432427883148193,0,0,0,-1,-1,3404.286036541667,unknown,2,2022-06-02T10:57:46.144+02:00,2022-06-02T10:17:13.754+02:00,538,1.652724,0,0,417.4277,0,0,2022-06-02T10:57:56.370+02:00,675853076.370396,0,3.070312,101.3463,1,0.77
2022-06-02T10:57:57.414+02:00,1654160272.999632,53.22905935069136,10.39852294524522,35.3208,0,20,-1,-1,2.400000095367432,11.99936978251625,-9999,3415.554713666667,-0.1604461669921875,-0.5890960693359375,-0.8713226318359375,3415.549716666667,-0.1037437955480228,0.1605313947232777,0.2885172605469257,-1.276968955993652,0.5285821557044983,-1.439726233482361,-0.5494456887245178,-0.2479854226112366,0.1235563158988953,XArbitraryZVertical,0.1472172366522792,0.0718102682362701,-0.03963386777414023,0.9856974945400196,0.153235986828804,-0.2845310866832733,-0.9463407397270203,0,0,0,-1,-1,3404.286036541667,unknown,2,2022-06-02T10:57:46.144+02:00,2022-06-02T10:17:13.754+02:00,538,1.652724,0,0,417.4277,0,0,2022-06-02T10:57:56.370+02:00,675853076.370396,0,3.070312,101.3463,1,0.77
2022-06-02T10:57:57.424+02:00,1654160272.999632,53.22905935069136,10.39852294524522,35.3208,0,20,-1,-1,2.400000095367432,11.99936978251625,-9999,3415.564708666667,-0.0083465576171875,-0.4467315673828125,-0.827362060546875,3415.559710666667,-0.11260976034388,0.1681343944169706,0.2733046519911917,-1.518096566200256,0.448891818523407,-0.8710559010505676,-0.3215784132480621,-0.3191812038421631,0.07798361778259277,XArbitraryZVertical,0.140212480331674,0.07541446003360158,-0.04413298347538082,0.9862582540346367,0.1611322611570358,-0.2699148952960968,-0.9493062496185303,0,0,0,-1,-1,3404.286036541667,unknown,2,2022-06-02T10:57:46.144+02:00,2022-06-02T10:17:13.754+02:00,538,1.652724,0,0,417.4277,0,0,2022-06-02T10:57:56.370+02:00,675853076.370396,0,3.070312,101.3463,1,0.77
2022-06-02T10:57:57.434+02:00,1654160272.999632,53.22905935069136,10.39852294524522,35.3208,0,20,-1,-1,2.400000095367432,11.99936978251625,-9999,3415.574702666667,-0.0738372802734375,-0.4771881103515625,-0.8842315673828125,3415.569705666667,-0.1201692546789685,0.173755992890842,0.254512544273817,-1.894940614700317,0.3182941377162933,-1.269784569740295,-0.1756603121757507,-0.1949578821659088,0.1258515119552612,XArbitraryZVertical,0.1313744751874765,0.07831961751025819,-0.04834606026810064,0.9870508529023877,0.1673137694597244,-0.2517736852169037,-0.9532135725021362,0,0,0,-1,-1,3404.286036541667,unknown,2,2022-06-02T10:57:46.144+02:00,2022-06-02T10:17:13.754+02:00,538,1.652724,0,0,417.4277,0,0,2022-06-02T10:57:56.370+02:00,675853076.370396,0,3.070312,101.3463,1,0.77
2022-06-02T10:57:57.444+02:00,1654160272.999632,53.22905935069136,10.39852294524522,35.3208,0,20,-1,-1,2.400000095367432,11.99936978251625,-9999,3415.584697666667,-0.0726318359375,-0.42816162109375,-0.9266357421875,3415.579700666667,-0.131339959830844,0.179994591892017,0.2326370407652345,-2.027128934860229,0.3893259763717651,-1.562804460525513,-0.2480389624834061,-0.2466437965631485,0.07311016321182251,XArbitraryZVertical,0.1211956272108692,0.08149099410356805,-0.05450738602628816,0.9877751100256618,0.1742016673088074,-0.2305443286895752,-0.9573416709899902,0,0,0,-1,-1,3404.286036541667,unknown,2,2022-06-02T10:57:46.144+02:00,2022-06-02T10:17:13.754+02:00,538,1.652724,0,0,417.4277,0,0,2022-06-02T10:57:56.370+02:00,675853076.370396,0,3.070312,101.3463,1,0.77
2022-06-02T10:57:57.454+02:00,1654160272.999632,53.22905935069136,10.39852294524522,35.3208,0,20,-1,-1,2.400000095367432,11.99936978251625,-9999,3415.594692666667,-0.077606201171875,-0.4042510986328125,-0.928436279296875,3415.589694666667,-0.142981246641763,0.1866872882333674,0.2093978235982356,-2.133175611495972,0.4337036311626434,-1.515899658203125,-0.2541822791099548,-0.2202907353639603,0.03452455997467041,XArbitraryZVertical,0.1104083708567001,0.08502850906759848,-0.06101325366853071,0.9883609605019036,0.1815504729747772,-0.2078709155321121,-0.9611603021621704,0,0,0,-1,-1,3404.286036541667,unknown,2,2022-06-02T10:57:46.144+02:00,2022-06-02T10:17:13.754+02:00,538,1.652724,0,0,417.4277,0,0,2022-06-02T10:57:56.370+02:00,675853076.370396,0,3.070312,101.3463,1,0.77
2022-06-02T10:57:57.464+02:00,1654160272.999632,53.22905935069136,10.39852294524522,35.3208,0,20,-1,-1,2.400000095367432,11.99936978251625,-9999,3415.604687666667,-0.0775299072265625,-0.39874267578125,-0.9317626953125,3415.599689666667,-0.1542669157783036,0.1933886074641393,0.1849520590955902,-2.263561010360718,0.4636484682559967,-1.602020502090454,-0.2665139436721802,-0.2203516960144043,0.03618538379669189,XArbitraryZVertical,0.09904722254794257,0.08876282478004296,-0.06748058205283325,0.9888159384310402,0.188907727599144,-0.1838994175195694,-0.9646216034889221,0,0,0,-1,-1,3404.286036541667,unknown,2,2022-06-02T10:57:46.144+02:00,2022-06-02T10:17:13.754+02:00,538,1.652724,0,0,417.4277,0,0,2022-06-02T10:57:56.370+02:00,675853076.370396,0,3.070312,101.3463,1,0.77
2022-06-02T10:57:57.474+02:00,1654160272.999632,53.22905935069136,10.39852294524522,35.3208,0,20,-1,-1,2.400000095367432,11.99936978251625,-9999,3415.614681666667,-0.043121337890625,-0.385894775390625,-0.9327392578125,3415.609684666667,-0.1663366586052545,0.2003601711343086,0.1586603758829001,-2.428544282913208,0.5161255598068237,-1.754371285438538,-0.2740524411201477,-0.2407471537590027,0.03592336177825928,XArbitraryZVertical,0.08685930217198518,0.09280322181201783,-0.07449771863668493,0.9890869653221007,0.1965225487947464,-0.1579955518245697,-0.9676860570907593,0,0,0,-1,-1,3404.286036541667,unknown,2,2022-06-02T10:57:46.144+02:00,2022-06-02T10:17:13.754+02:00,538,1.652724,0,0,417.4277,0,0,2022-06-02T10:57:56.370+02:00,675853076.370396,0,3.070312,101.3463,1,0.77
2022-06-02T10:57:57.491+02:00,1654160272.999632,53.22905935069136,10.39852294524522,35.3208,0,20,-1,-1,2.400000095367432,11.99936978251625,-9999,3415.624676666667,-0.0094451904296875,-0.340087890625,-0.92559814453125,3415.619679666667,-0.1789712691508452,0.2075860748414887,0.1306287063996255,-2.562876462936401,0.5571776628494263,-1.820212960243225,-0.2474638223648071,-0.2556372880935669,0.03745514154434204,XArbitraryZVertical,0.0738961356787036,0.09717083649425817,-0.08196064544923998,0.9891307974337522,0.2043424844741821,-0.1302575170993805,-0.970194399356842,0,0,0,-1,-1,3404.286036541667,unknown,2,2022-06-02T10:57:46.144+02:00,2022-06-02T10:17:13.754+02:00,538,1.652724,0,0,417.4277,0,0,2022-06-02T10:57:56.370+02:00,675853076.370396,0,3.070312,101.3463,1,0.77
2022-06-02T10:57:57.506+02:00,1654160272.999632,53.22905935069136,10.39852294524522,35.3208,0,20,-1,-1,2.400000095367432,11.99936978251625,-9999,3415.634671666667,0.0014190673828125,-0.3155517578125,-0.8901519775390625,3415.629673666667,-0.1915848623043434,0.2146532039553177,0.1008752883388584,-2.742733716964722,0.5640279054641724,-1.890749216079712,-0.2213709354400635,-0.2393836230039597,0.04648524522781372,XArbitraryZVertical,0.06012899775520163,0.1016996025997531,-0.08959885779442779,0.9889457228464998,0.2119257599115372,-0.1007042974233627,-0.9720833897590637,0,0,0,-1,-1,3404.286036541667,unknown,2,2022-06-02T10:57:46.144+02:00,2022-06-02T10:17:13.754+02:00,538,1.652724,0,0,417.4277,0,0,2022-06-02T10:57:56.370+02:00,675853076.370396,0,3.070312,101.3463,1,0.77
2022-06-02T10:57:57.508+02:00,1654160272.999632,53.22905935069136,10.39852294524522,35.3208,0,20,-1,-1,2.400000095367432,11.99936978251625,-9999,3415.644665666667,-0.0068359375,-0.2899932861328125,-0.91632080078125,3415.639668666667,-0.2044594905155038,0.2215855878368067,0.06891227987987107,-2.958045721054077,0.6064062714576721,-1.992845773696899,-0.217836007475853,-0.2466940432786942,0.08308273553848267,XArbitraryZVertical,0.04533614037010068,0.1064296724253212,-0.09757682295992769,0.9884816810378252,0.2192550748586655,-0.06885775178670883,-0.9732347130775452,0,0,0,-1,-1,3404.286036541667,unknown,2,2022-06-02T10:57:46.144+02:00,2022-06-02T10:17:13.754+02:00,538,1.652724,0,0,417.4277,0,0,2022-06-02T10:57:56.370+02:00,675853076.370396,0,3.070312,101.3463,1,0.77
2022-06-02T10:57:57.514+02:00,1654160272.999632,53.22905935069136,10.39852294524522,35.3208,0,20,-1,-1,2.400000095367432,11.99936978251625,-9999,3415.654660666667,-0.013916015625,-0.2386627197265625,-0.937164306640625,3415.649663666667,-0.2172403820141297,0.2287265676464164,0.03420813688140829,-3.264464616775513,0.6920444369316101,-2.042972087860107,-0.2334407418966293,-0.2557918429374695,0.05706536769866943,XArbitraryZVertical,0.02926030933042538,0.1115830577866308,-0.1057426112186929,0.9876798072698926,0.2266047894954681,-0.03420146554708481,-0.9733861088752747,0,0,0,-1,-1,3404.286036541667,unknown,2,2022-06-02T10:57:46.144+02:00,2022-06-02T10:17:13.754+02:00,538,1.652724,0,0,417.4277,0,0,2022-06-02T10:57:56.370+02:00,675853076.370396,0,3.070312,101.3463,1,0.77
2022-06-02T10:57:57.524+02:00,1654160272.999632,53.22905935069136,10.39852294524522,35.3208,0,20,-1,-1,2.400000095367432,11.99936978251625,-9999,3415.664655666667,-0.0081024169921875,-0.2276763916015625,-0.9283599853515625,3415.659657666667,-0.2292452614297788,0.2364144674292812,-0.004534002062793575,-3.755993127822876,0.8171797394752502,-2.085171222686768,-0.2481319457292557,-0.2431967407464981,0.03500974178314209,XArbitraryZVertical,0.0112516711770049,0.1174154465908105,-0.113838986659612,0.986472322134005,0.2342159301042557,0.004533986561000347,-0.9721740484237671,0,0,0,-1,-1,3404.286036541667,unknown,2,2022-06-02T10:57:46.144+02:00,2022-06-02T10:17:13.754+02:00,538,1.652724,0,0,417.4277,0,0,2022-06-02T10:57:56.370+02:00,675853076.370396,0,3.070312,101.3463,1,0.77
2022-06-02T10:57:57.534+02:00,1654160272.999632,53.22905935069136,10.39852294524522,35.3208,0,20,-1,-1,2.400000095367432,11.99936978251625,-9999,3415.674649666667,0.0211944580078125,-0.1828155517578125,-0.979217529296875,3415.669652666667,-0.2399783029944846,0.2450519440177934,-0.04871161089053995,-4.329384803771973,0.9627839922904968,-2.094828128814697,-0.2504213452339172,-0.2763687968254089,0.04061400890350342,XArbitraryZVertical,-0.00937150577827958,0.1241981576887918,-0.1217238723943827,0.9847183700865768,0.2423189431428909,0.04869234934449196,-0.9689739942550659,0,0,0,-1,-1,3404.286036541667,unknown,2,2022-06-02T10:57:46.144+02:00,2022-06-02T10:17:13.754+02:00,538,1.652724,0,0,417.4277,0,0,2022-06-02T10:57:56.370+02:00,675853076.370396,0,3.070312,101.3463,1,0.77
2022-06-02T10:57:57.544+02:00,1654160272.999632,53.22905935069136,10.39852294524522,35.3208,0,20,-1,-1,2.400000095367432,11.99936978251625,-9999,3415.684644666667,0.0626220703125,-0.0300140380859375,-1.010696411132812,3415.679647666667,-0.2483822668807088,0.254755030213197,-0.0983994979454578,-4.898253917694092,1.110615253448486,-1.981953620910645,-0.2295948266983032,-0.2810563743114471,-0.01617366075515747,XArbitraryZVertical,-0.03268891278070322,0.131945089244896,-0.1289192743224287,0.9822941094442715,0.2507893145084381,0.09824078530073166,-0.9630438685417175,0,0,0,-1,-1,3404.286036541667,unknown,2,2022-06-02T10:57:46.144+02:00,2022-06-02T10:17:13.754+02:00,538,1.652724,0,0,417.4277,0,0,2022-06-02T10:57:56.370+02:00,675853076.370396,0,3.070312,101.3463,1,0.77
2022-06-02T10:57:57.554+02:00,1654160272.999632,53.22905935069136,10.39852294524522,35.3208,0,20,-1,-1,2.400000095367432,11.99936978251625,-9999,3415.694639666667,0.0852508544921875,0.2166900634765625,-1.118865966796875,3415.689642666667,-0.2535268422472297,0.266286320767344,-0.1528965976917579,-5.362767219543457,1.3307865858078,-1.817809462547302,-0.1974585056304932,-0.1823156625032425,-0.05719637870788574,XArbitraryZVertical,-0.05835672016804291,0.1408704102889185,-0.1349965898621847,0.9790434010447269,0.2600805759429932,0.1523015797138214,-0.9535000324249268,0,0,0,-1,-1,3404.286036541667,unknown,2,2022-06-02T10:57:46.144+02:00,2022-06-02T10:17:13.754+02:00,538,1.652724,0,0,417.4277,0,0,2022-06-02T10:57:56.370+02:00,675853076.370396,0,3.070312,101.3463,1,0.77
2022-06-02T10:57:57.564+02:00,1654160272.999632,53.22905935069136,10.39852294524522,35.3208,0,20,-1,-1,2.400000095367432,11.99936978251625,-9999,3415.704634666667,0.10992431640625,0.5131988525390625,-1.225433349609375,3415.699636666667,-0.2556464471087942,0.2804086378953687,-0.2103028970746218,-5.560624599456787,1.580414533615112,-1.704126834869385,-0.1854000985622406,0.007933884859085083,-0.1790952682495117,XArbitraryZVertical,-0.08536429145322877,0.1510880356073697,-0.1400750988514659,0.9748150374270738,0.2706509530544281,0.2087561339139938,-0.9397706985473633,0,0,0,-1,-1,3404.286036541667,unknown,2,2022-06-02T10:57:46.144+02:00,2022-06-02T10:17:13.754+02:00,538,1.652724,0,0,417.4277,0,0,2022-06-02T10:57:56.370+02:00,675853076.370396,0,3.070312,101.3463,1,0.77
2022-06-02T10:57:57.574+02:00,1654160272.999632,53.22905935069136,10.39852294524522,35.3208,0,20,-1,-1,2.400000095367432,11.99936978251625,-9999,3415.714628666667,0.1453399658203125,0.720062255859375,-1.314727783203125,3415.709631666667,-0.2561870055463674,0.2973945373762298,-0.2678988983504381,-5.437491893768311,1.842644214630127,-1.687717199325562,-0.1726531982421875,0.2484929263591766,-0.3034350872039795,XArbitraryZVertical,-0.1122377976108127,0.1624917113679409,-0.1448253774355037,0.9695487018349592,0.2825774848461151,0.2647058665752411,-0.9219982624053955,0,0,0,-1,-1,3404.286036541667,unknown,2,2022-06-02T10:57:46.144+02:00,2022-06-02T10:17:13.754+02:00,538,1.652724,0,0,417.4277,0,0,2022-06-02T10:57:56.370+02:00,675853076.370396,0,3.070312,101.3463,1,0.77
2022-06-02T10:57:57.584+02:00,1654160272.999632,53.22905935069136,10.39852294524522,35.3208,0,20,-1,-1,2.400000095367432,11.99936978251625,-9999,3415.724623666667,0.1980133056640625,0.824951171875,-1.353057861328125,3415.719626666667,-0.2564157087243649,0.3171356375102458,-0.3231414966510625,-5.089945316314697,2.128247499465942,-1.68276035785675,-0.1503660082817078,0.4025151431560516,-0.4137716889381409,XArbitraryZVertical,-0.1376205780620756,0.1748786342061291,-0.1498019030982276,0.9633469161144214,0.2957059442996979,0.3175470232963562,-0.9009560942649841,0,0,0,-1,-1,3404.286036541667,unknown,2,2022-06-02T10:57:46.144+02:00,2022-06-02T10:17:13.754+02:00,538,1.652724,0,0,417.4277,0,0,2022-06-02T10:57:56.370+02:00,675853076.370396,0,3.070312,101.3463,1,0.77
