loggingTime(txt),locationTimestamp_since1970(s),locationLatitude(WGS84),locationLongitude(WGS84),locationAltitude(m),locationSpeed(m/s),locationSpeedAccuracy(m/s),locationCourse(°),locationCourseAccuracy(°),locationVerticalAccuracy(m),locationHorizontalAccuracy(m),locationFloor(Z),accelerometerTimestamp_sinceReboot(s),accelerometerAccelerationX(G),accelerometerAccelerationY(G),accelerometerAccelerationZ(G),motionTimestamp_sinceReboot(s),motionYaw(rad),motionRoll(rad),motionPitch(rad),motionRotationRateX(rad/s),motionRotationRateY(rad/s),motionRotationRateZ(rad/s),motionUserAccelerationX(G),motionUserAccelerationY(G),motionUserAccelerationZ(G),motionAttitudeReferenceFrame(txt),motionQuaternionX(R),motionQuaternionY(R),motionQuaternionZ(R),motionQuaternionW(R),motionGravityX(G),motionGravityY(G),motionGravityZ(G),motionMagneticFieldX(µT),motionMagneticFieldY(µT),motionMagneticFieldZ(µT),motionHeading(°),motionMagneticFieldCalibrationAccuracy(Z),activityTimestamp_sinceReboot(s),activity(txt),activityActivityConfidence(Z),activityActivityStartDate(txt),pedometerStartDate(txt),pedometerNumberofSteps(N),pedometerAverageActivePace(s/m),pedometerCurrentPace(s/m),pedometerCurrentCadence(steps/s),pedometerDistance(m),pedometerFloorAscended(N),pedometerFloorDescended(N),pedometerEndDate(txt),altimeterTimestamp_sinceReboot(s),altimeterReset(bool),altimeterRelativeAltitude(m),altimeterPressure(kPa),batteryState(N),batteryLevel(R)
2022-06-02T11:02:03.161+02:00,1654160521.000437,53.22905873479596,10.3985349031276,38.36755,0.07410813,0.5324835,153.8203543731612,91.97995928937431,3,5.999684891258127,-9999,3630.426996375,0.1217193603515625,-0.427764892578125,-0.9053955078125,3630.421998375,0.01589780854136622,0.128218715308893,0.4425315781798247,-0.05623470619320869,0.09659325331449509,-0.04251643270254135,-0.0009414851665496826,0.002447307109832764,-0.00534355640411377,XArbitraryZVertical,0.2185101501977098,0.06424249663005321,0.02179876735264366,0.9734736176522328,0.1155502498149872,-0.4282285571098328,-0.896252453327179,0,0,0,-1,-1,3629.025778125,unknown,2,2022-06-02T11:02:01.737+02:00,2022-06-02T10:17:13.754+02:00,660,1.485084,0,0,531.9442,0,0,2022-06-02T11:02:01.737+02:00,675853321.7367381,0,6.441406,101.3052,1,0.76
2022-06-02T11:02:03.164+02:00,1654160521.000437,53.22905873479596,10.3985349031276,38.36755,0.07410813,0.5324835,153.8203543731612,91.97995928937431,3,5.999684891258127,-9999,3630.436991375,0.1016387939453125,-0.421875,-0.8968658447265625,3630.431993375,0.01531571399934242,0.1297044931171132,0.4419561090698788,-0.05291165038943291,0.07258452475070953,-0.03988409787416458,0.004805751144886017,-5.647540092468262e-05,-0.009071528911590576,XArbitraryZVertical,0.2182326351846667,0.06490401202486161,0.02166006644440376,0.9734950759933542,0.1169136017560959,-0.4277084469795227,-0.8963239789009094,0,0,0,-1,-1,3629.025778125,unknown,2,2022-06-02T11:02:01.737+02:00,2022-06-02T10:17:13.754+02:00,660,1.485084,0,0,531.9442,0,0,2022-06-02T11:02:01.737+02:00,675853321.7367381,0,6.441406,101.3052,1,0.76
2022-06-02T11:02:03.166+02:00,1654160521.000437,53.22905873479596,10.3985349031276,38.36755,0.07410813,0.5324835,153.8203543731612,91.97995928937431,3,5.999684891258127,-9999,3630.446986375,0.0911865234375,-0.4227447509765625,-0.903045654296875,3630.441988375,0.01484458029157219,0.1309447454621788,0.4412554666182437,-0.06478242576122284,0.07916945219039917,-0.03597990423440933,-0.0164254903793335,0.005200028419494629,-0.0003906488418579102,XArbitraryZVertical,0.2178934813621911,0.06545877241560956,0.02154428658480904,0.9735364427595072,0.118064284324646,-0.4270750284194946,-0.8964751362800598,0,0,0,-1,-1,3629.025778125,unknown,2,2022-06-02T11:02:01.737+02:00,2022-06-02T10:17:13.754+02:00,660,1.485084,0,0,531.9442,0,0,2022-06-02T11:02:01.737+02:00,675853321.7367381,0,6.441406,101.3052,1,0.76
2022-06-02T11:02:03.174+02:00,1654160521.000437,53.22905873479596,10.3985349031276,38.36755,0.07410813,0.5324835,153.8203543731612,91.97995928937431,3,5.999684891258127,-9999,3630.456981375,0.1047515869140625,-0.42633056640625,-0.9044189453125,3630.451983375,0.01456949711339346,0.1319555557755729,0.4404549327994103,-0.06579691916704178,0.09391624480485916,-0.0289502926170826,-0.02782881259918213,0.003606289625167847,-0.006351649761199951,XArbitraryZVertical,0.2175018538398219,0.06592375159899558,0.02149539296270946,0.9735937896906158,0.1190153360366821,-0.426351010799408,-0.896694004535675,0,0,0,-1,-1,3629.025778125,unknown,2,2022-06-02T11:02:01.737+02:00,2022-06-02T10:17:13.754+02:00,660,1.485084,0,0,531.9442,0,0,2022-06-02T11:02:01.737+02:00,675853321.7367381,0,6.441406,101.3052,1,0.76
2022-06-02T11:02:03.179+02:00,1654160521.000437,53.22905873479596,10.3985349031276,38.36755,0.07410813,0.5324835,153.8203543731612,91.97995928937431,3,5.999684891258127,-9999,3630.466975375,0.11566162109375,-0.430145263671875,-0.8963470458984375,3630.461978375,0.01426899201570718,0.1331727301327981,0.4396276375856535,-0.08107201009988785,0.09313540160655975,-0.03026402741670609,-0.01540187746286392,-0.0007280111312866211,-0.007521152496337891,XArbitraryZVertical,0.2170959214125526,0.06648671399774089,0.02145526532111204,0.9736469416423695,0.120153471827507,-0.425602525472641,-0.8968977332115173,0,0,0,-1,-1,3629.025778125,unknown,2,2022-06-02T11:02:01.737+02:00,2022-06-02T10:17:13.754+02:00,660,1.485084,0,0,531.9442,0,0,2022-06-02T11:02:01.737+02:00,675853321.7367381,0,6.441406,101.3052,1,0.76
2022-06-02T11:02:03.189+02:00,1654160521.000437,53.22905873479596,10.3985349031276,38.36755,0.07410813,0.5324835,153.8203543731612,91.97995928937431,3,5.999684891258127,-9999,3630.476970375,0.1227264404296875,-0.4341278076171875,-0.89276123046875,3630.471973375,0.01418095286877099,0.1338405336996742,0.4385887634878838,-0.1111565157771111,0.08896256238222122,-0.03885678574442863,-0.005149714648723602,-0.005483061075210571,0.0009080171585083008,XArbitraryZVertical,0.2165857877346784,0.06680622697186082,0.021451788607608,0.9737388612951073,0.1208113357424736,-0.4246622323989868,-0.8972550630569458,0,0,0,-1,-1,3629.025778125,unknown,2,2022-06-02T11:02:01.737+02:00,2022-06-02T10:17:13.754+02:00,660,1.485084,0,0,531.9442,0,0,2022-06-02T11:02:01.737+02:00,675853321.7367381,0,6.441406,101.3052,1,0.76
2022-06-02T11:02:03.199+02:00,1654160521.000437,53.22905873479596,10.3985349031276,38.36755,0.07410813,0.5324835,153.8203543731612,91.97995928937431,3,5.999684891258127,-9999,3630.486965375,0.129730224609375,-0.430755615234375,-0.8894195556640625,3630.481968375,0.01410179040691334,0.1343800293652243,0.4372266051073839,-0.1520213931798935,0.08940278738737106,-0.04730140045285225,0.001353681087493896,-0.01069921255111694,0.005000948905944824,XArbitraryZVertical,0.2159192871347213,0.06706557479028184,0.02142807923638035,0.9738695167487286,0.1213727667927742,-0.4234285950660706,-0.89776211977005,0,0,0,-1,-1,3629.025778125,unknown,2,2022-06-02T11:02:01.737+02:00,2022-06-02T10:17:13.754+02:00,660,1.485084,0,0,531.9442,0,0,2022-06-02T11:02:01.737+02:00,675853321.7367381,0,6.441406,101.3052,1,0.76
2022-06-02T11:02:03.209+02:00,1654160521.000437,53.22905873479596,10.3985349031276,38.36755,0.07410813,0.5324835,153.8203543731612,91.97995928937431,3,5.999684891258127,-9999,3630.496960375,0.1344451904296875,-0.4223175048828125,-0.88726806640625,3630.491963375,0.01390741154456867,0.1352004900934324,0.4356213995126897,-0.1642798483371735,0.08261691778898239,-0.0460146963596344,0.007529459893703461,-0.008781760931015015,0.008915066719055176,XArbitraryZVertical,0.2151352048376795,0.06745040004440689,0.02137028755037496,0.9740176648427336,0.1222007572650909,-0.42197385430336,-0.8983345627784729,0,0,0,-1,-1,3629.025778125,unknown,2,2022-06-02T11:02:01.737+02:00,2022-06-02T10:17:13.754+02:00,660,1.485084,0,0,531.9442,0,0,2022-06-02T11:02:01.737+02:00,675853321.7367381,0,6.441406,101.3052,1,0.76
2022-06-02T11:02:03.219+02:00,1654160521.000437,53.22905873479596,10.3985349031276,38.36755,0.07410813,0.5324835,153.8203543731612,91.97995928937431,3,5.999684891258127,-9999,3630.506955375,0.1395263671875,-0.41705322265625,-0.8955841064453125,3630.501957375,0.01366749766770037,0.1359943077169568,0.4340850530233054,-0.1322673261165619,0.06738682836294174,-0.04129424318671227,0.0114436000585556,-0.001736998558044434,0.01161050796508789,XArbitraryZVertical,0.2143864101387495,0.06781732322568555,0.02128899990550595,0.9741591382726591,0.1230015829205513,-0.4205804765224457,-0.8988785743713379,0,0,0,-1,-1,3629.025778125,unknown,2,2022-06-02T11:02:01.737+02:00,2022-06-02T10:17:13.754+02:00,660,1.485084,0,0,531.9442,0,0,2022-06-02T11:02:01.737+02:00,675853321.7367381,0,6.441406,101.3052,1,0.76
2022-06-02T11:02:03.229+02:00,1654160521.000437,53.22905873479596,10.3985349031276,38.36755,0.07410813,0.5324835,153.8203543731612,91.97995928937431,3,5.999684891258127,-9999,3630.516950375,0.1428375244140625,-0.4159088134765625,-0.8934173583984375,3630.511952375,0.0134065048680411,0.1367445740723744,0.4330041214395925,-0.08596228063106537,0.06617855280637741,-0.03714024275541306,0.01578851789236069,0.002546340227127075,0.003651797771453857,XArbitraryZVertical,0.2138606767580865,0.06815919243075853,0.02120701836793554,0.9742526315931915,0.1237378492951393,-0.4195995628833771,-0.8992358446121216,0,0,0,-1,-1,3629.025778125,unknown,2,2022-06-02T11:02:01.737+02:00,2022-06-02T10:17:13.754+02:00,660,1.485084,0,0,531.9442,0,0,2022-06-02T11:02:01.737+02:00,675853321.7367381,0,6.441406,101.3052,1,0.76
2022-06-02T11:02:03.239+02:00,1654160521.000437,53.22905873479596,10.3985349031276,38.36755,0.07410813,0.5324835,153.8203543731612,91.97995928937431,3,5.999684891258127,-9999,3630.526945375,0.1423492431640625,-0.422760009765625,-0.8863983154296875,3630.521947375,0.01321922024678904,0.1371260835938245,0.4323761856814519,-0.04672566056251526,0.05251680314540863,-0.04350866004824638,0.01872062683105469,0.003120690584182739,0.006032109260559082,XArbitraryZVertical,0.2135570766748728,0.06832760410950972,0.02113601989544322,0.9743089627280834,0.1241168975830078,-0.4190295040607452,-0.8994494080543518,0,0,0,-1,-1,3629.025778125,unknown,2,2022-06-02T11:02:01.737+02:00,2022-06-02T10:17:13.754+02:00,660,1.485084,0,0,531.9442,0,0,2022-06-02T11:02:01.737+02:00,675853321.7367381,0,6.441406,101.3052,1,0.76
2022-06-02T11:02:03.249+02:00,1654160521.000437,53.22905873479596,10.3985349031276,38.36755,0.07410813,0.5324835,153.8203543731612,91.97995928937431,3,5.999684891258127,-9999,3630.536939375,0.1375274658203125,-0.4297637939453125,-0.876678466796875,3630.531942375,0.01298701326885742,0.137259973945295,0.4319782558235239,-0.03727889433503151,0.03902203589677811,-0.0489652156829834,0.01808910071849823,-0.004091829061508179,0.01319962739944458,XArbitraryZVertical,0.2133697044423596,0.06836970038973157,0.02102414568535779,0.9743494849395999,0.1242601349949837,-0.4186681509017944,-0.8995978832244873,0,0,0,-1,-1,3629.025778125,unknown,2,2022-06-02T11:02:01.737+02:00,2022-06-02T10:17:13.754+02:00,660,1.485084,0,0,531.9442,0,0,2022-06-02T11:02:01.737+02:00,675853321.7367381,0,6.441406,101.3052,1,0.76
2022-06-02T11:02:03.259+02:00,1654160521.000437,53.22905873479596,10.3985349031276,38.36755,0.07410813,0.5324835,153.8203543731612,91.97995928937431,3,5.999684891258127,-9999,3630.546934375,0.1351776123046875,-0.431304931640625,-0.883697509765625,3630.541937375,0.01264834087240241,0.1374887636243254,0.4316334033138273,-0.03995909914374352,0.03570640087127686,-0.05009838938713074,0.01304174214601517,-0.01140886545181274,0.02303397655487061,XArbitraryZVertical,0.2132108677839655,0.06844650823351794,0.02087223003510919,0.974382063912723,0.1244857236742973,-0.4183549582958221,-0.8997123837471008,0,0,0,-1,-1,3629.025778125,unknown,2,2022-06-02T11:02:01.737+02:00,2022-06-02T10:17:13.754+02:00,660,1.485084,0,0,531.9442,0,0,2022-06-02T11:02:01.737+02:00,675853321.7367381,0,6.441406,101.3052,1,0.76
2022-06-02T11:02:03.269+02:00,1654160521.000437,53.22905873479596,10.3985349031276,38.36755,0.07410813,0.5324835,153.8203543731612,91.97995928937431,3,5.999684891258127,-9999,3630.556929375,0.140228271484375,-0.4269866943359375,-0.8875579833984375,3630.551932375,0.01217438977187303,0.1378201622242859,0.4313757415626343,-0.04928139597177505,0.02117372676730156,-0.06209319829940796,0.01037892699241638,-0.01318404078483582,0.01608037948608398,XArbitraryZVertical,0.2130980891359085,0.06855856463664857,0.02066815500073608,0.9744032738636049,0.1247986927628517,-0.4181209206581116,-0.8997778296470642,0,0,0,-1,-1,3629.025778125,unknown,2,2022-06-02T11:02:01.737+02:00,2022-06-02T10:17:13.754+02:00,660,1.485084,0,0,531.9442,0,0,2022-06-02T11:02:01.737+02:00,675853321.7367381,0,6.441406,101.3052,1,0.76
2022-06-02T11:02:03.279+02:00,1654160521.000437,53.22905873479596,10.3985349031276,38.36755,0.07410813,0.5324835,153.8203543731612,91.97995928937431,3,5.999684891258127,-9999,3630.566924375,0.1424102783203125,-0.42010498046875,-0.8974456787109375,3630.561927375,0.01156128475601167,0.1382012919751194,0.4317232490735371,-0.03616532683372498,0.01401488576084375,-0.06902940571308136,0.01510666310787201,-0.008550137281417847,0.01202833652496338,XArbitraryZVertical,0.2132845392584024,0.06867733199778157,0.02042156430368446,0.974359326313465,0.1251215934753418,-0.4184365570545197,-0.8995862603187561,0,0,0,-1,-1,3629.025778125,unknown,2,2022-06-02T11:02:01.737+02:00,2022-06-02T10:17:13.754+02:00,660,1.485084,0,0,531.9442,0,0,2022-06-02T11:02:01.737+02:00,675853321.7367381,0,6.441406,101.3052,1,0.76
2022-06-02T11:02:03.289+02:00,1654160521.000437,53.22905873479596,10.3985349031276,38.36755,0.07410813,0.5324835,153.8203543731612,91.97995928937431,3,5.999684891258127,-9999,3630.576919375,0.1381988525390625,-0.421905517578125,-0.907012939453125,3630.571922375,0.01067524466668016,0.1389103745787186,0.4320384220612065,-0.02414288744330406,0.005659749731421471,-0.07891052961349487,0.01666910946369171,-0.001382172107696533,0.001920998096466064,XArbitraryZVertical,0.2134613982728243,0.06892675820385213,0.02007602926293801,0.9743102102680067,0.1257411688566208,-0.4187227785587311,-0.8993666768074036,0,0,0,-1,-1,3629.025778125,unknown,2,2022-06-02T11:02:01.737+02:00,2022-06-02T10:17:13.754+02:00,660,1.485084,0,0,531.9442,0,0,2022-06-02T11:02:01.737+02:00,675853321.7367381,0,6.441406,101.3052,1,0.76
2022-06-02T11:02:03.299+02:00,1654160521.000437,53.22905873479596,10.3985349031276,38.36755,0.07410813,0.5324835,153.8203543731612,91.97995928937431,3,5.999684891258127,-9999,3630.586914375,0.1303863525390625,-0.427459716796875,-0.9068603515625,3630.581916375,0.009611760686542464,0.1398363589659894,0.4321148314895838,-0.01324576418846846,0.006720487028360367,-0.08210179209709167,0.01162940263748169,-0.003113329410552979,-0.007794797420501709,XArbitraryZVertical,0.2135261970202322,0.06926395369292379,0.01965936491265445,0.9742804706904635,0.1265694499015808,-0.418792188167572,-0.8992181420326233,0,0,0,-1,-1,3629.025778125,unknown,2,2022-06-02T11:02:01.737+02:00,2022-06-02T10:17:13.754+02:00,660,1.485084,0,0,531.9442,0,0,2022-06-02T11:02:01.737+02:00,675853321.7367381,0,6.441406,101.3052,1,0.76
2022-06-02T11:02:03.309+02:00,1654160521.000437,53.22905873479596,10.3985349031276,38.36755,0.07410813,0.5324835,153.8203543731612,91.97995928937431,3,5.999684891258127,-9999,3630.596909375,0.1212615966796875,-0.4290618896484375,-0.9090728759765625,3630.591911375,0.008486685643170802,0.1409148661750986,0.4318992209839493,-0.004245977383106947,0.01144446805119514,-0.07812123000621796,0.002834483981132507,-0.008863329887390137,-0.007689833641052246,XArbitraryZVertical,0.2134497471857886,0.06967038792977877,0.01921914072523457,0.9742770180940056,0.12755186855793,-0.4185963869094849,-0.899170458316803,0,0,0,-1,-1,3629.025778125,unknown,2,2022-06-02T11:02:01.737+02:00,2022-06-02T10:17:13.754+02:00,660,1.485084,0,0,531.9442,0,0,2022-06-02T11:02:01.737+02:00,675853321.7367381,0,6.441406,101.3052,1,0.76
2022-06-02T11:02:03.319+02:00,1654160521.000437,53.22905873479596,10.3985349031276,38.36755,0.07410813,0.5324835,153.8203543731612,91.97995928937431,3,5.999684891258127,-9999,3630.606904375,0.11944580078125,-0.4333648681640625,-0.9107818603515625,3630.601906375,0.007371506425614812,0.1420981866095399,0.4316838800586718,-0.0137952733784914,0.01255766954272985,-0.07301995158195496,-0.007366955280303955,-0.01066109538078308,-0.009964704513549805,XArbitraryZVertical,0.2133725515335477,0.070129041531443,0.01879481642411096,0.9742693520933154,0.1286285519599915,-0.4184007942676544,-0.8991081714630127,0,0,0,-1,-1,3629.025778125,unknown,2,2022-06-02T11:02:01.737+02:00,2022-06-02T10:17:13.754+02:00,660,1.485084,0,0,531.9442,0,0,2022-06-02T11:02:01.737+02:00,675853321.7367381,0,6.441406,101.3052,1,0.76
2022-06-02T11:02:03.329+02:00,1654160521.000437,53.22905873479596,10.3985349031276,38.36755,0.07410813,0.5324835,153.8203543731612,91.97995928937431,3,5.999684891258127,-9999,3630.616898375,0.124420166015625,-0.432281494140625,-0.912811279296875,3630.611901375,0.006284609288304537,0.143246846634192,0.4317415481666016,-0.02147013880312443,0.01665807142853737,-0.07590008527040482,-0.01021198928356171,-0.01491168141365051,-0.01184594631195068,XArbitraryZVertical,0.2134281953178389,0.07057226528901048,0.0183899085748294,0.9742329064092413,0.1296577900648117,-0.418453186750412,-0.8989359140396118,0,0,0,-1,-1,3629.025778125,unknown,2,2022-06-02T11:02:01.737+02:00,2022-06-02T10:17:13.754+02:00,660,1.485084,0,0,531.9442,0,0,2022-06-02T11:02:01.737+02:00,675853321.7367381,0,6.441406,101.3052,1,0.76
2022-06-02T11:02:03.339+02:00,1654160521.000437,53.22905873479596,10.3985349031276,38.36755,0.07410813,0.5324835,153.8203543731612,91.97995928937431,3,5.999684891258127,-9999,3630.626893375,0.1302642822265625,-0.4187164306640625,-0.90740966796875,3630.621896375,0.005360265381156563,0.1441861246439551,0.4321701976118854,-0.02866600081324577,0.01652944087982178,-0.0662224292755127,-0.006056129932403564,-0.01343902945518494,-0.01417511701583862,XArbitraryZVertical,0.2136611500056132,0.0709284023796297,0.01805484746038079,0.9741622459630006,0.1304763108491898,-0.4188424646854401,-0.8986361622810364,0,0,0,-1,-1,3629.025778125,unknown,2,2022-06-02T11:02:01.737+02:00,2022-06-02T10:17:13.754+02:00,660,1.485084,0,0,531.9442,0,0,2022-06-02T11:02:01.737+02:00,675853321.7367381,0,6.441406,101.3052,1,0.76
2022-06-02T11:02:03.349+02:00,1654160521.000437,53.22905873479596,10.3985349031276,38.36755,0.07410813,0.5324835,153.8203543731612,91.97995928937431,3,5.999684891258127,-9999,3630.636888375,0.134368896484375,-0.4106292724609375,-0.9033660888671875,3630.631891375,0.00456268787687271,0.1448846022118298,0.4324867032512626,-0.02474046684801579,0.01089692302048206,-0.06413644552230835,-0.0008205175399780273,0.0004134178161621094,-0.008996069431304932,XArbitraryZVertical,0.2138374040087325,0.07118129900421592,0.01775209868114188,0.9741106948236317,0.1310847997665405,-0.4191298484802246,-0.8984135985374451,0,0,0,-1,-1,3629.025778125,unknown,2,2022-06-02T11:02:01.737+02:00,2022-06-02T10:17:13.754+02:00,660,1.485084,0,0,531.9442,0,0,2022-06-02T11:02:01.737+02:00,675853321.7367381,0,6.441406,101.3052,1,0.76
2022-06-02T11:02:03.362+02:00,1654160521.000437,53.22905873479596,10.3985349031276,38.36755,0.07410813,0.5324835,153.8203543731612,91.97995928937431,3,5.999684891258127,-9999,3630.646883375,0.133392333984375,-0.4139556884765625,-0.895904541015625,3630.641886375,0.003666611519195982,0.1457006303260209,0.432636218789758,-0.009554322808980942,0.004869123920798302,-0.07356003671884537,0.00256010890007019,0.008636295795440674,-0.005121767520904541,XArbitraryZVertical,0.2139350203279165,0.07148189992136451,0.0174082045277121,0.9740734359048833,0.1318087875843048,-0.4192655980587006,-0.8982442617416382,0,0,0,-1,-1,3629.025778125,unknown,2,2022-06-02T11:02:01.737+02:00,2022-06-02T10:17:13.754+02:00,660,1.485084,0,0,531.9442,0,0,2022-06-02T11:02:01.737+02:00,675853321.7367381,0,6.441406,101.3052,1,0.76
2022-06-02T11:02:03.372+02:00,1654160521.000437,53.22905873479596,10.3985349031276,38.36755,0.07410813,0.5324835,153.8203543731612,91.97995928937431,3,5.999684891258127,-9999,3630.656878375,0.1324310302734375,-0.428802490234375,-0.888275146484375,3630.651880375,0.002679120602524275,0.1464530596211145,0.4325379054670869,0.005508249625563622,-0.005500426050275564,-0.07654197514057159,0.0009016990661621094,0.005220621824264526,0.002281129360198975,XArbitraryZVertical,0.2139160163849426,0.07174342669289105,0.01700425609809677,0.9740655384645605,0.1324906349182129,-0.4191763401031494,-0.8981856107711792,0,0,0,-1,-1,3629.025778125,unknown,2,2022-06-02T11:02:01.737+02:00,2022-06-02T10:17:13.754+02:00,660,1.485084,0,0,531.9442,0,0,2022-06-02T11:02:01.737+02:00,675853321.7367381,0,6.441406,101.3052,1,0.76
2022-06-02T11:02:03.379+02:00,1654160521.000437,53.22905873479596,10.3985349031276,38.36755,0.07410813,0.5324835,153.8203543731612,91.97995928937431,3,5.999684891258127,-9999,3630.666873375,0.1303863525390625,-0.4399566650390625,-0.8880462646484375,3630.661875375,0.001758404932642622,0.1468820379314015,0.4324392832460427,0.008574878796935081,-0.01409418042749166,-0.07390225678682327,-0.0004509389400482178,-0.00971570611000061,0.009894490242004395,XArbitraryZVertical,0.2138974305626295,0.07185460133275201,0.01659820001338847,0.9740684349449829,0.1328819692134857,-0.4190867841243744,-0.8981696367263794,0,0,0,-1,-1,3629.025778125,unknown,2,2022-06-02T11:02:01.737+02:00,2022-06-02T10:17:13.754+02:00,660,1.485084,0,0,531.9442,0,0,2022-06-02T11:02:01.737+02:00,675853321.7367381,0,6.441406,101.3052,1,0.76
2022-06-02T11:02:03.389+02:00,1654160521.000437,53.22905873479596,10.3985349031276,38.36755,0.07410813,0.5324835,153.8203543731612,91.97995928937431,3,5.999684891258127,-9999,3630.676868375,0.1241302490234375,-0.4249114990234375,-0.892791748046875,3630.671870375,0.001096770773586512,0.1468345433532956,0.4324603336540817,-0.02150449156761169,-0.02426192909479141,-0.05593836307525635,-0.002451673150062561,-0.02085074782371521,0.0101209282875061,XArbitraryZVertical,0.2139318270577187,0.07176054432966851,0.01627163307666393,0.9740733315063124,0.1328380256891251,-0.4191058874130249,-0.8981671929359436,0,0,0,-1,-1,3629.025778125,unknown,2,2022-06-02T11:02:01.737+02:00,2022-06-02T10:17:13.754+02:00,660,1.485084,0,0,531.9442,0,0,2022-06-02T11:02:01.737+02:00,675853321.7367381,0,6.441406,101.3052,1,0.76
2022-06-02T11:02:03.399+02:00,1654160521.000437,53.22905873479596,10.3985349031276,38.36755,0.07410813,0.5324835,153.8203543731612,91.97995928937431,3,5.999684891258127,-9999,3630.686862375,0.1262664794921875,-0.39898681640625,-0.90179443359375,3630.681865375,0.0008566415711629636,0.1462501847816313,0.4321961130389439,-0.05001629516482353,-0.02990942820906639,-0.03980999439954758,-0.008199051022529602,-0.006045490503311157,0.005562484264373779,XArbitraryZVertical,0.2138164683155503,0.07145226818019097,0.01608275807731823,0.9741244238328496,0.1323292851448059,-0.418865978717804,-0.898354172706604,0,0,0,-1,-1,3629.025778125,unknown,2,2022-06-02T11:02:01.737+02:00,2022-06-02T10:17:13.754+02:00,660,1.485084,0,0,531.9442,0,0,2022-06-02T11:02:01.737+02:00,675853321.7367381,0,6.441406,101.3052,1,0.76
2022-06-02T11:02:03.409+02:00,1654160521.000437,53.22905873479596,10.3985349031276,38.36755,0.07410813,0.5324835,153.8203543731612,91.97995928937431,3,5.999684891258127,-9999,3630.696857375,0.1365966796875,-0.373382568359375,-0.9144134521484375,3630.691860375,0.0007706610717256941,0.1455792887483476,0.4320351399555164,-0.02866383455693722,-0.02690345421433449,-0.03228370472788811,-0.005469843745231628,0.01973298192024231,-0.003284931182861328,XArbitraryZVertical,0.2137464925098968,0.07111752548167302,0.01596344134652026,0.9741662765729847,0.1317363381385803,-0.4187197983264923,-0.8985094428062439,0,0,0,-1,-1,3629.025778125,unknown,2,2022-06-02T11:02:01.737+02:00,2022-06-02T10:17:13.754+02:00,660,1.485084,0,0,531.9442,0,0,2022-06-02T11:02:01.737+02:00,675853321.7367381,0,6.441406,101.3052,1,0.76
2022-06-02T11:02:03.419+02:00,1654160521.000437,53.22905873479596,10.3985349031276,38.36755,0.07410813,0.5324835,153.8203543731612,91.97995928937431,3,5.999684891258127,-9999,3630.706852375,0.145294189453125,-0.36883544921875,-0.920654296875,3630.701855375,0.000552874535519348,0.1450845685745308,0.432106499462926,0.008330134674906731,-0.03818779811263084,-0.03681587427854538,0.005309194326400757,0.04540205001831055,-0.01586848497390747,XArbitraryZVertical,0.2137929082127479,0.07085273164766258,0.01580700970283999,0.9741779459085279,0.1312874853610992,-0.4187846183776855,-0.89854496717453,0,0,0,-1,-1,3629.025778125,unknown,2,2022-06-02T11:02:01.737+02:00,2022-06-02T10:17:13.754+02:00,660,1.485084,0,0,531.9442,0,0,2022-06-02T11:02:01.737+02:00,675853321.7367381,0,6.441406,101.3052,1,0.76
2022-06-02T11:02:03.429+02:00,1654160521.000437,53.22905873479596,10.3985349031276,38.36755,0.07410813,0.5324835,153.8203543731612,91.97995928937431,3,5.999684891258127,-9999,3630.716847375,0.143035888671875,-0.3931121826171875,-0.922637939453125,3630.711850375,9.225408558661467e-05,0.1448274878549083,0.432224648723923,0.04953426495194435,-0.03744537755846977,-0.04604472219944,0.01424485445022583,0.05005645751953125,-0.02212458848953247,XArbitraryZVertical,0.2138687910699284,0.07067736157778816,0.01555934129803815,0.9741779299139889,0.1310493350028992,-0.4188919067382812,-0.8985297083854675,0,0,0,-1,-1,3629.025778125,unknown,2,2022-06-02T11:02:01.737+02:00,2022-06-02T10:17:13.754+02:00,660,1.485084,0,0,531.9442,0,0,2022-06-02T11:02:01.737+02:00,675853321.7367381,0,6.441406,101.3052,1,0.76
2022-06-02T11:02:03.439+02:00,1654160521.000437,53.22905873479596,10.3985349031276,38.36755,0.07410813,0.5324835,153.8203543731612,91.97995928937431,3,5.999684891258127,-9999,3630.726842375,0.140960693359375,-0.41357421875,-0.9178466796875,3630.721844375,-0.0005515902773802388,0.1448289316669733,0.43240969364233,0.06118559464812279,-0.03442508727312088,-0.04325825721025467,0.01199643313884735,0.02594774961471558,-0.02418512105941772,XArbitraryZVertical,0.2139816538032348,0.07060775149990299,0.01525242919435515,0.9741630465081202,0.1310394406318665,-0.4190599322319031,-0.8984528183937073,0,0,0,-1,-1,3629.025778125,unknown,2,2022-06-02T11:02:01.737+02:00,2022-06-02T10:17:13.754+02:00,660,1.485084,0,0,531.9442,0,0,2022-06-02T11:02:01.737+02:00,675853321.7367381,0,6.441406,101.3052,1,0.76
2022-06-02T11:02:03.449+02:00,1654160521.000437,53.22905873479596,10.3985349031276,38.36755,0.07410813,0.5324835,153.8203543731612,91.97995928937431,3,5.999684891258127,-9999,3630.736837375,0.139434814453125,-0.423828125,-0.908935546875,3630.731839375,-0.001092891774179076,0.1447752822069458,0.4327506893742507,0.03570233657956123,-0.03762221336364746,-0.03304982930421829,0.009990066289901733,0.005795270204544067,-0.01952826976776123,XArbitraryZVertical,0.2141672341091061,0.07052096186971808,0.01499509139887395,0.9741325974102737,0.1309706270694733,-0.4193695187568665,-0.898318350315094,0,0,0,-1,-1,3629.025778125,unknown,2,2022-06-02T11:02:01.737+02:00,2022-06-02T10:17:13.754+02:00,660,1.485084,0,0,531.9442,0,0,2022-06-02T11:02:01.737+02:00,675853321.7367381,0,6.441406,101.3052,1,0.76
2022-06-02T11:02:03.459+02:00,1654160521.000437,53.22905873479596,10.3985349031276,38.36755,0.07410813,0.5324835,153.8203543731612,91.97995928937431,3,5.999684891258127,-9999,3630.746832375,0.134002685546875,-0.4290771484375,-0.9087371826171875,3630.741834375,-0.001473740721743368,0.1446554007192193,0.4332902459637145,0.003879693103954196,-0.0346466600894928,-0.02483371086418629,0.008604526519775391,-0.003968864679336548,-0.010825514793396,XArbitraryZVertical,0.2144443362466743,0.07041740633247145,0.0148158375615514,0.9740818598099001,0.1308302879333496,-0.4198592603206635,-0.898110032081604,0,0,0,-1,-1,3629.025778125,unknown,2,2022-06-02T11:02:01.737+02:00,2022-06-02T10:17:13.754+02:00,660,1.485084,0,0,531.9442,0,0,2022-06-02T11:02:01.737+02:00,675853321.7367381,0,6.441406,101.3052,1,0.76
2022-06-02T11:02:03.469+02:00,1654160521.000437,53.22905873479596,10.3985349031276,38.36755,0.07410813,0.5324835,153.8203543731612,91.97995928937431,3,5.999684891258127,-9999,3630.756827375,0.1337127685546875,-0.4313201904296875,-0.9064788818359375,3630.751829375,-0.001742392682293604,0.1444532362008103,0.4339207667318949,-0.01015975885093212,-0.03495598584413528,-0.02644585445523262,0.00339210033416748,-0.008645713329315186,-0.01086282730102539,XArbitraryZVertical,0.2147623422824309,0.07028497358364626,0.01468559053622499,0.9740233662181561,0.1306105852127075,-0.4204314351081848,-0.8978742957115173,0,0,0,-1,-1,3629.025778125,unknown,2,2022-06-02T11:02:01.737+02:00,2022-06-02T10:17:13.754+02:00,660,1.485084,0,0,531.9442,0,0,2022-06-02T11:02:01.737+02:00,675853321.7367381,0,6.441406,101.3052,1,0.76
2022-06-02T11:02:03.479+02:00,1654160521.000437,53.22905873479596,10.3985349031276,38.36755,0.07410813,0.5324835,153.8203543731612,91.97995928937431,3,5.999684891258127,-9999,3630.766821375,0.13201904296875,-0.435211181640625,-0.9059906005859375,3630.761824375,-0.001948690607637134,0.1440506000480089,0.4339217290853906,-0.01860064826905727,-0.03155459463596344,-0.03047335520386696,0.003463774919509888,-0.01088786125183105,-0.008552432060241699,XArbitraryZVertical,0.2147730089698687,0.0700667282077243,0.01454192130298082,0.9740388173021705,0.1302490085363388,-0.4204322993755341,-0.897926390171051,0,0,0,-1,-1,3629.025778125,unknown,2,2022-06-02T11:02:01.737+02:00,2022-06-02T10:17:13.754+02:00,660,1.485084,0,0,531.9442,0,0,2022-06-02T11:02:01.737+02:00,675853321.7367381,0,6.441406,101.3052,1,0.76
2022-06-02T11:02:03.489+02:00,1654160521.000437,53.22905873479596,10.3985349031276,38.36755,0.07410813,0.5324835,153.8203543731612,91.97995928937431,3,5.999684891258127,-9999,3630.776816375,0.140045166015625,-0.429107666015625,-0.905792236328125,3630.771819375,-0.002171347089909759,0.143730889309086,0.4330321427540669,-0.02863533794879913,-0.02453483827412128,-0.02619811519980431,0.002003610134124756,-0.01558619737625122,-0.007652759552001953,XArbitraryZVertical,0.2143498572128885,0.06989445022430181,0.01436785554660088,0.9741469728237342,0.1300154328346252,-0.4196249842643738,-0.8983377814292908,0,0,0,-1,-1,3629.025778125,unknown,2,2022-06-02T11:02:01.737+02:00,2022-06-02T10:17:13.754+02:00,660,1.485084,0,0,531.9442,0,0,2022-06-02T11:02:01.737+02:00,675853321.7367381,0,6.441406,101.3052,1,0.76
2022-06-02T11:02:03.499+02:00,1654160521.000437,53.22905873479596,10.3985349031276,38.36755,0.07410813,0.5324835,153.8203543731612,91.97995928937431,3,5.999684891258127,-9999,3630.786811375,0.1432342529296875,-0.42120361328125,-0.9066619873046875,3630.781814375,-0.002472721200043554,0.1437179852513228,0.4311749694690342,-0.03909596800804138,-0.02383788861334324,-0.02825727127492428,0.009929925203323364,-0.01116913557052612,-0.006682991981506348,XArbitraryZVertical,0.2134558295606942,0.0698712720585863,0.01415431352079643,0.9743480946527527,0.1301152408123016,-0.4179385304450989,-0.8991092443466187,0,0,0,-1,-1,3629.025778125,unknown,2,2022-06-02T11:02:01.737+02:00,2022-06-02T10:17:13.754+02:00,660,1.485084,0,0,531.9442,0,0,2022-06-02T11:02:01.737+02:00,675853321.7367381,0,6.441406,101.3052,1,0.76
2022-06-02T11:02:03.509+02:00,1654160521.000437,53.22905873479596,10.3985349031276,38.36755,0.07410813,0.5324835,153.8203543731612,91.97995928937431,3,5.999684891258127,-9999,3630.796806375,0.1435394287109375,-0.4100341796875,-0.9117279052734375,3630.791809375,-0.002862763615456522,0.1439566363958347,0.4291713535886872,-0.03674003854393959,-0.0257535669952631,-0.02377350628376007,0.01278457045555115,-0.005086153745651245,-0.006756901741027832,XArbitraryZVertical,0.2124916192835019,0.06996268175256268,0.01391907611974728,0.974555650233602,0.1304496824741364,-0.4161174595355988,-0.8999050855636597,0,0,0,-1,-1,3629.025778125,unknown,2,2022-06-02T11:02:01.737+02:00,2022-06-02T10:17:13.754+02:00,660,1.485084,0,0,531.9442,0,0,2022-06-02T11:02:01.737+02:00,675853321.7367381,0,6.441406,101.3052,1,0.76
2022-06-02T11:02:03.519+02:00,1654160521.000437,53.22905873479596,10.3985349031276,38.36755,0.07410813,0.5324835,153.8203543731612,91.97995928937431,3,5.999684891258127,-9999,3630.806801375,0.140411376953125,-0.4036712646484375,-0.9163818359375,3630.801803375,-0.003204358572852215,0.1441048409727666,0.4279821111434396,-0.01662731170654297,-0.02082831598818302,-0.02259345911443233,0.01288540661334991,0.005001574754714966,-0.01135307550430298,XArbitraryZVertical,0.2119230492270121,0.07000863639965987,0.0137263417488242,0.9746788743925189,0.1306540220975876,-0.415035754442215,-0.9003748297691345,0,0,0,-1,-1,3629.025778125,unknown,2,2022-06-02T11:02:01.737+02:00,2022-06-02T10:17:13.754+02:00,660,1.485084,0,0,531.9442,0,0,2022-06-02T11:02:01.737+02:00,675853321.7367381,0,6.441406,101.3052,1,0.76
2022-06-02T11:02:03.529+02:00,1654160521.000437,53.22905873479596,10.3985349031276,38.36755,0.07410813,0.5324835,153.8203543731612,91.97995928937431,3,5.999684891258127,-9999,3630.816796375,0.136383056640625,-0.4028472900390625,-0.9140777587890625,3630.811798375,-0.003562069628050616,0.1442738620084534,0.427641525489551,0.002183659002184868,-0.01739310473203659,-0.02799834497272968,0.009584859013557434,0.01105460524559021,-0.01588928699493408,XArbitraryZVertical,0.2117684460449385,0.07005600293558049,0.01355786708453386,0.9747114365282736,0.1308265179395676,-0.4147258698940277,-0.9004925489425659,0,0,0,-1,-1,3629.025778125,unknown,2,2022-06-02T11:02:01.737+02:00,2022-06-02T10:17:13.754+02:00,660,1.485084,0,0,531.9442,0,0,2022-06-02T11:02:01.737+02:00,675853321.7367381,0,6.441406,101.3052,1,0.76
2022-06-02T11:02:03.539+02:00,1654160521.000437,53.22905873479596,10.3985349031276,38.36755,0.07410813,0.5324835,153.8203543731612,91.97995928937431,3,5.999684891258127,-9999,3630.826791375,0.13433837890625,-0.4110565185546875,-0.91864013671875,3630.821793375,-0.004010293171649931,0.1444815577871426,0.4276869317730886,-0.007578956428915262,-0.01330035924911499,-0.03828826546669006,0.005372226238250732,0.01191991567611694,-0.01363098621368408,XArbitraryZVertical,0.2118048757840101,0.07010936885423491,0.01336302533108312,0.9747024029750183,0.1310108304023743,-0.4147671759128571,-0.9004467129707336,0,0,0,-1,-1,3629.025778125,unknown,2,2022-06-02T11:02:01.737+02:00,2022-06-02T10:17:13.754+02:00,660,1.485084,0,0,531.9442,0,0,2022-06-02T11:02:01.737+02:00,675853321.7367381,0,6.441406,101.3052,1,0.76
2022-06-02T11:02:03.549+02:00,1654160521.000437,53.22905873479596,10.3985349031276,38.36755,0.07410813,0.5324835,153.8203543731612,91.97995928937431,3,5.999684891258127,-9999,3630.836785375,0.136138916015625,-0.4144287109375,-0.9156646728515625,3630.831788375,-0.004432940612486102,0.1446406700686028,0.4277745704356697,-0.01879489235579967,-0.000261855311691761,-0.04004641994833946,0.003189489245414734,0.003790438175201416,-0.01825016736984253,XArbitraryZVertical,0.2118613580789886,0.07014138842494495,0.01317701581004923,0.9746903067633808,0.1311488598585129,-0.4148469269275665,-0.9003899097442627,0,0,0,-1,-1,3629.025778125,unknown,2,2022-06-02T11:02:01.737+02:00,2022-06-02T10:17:13.754+02:00,660,1.485084,0,0,531.9442,0,0,2022-06-02T11:02:01.737+02:00,675853321.7367381,0,6.441406,101.3052,1,0.76
2022-06-02T11:02:03.559+02:00,1654160521.000437,53.22905873479596,10.3985349031276,38.36755,0.07410813,0.5324835,153.8203543731612,91.97995928937431,3,5.999684891258127,-9999,3630.846780375,0.139984130859375,-0.4129180908203125,-0.90338134765625,3630.841783375,-0.00488077169242298,0.1448569454339155,0.4277464716671199,-0.04025144875049591,-0.0007936885813251138,-0.04935922473669052,0.004793643951416016,0.0003926455974578857,-0.01529157161712646,XArbitraryZVertical,0.2118619528089678,0.07019959409235017,0.01298067602637838,0.974688668080128,0.131345272064209,-0.4148213565349579,-0.9003730416297913,0,0,0,-1,-1,3629.025778125,unknown,2,2022-06-02T11:02:01.737+02:00,2022-06-02T10:17:13.754+02:00,660,1.485084,0,0,531.9442,0,0,2022-06-02T11:02:01.737+02:00,675853321.7367381,0,6.441406,101.3052,1,0.76
2022-06-02T11:02:03.569+02:00,1654160521.000437,53.22905873479596,10.3985349031276,38.36755,0.07410813,0.5324835,153.8203543731612,91.97995928937431,3,5.999684891258127,-9999,3630.856775375,0.1383514404296875,-0.4142303466796875,-0.9047088623046875,3630.851778375,-0.005416543905863671,0.1451177093842776,0.427744614628598,-0.0294673778116703,0.01046003121882677,-0.05893728882074356,0.008403956890106201,0.001901596784591675,-0.00304180383682251,XArbitraryZVertical,0.2118781773751988,0.07026993246018699,0.01274712732202419,0.9746831915773226,0.1315801739692688,-0.4148196876049042,-0.9003395438194275,0,0,0,-1,-1,3629.025778125,unknown,2,2022-06-02T11:02:01.737+02:00,2022-06-02T10:17:13.754+02:00,660,1.485084,0,0,531.9442,0,0,2022-06-02T11:02:01.737+02:00,675853321.7367381,0,6.441406,101.3052,1,0.76
2022-06-02T11:02:03.579+02:00,1654160521.000437,53.22905873479596,10.3985349031276,38.36755,0.07410813,0.5324835,153.8203543731612,91.97995928937431,3,5.999684891258127,-9999,3630.866770375,0.1361541748046875,-0.416717529296875,-0.8949432373046875,3630.861773375,-0.006129390649284253,0.145715050016378,0.4276859514012938,-0.0196448415517807,0.01450643874704838,-0.06388437002897263,0.006229966878890991,0.0005359351634979248,-0.004423975944519043,XArbitraryZVertical,0.2118709285234828,0.07048606324989347,0.01246091339182243,0.9746727846822495,0.1321214884519577,-0.4147663116455078,-0.9002848267555237,0,0,0,-1,-1,3629.025778125,unknown,2,2022-06-02T11:02:01.737+02:00,2022-06-02T10:17:13.754+02:00,660,1.485084,0,0,531.9442,0,0,2022-06-02T11:02:01.737+02:00,675853321.7367381,0,6.441406,101.3052,1,0.76
2022-06-02T11:02:03.589+02:00,1654160521.000437,53.22905873479596,10.3985349031276,38.36755,0.07410813,0.5324835,153.8203543731612,91.97995928937431,3,5.999684891258127,-9999,3630.876765375,0.132110595703125,-0.420013427734375,-0.8925018310546875,3630.871768375,-0.006973895435459626,0.1464376659135837,0.4274870972033421,-0.01630596816539764,0.011564576998353,-0.07591187953948975,0.003370121121406555,-0.002132147550582886,0.005327522754669189,XArbitraryZVertical,0.2117994048689765,0.07075062833408012,0.01211873313895654,0.9746734896244922,0.1327840387821198,-0.4145853519439697,-0.9002707004547119,0,0,0,-1,-1,3629.025778125,unknown,2,2022-06-02T11:02:01.737+02:00,2022-06-02T10:17:13.754+02:00,660,1.485084,0,0,531.9442,0,0,2022-06-02T11:02:01.737+02:00,675853321.7367381,0,6.441406,101.3052,1,0.76
2022-06-02T11:02:03.599+02:00,1654160521.000437,53.22905873479596,10.3985349031276,38.36755,0.07410813,0.5324835,153.8203543731612,91.97995928937431,3,5.999684891258127,-9999,3630.886760375,0.1251373291015625,-0.41851806640625,-0.89349365234375,3630.881762375,-0.007905724723815939,0.1471586260568179,0.4268971247352804,-0.02742440067231655,0.01229375042021275,-0.08386833965778351,-0.001358330249786377,-0.00596502423286438,0.00791478157043457,XArbitraryZVertical,0.2115406336559846,0.0710090175486752,0.01171953662220312,0.9747158267973165,0.1334689110517502,-0.4140484035015106,-0.9004165530204773,0,0,0,-1,-1,3629.025778125,unknown,2,2022-06-02T11:02:01.737+02:00,2022-06-02T10:17:13.754+02:00,660,1.485084,0,0,531.9442,0,0,2022-06-02T11:02:01.737+02:00,675853321.7367381,0,6.441406,101.3052,1,0.76
2022-06-02T11:02:03.609+02:00,1654160521.000437,53.22905873479596,10.3985349031276,38.36755,0.07410813,0.5324835,153.8203543731612,91.97995928937431,3,5.999684891258127,-9999,3630.896755375,0.118408203125,-0.4124755859375,-0.8957061767578125,3630.891757375,-0.008828971468155752,0.1477664814666332,0.426010734339487,-0.03673581033945084,0.0117266308516264,-0.08494119346141815,-0.00893285870552063,-0.005276679992675781,0.007204294204711914,XArbitraryZVertical,0.2111380186068842,0.07121643074490161,0.01130150063210908,0.9747929026481384,0.1340701878070831,-0.4132413864135742,-0.9006978869438171,0,0,0,-1,-1,3629.025778125,unknown,2,2022-06-02T11:02:01.737+02:00,2022-06-02T10:17:13.754+02:00,660,1.485084,0,0,531.9442,0,0,2022-06-02T11:02:01.737+02:00,675853321.7367381,0,6.441406,101.3052,1,0.76
2022-06-02T11:02:03.619+02:00,1654160521.000437,53.22905873479596,10.3985349031276,38.36755,0.07410813,0.5324835,153.8203543731612,91.97995928937431,3,5.999684891258127,-9999,3630.906750375,0.112335205078125,-0.403167724609375,-0.90472412109375,3630.901752375,-0.00980087663910539,0.1483324075279961,0.4250689490486796,-0.0482393354177475,0.02586748264729977,-0.1073173359036446,-0.01622916758060455,-9.196996688842773e-05,0.005300283432006836,XArbitraryZVertical,0.2107105671100168,0.07139926730521996,0.01085295974381831,0.9748770906566182,0.1346373558044434,-0.4123835861682892,-0.9010064005851746,0,0,0,-1,-1,3629.025778125,unknown,2,2022-06-02T11:02:01.737+02:00,2022-06-02T10:17:13.754+02:00,660,1.485084,0,0,531.9442,0,0,2022-06-02T11:02:01.737+02:00,675853321.7367381,0,6.441406,101.3052,1,0.76
2022-06-02T11:02:03.629+02:00,1654160521.000437,53.22905873479596,10.3985349031276,38.36755,0.07410813,0.5324835,153.8203543731612,91.97995928937431,3,5.999684891258127,-9999,3630.916744375,0.11065673828125,-0.407379150390625,-0.912109375,3630.911747375,-0.01096134686978314,0.149128604560662,0.4241184312010371,-0.0656684935092926,0.05414925515651703,-0.1281193494796753,-0.02307766675949097,0.008349746465682983,-0.003437936305999756,XArbitraryZVertical,0.2102845891103005,0.07167508377405174,0.01033604106877581,0.974954481498964,0.135412871837616,-0.411517471075058,-0.9012861251831055,0,0,0,-1,-1,3629.025778125,unknown,2,2022-06-02T11:02:01.737+02:00,2022-06-02T10:17:13.754+02:00,660,1.485084,0,0,531.9442,0,0,2022-06-02T11:02:01.737+02:00,675853321.7367381,0,6.441406,101.3052,1,0.76
2022-06-02T11:02:03.639+02:00,1654160521.000437,53.22905873479596,10.3985349031276,38.36755,0.07410813,0.5324835,153.8203543731612,91.97995928937431,3,5.999684891258127,-9999,3630.926739375,0.11175537109375,-0.406646728515625,-0.898162841796875,3630.921742375,-0.01221739870415339,0.150187352568039,0.4230330816971076,-0.1050166934728622,0.06171982362866402,-0.1336938738822937,-0.02577704191207886,0.003148883581161499,-0.01052600145339966,XArbitraryZVertical,0.2097954031555482,0.0720709078049908,0.00979458855688356,0.9750362272544835,0.1364337801933289,-0.4105280339717865,-0.9015833735466003,0,0,0,-1,-1,3629.025778125,unknown,2,2022-06-02T11:02:01.737+02:00,2022-06-02T10:17:13.754+02:00,660,1.485084,0,0,531.9442,0,0,2022-06-02T11:02:01.737+02:00,675853321.7367381,0,6.441406,101.3052,1,0.76
2022-06-02T11:02:03.649+02:00,1654160521.000437,53.22905873479596,10.3985349031276,38.36755,0.07410813,0.5324835,153.8203543731612,91.97995928937431,3,5.999684891258127,-9999,3630.936734375,0.1107177734375,-0.405029296875,-0.885711669921875,3630.931737375,-0.01353285772150206,0.1513832640849162,0.4215765640715293,-0.1533552706241608,0.05768872797489166,-0.1464558839797974,-0.02584655582904816,0.00255274772644043,0.003846883773803711,XArbitraryZVertical,0.2091272930231179,0.07253226718533269,0.009223874213067498,0.9751511292752965,0.137601912021637,-0.4091994762420654,-0.9020096659660339,0,0,0,-1,-1,3629.025778125,unknown,2,2022-06-02T11:02:01.737+02:00,2022-06-02T10:17:13.754+02:00,660,1.485084,0,0,531.9442,0,0,2022-06-02T11:02:01.737+02:00,675853321.7367381,0,6.441406,101.3052,1,0.76
2022-06-02T11:02:03.659+02:00,1654160521.000437,53.22905873479596,10.3985349031276,38.36755,0.07410813,0.5324835,153.8203543731612,91.97995928937431,3,5.999684891258127,-9999,3630.946729375,0.0946502685546875,-0.395233154296875,-0.8523406982421875,3630.941732375,-0.01500690837320662,0.1524235680770934,0.4196058215571273,-0.222655788064003,0.03059159778058529,-0.1828972548246384,-0.02794460952281952,0.00237119197845459,0.01694971323013306,XArbitraryZVertical,0.2082155302927214,0.07290820939459956,0.008539058800452387,0.9753243811085078,0.1386623829603195,-0.4074004888534546,-0.9026613831520081,0,0,0,-1,-1,3629.025778125,unknown,2,2022-06-02T11:02:01.737+02:00,2022-06-02T10:17:13.754+02:00,660,1.485084,0,0,531.9442,0,0,2022-06-02T11:02:01.737+02:00,675853321.7367381,0,6.441406,101.3052,1,0.76
2022-06-02T11:02:03.669+02:00,1654160521.000437,53.22905873479596,10.3985349031276,38.36755,0.07410813,0.5324835,153.8203543731612,91.97995928937431,3,5.999684891258127,-9999,3630.956724375,0.05450439453125,-0.3937835693359375,-0.8164520263671875,3630.951726375,-0.01677732039406733,0.1533102584241613,0.417246731501339,-0.2548339068889618,0.01461402885615826,-0.2164297103881836,-0.04495882987976074,0.01001179218292236,0.05114471912384033,XArbitraryZVertical,0.2071263126495621,0.07318467474852007,0.007677623286479808,0.9755427927378326,0.139609083533287,-0.4052449464797974,-0.9034854173660278,0,0,0,-1,-1,3629.025778125,unknown,2,2022-06-02T11:02:01.737+02:00,2022-06-02T10:17:13.754+02:00,660,1.485084,0,0,531.9442,0,0,2022-06-02T11:02:01.737+02:00,675853321.7367381,0,6.441406,101.3052,1,0.76
2022-06-02T11:02:03.679+02:00,1654160521.000437,53.22905873479596,10.3985349031276,38.36755,0.07410813,0.5324835,153.8203543731612,91.97995928937431,3,5.999684891258127,-9999,3630.966719375,0.0196075439453125,-0.3939361572265625,-0.7854461669921875,3630.961721375,-0.01869517215606723,0.1542422333275819,0.4145589657786006,-0.2907857894897461,0.03836676478385925,-0.2368841171264648,-0.08611348271369934,0.009002715349197388,0.08797585964202881,XArbitraryZVertical,0.2058824760143996,0.07347424126268336,0.006734808753454521,0.9757912169703457,0.1406178772449493,-0.4027862846851349,-0.9044278860092163,0,0,0,-1,-1,3629.025778125,unknown,2,2022-06-02T11:02:01.737+02:00,2022-06-02T10:17:13.754+02:00,660,1.485084,0,0,531.9442,0,0,2022-06-02T11:02:01.737+02:00,675853321.7367381,0,6.441406,101.3052,1,0.76
2022-06-02T11:02:03.689+02:00,1654160521.000437,53.22905873479596,10.3985349031276,38.36755,0.07410813,0.5324835,153.8203543731612,91.97995928937431,3,5.999684891258127,-9999,3630.976714375,-0.02960205078125,-0.431915283203125,-0.781341552734375,3630.971716375,-0.02114485442494715,0.1556570920263455,0.4110999833246045,-0.3624935448169708,0.06629985570907593,-0.3434031009674072,-0.1225049793720245,0.005681723356246948,0.1201528310775757,XArbitraryZVertical,0.2042810758011235,0.07395770271741629,0.005549981549081482,0.9760986790050992,0.142112523317337,-0.3996179103851318,-0.9055989980697632,0,0,0,-1,-1,3629.025778125,unknown,2,2022-06-02T11:02:01.737+02:00,2022-06-02T10:17:13.754+02:00,660,1.485084,0,0,531.9442,0,0,2022-06-02T11:02:01.737+02:00,675853321.7367381,0,6.441406,101.3052,1,0.76
2022-06-02T11:02:03.699+02:00,1654160521.000437,53.22905873479596,10.3985349031276,38.36755,0.07410813,0.5324835,153.8203543731612,91.97995928937431,3,5.999684891258127,-9999,3630.986708375,-0.1053466796875,-0.525421142578125,-0.8146820068359375,3630.981711375,-0.02512792982425108,0.1580011287843889,0.4061253081498836,-0.529293954372406,0.1394124180078506,-0.5608851313591003,-0.1741479486227036,-0.03686252236366272,0.125873863697052,XArbitraryZVertical,0.2019962892174172,0.07476502043645156,0.003647107979425339,0.9765214831846799,0.1445458978414536,-0.3950527906417847,-0.9072153568267822,0,0,0,-1,-1,3629.025778125,unknown,2,2022-06-02T11:02:01.737+02:00,2022-06-02T10:17:13.754+02:00,660,1.485084,0,0,531.9442,0,0,2022-06-02T11:02:01.737+02:00,675853321.7367381,0,6.441406,101.3052,1,0.76
2022-06-02T11:02:03.709+02:00,1654160521.000437,53.22905873479596,10.3985349031276,38.36755,0.07410813,0.5324835,153.8203543731612,91.97995928937431,3,5.999684891258127,-9999,3630.996703375,-0.0637054443359375,-0.554473876953125,-0.8192138671875,3630.991706375,-0.03022136071919909,0.1619886312851308,0.3994348563056372,-0.6526291370391846,0.2452146857976913,-0.5552191138267517,-0.2539319097995758,-0.1365233957767487,0.09453797340393066,XArbitraryZVertical,0.1989176371837411,0.07630064830017391,0.001288055332419225,0.9770405352818368,0.1485852152109146,-0.3888977468013763,-0.9092199802398682,0,0,0,-1,-1,3629.025778125,unknown,2,2022-06-02T11:02:01.737+02:00,2022-06-02T10:17:13.754+02:00,660,1.485084,0,0,531.9442,0,0,2022-06-02T11:02:01.737+02:00,675853321.7367381,0,6.441406,101.3052,1,0.76
2022-06-02T11:02:03.719+02:00,1654160521.000437,53.22905873479596,10.3985349031276,38.36755,0.07410813,0.5324835,153.8203543731612,91.97995928937431,3,5.999684891258127,-9999,3631.006698375,-0.1091461181640625,-0.5377960205078125,-0.8133544921875,3631.001701375,-0.03502485982569609,0.1662962915507845,0.3906178605971659,-0.9658421874046326,0.2458469122648239,-0.6389057636260986,-0.2167675495147705,-0.1737140715122223,0.09270387887954712,XArbitraryZVertical,0.1947962099331022,0.07807415555256592,-0.001003781137089949,0.9777308969259552,0.1530620902776718,-0.3807598054409027,-0.9119177460670471,0,0,0,-1,-1,3629.025778125,unknown,2,2022-06-02T11:02:01.737+02:00,2022-06-02T10:17:13.754+02:00,660,1.485084,0,0,531.9442,0,0,2022-06-02T11:02:01.737+02:00,675853321.7367381,0,6.441406,101.3052,1,0.76
2022-06-02T11:02:03.729+02:00,1654160521.000437,53.22905873479596,10.3985349031276,38.36755,0.07410813,0.5324835,153.8203543731612,91.97995928937431,3,5.999684891258127,-9999,3631.016693375,-0.15216064453125,-0.550018310546875,-0.8454742431640625,3631.011696375,-0.04105413554063236,0.1714815855378789,0.378248268782962,-1.257508158683777,0.3434078991413116,-0.8706672191619873,-0.2677263021469116,-0.1685028970241547,0.1023283004760742,XArbitraryZVertical,0.1889950269725907,0.08024649162122292,-0.003989559296869573,0.9786856101868628,0.1585801839828491,-0.3692931234836578,-0.9156827330589294,0,0,0,-1,-1,3629.025778125,unknown,2,2022-06-02T11:02:01.737+02:00,2022-06-02T10:17:13.754+02:00,660,1.485084,0,0,531.9442,0,0,2022-06-02T11:02:01.737+02:00,675853321.7367381,0,6.441406,101.3052,1,0.76
2022-06-02T11:02:03.739+02:00,1654160521.000437,53.22905873479596,10.3985349031276,38.36755,0.07410813,0.5324835,153.8203543731612,91.97995928937431,3,5.999684891258127,-9999,3631.026688375,-0.1629486083984375,-0.526275634765625,-0.8614044189453125,3631.021691375,-0.04847414950399727,0.1781312480033899,0.3630755861064237,-1.494804859161377,0.4426172971725464,-1.015216112136841,-0.3178001046180725,-0.1948673129081726,0.0745428204536438,XArbitraryZVertical,0.1818940785150783,0.08310251342172544,-0.007687831515514958,0.9797700756343641,0.1656394600868225,-0.3551509976387024,-0.9200170040130615,0,0,0,-1,-1,3629.025778125,unknown,2,2022-06-02T11:02:01.737+02:00,2022-06-02T10:17:13.754+02:00,660,1.485084,0,0,531.9442,0,0,2022-06-02T11:02:01.737+02:00,675853321.7367381,0,6.441406,101.3052,1,0.76
2022-06-02T11:02:03.749+02:00,1654160521.000437,53.22905873479596,10.3985349031276,38.36755,0.07410813,0.5324835,153.8203543731612,91.97995928937431,3,5.999684891258127,-9999,3631.036683375,-0.1580047607421875,-0.525360107421875,-0.85272216796875,3631.031685375,-0.05677814888630735,0.1858138230039677,0.3452286091437156,-1.732165455818176,0.5129139423370361,-1.162401676177979,-0.3367946147918701,-0.1878638565540314,0.06339555978775024,XArbitraryZVertical,0.1735429864720017,0.08650341022510988,-0.01191465817086576,0.9809475188549056,0.1738460212945938,-0.338411808013916,-0.9247999787330627,0,0,0,-1,-1,3629.025778125,unknown,2,2022-06-02T11:02:01.737+02:00,2022-06-02T10:17:13.754+02:00,660,1.485084,0,0,531.9442,0,0,2022-06-02T11:02:01.737+02:00,675853321.7367381,0,6.441406,101.3052,1,0.76
2022-06-02T11:02:03.759+02:00,1654160521.000437,53.22905873479596,10.3985349031276,38.36755,0.07410813,0.5324835,153.8203543731612,91.97995928937431,3,5.999684891258127,-9999,3631.046678375,-0.137786865234375,-0.5236358642578125,-0.823516845703125,3631.041680375,-0.06570326012930088,0.1944552165599345,0.324598317883538,-2.006571054458618,0.6243730783462524,-1.26240336894989,-0.3411460220813751,-0.2064320147037506,0.07719403505325317,XArbitraryZVertical,0.1638842367911186,0.09046470210903677,-0.01658341726789797,0.9821827280871561,0.1831412613391876,-0.3189280927181244,-0.9299162030220032,0,0,0,-1,-1,3629.025778125,unknown,2,2022-06-02T11:02:01.737+02:00,2022-06-02T10:17:13.754+02:00,660,1.485084,0,0,531.9442,0,0,2022-06-02T11:02:01.737+02:00,675853321.7367381,0,6.441406,101.3052,1,0.76
2022-06-02T11:02:03.769+02:00,1654160521.000437,53.22905873479596,10.3985349031276,38.36755,0.07410813,0.5324835,153.8203543731612,91.97995928937431,3,5.999684891258127,-9999,3631.056673375,-0.130889892578125,-0.5359344482421875,-0.8226470947265625,3631.051675375,-0.07477614593213128,0.2039994737213548,0.3007010940194311,-2.332573652267456,0.7365778088569641,-1.385175585746765,-0.3312840461730957,-0.2274459600448608,0.1118068099021912,XArbitraryZVertical,0.1526652498135908,0.09503415075859571,-0.02152471906466263,0.9834624508082557,0.1934971958398819,-0.2961899042129517,-0.9353236556053162,0,0,0,-1,-1,3629.025778125,unknown,2,2022-06-02T11:02:01.737+02:00,2022-06-02T10:17:13.754+02:00,660,1.485084,0,0,531.9442,0,0,2022-06-02T11:02:01.737+02:00,675853321.7367381,0,6.441406,101.3052,1,0.76
2022-06-02T11:02:03.779+02:00,1654160521.000437,53.22905873479596,10.3985349031276,38.36755,0.07410813,0.5324835,153.8203543731612,91.97995928937431,3,5.999684891258127,-9999,3631.066667375,-0.0778961181640625,-0.5093536376953125,-0.7872772216796875,3631.061670375,-0.08399969695150131,0.2142910941784928,0.2737055924947256,-2.584617614746094,0.7777508497238159,-1.460761904716492,-0.3356288075447083,-0.2656335234642029,0.1181076169013977,XArbitraryZVertical,0.1399722491810269,0.1001520312970555,-0.02677977737069324,0.9847131814819577,0.2047389000654221,-0.2703009247779846,-0.9407546520233154,0,0,0,-1,-1,3629.025778125,unknown,2,2022-06-02T11:02:01.737+02:00,2022-06-02T10:17:13.754+02:00,660,1.485084,0,0,531.9442,0,0,2022-06-02T11:02:01.737+02:00,675853321.7367381,0,6.441406,101.3052,1,0.76
2022-06-02T11:02:03.789+02:00,1654160521.000437,53.22905873479596,10.3985349031276,38.36755,0.07410813,0.5324835,153.8203543731612,91.97995928937431,3,5.999684891258127,-9999,3631.076662375,-0.0515899658203125,-0.4958953857421875,-0.7474822998046875,3631.071665375,-0.09318366837592908,0.2244887634171794,0.2436658411125448,-2.90098762512207,0.8087484240531921,-1.592790961265564,-0.2939282655715942,-0.2680918574333191,0.1588321328163147,XArbitraryZVertical,0.1258140527288439,0.1054332074655102,-0.03234097289508838,0.9859050384067883,0.2160321623086929,-0.2412617951631546,-0.9461093544960022,0,0,0,-1,-1,3629.025778125,unknown,2,2022-06-02T11:02:01.737+02:00,2022-06-02T10:17:13.754+02:00,660,1.485084,0,0,531.9442,0,0,2022-06-02T11:02:01.737+02:00,675853321.7367381,0,6.441406,101.3052,1,0.76
2022-06-02T11:02:03.799+02:00,1654160521.000437,53.22905873479596,10.3985349031276,38.36755,0.07410813,0.5324835,153.8203543731612,91.97995928937431,3,5.999684891258127,-9999,3631.086657375,-0.037109375,-0.4398345947265625,-0.760772705078125,3631.081660375,-0.1025705817467988,0.2351354761863441,0.209944037417997,-3.251747846603394,0.8978926539421082,-1.715622901916504,-0.2794491946697235,-0.2874902188777924,0.2036473155021667,XArbitraryZVertical,0.1098991093371616,0.1111638490742854,-0.03835455854607326,0.9869618070968835,0.2278592139482498,-0.2084051668643951,-0.9511295557022095,0,0,0,-1,-1,3629.025778125,unknown,2,2022-06-02T11:02:01.737+02:00,2022-06-02T10:17:13.754+02:00,660,1.485084,0,0,531.9442,0,0,2022-06-02T11:02:01.737+02:00,675853321.7367381,0,6.441406,101.3052,1,0.76
2022-06-02T11:02:03.809+02:00,1654160521.000437,53.22905873479596,10.3985349031276,38.36755,0.07410813,0.5324835,153.8203543731612,91.97995928937431,3,5.999684891258127,-9999,3631.096652375,-0.0111236572265625,-0.351776123046875,-0.7772064208984375,3631.091655375,-0.1115858100082728,0.2461611379207971,0.1725225845651691,-3.59689998626709,0.963121771812439,-1.79004180431366,-0.2771745026111603,-0.2681666016578674,0.1946846842765808,XArbitraryZVertical,0.09219025593845409,0.1173552819134597,-0.0445756288308819,0.9877963684052508,0.2400651127099991,-0.1716680228710175,-0.9554573893547058,0,0,0,-1,-1,3629.025778125,unknown,2,2022-06-02T11:02:01.737+02:00,2022-06-02T10:17:13.754+02:00,660,1.485084,0,0,531.9442,0,0,2022-06-02T11:02:01.737+02:00,675853321.7367381,0,6.441406,101.3052,1,0.76
2022-06-02T11:02:03.819+02:00,1654160521.000437,53.22905873479596,10.3985349031276,38.36755,0.07410813,0.5324835,153.8203543731612,91.97995928937431,3,5.999684891258127,-9999,3631.106647375,0.013153076171875,-0.2674560546875,-0.8330841064453125,3631.101649375,-0.1201230541517109,0.2575608762068733,0.1315633969967454,-3.905660390853882,1.064810156822205,-1.88708233833313,-0.2636449933052063,-0.2205919623374939,0.1814508438110352,XArbitraryZVertical,0.07276446919910554,0.1240028917001751,-0.05097293092641821,0.9882967037213346,0.2525213360786438,-0.1311841905117035,-0.9586572051048279,0,0,0,-1,-1,3629.025778125,unknown,2,2022-06-02T11:02:01.737+02:00,2022-06-02T10:17:13.754+02:00,660,1.485084,0,0,531.9442,0,0,2022-06-02T11:02:01.737+02:00,675853321.7367381,0,6.441406,101.3052,1,0.76
2022-06-02T11:02:03.829+02:00,1654160521.000437,53.22905873479596,10.3985349031276,38.36755,0.07410813,0.5324835,153.8203543731612,91.97995928937431,3,5.999684891258127,-9999,3631.116642375,0.0517120361328125,-0.18096923828125,-0.857025146484375,3631.111644375,-0.1283241201315321,0.2696284899066317,0.08772808234278634,-4.135258197784424,1.166975975036621,-1.965679526329041,-0.2521959245204926,-0.1798404902219772,0.1270791292190552,XArbitraryZVertical,0.05197225978359922,0.1312145967482222,-0.05759356063683771,0.988314041779542,0.2653490006923676,-0.08761559426784515,-0.9601632356643677,0,0,0,-1,-1,3629.025778125,unknown,2,2022-06-02T11:02:01.737+02:00,2022-06-02T10:17:13.754+02:00,660,1.485084,0,0,531.9442,0,0,2022-06-02T11:02:01.737+02:00,675853321.7367381,0,6.441406,101.3052,1,0.76
2022-06-02T11:02:03.839+02:00,1654160521.000437,53.22905873479596,10.3985349031276,38.36755,0.07410813,0.5324835,153.8203543731612,91.97995928937431,3,5.999684891258127,-9999,3631.126637375,0.0713958740234375,-0.1007537841796875,-0.8773193359375,3631.121639375,-0.1358537927189885,0.2823145213983877,0.04141082162513453,-4.371640205383301,1.27416718006134,-2.003301620483398,-0.226628452539444,-0.1395702809095383,0.1025647521018982,XArbitraryZVertical,0.0299979063773007,0.138943129516929,-0.06427907947800618,0.9877565991521325,0.2783404588699341,-0.04139898717403412,-0.9595898389816284,0,0,0,-1,-1,3629.025778125,unknown,2,2022-06-02T11:02:01.737+02:00,2022-06-02T10:17:13.754+02:00,660,1.485084,0,0,531.9442,0,0,2022-06-02T11:02:01.737+02:00,675853321.7367381,0,6.441406,101.3052,1,0.76
2022-06-02T11:02:03.849+02:00,1654160521.000437,53.22905873479596,10.3985349031276,38.36755,0.07410813,0.5324835,153.8203543731612,91.97995928937431,3,5.999684891258127,-9999,3631.136631375,0.09417724609375,-0.01177978515625,-0.905914306640625,3631.131634375,-0.1423278995370946,0.2958870465485269,-0.007158324320855439,-4.563285350799561,1.420641422271729,-1.99988055229187,-0.2201851010322571,-0.1079120859503746,0.07920002937316895,XArbitraryZVertical,0.006949867765897792,0.147282118752852,-0.07085298315137277,0.9865289694624992,0.291581004858017,0.007158263120800257,-0.9565193653106689,0,0,0,-1,-1,3629.025778125,unknown,2,2022-06-02T11:02:01.737+02:00,2022-06-02T10:17:13.754+02:00,660,1.485084,0,0,531.9442,0,0,2022-06-02T11:02:01.737+02:00,675853321.7367381,0,6.441406,101.3052,1,0.76
2022-06-02T11:02:03.866+02:00,1654160521.000437,53.22905873479596,10.3985349031276,38.36755,0.07410813,0.5324835,153.8203543731612,91.97995928937431,3,5.999684891258127,-9999,3631.146626375,0.1298828125,0.1213531494140625,-0.93646240234375,3631.141629375,-0.1472857115111507,0.310679719785834,-0.0571456808074032,-4.669323444366455,1.571128726005554,-1.929810643196106,-0.2110296189785004,-0.06889441609382629,0.04465746879577637,XArbitraryZVertical,-0.01676967627478755,0.1563102384751861,-0.07706879663778124,0.9845538642992347,0.3052068650722504,0.05711458250880241,-0.9505717754364014,0,0,0,-1,-1,3629.025778125,unknown,2,2022-06-02T11:02:01.737+02:00,2022-06-02T10:17:13.754+02:00,660,1.485084,0,0,531.9442,0,0,2022-06-02T11:02:01.737+02:00,675853321.7367381,0,6.441406,101.3052,1,0.76
