loggingTime(txt),locationTimestamp_since1970(s),locationLatitude(WGS84),locationLongitude(WGS84),locationAltitude(m),locationSpeed(m/s),locationSpeedAccuracy(m/s),locationCourse(°),locationCourseAccuracy(°),locationVerticalAccuracy(m),locationHorizontalAccuracy(m),locationFloor(Z),accelerometerTimestamp_sinceReboot(s),accelerometerAccelerationX(G),accelerometerAccelerationY(G),accelerometerAccelerationZ(G),motionTimestamp_sinceReboot(s),motionYaw(rad),motionRoll(rad),motionPitch(rad),motionRotationRateX(rad/s),motionRotationRateY(rad/s),motionRotationRateZ(rad/s),motionUserAccelerationX(G),motionUserAccelerationY(G),motionUserAccelerationZ(G),motionAttitudeReferenceFrame(txt),motionQuaternionX(R),motionQuaternionY(R),motionQuaternionZ(R),motionQuaternionW(R),motionGravityX(G),motionGravityY(G),motionGravityZ(G),motionMagneticFieldX(µT),motionMagneticFieldY(µT),motionMagneticFieldZ(µT),motionHeading(°),motionMagneticFieldCalibrationAccuracy(Z),activityTimestamp_sinceReboot(s),activity(txt),activityActivityConfidence(Z),activityActivityStartDate(txt),pedometerStartDate(txt),pedometerNumberofSteps(N),pedometerAverageActivePace(s/m),pedometerCurrentPace(s/m),pedometerCurrentCadence(steps/s),pedometerDistance(m),pedometerFloorAscended(N),pedometerFloorDescended(N),pedometerEndDate(txt),altimeterTimestamp_sinceReboot(s),altimeterReset(bool),altimeterRelativeAltitude(m),altimeterPressure(kPa),batteryState(N),batteryLevel(R)
2022-06-02T10:40:34.951+02:00,1654159230.355633,53.22899670524735,10.39847340447524,43.47166,-1,-1,-1,-1,34.02774429321289,32.01386601977254,-1,2379.189755625,0.0753326416015625,-0.26959228515625,-0.9503326416015625,2379.179760625,0.3707370160070511,0.04130382738449358,0.2897379813537139,-0.1705707013607025,0.2021040320396423,-0.1330724954605103,0.04432183131575584,-0.2998701333999634,-0.04988378286361694,XArbitraryZVertical,0.1380931920468937,0.04668571792999099,0.1852692822105943,0.9718157522815823,0.03957097977399826,-0.2857011258602142,-0.9575014114379883,0,0,0,-1,-1,2374.529200125,unknown,2,2022-06-02T10:40:30.251+02:00,2022-06-02T10:17:13.754+02:00,425,1.143496,0,0,328.2812,0,0,2022-06-02T10:40:32.810+02:00,675852032.8095229,0,7.242188,101.296,1,0.83
2022-06-02T10:40:34.956+02:00,1654159230.355633,53.22899670524735,10.39847340447524,43.47166,-1,-1,-1,-1,34.02774429321289,32.01386601977254,-1,2379.199750625,0.0485076904296875,-0.140777587890625,-0.929412841796875,2379.189755625,0.3692250078342073,0.04365632138439574,0.2882300851818282,-0.07711219042539597,0.1721039265394211,-0.1881092637777328,0.08360035717487335,-0.1724245548248291,-0.008031070232391357,XArbitraryZVertical,0.1371776211203621,0.04758993918404541,0.1847007954498768,0.972009744175403,0.04184213653206825,-0.2842557728290558,-0.9578350186347961,0,0,0,-1,-1,2374.529200125,unknown,2,2022-06-02T10:40:30.251+02:00,2022-06-02T10:17:13.754+02:00,425,1.143496,0,0,328.2812,0,0,2022-06-02T10:40:32.810+02:00,675852032.8095229,0,7.242188,101.296,1,0.83
2022-06-02T10:40:34.959+02:00,1654159230.355633,53.22899670524735,10.39847340447524,43.47166,-1,-1,-1,-1,34.02774429321289,32.01386601977254,-1,2379.209744625,0.063262939453125,-0.18280029296875,-0.9090576171875,2379.199750625,0.367250766461969,0.04567186865552127,0.2886463946526827,0.1801582276821136,0.1096807569265366,-0.156757727265358,0.03156543150544167,0.01506257057189941,0.007297813892364502,XArbitraryZVertical,0.1372418939678373,0.04847116161007747,0.183878574990907,0.9721130171517807,0.04376720637083054,-0.2846548855304718,-0.9576303958892822,0,0,0,-1,-1,2374.529200125,unknown,2,2022-06-02T10:40:30.251+02:00,2022-06-02T10:17:13.754+02:00,425,1.143496,0,0,328.2812,0,0,2022-06-02T10:40:32.810+02:00,675852032.8095229,0,7.242188,101.296,1,0.83
2022-06-02T10:40:34.971+02:00,1654159230.355633,53.22899670524735,10.39847340447524,43.47166,-1,-1,-1,-1,34.02774429321289,32.01386601977254,-1,2379.219739625,0.075775146484375,-0.269317626953125,-0.906951904296875,2379.209744625,0.366067112533458,0.04688384618311826,0.2911818576990729,0.3085566461086273,0.06326232850551605,-0.05255135893821716,0.003613855689764023,0.1463069319725037,0.02743983268737793,XArbitraryZVertical,0.1383933721079937,0.04920311395219219,0.1833819563388122,0.972006832223306,0.04489383101463318,-0.2870845198631287,-0.9568526744842529,0,0,0,-1,-1,2374.529200125,unknown,2,2022-06-02T10:40:30.251+02:00,2022-06-02T10:17:13.754+02:00,425,1.143496,0,0,328.2812,0,0,2022-06-02T10:40:32.810+02:00,675852032.8095229,0,7.242188,101.296,1,0.83
2022-06-02T10:40:34.973+02:00,1654159230.355633,53.22899670524735,10.39847340447524,43.47166,-1,-1,-1,-1,34.02774429321289,32.01386601977254,-1,2379.229734625,0.076629638671875,-0.2760162353515625,-0.9099578857421875,2379.219739625,0.3655663325939514,0.04763420919981954,0.293819620942075,0.2045133262872696,0.05643557757139206,-0.02545822225511074,0.01768734306097031,0.1068099439144135,0.04700136184692383,XArbitraryZVertical,0.1396205088287008,0.04976576042601348,0.183186124728865,0.9718395503453698,0.0455755889415741,-0.2896102666854858,-0.9560589790344238,0,0,0,-1,-1,2374.529200125,unknown,2,2022-06-02T10:40:30.251+02:00,2022-06-02T10:17:13.754+02:00,425,1.143496,0,0,328.2812,0,0,2022-06-02T10:40:32.810+02:00,675852032.8095229,0,7.242188,101.296,1,0.83
2022-06-02T10:40:34.975+02:00,1654159230.355633,53.22899670524735,10.39847340447524,43.47166,-1,-1,-1,-1,34.02774429321289,32.01386601977254,-1,2379.239728625,0.07073974609375,-0.223419189453125,-0.9178009033203125,2379.229734625,0.3653618520767714,0.04819000997487274,0.2950790294483133,0.06078255549073219,0.03838873654603958,-0.002294646576046944,0.02968578785657883,0.02149781584739685,0.04871654510498047,XArbitraryZVertical,0.1401874616691597,0.05013249807677484,0.1831235342102221,0.9717509007719349,0.04608935490250587,-0.2908154726028442,-0.9556683897972107,0,0,0,-1,-1,2374.529200125,unknown,2,2022-06-02T10:40:30.251+02:00,2022-06-02T10:17:13.754+02:00,425,1.143496,0,0,328.2812,0,0,2022-06-02T10:40:32.810+02:00,675852032.8095229,0,7.242188,101.296,1,0.83
2022-06-02T10:40:34.976+02:00,1654159230.355633,53.22899670524735,10.39847340447524,43.47166,-1,-1,-1,-1,34.02774429321289,32.01386601977254,-1,2379.249723625,0.0854644775390625,-0.2053070068359375,-0.92718505859375,2379.239728625,0.3655345419517782,0.04848511314394268,0.29529262080294,-0.007878262549638748,0.0253235325217247,0.04077346250414848,0.03026126697659492,0.01500359177589417,0.04563486576080322,XArbitraryZVertical,0.1402600125183475,0.05030680236991757,0.1832277863227365,0.9717117691584372,0.04636836051940918,-0.2910198271274567,-0.9555926918983459,0,0,0,-1,-1,2374.529200125,unknown,2,2022-06-02T10:40:30.251+02:00,2022-06-02T10:17:13.754+02:00,425,1.143496,0,0,328.2812,0,0,2022-06-02T10:40:32.810+02:00,675852032.8095229,0,7.242188,101.296,1,0.83
2022-06-02T10:40:34.982+02:00,1654159230.355633,53.22899670524735,10.39847340447524,43.47166,-1,-1,-1,-1,34.02774429321289,32.01386601977254,-1,2379.259718625,0.107757568359375,-0.2254791259765625,-0.95294189453125,2379.249723625,0.3662009238990867,0.04844039768319693,0.2952454046053957,0.005652692168951035,-0.004363855812698603,0.08470556885004044,0.02441343665122986,0.06755545735359192,0.0378076434135437,XArbitraryZVertical,0.140224374613787,0.05032763906986839,0.1835484785140012,0.971655329582926,0.04632629454135895,-0.2909746468067169,-0.9556084871292114,0,0,0,-1,-1,2374.529200125,unknown,2,2022-06-02T10:40:30.251+02:00,2022-06-02T10:17:13.754+02:00,425,1.143496,0,0,328.2812,0,0,2022-06-02T10:40:32.810+02:00,675852032.8095229,0,7.242188,101.296,1,0.83
2022-06-02T10:40:34.992+02:00,1654159230.355633,53.22899670524735,10.39847340447524,43.47166,-1,-1,-1,-1,34.02774429321289,32.01386601977254,-1,2379.269713625,0.1103973388671875,-0.2412872314453125,-0.9579925537109375,2379.259718625,0.3671876098080792,0.04799622442125757,0.2954383225429753,0.02327243238687515,-0.03161891177296638,0.1061107218265533,0.0395653247833252,0.08585220575332642,0.02838790416717529,XArbitraryZVertical,0.1403342330362827,0.05019811462592699,0.1839963304362454,0.9715614873758011,0.04589914157986641,-0.2911592125892639,-0.9555729031562805,0,0,0,-1,-1,2374.529200125,unknown,2,2022-06-02T10:40:30.251+02:00,2022-06-02T10:17:13.754+02:00,425,1.143496,0,0,328.2812,0,0,2022-06-02T10:40:32.810+02:00,675852032.8095229,0,7.242188,101.296,1,0.83
2022-06-02T10:40:35.004+02:00,1654159230.355633,53.22899670524735,10.39847340447524,43.47166,-1,-1,-1,-1,34.02774429321289,32.01386601977254,-1,2379.279707625,0.0987091064453125,-0.2655181884765625,-0.9517974853515625,2379.269713625,0.3683831308302543,0.04731436570360815,0.2956320796761385,0.008651644922792912,-0.0424596406519413,0.1283873319625854,0.06251266598701477,0.06586542725563049,0.002605736255645752,XArbitraryZVertical,0.1404613684007255,0.04996801437933017,0.1845288453257289,0.9714538962090122,0.04524489492177963,-0.291344553232193,-0.9555476307868958,0,0,0,-1,-1,2374.529200125,unknown,2,2022-06-02T10:40:30.251+02:00,2022-06-02T10:17:13.754+02:00,425,1.143496,0,0,328.2812,0,0,2022-06-02T10:40:32.810+02:00,675852032.8095229,0,7.242188,101.296,1,0.83
2022-06-02T10:40:35.012+02:00,1654159230.355633,53.22899670524735,10.39847340447524,43.47166,-1,-1,-1,-1,34.02774429321289,32.01386601977254,-1,2379.289702625,0.0923614501953125,-0.2862701416015625,-0.943756103515625,2379.279707625,0.3697078858171997,0.04654583654827125,0.2957257809744944,0.001444065943360329,-0.03922230377793312,0.1253984570503235,0.06588808447122574,0.05014693737030029,-0.002437710762023926,XArbitraryZVertical,0.1405449362244739,0.04969613409938762,0.1851180676849755,0.9713437743900322,0.04450924694538116,-0.2914341986179352,-0.9555548429489136,0,0,0,-1,-1,2374.529200125,unknown,2,2022-06-02T10:40:30.251+02:00,2022-06-02T10:17:13.754+02:00,425,1.143496,0,0,328.2812,0,0,2022-06-02T10:40:32.810+02:00,675852032.8095229,0,7.242188,101.296,1,0.83
2022-06-02T10:40:35.022+02:00,1654159230.355633,53.22899670524735,10.39847340447524,43.47166,-1,-1,-1,-1,34.02774429321289,32.01386601977254,-1,2379.299697625,0.0915679931640625,-0.2937774658203125,-0.9619903564453125,2379.289702625,0.3710292827936243,0.04584202880539606,0.2957245897692161,-0.007598198018968105,-0.03276766836643219,0.135385125875473,0.05487237125635147,0.02591487765312195,0.00378882884979248,XArbitraryZVertical,0.140576857057921,0.04944709809574862,0.1857103431106637,0.9712387707030714,0.04383672401309013,-0.2914330661296844,-0.9555862545967102,0,0,0,-1,-1,2374.529200125,unknown,2,2022-06-02T10:40:30.251+02:00,2022-06-02T10:17:13.754+02:00,425,1.143496,0,0,328.2812,0,0,2022-06-02T10:40:32.810+02:00,675852032.8095229,0,7.242188,101.296,1,0.83
2022-06-02T10:40:35.032+02:00,1654159230.355633,53.22899670524735,10.39847340447524,43.47166,-1,-1,-1,-1,34.02774429321289,32.01386601977254,-1,2379.309691625,0.0746612548828125,-0.2933807373046875,-0.9871978759765625,2379.299697625,0.3725673090719359,0.04513336722394157,0.2957731705622569,0.008874252438545227,-0.02574571035802364,0.1604742407798767,0.04920255765318871,0.005209386348724365,0.01184684038162231,XArbitraryZVertical,0.1406284621556989,0.04921546166286259,0.1864072371098226,0.971109595273423,0.0431588888168335,-0.2914795279502869,-0.9556029438972473,0,0,0,-1,-1,2374.529200125,unknown,2,2022-06-02T10:40:30.251+02:00,2022-06-02T10:17:13.754+02:00,425,1.143496,0,0,328.2812,0,0,2022-06-02T10:40:32.810+02:00,675852032.8095229,0,7.242188,101.296,1,0.83
2022-06-02T10:40:35.042+02:00,1654159230.355633,53.22899670524735,10.39847340447524,43.47166,-1,-1,-1,-1,34.02774429321289,32.01386601977254,-1,2379.319686625,0.06793212890625,-0.3050384521484375,-0.9827880859375,2379.309691625,0.3742441754375961,0.04446065659388626,0.2960887191113225,0.0484110414981842,-0.01587490364909172,0.1613918840885162,0.0490560457110405,-0.001996099948883057,-0.006450533866882324,XArbitraryZVertical,0.1408035100740455,0.04903528872599226,0.1871731835931832,0.9709459091089028,0.0425119437277317,-0.2917813658714294,-0.9555398225784302,0,0,0,-1,-1,2374.529200125,unknown,2,2022-06-02T10:40:30.251+02:00,2022-06-02T10:17:13.754+02:00,425,1.143496,0,0,328.2812,0,0,2022-06-02T10:40:32.810+02:00,675852032.8095229,0,7.242188,101.296,1,0.83
2022-06-02T10:40:35.052+02:00,1654159230.355633,53.22899670524735,10.39847340447524,43.47166,-1,-1,-1,-1,34.02774429321289,32.01386601977254,-1,2379.329681625,0.068206787109375,-0.3070526123046875,-0.9808502197265625,2379.319686625,0.3758140115316572,0.04390643953173833,0.296875056758382,0.09679402410984039,-0.01208602450788021,0.1502556204795837,0.03268896788358688,-0.0008473396301269531,-0.03186410665512085,XArbitraryZVertical,0.1411992132568962,0.04894814769122723,0.1878937714010393,0.9707536105547084,0.04197227582335472,-0.2925333976745605,-0.9553337097167969,0,0,0,-1,-1,2374.529200125,unknown,2,2022-06-02T10:40:30.251+02:00,2022-06-02T10:17:13.754+02:00,425,1.143496,0,0,328.2812,0,0,2022-06-02T10:40:32.810+02:00,675852032.8095229,0,7.242188,101.296,1,0.83
2022-06-02T10:40:35.062+02:00,1654159230.355633,53.22899670524735,10.39847340447524,43.47166,-1,-1,-1,-1,34.02774429321289,32.01386601977254,-1,2379.339676625,0.0684051513671875,-0.311798095703125,-0.968841552734375,2379.329681625,0.3773262430755244,0.04341346173230295,0.2979584226540168,0.1065027415752411,-0.003613909473642707,0.1514504998922348,0.02644459158182144,-0.0114692747592926,-0.02775096893310547,XArbitraryZVertical,0.1417350436934934,0.04891437589709797,0.1885892763892645,0.9705424224397793,0.04148753359913826,-0.2935692071914673,-0.9550371170043945,0,0,0,-1,-1,2374.529200125,unknown,2,2022-06-02T10:40:30.251+02:00,2022-06-02T10:17:13.754+02:00,425,1.143496,0,0,328.2812,0,0,2022-06-02T10:40:32.810+02:00,675852032.8095229,0,7.242188,101.296,1,0.83
2022-06-02T10:40:35.072+02:00,1654159230.355633,53.22899670524735,10.39847340447524,43.47166,-1,-1,-1,-1,34.02774429321289,32.01386601977254,-1,2379.349670625,0.0635833740234375,-0.3443756103515625,-0.962127685546875,2379.339676625,0.3787380964505546,0.04332805710857134,0.2983353239821316,0.07799839228391647,-0.005754824727773666,0.1489844173192978,0.02680560573935509,-0.01312315464019775,-0.02592015266418457,XArbitraryZVertical,0.1418916683191535,0.04900746220275551,0.18926701830822,0.97038283839648,0.04140117391943932,-0.2939294576644897,-0.9549300670623779,0,0,0,-1,-1,2374.529200125,unknown,2,2022-06-02T10:40:30.251+02:00,2022-06-02T10:17:13.754+02:00,425,1.143496,0,0,328.2812,0,0,2022-06-02T10:40:32.810+02:00,675852032.8095229,0,7.242188,101.296,1,0.83
2022-06-02T10:40:35.082+02:00,1654159230.355633,53.22899670524735,10.39847340447524,43.47166,-1,-1,-1,-1,34.02774429321289,32.01386601977254,-1,2379.359665625,0.0645904541015625,-0.355712890625,-0.961517333984375,2379.349670625,0.379834867430309,0.04399674358354264,0.2978396886180672,0.01866063661873341,0.002456499729305506,0.1263792365789413,0.02635902911424637,-0.01834240555763245,-0.0137939453125,XArbitraryZVertical,0.1415605361400756,0.04936420248607931,0.1898481891595721,0.9702996787647916,0.04204611852765083,-0.2934556901454926,-0.955047607421875,0,0,0,-1,-1,2374.529200125,unknown,2,2022-06-02T10:40:30.251+02:00,2022-06-02T10:17:13.754+02:00,425,1.143496,0,0,328.2812,0,0,2022-06-02T10:40:32.810+02:00,675852032.8095229,0,7.242188,101.296,1,0.83
2022-06-02T10:40:35.092+02:00,1654159230.355633,53.22899670524735,10.39847340447524,43.47166,-1,-1,-1,-1,34.02774429321289,32.01386601977254,-1,2379.369660625,0.06842041015625,-0.325531005859375,-0.9778289794921875,2379.359665625,0.3808440570445865,0.04460453569365291,0.2970625348721538,-0.04710133001208305,0.006663761101663113,0.1177825629711151,0.02094662934541702,-0.05166292190551758,-0.006878256797790527,XArbitraryZVertical,0.141100280993335,0.04965901885422948,0.1903832741096496,0.9702467386081047,0.04263673350214958,-0.2927126586437225,-0.9552493691444397,0,0,0,-1,-1,2374.529200125,unknown,2,2022-06-02T10:40:30.251+02:00,2022-06-02T10:17:13.754+02:00,425,1.143496,0,0,328.2812,0,0,2022-06-02T10:40:32.810+02:00,675852032.8095229,0,7.242188,101.296,1,0.83
2022-06-02T10:40:35.102+02:00,1654159230.355633,53.22899670524735,10.39847340447524,43.47166,-1,-1,-1,-1,34.02774429321289,32.01386601977254,-1,2379.379654625,0.055633544921875,-0.2922515869140625,-0.9990386962890625,2379.369660625,0.3817178405141679,0.04525833362081398,0.2961015025983015,-0.0620712898671627,0.006996789947152138,0.09520974010229111,0.02131647616624832,-0.0639193058013916,-0.006015419960021973,XArbitraryZVertical,0.1405493936269702,0.04994924999244389,0.1908561665666871,0.9702188739029357,0.04327397421002388,-0.2917935848236084,-0.9555018544197083,0,0,0,-1,-1,2374.529200125,unknown,2,2022-06-02T10:40:30.251+02:00,2022-06-02T10:17:13.754+02:00,425,1.143496,0,0,328.2812,0,0,2022-06-02T10:40:32.810+02:00,675852032.8095229,0,7.242188,101.296,1,0.83
2022-06-02T10:40:35.112+02:00,1654159230.355633,53.22899670524735,10.39847340447524,43.47166,-1,-1,-1,-1,34.02774429321289,32.01386601977254,-1,2379.389649625,0.043548583984375,-0.27923583984375,-0.997711181640625,2379.379654625,0.3822814388771331,0.04616395007541041,0.2957039748842969,-0.01007839944213629,0.01872481778264046,0.06604999303817749,0.02427577972412109,-0.03411766886711121,-0.02225089073181152,XArbitraryZVertical,0.1402556513484209,0.05039146333309708,0.1911942733033968,0.9701720453371887,0.04414462298154831,-0.2914133369922638,-0.955578088760376,0,0,0,-1,-1,2374.529200125,unknown,2,2022-06-02T10:40:30.251+02:00,2022-06-02T10:17:13.754+02:00,425,1.143496,0,0,328.2812,0,0,2022-06-02T10:40:32.810+02:00,675852032.8095229,0,7.242188,101.296,1,0.83
2022-06-02T10:40:35.122+02:00,1654159230.355633,53.22899670524735,10.39847340447524,43.47166,-1,-1,-1,-1,34.02774429321289,32.01386601977254,-1,2379.399644625,0.04510498046875,-0.289642333984375,-0.9814605712890625,2379.389649625,0.3825363220670623,0.0471823476948805,0.2959959220669601,0.05976596102118492,0.02274838835000992,0.04193872958421707,0.01051979511976242,-0.0005589723587036133,-0.04359102249145508,XArbitraryZVertical,0.1402935989452311,0.05093027361590947,0.1913885631360929,0.9701000773312782,0.04511374235153198,-0.2916926145553589,-0.9554476141929626,0,0,0,-1,-1,2374.529200125,unknown,2,2022-06-02T10:40:30.251+02:00,2022-06-02T10:17:13.754+02:00,425,1.143496,0,0,328.2812,0,0,2022-06-02T10:40:32.810+02:00,675852032.8095229,0,7.242188,101.296,1,0.83
2022-06-02T10:40:35.132+02:00,1654159230.355633,53.22899670524735,10.39847340447524,43.47166,-1,-1,-1,-1,34.02774429321289,32.01386601977254,-1,2379.409638625,0.0578155517578125,-0.30523681640625,-0.97674560546875,2379.399644625,0.3827161799837338,0.04788042266816514,0.2966369300960941,0.08434214442968369,0.02826885506510735,0.03079845756292343,-0.002223175019025803,0.01306983828544617,-0.04248219728469849,XArbitraryZVertical,0.1405335065546724,0.05134063925718954,0.1915232049869507,0.9700171768758856,0.04577174782752991,-0.2923056781291962,-0.9552289247512817,0,0,0,-1,-1,2374.529200125,unknown,2,2022-06-02T10:40:30.251+02:00,2022-06-02T10:17:13.754+02:00,425,1.143496,0,0,328.2812,0,0,2022-06-02T10:40:32.810+02:00,675852032.8095229,0,7.242188,101.296,1,0.83
2022-06-02T10:40:35.142+02:00,1654159230.355633,53.22899670524735,10.39847340447524,43.47166,-1,-1,-1,-1,34.02774429321289,32.01386601977254,-1,2379.419633625,0.068878173828125,-0.318756103515625,-0.98980712890625,2379.409638625,0.3828547145462331,0.04854207796603755,0.29744337013249,0.04965167492628098,0.02555509470403194,0.02689719386398792,-0.001287344843149185,0.003434449434280396,-0.02649784088134766,XArbitraryZVertical,0.1408582157435495,0.0517457030195404,0.1916350278171545,0.9699264675149788,0.04639231786131859,-0.2930768132209778,-0.9549626708030701,0,0,0,-1,-1,2374.529200125,unknown,2,2022-06-02T10:40:30.251+02:00,2022-06-02T10:17:13.754+02:00,425,1.143496,0,0,328.2812,0,0,2022-06-02T10:40:32.810+02:00,675852032.8095229,0,7.242188,101.296,1,0.83
2022-06-02T10:40:35.152+02:00,1654159230.355633,53.22899670524735,10.39847340447524,43.47166,-1,-1,-1,-1,34.02774429321289,32.01386601977254,-1,2379.429628625,0.06585693359375,-0.3180694580078125,-0.9872894287109375,2379.419633625,0.3829194694344284,0.04941591034122864,0.2977646017370819,-0.02357806265354156,0.03158502280712128,0.02561568282544613,0.01059342175722122,-0.0118529200553894,-0.02191787958145142,XArbitraryZVertical,0.1409287971429549,0.05220368029159517,0.1917272930682923,0.9698733597206838,0.04722212255001068,-0.293383926153183,-0.9548277258872986,0,0,0,-1,-1,2374.529200125,unknown,2,2022-06-02T10:40:30.251+02:00,2022-06-02T10:17:13.754+02:00,425,1.143496,0,0,328.2812,0,0,2022-06-02T10:40:32.810+02:00,675852032.8095229,0,7.242188,101.296,1,0.83
2022-06-02T10:40:35.162+02:00,1654159230.355633,53.22899670524735,10.39847340447524,43.47166,-1,-1,-1,-1,34.02774429321289,32.01386601977254,-1,2379.439623625,0.0585174560546875,-0.3161773681640625,-0.97259521484375,2379.429628625,0.3829674332674051,0.05037819773939222,0.2976093380652948,-0.08991757035255432,0.03792061656713486,0.01566431298851967,0.02073495462536812,-0.02552062273025513,-0.03497982025146484,XArbitraryZVertical,0.1407598623875811,0.05265937374958184,0.1918186205082222,0.9698552423951895,0.04814321547746658,-0.2932354807853699,-0.9548273086547852,0,0,0,-1,-1,2374.529200125,unknown,2,2022-06-02T10:40:30.251+02:00,2022-06-02T10:17:13.754+02:00,425,1.143496,0,0,328.2812,0,0,2022-06-02T10:40:32.810+02:00,675852032.8095229,0,7.242188,101.296,1,0.83
2022-06-02T10:40:35.174+02:00,1654159230.355633,53.22899670524735,10.39847340447524,43.47166,-1,-1,-1,-1,34.02774429321289,32.01386601977254,-1,2379.449617625,0.045196533203125,-0.310760498046875,-0.9664764404296875,2379.439623625,0.383048564621066,0.05110901673095559,0.2977845409108913,-0.1112018227577209,0.03822235390543938,0.01076143328100443,0.01701854169368744,-0.02466648817062378,-0.03254890441894531,XArbitraryZVertical,0.1407727040171675,0.05303564012144249,0.1919091007660897,0.9698148946487847,0.04883838072419167,-0.2934029698371887,-0.9547405242919922,0,0,0,-1,-1,2374.529200125,unknown,2,2022-06-02T10:40:30.251+02:00,2022-06-02T10:17:13.754+02:00,425,1.143496,0,0,328.2812,0,0,2022-06-02T10:40:32.810+02:00,675852032.8095229,0,7.242188,101.296,1,0.83
2022-06-02T10:40:35.182+02:00,1654159230.355633,53.22899670524735,10.39847340447524,43.47166,-1,-1,-1,-1,34.02774429321289,32.01386601977254,-1,2379.459612625,0.0410614013671875,-0.2975311279296875,-0.975128173828125,2379.449617625,0.3830709737247163,0.05182335566634651,0.2980166326834146,-0.1001309603452682,0.04333902150392532,0.001940579153597355,0.009000599384307861,-0.02255254983901978,-0.01795780658721924,XArbitraryZVertical,0.1408162599750503,0.05340500087824021,0.1919698725188848,0.9697762925662063,0.04951684921979904,-0.2936248481273651,-0.954637348651886,0,0,0,-1,-1,2374.529200125,unknown,2,2022-06-02T10:40:30.251+02:00,2022-06-02T10:17:13.754+02:00,425,1.143496,0,0,328.2812,0,0,2022-06-02T10:40:32.810+02:00,675852032.8095229,0,7.242188,101.296,1,0.83
2022-06-02T10:40:35.192+02:00,1654159230.355633,53.22899670524735,10.39847340447524,43.47166,-1,-1,-1,-1,34.02774429321289,32.01386601977254,-1,2379.469607625,0.036834716796875,-0.284698486328125,-0.979888916015625,2379.459612625,0.3830767193674918,0.05259037798165556,0.2976966698063305,-0.05842559039592743,0.04160689935088158,0.01223795767873526,-0.005057469010353088,-0.01744154095649719,-0.01178354024887085,XArbitraryZVertical,0.1405870731488449,0.05374781106689019,0.1920270565567768,0.9697794231442946,0.05025399848818779,-0.2933189570903778,-0.9546929001808167,0,0,0,-1,-1,2374.529200125,unknown,2,2022-06-02T10:40:30.251+02:00,2022-06-02T10:17:13.754+02:00,425,1.143496,0,0,328.2812,0,0,2022-06-02T10:40:32.810+02:00,675852032.8095229,0,7.242188,101.296,1,0.83
2022-06-02T10:40:35.202+02:00,1654159230.355633,53.22899670524735,10.39847340447524,43.47166,-1,-1,-1,-1,34.02774429321289,32.01386601977254,-1,2379.479601625,0.0263824462890625,-0.283599853515625,-0.9909820556640625,2379.469607625,0.3832160627008359,0.05302384004028561,0.2970384333484315,-0.0170326791703701,0.04243208095431328,0.01695588044822216,-0.00961664691567421,-0.004841506481170654,-0.02026456594467163,XArbitraryZVertical,0.1402220291616326,0.05390708979538999,0.1921258997584917,0.9698038442702817,0.05067803710699081,-0.2926896214485168,-0.9548636078834534,0,0,0,-1,-1,2374.529200125,unknown,2,2022-06-02T10:40:30.251+02:00,2022-06-02T10:17:13.754+02:00,425,1.143496,0,0,328.2812,0,0,2022-06-02T10:40:32.810+02:00,675852032.8095229,0,7.242188,101.296,1,0.83
2022-06-02T10:40:35.212+02:00,1654159230.355633,53.22899670524735,10.39847340447524,43.47166,-1,-1,-1,-1,34.02774429321289,32.01386601977254,-1,2379.489596625,0.027313232421875,-0.292999267578125,-0.987152099609375,2379.479601625,0.3834733759374634,0.05320993271302145,0.2966438357084272,0.03110342286527157,0.04793203994631767,0.02064675465226173,-0.01402716711163521,0.007613807916641235,-0.02491945028305054,XArbitraryZVertical,0.1400055822626197,0.05397896555311343,0.1922641972794,0.9698036062996487,0.05086186900734901,-0.2923122942447662,-0.9549694061279297,0,0,0,-1,-1,2374.529200125,unknown,2,2022-06-02T10:40:30.251+02:00,2022-06-02T10:17:13.754+02:00,425,1.143496,0,0,328.2812,0,0,2022-06-02T10:40:32.810+02:00,675852032.8095229,0,7.242188,101.296,1,0.83
2022-06-02T10:40:35.222+02:00,1654159230.355633,53.22899670524735,10.39847340447524,43.47166,-1,-1,-1,-1,34.02774429321289,32.01386601977254,-1,2379.499591625,0.0354156494140625,-0.2943267822265625,-0.9776763916015625,2379.489596625,0.3837310951067777,0.05347107160728056,0.2968813716681397,0.0542229562997818,0.04761718586087227,0.0254405103623867,-0.02472509816288948,0.008939594030380249,-0.0360952615737915,XArbitraryZVertical,0.1400888521122817,0.05414555262556181,0.1924071654940869,0.9697540034506312,0.05110753327608109,-0.2925394475460052,-0.9548867344856262,0,0,0,-1,-1,2374.529200125,unknown,2,2022-06-02T10:40:30.251+02:00,2022-06-02T10:17:13.754+02:00,425,1.143496,0,0,328.2812,0,0,2022-06-02T10:40:32.810+02:00,675852032.8095229,0,7.242188,101.296,1,0.83
2022-06-02T10:40:35.232+02:00,1654159230.355633,53.22899670524735,10.39847340447524,43.47166,-1,-1,-1,-1,34.02774429321289,32.01386601977254,-1,2379.509586625,0.0474700927734375,-0.2989654541015625,-0.9640350341796875,2379.499591625,0.3839369929797655,0.05399289742292238,0.2975648009074843,0.05390683934092522,0.04661876708269119,0.02816892042756081,-0.02428178116679192,0.0001935958862304688,-0.03249198198318481,XArbitraryZVertical,0.1403649224900953,0.0544761001998457,0.1925428441091945,0.9696686565188737,0.05159500986337662,-0.2931928932666779,-0.9546600580215454,0,0,0,-1,-1,2374.529200125,unknown,2,2022-06-02T10:40:30.251+02:00,2022-06-02T10:17:13.754+02:00,425,1.143496,0,0,328.2812,0,0,2022-06-02T10:40:32.810+02:00,675852032.8095229,0,7.242188,101.296,1,0.83
2022-06-02T10:40:35.242+02:00,1654159230.355633,53.22899670524735,10.39847340447524,43.47166,-1,-1,-1,-1,34.02774429321289,32.01386601977254,-1,2379.519580625,0.0598907470703125,-0.305755615234375,-0.96405029296875,2379.509586625,0.3841219238712044,0.05463663442963367,0.2983220969124145,0.04287536442279816,0.03750569373369217,0.02961342036724091,-0.0167817696928978,-0.0004099607467651367,-0.02327167987823486,XArbitraryZVertical,0.1406656070521427,0.05487112555246732,0.1926769990863068,0.9695761013355311,0.0521974116563797,-0.2939168214797974,-0.9544047117233276,0,0,0,-1,-1,2374.529200125,unknown,2,2022-06-02T10:40:30.251+02:00,2022-06-02T10:17:13.754+02:00,425,1.143496,0,0,328.2812,0,0,2022-06-02T10:40:32.810+02:00,675852032.8095229,0,7.242188,101.296,1,0.83
2022-06-02T10:40:35.252+02:00,1654159230.355633,53.22899670524735,10.39847340447524,43.47166,-1,-1,-1,-1,34.02774429321289,32.01386601977254,-1,2379.529575625,0.0708770751953125,-0.308441162109375,-0.9549407958984375,2379.519580625,0.3843758413096938,0.05506252889481947,0.2989310045282914,0.0204616654664278,0.02057225257158279,0.03207151591777802,-0.005123943090438843,-0.004466652870178223,-0.009831488132476807,XArbitraryZVertical,0.1409132259680171,0.05515170294155089,0.1928295242687269,0.9694939295560908,0.05259402096271515,-0.2944988012313843,-0.9542034864425659,0,0,0,-1,-1,2374.529200125,unknown,2,2022-06-02T10:40:30.251+02:00,2022-06-02T10:17:13.754+02:00,425,1.143496,0,0,328.2812,0,0,2022-06-02T10:40:32.810+02:00,675852032.8095229,0,7.242188,101.296,1,0.83
2022-06-02T10:40:35.262+02:00,1654159230.355633,53.22899670524735,10.39847340447524,43.47166,-1,-1,-1,-1,34.02774429321289,32.01386601977254,-1,2379.539570625,0.073760986328125,-0.299041748046875,-0.9539947509765625,2379.529575625,0.3846651357180156,0.05524431911587582,0.2993548758591196,0.004511161707341671,0.01281226798892021,0.03012800961732864,0.007130149751901627,-0.01085180044174194,-0.009981095790863037,XArbitraryZVertical,0.1410934919178489,0.05529938502202392,0.1929821982458247,0.9694289831937304,0.05276058986783028,-0.2949038445949554,-0.954069197177887,0,0,0,-1,-1,2374.529200125,unknown,2,2022-06-02T10:40:30.251+02:00,2022-06-02T10:17:13.754+02:00,425,1.143496,0,0,328.2812,0,0,2022-06-02T10:40:32.810+02:00,675852032.8095229,0,7.242188,101.296,1,0.83
2022-06-02T10:40:35.272+02:00,1654159230.355633,53.22899670524735,10.39847340447524,43.47166,-1,-1,-1,-1,34.02774429321289,32.01386601977254,-1,2379.549564625,0.0641632080078125,-0.2901763916015625,-0.9543304443359375,2379.539570625,0.3850418841689897,0.05501342660224047,0.2997211182096708,0.01588978245854378,-0.002231928752735257,0.03089606389403343,0.01834270730614662,-0.01318740844726562,-0.0009673237800598145,XArbitraryZVertical,0.1412831830518307,0.05524795167080484,0.1931481973837759,0.9693711549982527,0.05253435671329498,-0.2952537834644318,-0.9539734721183777,0,0,0,-1,-1,2374.529200125,unknown,2,2022-06-02T10:40:30.251+02:00,2022-06-02T10:17:13.754+02:00,425,1.143496,0,0,328.2812,0,0,2022-06-02T10:40:32.810+02:00,675852032.8095229,0,7.242188,101.296,1,0.83
2022-06-02T10:40:35.282+02:00,1654159230.355633,53.22899670524735,10.39847340447524,43.47166,-1,-1,-1,-1,34.02774429321289,32.01386601977254,-1,2379.559559625,0.049346923828125,-0.292633056640625,-0.9573974609375,2379.549564625,0.3854739112750776,0.05449225707001126,0.2999929017857634,0.05751851946115494,-0.01619927585124969,0.03550026938319206,0.02172818779945374,-0.003528326749801636,-7.420778274536133e-05,XArbitraryZVertical,0.1414535653596492,0.05505106244029583,0.1933204803858227,0.9693231453734605,0.05203279480338097,-0.2955134212970734,-0.9539205431938171,0,0,0,-1,-1,2374.529200125,unknown,2,2022-06-02T10:40:30.251+02:00,2022-06-02T10:17:13.754+02:00,425,1.143496,0,0,328.2812,0,0,2022-06-02T10:40:32.810+02:00,675852032.8095229,0,7.242188,101.296,1,0.83
2022-06-02T10:40:35.292+02:00,1654159230.355633,53.22899670524735,10.39847340447524,43.47166,-1,-1,-1,-1,34.02774429321289,32.01386601977254,-1,2379.569554625,0.0426177978515625,-0.2907562255859375,-0.95892333984375,2379.559559625,0.3859779310461466,0.05371258810277684,0.3001546210475871,0.06594156473875046,-0.01974554359912872,0.03827288746833801,0.0128767266869545,0.005491524934768677,-0.0004173517227172852,XArbitraryZVertical,0.1415936324551697,0.0547238546105752,0.1935093850826408,0.9692835567083719,0.05128647014498711,-0.2956679165363312,-0.9539130926132202,0,0,0,-1,-1,2374.529200125,unknown,2,2022-06-02T10:40:30.251+02:00,2022-06-02T10:17:13.754+02:00,425,1.143496,0,0,328.2812,0,0,2022-06-02T10:40:32.810+02:00,675852032.8095229,0,7.242188,101.296,1,0.83
2022-06-02T10:40:35.302+02:00,1654159230.355633,53.22899670524735,10.39847340447524,43.47166,-1,-1,-1,-1,34.02774429321289,32.01386601977254,-1,2379.579549625,0.03912353515625,-0.2869873046875,-0.96343994140625,2379.569554625,0.3866414177832838,0.05252989743978533,0.300079971441637,0.045296810567379,-0.01851529441773891,0.0436941497027874,-0.0008124969899654388,0.002963542938232422,-0.003402352333068848,XArbitraryZVertical,0.1416538393401851,0.05419073304052179,0.1937473040562323,0.969257133335562,0.05015940964221954,-0.2955965995788574,-0.9539951086044312,0,0,0,-1,-1,2374.529200125,unknown,2,2022-06-02T10:40:30.251+02:00,2022-06-02T10:17:13.754+02:00,425,1.143496,0,0,328.2812,0,0,2022-06-02T10:40:32.810+02:00,675852032.8095229,0,7.242188,101.296,1,0.83
2022-06-02T10:40:35.312+02:00,1654159230.355633,53.22899670524735,10.39847340447524,43.47166,-1,-1,-1,-1,34.02774429321289,32.01386601977254,-1,2379.589543625,0.038421630859375,-0.2747344970703125,-0.9720458984375,2379.579549625,0.3873057176696653,0.05140875349315456,0.3000169681249525,0.01277641579508781,-0.01034684758633375,0.0394408144056797,-0.006472982466220856,0.004780173301696777,-0.004853963851928711,XArbitraryZVertical,0.1417140109268685,0.05368858727004483,0.1939899094911833,0.9692278368263336,0.04909076914191246,-0.2955364286899567,-0.9540693759918213,0,0,0,-1,-1,2374.529200125,unknown,2,2022-06-02T10:40:30.251+02:00,2022-06-02T10:17:13.754+02:00,425,1.143496,0,0,328.2812,0,0,2022-06-02T10:40:32.810+02:00,675852032.8095229,0,7.242188,101.296,1,0.83
2022-06-02T10:40:35.322+02:00,1654159230.355633,53.22899670524735,10.39847340447524,43.47166,-1,-1,-1,-1,34.02774429321289,32.01386601977254,-1,2379.599538625,0.0466156005859375,-0.24725341796875,-0.9651031494140625,2379.589543625,0.3878695646834091,0.05068890938241485,0.2999078833324699,0.03402790799736977,0.001865610829554498,0.03690788149833679,-0.009282078593969345,0.008444875478744507,-0.009303271770477295,XArbitraryZVertical,0.1417158333816674,0.05336951608184569,0.1942123591152631,0.9692006785433963,0.04840561002492905,-0.2954322099685669,-0.9541366100311279,0,0,0,-1,-1,2374.529200125,unknown,2,2022-06-02T10:40:30.251+02:00,2022-06-02T10:17:13.754+02:00,425,1.143496,0,0,328.2812,0,0,2022-06-02T10:40:32.810+02:00,675852032.8095229,0,7.242188,101.296,1,0.83
2022-06-02T10:40:35.332+02:00,1654159230.355633,53.22899670524735,10.39847340447524,43.47166,-1,-1,-1,-1,34.02774429321289,32.01386601977254,-1,2379.609533625,0.0558013916015625,-0.245025634765625,-0.9466705322265625,2379.599538625,0.3882195928466349,0.05057614590169,0.3005038771083897,0.07622809708118439,0.001433113473467529,0.03282365947961807,-0.009867485612630844,0.02126702666282654,-0.01807981729507446,XArbitraryZVertical,0.1420066977738691,0.05339539446622998,0.1943727227695169,0.9691244470042985,0.04828910902142525,-0.2960015535354614,-0.9539660811424255,0,0,0,-1,-1,2374.529200125,unknown,2,2022-06-02T10:40:30.251+02:00,2022-06-02T10:17:13.754+02:00,425,1.143496,0,0,328.2812,0,0,2022-06-02T10:40:32.810+02:00,675852032.8095229,0,7.242188,101.296,1,0.83
2022-06-02T10:40:35.342+02:00,1654159230.355633,53.22899670524735,10.39847340447524,43.47166,-1,-1,-1,-1,34.02774429321289,32.01386601977254,-1,2379.619527625,0.059478759765625,-0.272064208984375,-0.938079833984375,2379.609533625,0.3884255296948593,0.05097506714028176,0.3016669571874175,0.09192530065774918,-0.008062121458351612,0.04943033307790756,-0.002036496996879578,0.04985886812210083,-0.01150089502334595,XArbitraryZVertical,0.1425268113071251,0.05371206600835838,0.1944983899578088,0.9690053299794366,0.04865208640694618,-0.2971122860908508,-0.9536022543907166,0,0,0,-1,-1,2374.529200125,unknown,2,2022-06-02T10:40:30.251+02:00,2022-06-02T10:17:13.754+02:00,425,1.143496,0,0,328.2812,0,0,2022-06-02T10:40:32.810+02:00,675852032.8095229,0,7.242188,101.296,1,0.83
2022-06-02T10:40:35.352+02:00,1654159230.355633,53.22899670524735,10.39847340447524,43.47166,-1,-1,-1,-1,34.02774429321289,32.01386601977254,-1,2379.629522625,0.0535430908203125,-0.3069305419921875,-0.9302215576171875,2379.619527625,0.3885723131204356,0.05194804003080578,0.3029961908930145,0.05032778531312943,-0.01667478308081627,0.05736655369400978,0.006242040544748306,0.05335560441017151,0.00648874044418335,XArbitraryZVertical,0.1430731485016513,0.05431817188088094,0.1946362321581569,0.9688634124580677,0.0495593398809433,-0.2983812391757965,-0.9531592130661011,0,0,0,-1,-1,2374.529200125,unknown,2,2022-06-02T10:40:30.251+02:00,2022-06-02T10:17:13.754+02:00,425,1.143496,0,0,328.2812,0,0,2022-06-02T10:40:32.810+02:00,675852032.8095229,0,7.242188,101.296,1,0.83
2022-06-02T10:40:35.362+02:00,1654159230.355633,53.22899670524735,10.39847340447524,43.47166,-1,-1,-1,-1,34.02774429321289,32.01386601977254,-1,2379.639517625,0.0449371337890625,-0.3033905029296875,-0.9275360107421875,2379.629522625,0.3887390058648563,0.05293030734252413,0.3030244786668074,-0.05145902931690216,-0.01594081707298756,0.04908784851431847,0.008983626961708069,0.02634403109550476,0.01502180099487305,XArbitraryZVertical,0.1429866917365385,0.0548085634811993,0.194787169119543,0.9688182593923652,0.05049512907862663,-0.2984082400798798,-0.953101634979248,0,0,0,-1,-1,2374.529200125,unknown,2,2022-06-02T10:40:30.251+02:00,2022-06-02T10:17:13.754+02:00,425,1.143496,0,0,328.2812,0,0,2022-06-02T10:40:32.810+02:00,675852032.8095229,0,7.242188,101.296,1,0.83
2022-06-02T10:40:35.372+02:00,1654159230.355633,53.22899670524735,10.39847340447524,43.47166,-1,-1,-1,-1,34.02774429321289,32.01386601977254,-1,2379.649511625,0.036376953125,-0.27227783203125,-0.9400787353515625,2379.639517625,0.3890587916556548,0.05336114868477359,0.3017443279257171,-0.1122294366359711,-0.01061635930091143,0.04559911042451859,0.002616994082927704,-0.009744375944137573,0.02323895692825317,XArbitraryZVertical,0.1423148203136607,0.0549203754416577,0.1949749466186973,0.9688730281157755,0.0509260930120945,-0.2971861660480499,-0.9534605145454407,0,0,0,-1,-1,2374.529200125,unknown,2,2022-06-02T10:40:30.251+02:00,2022-06-02T10:17:13.754+02:00,425,1.143496,0,0,328.2812,0,0,2022-06-02T10:40:32.810+02:00,675852032.8095229,0,7.242188,101.296,1,0.83
2022-06-02T10:40:35.382+02:00,1654159230.355633,53.22899670524735,10.39847340447524,43.47166,-1,-1,-1,-1,34.02774429321289,32.01386601977254,-1,2379.659506625,0.035125732421875,-0.255828857421875,-0.953857421875,2379.649511625,0.3895743733584313,0.05303732469061136,0.3004446655909669,-0.08295314013957977,-0.01060803607106209,0.04211349785327911,-0.005700644105672836,-0.007445544004440308,0.02632582187652588,XArbitraryZVertical,0.1417016494863647,0.05467841291286959,0.1952037989609256,0.9689305517877785,0.05063777044415474,-0.2959449887275696,-0.9538618326187134,0,0,0,-1,-1,2379.646513625,unknown,2,2022-06-02T10:40:35.368+02:00,2022-06-02T10:17:13.754+02:00,425,1.143496,0,0,328.2812,0,0,2022-06-02T10:40:32.810+02:00,675852032.8095229,0,7.242188,101.296,1,0.83
2022-06-02T10:40:35.392+02:00,1654159235.361205,53.22908099910381,10.39840719718238,38.32342,0,20,-1,-1,2.400000095367432,15.99915971002168,-9999,2379.669501625,0.0459747314453125,-0.2679595947265625,-0.946563720703125,2379.659506625,0.3901707918717323,0.05235862252096807,0.2997846684312733,0.004140483215451241,-0.0151660367846489,0.04271004721522331,-0.01362363621592522,0.02303662896156311,0.01401209831237793,XArbitraryZVertical,0.1414314369274272,0.05432992077570876,0.1954458359147529,0.9689407747622137,0.05000058189034462,-0.2953144907951355,-0.9540908336639404,0,0,0,-1,-1,2379.646513625,unknown,2,2022-06-02T10:40:35.368+02:00,2022-06-02T10:17:13.754+02:00,425,1.143496,0,0,328.2812,0,0,2022-06-02T10:40:32.810+02:00,675852035.367954,0,7.273438,101.2949,1,0.83
2022-06-02T10:40:35.402+02:00,1654159235.361205,53.22908099910381,10.39840719718238,38.32342,0,20,-1,-1,2.400000095367432,15.99915971002168,-9999,2379.679496625,0.0585784912109375,-0.27728271484375,-0.951629638671875,2379.669501625,0.3907386411818242,0.05153117003802243,0.299666329202546,0.05640505254268646,-0.02283534035086632,0.04403809830546379,-0.01408717781305313,0.03937256336212158,0.0003093481063842773,XArbitraryZVertical,0.1414395498565196,0.05395808574741101,0.1956626457137677,0.968916611287671,0.04921289905905724,-0.2952014207839966,-0.9541667699813843,0,0,0,-1,-1,2379.646513625,unknown,2,2022-06-02T10:40:35.368+02:00,2022-06-02T10:17:13.754+02:00,425,1.143496,0,0,328.2812,0,0,2022-06-02T10:40:35.368+02:00,675852035.367954,0,7.273438,101.2949,1,0.83
2022-06-02T10:40:35.412+02:00,1654159235.361205,53.22908099910381,10.39840719718238,38.32342,0,20,-1,-1,2.400000095367432,15.99915971002168,-9999,2379.689490625,0.066741943359375,-0.281097412109375,-0.9554443359375,2379.679496625,0.3912959439314318,0.05065796469984655,0.2992026261658634,0.05380767211318016,-0.02174664102494717,0.03889074176549911,-0.002411901950836182,0.02679875493049622,0.007782280445098877,XArbitraryZVertical,0.1412850550184045,0.05353078567775312,0.1958718839034097,0.9689206008572432,0.04838662222027779,-0.2947583496570587,-0.9543460011482239,0,0,0,-1,-1,2379.646513625,unknown,2,2022-06-02T10:40:35.368+02:00,2022-06-02T10:17:13.754+02:00,425,1.143496,0,0,328.2812,0,0,2022-06-02T10:40:35.368+02:00,675852035.367954,0,7.273438,101.2949,1,0.83
2022-06-02T10:40:35.422+02:00,1654159235.361205,53.22908099910381,10.39840719718238,38.32342,0,20,-1,-1,2.400000095367432,15.99915971002168,-9999,2379.699485625,0.0634918212890625,-0.282958984375,-0.964111328125,2379.689490625,0.3916842891980322,0.05020668788085854,0.297595336799856,0.03626283258199692,-0.02727656252682209,0.02940788865089417,0.01059882342815399,0.0159393846988678,0.003210067749023438,XArbitraryZVertical,0.1405390322196776,0.05318794529027308,0.1960318106664579,0.9690156151789433,0.04797965660691261,-0.2932220995426178,-0.9548396468162537,0,0,0,-1,-1,2379.646513625,unknown,2,2022-06-02T10:40:35.368+02:00,2022-06-02T10:17:13.754+02:00,425,1.143496,0,0,328.2812,0,0,2022-06-02T10:40:35.368+02:00,675852035.367954,0,7.273438,101.2949,1,0.83
2022-06-02T10:40:35.432+02:00,1654159235.361205,53.22908099910381,10.39840719718238,38.32342,0,20,-1,-1,2.400000095367432,15.99915971002168,-9999,2379.709480625,0.057647705078125,-0.282257080078125,-0.964508056640625,2379.699485625,0.3917723069583215,0.05023512132742099,0.2960767586149533,0.01749740168452263,-0.02417344599962234,0.01438579615205526,0.01871282607316971,0.01067250967025757,-0.0001624226570129395,XArbitraryZVertical,0.1397970024138888,0.05306455416577921,0.1960797940399765,0.9691200381586129,0.04802910983562469,-0.2917699217796326,-0.9552819132804871,0,0,0,-1,-1,2379.646513625,unknown,2,2022-06-02T10:40:35.368+02:00,2022-06-02T10:17:13.754+02:00,425,1.143496,0,0,328.2812,0,0,2022-06-02T10:40:35.368+02:00,675852035.367954,0,7.273438,101.2949,1,0.83
2022-06-02T10:40:35.442+02:00,1654159235.361205,53.22908099910381,10.39840719718238,38.32342,0,20,-1,-1,2.400000095367432,15.99915971002168,-9999,2379.719474625,0.058563232421875,-0.2764129638671875,-0.9705810546875,2379.709480625,0.3917537531839921,0.05051304693683171,0.2955016408551115,-0.01711653545498848,-0.01818459667265415,0.01363618299365044,0.01518874242901802,0.008260786533355713,-0.00867539644241333,XArbitraryZVertical,0.1394911445367671,0.05314363843174507,0.1960914241789891,0.9691574399671717,0.04830307140946388,-0.2912197709083557,-0.9554359316825867,0,0,0,-1,-1,2379.646513625,unknown,2,2022-06-02T10:40:35.368+02:00,2022-06-02T10:17:13.754+02:00,425,1.143496,0,0,328.2812,0,0,2022-06-02T10:40:35.368+02:00,675852035.367954,0,7.273438,101.2949,1,0.83
2022-06-02T10:40:35.452+02:00,1654159235.361205,53.22908099910381,10.39840719718238,38.32342,0,20,-1,-1,2.400000095367432,15.99915971002168,-9999,2379.729469625,0.055389404296875,-0.2776641845703125,-0.9589691162109375,2379.719474625,0.3918249163849026,0.05061114526919482,0.2961093171187044,-0.03960400074720383,-0.007774566300213337,0.01630041003227234,0.009259860962629318,0.00954398512840271,-0.009253740310668945,XArbitraryZVertical,0.139774535106595,0.05325351053947148,0.1961315004971599,0.96910244039585,0.04838783666491508,-0.2918010652065277,-0.9552542567253113,0,0,0,-1,-1,2379.646513625,unknown,2,2022-06-02T10:40:35.368+02:00,2022-06-02T10:17:13.754+02:00,425,1.143496,0,0,328.2812,0,0,2022-06-02T10:40:35.368+02:00,675852035.367954,0,7.273438,101.2949,1,0.83
2022-06-02T10:40:35.462+02:00,1654159235.361205,53.22908099910381,10.39840719718238,38.32342,0,20,-1,-1,2.400000095367432,15.99915971002168,-9999,2379.739464625,0.0502777099609375,-0.30426025390625,-0.9491424560546875,2379.729469625,0.3920112523690394,0.05044506914075753,0.2963264470072586,-0.067768894135952,-0.00306123704649508,0.01004963833838701,0.0103372298181057,0.01559576392173767,-0.01538205146789551,XArbitraryZVertical,0.1398912285150373,0.05320656763731855,0.1962097138070899,0.9690723763649878,0.04822599515318871,-0.2920087277889252,-0.9551990032196045,0,0,0,-1,-1,2379.646513625,unknown,2,2022-06-02T10:40:35.368+02:00,2022-06-02T10:17:13.754+02:00,425,1.143496,0,0,328.2812,0,0,2022-06-02T10:40:35.368+02:00,675852035.367954,0,7.273438,101.2949,1,0.83
2022-06-02T10:40:35.472+02:00,1654159235.361205,53.22908099910381,10.39840719718238,38.32342,0,20,-1,-1,2.400000095367432,15.99915971002168,-9999,2379.749459625,0.0490570068359375,-0.306976318359375,-0.9471282958984375,2379.739464625,0.3922256829503286,0.04999971201464556,0.2950327911428411,-0.08649305254220963,0.006695520132780075,0.001523261889815331,0.007569972425699234,0.01310700178146362,-0.0033721923828125,XArbitraryZVertical,0.1393014534845846,0.05288348374320673,0.19628532466492,0.9691597406089941,0.04781942442059517,-0.2907712161540985,-0.9555968642234802,0,0,0,-1,-1,2379.646513625,unknown,2,2022-06-02T10:40:35.368+02:00,2022-06-02T10:17:13.754+02:00,425,1.143496,0,0,328.2812,0,0,2022-06-02T10:40:35.368+02:00,675852035.367954,0,7.273438,101.2949,1,0.83
2022-06-02T10:40:35.482+02:00,1654159235.361205,53.22908099910381,10.39840719718238,38.32342,0,20,-1,-1,2.400000095367432,15.99915971002168,-9999,2379.759453625,0.0435028076171875,-0.2779998779296875,-0.9501190185546875,2379.749459625,0.3924220798624635,0.04962828755866192,0.2928048503737957,-0.1125435531139374,0.0170363076031208,-0.0003372225910425186,0.00278119370341301,-0.01562145352363586,0.007116794586181641,XArbitraryZVertical,0.1382514599573982,0.05250639016719365,0.1963596070838572,0.9693154750466157,0.04749650880694389,-0.2886388301849365,-0.9562592506408691,0,0,0,-1,-1,2379.646513625,unknown,2,2022-06-02T10:40:35.368+02:00,2022-06-02T10:17:13.754+02:00,425,1.143496,0,0,328.2812,0,0,2022-06-02T10:40:35.368+02:00,675852035.367954,0,7.273438,101.2949,1,0.83
2022-06-02T10:40:35.492+02:00,1654159235.361205,53.22908099910381,10.39840719718238,38.32342,0,20,-1,-1,2.400000095367432,15.99915971002168,-9999,2379.769448625,0.046966552734375,-0.25799560546875,-0.9563446044921875,2379.759453625,0.3924629423865963,0.0497757500860054,0.2912151278534438,-0.0739586129784584,0.0210235919803381,-0.003926631063222885,0.001396708190441132,-0.01985988020896912,0.009581029415130615,XArbitraryZVertical,0.137464276716629,0.05243022729452924,0.1963929551359559,0.9694247638180196,0.04766029119491577,-0.2871164083480835,-0.9567092657089233,0,0,0,-1,-1,2379.646513625,unknown,2,2022-06-02T10:40:35.368+02:00,2022-06-02T10:17:13.754+02:00,425,1.143496,0,0,328.2812,0,0,2022-06-02T10:40:35.368+02:00,675852035.367954,0,7.273438,101.2949,1,0.83
2022-06-02T10:40:35.502+02:00,1654159235.361205,53.22908099910381,10.39840719718238,38.32342,0,20,-1,-1,2.400000095367432,15.99915971002168,-9999,2379.779443625,0.051513671875,-0.2544403076171875,-0.9582061767578125,2379.769448625,0.3922948792172513,0.05035902395852421,0.2905874971111487,0.0008680569007992744,0.008929578587412834,-0.009348228573799133,-0.004724569618701935,0.008515238761901855,0.006742119789123535,XArbitraryZVertical,0.1371067414241837,0.05264201865744071,0.1963527548126107,0.9694721342892942,0.04822736606001854,-0.2865151464939117,-0.956861138343811,0,0,0,-1,-1,2379.646513625,unknown,2,2022-06-02T10:40:35.368+02:00,2022-06-02T10:17:13.754+02:00,425,1.143496,0,0,328.2812,0,0,2022-06-02T10:40:35.368+02:00,675852035.367954,0,7.273438,101.2949,1,0.83
2022-06-02T10:40:35.512+02:00,1654159235.361205,53.22908099910381,10.39840719718238,38.32342,0,20,-1,-1,2.400000095367432,15.99915971002168,-9999,2379.789437625,0.0602264404296875,-0.2855072021484375,-0.957305908203125,2379.779443625,0.391935936546131,0.05112140881431138,0.2906213031891731,0.03070558235049248,0.0002982740988954902,-0.01779018342494965,-0.001989807933568954,0.02855190634727478,0.0004698038101196289,XArbitraryZVertical,0.1370578156227329,0.05299017828596477,0.1962309697967876,0.9694846678174212,0.04895635321736336,-0.2865475416183472,-0.9568144083023071,0,0,0,-1,-1,2379.646513625,unknown,2,2022-06-02T10:40:35.368+02:00,2022-06-02T10:17:13.754+02:00,425,1.143496,0,0,328.2812,0,0,2022-06-02T10:40:35.368+02:00,675852035.367954,0,7.273438,101.2949,1,0.83
2022-06-02T10:40:35.522+02:00,1654159235.361205,53.22908099910381,10.39840719718238,38.32342,0,20,-1,-1,2.400000095367432,15.99915971002168,-9999,2379.799432625,0.0620880126953125,-0.3087921142578125,-0.9505462646484375,2379.789437625,0.3915875890399649,0.05166002715290391,0.2904985292739164,-0.02837062068283558,-0.001547496300190687,-0.02192187681794167,0.002040136605501175,0.03198960423469543,-0.001383125782012939,XArbitraryZVertical,0.1369546380153077,0.05321582160799265,0.196099213258412,0.969513499222813,0.04947352036833763,-0.2864299118518829,-0.9568229913711548,0,0,0,-1,-1,2379.646513625,unknown,2,2022-06-02T10:40:35.368+02:00,2022-06-02T10:17:13.754+02:00,425,1.143496,0,0,328.2812,0,0,2022-06-02T10:40:35.368+02:00,675852035.367954,0,7.273438,101.2949,1,0.83
2022-06-02T10:40:35.532+02:00,1654159235.361205,53.22908099910381,10.39840719718238,38.32342,0,20,-1,-1,2.400000095367432,15.99915971002168,-9999,2379.809427625,0.054290771484375,-0.2949676513671875,-0.9530029296875,2379.799432625,0.3912776403713937,0.05203236150671254,0.2894151244815447,-0.1497154235839844,0.01032381039112806,-0.03109699860215187,0.01038054749369621,-0.000115513801574707,-0.0001920461654663086,XArbitraryZVertical,0.1364003890280611,0.05327292581842303,0.1959759849943281,0.9696134171879338,0.04984588548541069,-0.2853917181491852,-0.9571138620376587,0,0,0,-1,-1,2379.646513625,unknown,2,2022-06-02T10:40:35.368+02:00,2022-06-02T10:17:13.754+02:00,425,1.143496,0,0,328.2812,0,0,2022-06-02T10:40:35.368+02:00,675852035.367954,0,7.273438,101.2949,1,0.83
2022-06-02T10:40:35.542+02:00,1654159235.361205,53.22908099910381,10.39840719718238,38.32342,0,20,-1,-1,2.400000095367432,15.99915971002168,-9999,2379.819421625,0.046875,-0.261993408203125,-0.95562744140625,2379.809427625,0.3909509022262359,0.0525309592478929,0.2871175809579335,-0.2157346904277802,0.01927089877426624,-0.03389032185077667,0.01173060759902,-0.02560311555862427,0.007194936275482178,XArbitraryZVertical,0.1352445988316294,0.05327587886763403,0.1958543210488661,0.9697997581452522,0.0503573901951313,-0.2831889688968658,-0.9577411413192749,0,0,0,-1,-1,2379.646513625,unknown,2,2022-06-02T10:40:35.368+02:00,2022-06-02T10:17:13.754+02:00,425,1.143496,0,0,328.2812,0,0,2022-06-02T10:40:35.368+02:00,675852035.367954,0,7.273438,101.2949,1,0.83
2022-06-02T10:40:35.552+02:00,1654159235.361205,53.22908099910381,10.39840719718238,38.32342,0,20,-1,-1,2.400000095367432,15.99915971002168,-9999,2379.829416625,0.0466461181640625,-0.258514404296875,-0.965911865234375,2379.819421625,0.3906588804606539,0.05297791730328188,0.284855551295107,-0.1922456026077271,0.02010153979063034,-0.03420644253492355,0.00347151979804039,-0.01394885778427124,0.00535285472869873,XArbitraryZVertical,0.1341100024862872,0.05325984663298321,0.1957451144003148,0.9699802852589176,0.05081924796104431,-0.2810188233852386,-0.9583557844161987,0,0,0,-1,-1,2379.646513625,unknown,2,2022-06-02T10:40:35.368+02:00,2022-06-02T10:17:13.754+02:00,425,1.143496,0,0,328.2812,0,0,2022-06-02T10:40:35.368+02:00,675852035.367954,0,7.273438,101.2949,1,0.83
2022-06-02T10:40:35.562+02:00,1654159235.361205,53.22908099910381,10.39840719718238,38.32342,0,20,-1,-1,2.400000095367432,15.99915971002168,-9999,2379.839411625,0.0328521728515625,-0.279144287109375,-0.959747314453125,2379.829416625,0.3903803703392325,0.05324181071762216,0.2840557924747064,-0.1247304826974869,0.01437441166490316,-0.03523654863238335,-0.004209097474813461,0.01825776696205139,0.002939045429229736,XArbitraryZVertical,0.1337031264183835,0.05329389186291542,0.1956283856650572,0.9700581326434534,0.05108409374952316,-0.2802512049674988,-0.9585664868354797,0,0,0,-1,-1,2379.646513625,unknown,2,2022-06-02T10:40:35.368+02:00,2022-06-02T10:17:13.754+02:00,425,1.143496,0,0,328.2812,0,0,2022-06-02T10:40:35.368+02:00,675852035.367954,0,7.273438,101.2949,1,0.83
2022-06-02T10:40:35.572+02:00,1654159235.361205,53.22908099910381,10.39840719718238,38.32342,0,20,-1,-1,2.400000095367432,15.99915971002168,-9999,2379.849406625,0.0265655517578125,-0.2830963134765625,-0.9589385986328125,2379.839411625,0.3901244267076018,0.05345459850704912,0.2838691625234259,-0.09458030015230179,0.01931990310549736,-0.02890941128134727,-0.004644747823476791,0.02155762910842896,-0.007304072380065918,XArbitraryZVertical,0.1335984918763639,0.05336244658824082,0.1955186184221505,0.9700908411771807,0.0512908548116684,-0.2800720632076263,-0.9586077928543091,0,0,0,-1,-1,2379.646513625,unknown,2,2022-06-02T10:40:35.368+02:00,2022-06-02T10:17:13.754+02:00,425,1.143496,0,0,328.2812,0,0,2022-06-02T10:40:35.368+02:00,675852035.367954,0,7.273438,101.2949,1,0.83
2022-06-02T10:40:35.582+02:00,1654159235.361205,53.22908099910381,10.39840719718238,38.32342,0,20,-1,-1,2.400000095367432,15.99915971002168,-9999,2379.859400625,0.032073974609375,-0.278533935546875,-0.9588775634765625,2379.849406625,0.3900250208361022,0.05347091837217152,0.2830187444003727,-0.07415861636400223,0.01995619758963585,-0.01252384763211012,-0.01846704632043839,0.0001112818717956543,-0.0009028315544128418,XArbitraryZVertical,0.133186408450956,0.05328374698647379,0.1954720701909838,0.9701612951199597,0.05131921172142029,-0.2792555689811707,-0.9588444232940674,0,0,0,-1,-1,2379.646513625,unknown,2,2022-06-02T10:40:35.368+02:00,2022-06-02T10:17:13.754+02:00,425,1.143496,0,0,328.2812,0,0,2022-06-02T10:40:35.368+02:00,675852035.367954,0,7.273438,101.2949,1,0.83
2022-06-02T10:40:35.592+02:00,1654159235.361205,53.22908099910381,10.39840719718238,38.32342,0,20,-1,-1,2.400000095367432,15.99915971002168,-9999,2379.869395625,0.042877197265625,-0.312530517578125,-0.9636993408203125,2379.859400625,0.3900344799935005,0.05354767593136582,0.2817279400960415,-0.06398028135299683,0.02028296701610088,-0.004766060039401054,-0.02484651654958725,-0.005080431699752808,0.0002610683441162109,XArbitraryZVertical,0.1325515494859542,0.05320022517103475,0.1954825976200139,0.9702506156010214,0.05141206085681915,-0.2780158817768097,-0.9591996669769287,0,0,0,-1,-1,2379.646513625,unknown,2,2022-06-02T10:40:35.368+02:00,2022-06-02T10:17:13.754+02:00,425,1.143496,0,0,328.2812,0,0,2022-06-02T10:40:35.368+02:00,675852035.367954,0,7.273438,101.2949,1,0.83
2022-06-02T10:40:35.602+02:00,1654159235.361205,53.22908099910381,10.39840719718238,38.32342,0,20,-1,-1,2.400000095367432,15.99915971002168,-9999,2379.879390625,0.03826904296875,-0.324676513671875,-0.958648681640625,2379.869395625,0.3899040966380665,0.05378106813535641,0.2803122849351505,-0.08765192329883575,0.02416905201971531,-0.03553968667984009,-0.0195830725133419,-0.001878172159194946,0.0007021427154541016,XArbitraryZVertical,0.1318443670089612,0.05317170319750581,0.1954355189891782,0.9703580259209178,0.05165703222155571,-0.2766557633876801,-0.9595796465873718,0,0,0,-1,-1,2379.646513625,unknown,2,2022-06-02T10:40:35.368+02:00,2022-06-02T10:17:13.754+02:00,425,1.143496,0,0,328.2812,0,0,2022-06-02T10:40:35.368+02:00,675852035.367954,0,7.273438,101.2949,1,0.83
2022-06-02T10:40:35.612+02:00,1654159235.361205,53.22908099910381,10.39840719718238,38.32342,0,20,-1,-1,2.400000095367432,15.99915971002168,-9999,2379.889384625,0.032379150390625,-0.3033599853515625,-0.9468994140625,2379.879390625,0.3893798582634803,0.05446292666582463,0.2794187440235312,-0.1455090939998627,0.03491677343845367,-0.05767161771655083,-0.00944756343960762,-0.03673353791236877,-0.003908634185791016,XArbitraryZVertical,0.1313575323911887,0.05338408449483596,0.1952263317298472,0.9704545299966243,0.05232475325465202,-0.2757969796657562,-0.9597906470298767,0,0,0,-1,-1,2379.646513625,unknown,2,2022-06-02T10:40:35.368+02:00,2022-06-02T10:17:13.754+02:00,425,1.143496,0,0,328.2812,0,0,2022-06-02T10:40:35.368+02:00,675852035.367954,0,7.273438,101.2949,1,0.83
2022-06-02T10:40:35.622+02:00,1654159235.361205,53.22908099910381,10.39840719718238,38.32342,0,20,-1,-1,2.400000095367432,15.99915971002168,-9999,2379.899379625,0.02471923828125,-0.2936859130859375,-0.931732177734375,2379.889384625,0.3887575021533048,0.05529503856655778,0.2786037200661474,-0.2004008144140244,0.03600260987877846,-0.06488751620054245,-0.01486675813794136,-0.04966306686401367,0.001322269439697266,XArbitraryZVertical,0.1308969261219193,0.05367061117511166,0.1949789814953761,0.9705506557969797,0.05313579365611076,-0.2750134766101837,-0.9599708914756775,0,0,0,-1,-1,2379.646513625,unknown,2,2022-06-02T10:40:35.368+02:00,2022-06-02T10:17:13.754+02:00,425,1.143496,0,0,328.2812,0,0,2022-06-02T10:40:35.368+02:00,675852035.367954,0,7.273438,101.2949,1,0.83
2022-06-02T10:40:35.632+02:00,1654159235.361205,53.22908099910381,10.39840719718238,38.32342,0,20,-1,-1,2.400000095367432,15.99915971002168,-9999,2379.909374625,0.0208740234375,-0.285003662109375,-0.9217376708984375,2379.899379625,0.3880903091869085,0.05585284287746461,0.2769544678830059,-0.2344157695770264,0.02653986401855946,-0.08864691108465195,-0.02131737023591995,-0.02993255853652954,0.01349329948425293,XArbitraryZVertical,0.1300588729849617,0.05374335883174892,0.1946913408775113,0.970716980958661,0.05369650945067406,-0.2734274566173553,-0.9603926539421082,0,0,0,-1,-1,2379.646513625,unknown,2,2022-06-02T10:40:35.368+02:00,2022-06-02T10:17:13.754+02:00,425,1.143496,0,0,328.2812,0,0,2022-06-02T10:40:35.368+02:00,675852035.367954,0,7.273438,101.2949,1,0.83
2022-06-02T10:40:35.642+02:00,1654159235.361205,53.22908099910381,10.39840719718238,38.32342,0,20,-1,-1,2.400000095367432,15.99915971002168,-9999,2379.919369625,0.008087158203125,-0.26715087890625,-0.904876708984375,2379.909374625,0.3872377634127753,0.05611646159673158,0.2741534352142567,-0.2623669803142548,0.01515564881265163,-0.1090408638119698,-0.02927320078015327,-0.02295380830764771,0.02940726280212402,XArbitraryZVertical,0.1286943357736035,0.05355435180417654,0.1942934806898259,0.9709889721587823,0.05399242788553238,-0.2707320749759674,-0.9611393809318542,0,0,0,-1,-1,2379.646513625,unknown,2,2022-06-02T10:40:35.368+02:00,2022-06-02T10:17:13.754+02:00,425,1.143496,0,0,328.2812,0,0,2022-06-02T10:40:35.368+02:00,675852035.367954,0,7.273438,101.2949,1,0.83
2022-06-02T10:40:35.652+02:00,1654159235.361205,53.22908099910381,10.39840719718238,38.32342,0,20,-1,-1,2.400000095367432,15.99915971002168,-9999,2379.929363625,-0.0075225830078125,-0.2625274658203125,-0.887939453125,2379.919369625,0.3862327795266265,0.05624901670858042,0.2708642117680665,-0.3152328431606293,0.002918691374361515,-0.1273237317800522,-0.03329559415578842,-0.01743942499160767,0.04027849435806274,XArbitraryZVertical,0.1271087302321451,0.053247620505052,0.193811959942236,0.9713108898738737,0.05416960269212723,-0.2675642371177673,-0.9620161056518555,0,0,0,-1,-1,2379.646513625,unknown,2,2022-06-02T10:40:35.368+02:00,2022-06-02T10:17:13.754+02:00,425,1.143496,0,0,328.2812,0,0,2022-06-02T10:40:35.368+02:00,675852035.367954,0,7.273438,101.2949,1,0.83
2022-06-02T10:40:35.663+02:00,1654159235.361205,53.22908099910381,10.39840719718238,38.32342,0,20,-1,-1,2.400000095367432,15.99915971002168,-9999,2379.939358625,-0.0256805419921875,-0.27117919921875,-0.864166259765625,2379.929363625,0.3851337836639374,0.05592545202748115,0.267563484741607,-0.4017482101917267,-0.0110176969319582,-0.1617327630519867,-0.04582024365663528,-0.002768486738204956,0.05803346633911133,XArbitraryZVertical,0.1255634675939964,0.05271381327564552,0.1932551034232461,0.9716519565006382,0.05390739813446999,-0.264382392168045,-0.9629101157188416,0,0,0,-1,-1,2379.646513625,unknown,2,2022-06-02T10:40:35.368+02:00,2022-06-02T10:17:13.754+02:00,425,1.143496,0,0,328.2812,0,0,2022-06-02T10:40:35.368+02:00,675852035.367954,0,7.273438,101.2949,1,0.83
