loggingTime(txt),locationTimestamp_since1970(s),locationLatitude(WGS84),locationLongitude(WGS84),locationAltitude(m),locationSpeed(m/s),locationSpeedAccuracy(m/s),locationCourse(°),locationCourseAccuracy(°),locationVerticalAccuracy(m),locationHorizontalAccuracy(m),locationFloor(Z),accelerometerTimestamp_sinceReboot(s),accelerometerAccelerationX(G),accelerometerAccelerationY(G),accelerometerAccelerationZ(G),motionTimestamp_sinceReboot(s),motionYaw(rad),motionRoll(rad),motionPitch(rad),motionRotationRateX(rad/s),motionRotationRateY(rad/s),motionRotationRateZ(rad/s),motionUserAccelerationX(G),motionUserAccelerationY(G),motionUserAccelerationZ(G),motionAttitudeReferenceFrame(txt),motionQuaternionX(R),motionQuaternionY(R),motionQuaternionZ(R),motionQuaternionW(R),motionGravityX(G),motionGravityY(G),motionGravityZ(G),motionMagneticFieldX(µT),motionMagneticFieldY(µT),motionMagneticFieldZ(µT),motionHeading(°),motionMagneticFieldCalibrationAccuracy(Z),activityTimestamp_sinceReboot(s),activity(txt),activityActivityConfidence(Z),activityActivityStartDate(txt),pedometerStartDate(txt),pedometerNumberofSteps(N),pedometerAverageActivePace(s/m),pedometerCurrentPace(s/m),pedometerCurrentCadence(steps/s),pedometerDistance(m),pedometerFloorAscended(N),pedometerFloorDescended(N),pedometerEndDate(txt),altimeterTimestamp_sinceReboot(s),altimeterReset(bool),altimeterRelativeAltitude(m),altimeterPressure(kPa),batteryState(N),batteryLevel(R)
2022-06-02T11:07:33.707+02:00,1654160853.000259,53.2290433128372,10.39848793038811,36.83508,0.2687733,0.7115527,131.7370277298109,45.71954500393949,2.400000095367432,7.999579855010836,-9999,3937.810556666667,-0.175445556640625,-0.14569091796875,-0.959991455078125,3937.810556666667,0.4606234886318706,-0.09818333307254183,0.07958930606781671,0.32933309674263,-0.2736931145191193,-0.7840044498443604,-0.08162118494510651,-0.01485507935285568,0.01403677463531494,XArbitraryZVertical,0.04988032841244382,-0.03866736968754148,0.2259247884593287,0.9720980649999731,-0.0977153554558754,-0.0795053094625473,-0.9920336008071899,0,0,0,-1,-1,3922.954816041667,unknown,2,2022-06-02T11:07:18.817+02:00,2022-06-02T10:17:13.754+02:00,757,1.530461,0,0,607.4087,0,0,2022-06-02T11:07:31.596+02:00,675853651.596262,0,3.28125,101.3422,1,0.74
2022-06-02T11:07:33.711+02:00,1654160853.000259,53.2290433128372,10.39848793038811,36.83508,0.2687733,0.7115527,131.7370277298109,45.71954500393949,2.400000095367432,7.999579855010836,-9999,3937.820551666667,-0.16259765625,-0.1933746337890625,-0.9387664794921875,3937.810556666667,0.4606234886318706,-0.09818333307254183,0.07958930606781671,0.32933309674263,-0.2736931145191193,-0.7840044498443604,-0.08162118494510651,-0.01485507935285568,0.01403677463531494,XArbitraryZVertical,0.04988032841244382,-0.03866736968754148,0.2259247884593287,0.9720980649999731,-0.0977153554558754,-0.0795053094625473,-0.9920336008071899,0,0,0,-1,-1,3922.954816041667,unknown,2,2022-06-02T11:07:18.817+02:00,2022-06-02T10:17:13.754+02:00,757,1.530461,0,0,607.4087,0,0,2022-06-02T11:07:31.596+02:00,675853651.596262,0,3.28125,101.3422,1,0.74
2022-06-02T11:07:33.717+02:00,1654160853.000259,53.2290433128372,10.39848793038811,36.83508,0.2687733,0.7115527,131.7370277298109,45.71954500393949,2.400000095367432,7.999579855010836,-9999,3937.830545666667,-0.176788330078125,-0.1930694580078125,-0.933502197265625,3937.830545666667,0.4460996089295534,-0.1034126017847898,0.08498102443940472,0.06670325994491577,-0.3515822887420654,-0.7198362350463867,-0.0648839995265007,-0.1097165942192078,0.05773389339447021,XArbitraryZVertical,0.05279234887764165,-0.04097371596315555,0.2185688698661182,0.973530592068286,-0.1028558611869812,-0.08487877249717712,-0.9910682439804077,0,0,0,-1,-1,3922.954816041667,unknown,2,2022-06-02T11:07:18.817+02:00,2022-06-02T10:17:13.754+02:00,757,1.530461,0,0,607.4087,0,0,2022-06-02T11:07:31.596+02:00,675853651.596262,0,3.28125,101.3422,1,0.74
2022-06-02T11:07:33.722+02:00,1654160853.000259,53.2290433128372,10.39848793038811,36.83508,0.2687733,0.7115527,131.7370277298109,45.71954500393949,2.400000095367432,7.999579855010836,-9999,3937.840540666667,-0.2002716064453125,-0.1695404052734375,-0.948211669921875,3937.830545666667,0.4460996089295534,-0.1034126017847898,0.08498102443940472,0.06670325994491577,-0.3515822887420654,-0.7198362350463867,-0.0648839995265007,-0.1097165942192078,0.05773389339447021,XArbitraryZVertical,0.05279234887764165,-0.04097371596315555,0.2185688698661182,0.973530592068286,-0.1028558611869812,-0.08487877249717712,-0.9910682439804077,0,0,0,-1,-1,3922.954816041667,unknown,2,2022-06-02T11:07:18.817+02:00,2022-06-02T10:17:13.754+02:00,757,1.530461,0,0,607.4087,0,0,2022-06-02T11:07:31.596+02:00,675853651.596262,0,3.28125,101.3422,1,0.74
2022-06-02T11:07:33.724+02:00,1654160853.000259,53.2290433128372,10.39848793038811,36.83508,0.2687733,0.7115527,131.7370277298109,45.71954500393949,2.400000095367432,7.999579855010836,-9999,3937.850535666667,-0.20635986328125,-0.1324005126953125,-0.977508544921875,3937.850535666667,0.4321124629825119,-0.1090467883007948,0.08625179541725754,-0.05683448538184166,-0.3218173682689667,-0.6806086897850037,-0.09689601510763168,-0.06548172235488892,0.02851200103759766,XArbitraryZVertical,0.0537196409480649,-0.04395118294386215,0.2115667707254303,0.9748958651761366,-0.1084262356162071,-0.08614489436149597,-0.9903649687767029,0,0,0,-1,-1,3922.954816041667,unknown,2,2022-06-02T11:07:18.817+02:00,2022-06-02T10:17:13.754+02:00,757,1.530461,0,0,607.4087,0,0,2022-06-02T11:07:31.596+02:00,675853651.596262,0,3.28125,101.3422,1,0.74
2022-06-02T11:07:33.727+02:00,1654160853.000259,53.2290433128372,10.39848793038811,36.83508,0.2687733,0.7115527,131.7370277298109,45.71954500393949,2.400000095367432,7.999579855010836,-9999,3937.860529666667,-0.2094879150390625,-0.1079559326171875,-1.017578125,3937.850535666667,0.4321124629825119,-0.1090467883007948,0.08625179541725754,-0.05683448538184166,-0.3218173682689667,-0.6806086897850037,-0.09689601510763168,-0.06548172235488892,0.02851200103759766,XArbitraryZVertical,0.0537196409480649,-0.04395118294386215,0.2115667707254303,0.9748958651761366,-0.1084262356162071,-0.08614489436149597,-0.9903649687767029,0,0,0,-1,-1,3922.954816041667,unknown,2,2022-06-02T11:07:18.817+02:00,2022-06-02T10:17:13.754+02:00,757,1.530461,0,0,607.4087,0,0,2022-06-02T11:07:31.596+02:00,675853651.596262,0,3.28125,101.3422,1,0.74
2022-06-02T11:07:33.734+02:00,1654160853.000259,53.2290433128372,10.39848793038811,36.83508,0.2687733,0.7115527,131.7370277298109,45.71954500393949,2.400000095367432,7.999579855010836,-9999,3937.870524666667,-0.2102508544921875,-0.097198486328125,-1.051742553710938,3937.860529666667,0.4253789743836787,-0.1116233488498838,0.0863935685095254,-0.06242845579981804,-0.3093527257442474,-0.6592459082603455,-0.09742828458547592,-0.03152700513601303,-0.007579922676086426,XArbitraryZVertical,0.05390873018688126,-0.04537351421603701,0.2082096640085878,0.9755427842998787,-0.1109762489795685,-0.08628613501787186,-0.9900701642036438,0,0,0,-1,-1,3922.954816041667,unknown,2,2022-06-02T11:07:18.817+02:00,2022-06-02T10:17:13.754+02:00,757,1.530461,0,0,607.4087,0,0,2022-06-02T11:07:31.596+02:00,675853651.596262,0,3.28125,101.3422,1,0.74
2022-06-02T11:07:33.744+02:00,1654160853.000259,53.2290433128372,10.39848793038811,36.83508,0.2687733,0.7115527,131.7370277298109,45.71954500393949,2.400000095367432,7.999579855010836,-9999,3937.880519666667,-0.2146759033203125,-0.0914154052734375,-1.064804077148438,3937.870524666667,0.4189098119558108,-0.1141665609942064,0.08656347730147149,-0.04684243723750114,-0.3127700984477997,-0.6222383379936218,-0.1001156121492386,-0.01689240336418152,-0.04366183280944824,XArbitraryZVertical,0.05410522485641687,-0.04677114251009617,0.204979070121849,0.9761499182707923,-0.1134921684861183,-0.08645541220903397,-0.9897701740264893,0,0,0,-1,-1,3922.954816041667,unknown,2,2022-06-02T11:07:18.817+02:00,2022-06-02T10:17:13.754+02:00,757,1.530461,0,0,607.4087,0,0,2022-06-02T11:07:31.596+02:00,675853651.596262,0,3.28125,101.3422,1,0.74
2022-06-02T11:07:33.760+02:00,1654160853.000259,53.2290433128372,10.39848793038811,36.83508,0.2687733,0.7115527,131.7370277298109,45.71954500393949,2.400000095367432,7.999579855010836,-9999,3937.890513666667,-0.2398681640625,-0.091156005859375,-1.064376831054688,3937.880519666667,0.4126334224675108,-0.1168633876626214,0.08703696627619888,-0.004739993717521429,-0.32757169008255,-0.6348345875740051,-0.09398782998323441,-0.005403853952884674,-0.07150858640670776,XArbitraryZVertical,0.05446138511856302,-0.0482088189451043,0.2018261570448928,0.9767169759719042,-0.116156205534935,-0.08692711591720581,-0.9894197583198547,0,0,0,-1,-1,3922.954816041667,unknown,2,2022-06-02T11:07:18.817+02:00,2022-06-02T10:17:13.754+02:00,757,1.530461,0,0,607.4087,0,0,2022-06-02T11:07:31.596+02:00,675853651.596262,0,3.28125,101.3422,1,0.74
2022-06-02T11:07:33.764+02:00,1654160853.000259,53.2290433128372,10.39848793038811,36.83508,0.2687733,0.7115527,131.7370277298109,45.71954500393949,2.400000095367432,7.999579855010836,-9999,3937.900508666667,-0.246307373046875,-0.0836181640625,-1.047134399414062,3937.890513666667,0.406287271067114,-0.119522164759028,0.08797299866722565,0.04577457904815674,-0.3061529397964478,-0.6412512063980103,-0.1061683744192123,-0.00180111825466156,-0.07762420177459717,XArbitraryZVertical,0.05502916696118589,-0.0495852636401905,0.198622104062436,0.9772729004335077,-0.1187766864895821,-0.08785957098007202,-0.9890261888504028,0,0,0,-1,-1,3922.954816041667,unknown,2,2022-06-02T11:07:18.817+02:00,2022-06-02T10:17:13.754+02:00,757,1.530461,0,0,607.4087,0,0,2022-06-02T11:07:31.596+02:00,675853651.596262,0,3.28125,101.3422,1,0.74
2022-06-02T11:07:33.774+02:00,1654160853.000259,53.2290433128372,10.39848793038811,36.83508,0.2687733,0.7115527,131.7370277298109,45.71954500393949,2.400000095367432,7.999579855010836,-9999,3937.910503666667,-0.235260009765625,-0.0920562744140625,-1.0234375,3937.900508666667,0.4001202683579118,-0.1218212842618287,0.08952678850165297,0.119269035756588,-0.2559171915054321,-0.6182491779327393,-0.1259604841470718,0.002676248550415039,-0.0675385594367981,XArbitraryZVertical,0.05585965850798446,-0.05072280045642335,0.1954913911157883,0.9777985350262399,-0.1210335269570351,-0.08940724283456802,-0.9886137843132019,0,0,0,-1,-1,3922.954816041667,unknown,2,2022-06-02T11:07:18.817+02:00,2022-06-02T10:17:13.754+02:00,757,1.530461,0,0,607.4087,0,0,2022-06-02T11:07:31.596+02:00,675853651.596262,0,3.28125,101.3422,1,0.74
2022-06-02T11:07:33.784+02:00,1654160853.000259,53.2290433128372,10.39848793038811,36.83508,0.2687733,0.7115527,131.7370277298109,45.71954500393949,2.400000095367432,7.999579855010836,-9999,3937.920497666667,-0.2253875732421875,-0.113555908203125,-1.005081176757812,3937.910503666667,0.3943002041162438,-0.1236003320241844,0.09172166518332966,0.1732284128665924,-0.201525866985321,-0.5874351263046265,-0.1180618181824684,0.005152039229869843,-0.04857385158538818,XArbitraryZVertical,0.05695557623637647,-0.05153805383355109,0.1925193870702057,0.9782822747406252,-0.1227676346898079,-0.09159310907125473,-0.988199770450592,0,0,0,-1,-1,3922.954816041667,unknown,2,2022-06-02T11:07:18.817+02:00,2022-06-02T10:17:13.754+02:00,757,1.530461,0,0,607.4087,0,0,2022-06-02T11:07:31.596+02:00,675853651.596262,0,3.28125,101.3422,1,0.74
2022-06-02T11:07:33.794+02:00,1654160853.000259,53.2290433128372,10.39848793038811,36.83508,0.2687733,0.7115527,131.7370277298109,45.71954500393949,2.400000095367432,7.999579855010836,-9999,3937.930492666667,-0.211639404296875,-0.1248321533203125,-0.9861297607421875,3937.920497666667,0.3887920314817264,-0.1249171345100982,0.09428118706392104,0.1981196403503418,-0.1609198451042175,-0.5647369623184204,-0.1053614541888237,-0.007481992244720459,-0.02559578418731689,XArbitraryZVertical,0.05818952681923444,-0.05208904655399993,0.1896971855566169,0.978731652792363,-0.1240391731262207,-0.09414157271385193,-0.9878014326095581,0,0,0,-1,-1,3922.954816041667,unknown,2,2022-06-02T11:07:18.817+02:00,2022-06-02T10:17:13.754+02:00,757,1.530461,0,0,607.4087,0,0,2022-06-02T11:07:31.596+02:00,675853651.596262,0,3.28125,101.3422,1,0.74
2022-06-02T11:07:33.804+02:00,1654160853.000259,53.2290433128372,10.39848793038811,36.83508,0.2687733,0.7115527,131.7370277298109,45.71954500393949,2.400000095367432,7.999579855010836,-9999,3937.940487666667,-0.195556640625,-0.11578369140625,-0.9744415283203125,3937.930492666667,0.3836109263540105,-0.1259252824633149,0.09696948690031043,0.207813024520874,-0.1357377916574478,-0.523814857006073,-0.09637176990509033,-0.02522224187850952,-0.008413136005401611,XArbitraryZVertical,0.05946334093197438,-0.05247380272818519,0.1870366622972147,0.9791464596979166,-0.1250027269124985,-0.09681759029626846,-0.9874212145805359,0,0,0,-1,-1,3922.954816041667,unknown,2,2022-06-02T11:07:18.817+02:00,2022-06-02T10:17:13.754+02:00,757,1.530461,0,0,607.4087,0,0,2022-06-02T11:07:31.596+02:00,675853651.596262,0,3.28125,101.3422,1,0.74
2022-06-02T11:07:33.814+02:00,1654160853.000259,53.2290433128372,10.39848793038811,36.83508,0.2687733,0.7115527,131.7370277298109,45.71954500393949,2.400000095367432,7.999579855010836,-9999,3937.950481666667,-0.1983795166015625,-0.095367431640625,-0.975189208984375,3937.950481666667,0.3745037128142851,-0.1272169563764343,0.1023363602172174,0.2265924960374832,-0.07355284690856934,-0.4492179453372955,-0.06820191442966461,-0.007797040045261383,0.01451557874679565,XArbitraryZVertical,0.06196802627177218,-0.05287066477439351,0.1823455781883146,0.9798544619433213,-0.1262103021144867,-0.1021578311920166,-0.9867293238639832,0,0,0,-1,-1,3922.954816041667,unknown,2,2022-06-02T11:07:18.817+02:00,2022-06-02T10:17:13.754+02:00,757,1.530461,0,0,607.4087,0,0,2022-06-02T11:07:31.596+02:00,675853651.596262,0,3.28125,101.3422,1,0.74
2022-06-02T11:07:33.824+02:00,1654160853.000259,53.2290433128372,10.39848793038811,36.83508,0.2687733,0.7115527,131.7370277298109,45.71954500393949,2.400000095367432,7.999579855010836,-9999,3937.960476666667,-0.203948974609375,-0.0710601806640625,-0.9775238037109375,3937.950481666667,0.3745037128142851,-0.1272169563764343,0.1023363602172174,0.2265924960374832,-0.07355284690856934,-0.4492179453372955,-0.06820191442966461,-0.007797040045261383,0.01451557874679565,XArbitraryZVertical,0.06196802627177218,-0.05287066477439351,0.1823455781883146,0.9798544619433213,-0.1262103021144867,-0.1021578311920166,-0.9867293238639832,0,0,0,-1,-1,3922.954816041667,unknown,2,2022-06-02T11:07:18.817+02:00,2022-06-02T10:17:13.754+02:00,757,1.530461,0,0,607.4087,0,0,2022-06-02T11:07:31.596+02:00,675853651.596262,0,3.28125,101.3422,1,0.74
2022-06-02T11:07:33.834+02:00,1654160853.000259,53.2290433128372,10.39848793038811,36.83508,0.2687733,0.7115527,131.7370277298109,45.71954500393949,2.400000095367432,7.999579855010836,-9999,3937.970471666667,-0.187774658203125,-0.095550537109375,-0.9823150634765625,3937.960476666667,0.3703092142231078,-0.1273305139010546,0.1051621472137292,0.22548808157444,-0.03575380519032478,-0.4512680470943451,-0.07735858857631683,0.02763684093952179,0.008031129837036133,XArbitraryZVertical,0.06325045312601978,-0.05279235105653081,0.1801849741164528,0.9801763650515815,-0.126285195350647,-0.1049684211611748,-0.9864246845245361,0,0,0,-1,-1,3922.954816041667,unknown,2,2022-06-02T11:07:18.817+02:00,2022-06-02T10:17:13.754+02:00,757,1.530461,0,0,607.4087,0,0,2022-06-02T11:07:31.596+02:00,675853651.596262,0,3.28125,101.3422,1,0.74
2022-06-02T11:07:33.847+02:00,1654160853.000259,53.2290433128372,10.39848793038811,36.83508,0.2687733,0.7115527,131.7370277298109,45.71954500393949,2.400000095367432,7.999579855010836,-9999,3937.980465666667,-0.179595947265625,-0.09759521484375,-0.9844970703125,3937.970471666667,0.3661515298032769,-0.1272995944704863,0.1078483307347349,0.2046231180429459,-0.03588170185685158,-0.4418148100376129,-0.07242046296596527,0.02605059742927551,0.008819937705993652,XArbitraryZVertical,0.06445309453328264,-0.05266042023150402,0.1780510645240807,0.9804949805552389,-0.1262184381484985,-0.1076393872499466,-0.9861453771591187,0,0,0,-1,-1,3922.954816041667,unknown,2,2022-06-02T11:07:18.817+02:00,2022-06-02T10:17:13.754+02:00,757,1.530461,0,0,607.4087,0,0,2022-06-02T11:07:31.596+02:00,675853651.596262,0,3.28125,101.3422,1,0.74
2022-06-02T11:07:33.854+02:00,1654160853.000259,53.2290433128372,10.39848793038811,36.83508,0.2687733,0.7115527,131.7370277298109,45.71954500393949,2.400000095367432,7.999579855010836,-9999,3937.990460666667,-0.17559814453125,-0.0970306396484375,-0.9857330322265625,3937.980465666667,0.3619931509213384,-0.1271455576427444,0.110381401222417,0.1957814246416092,-0.0192814189940691,-0.4426768720149994,-0.05600579082965851,0.009373053908348083,0.0004633069038391113,XArbitraryZVertical,0.06557059571371623,-0.05248726530926435,0.1759255597754467,0.9808138127723501,-0.1260315626859665,-0.110157385468483,-0.9858911633491516,0,0,0,-1,-1,3922.954816041667,unknown,2,2022-06-02T11:07:18.817+02:00,2022-06-02T10:17:13.754+02:00,757,1.530461,0,0,607.4087,0,0,2022-06-02T11:07:31.596+02:00,675853651.596262,0,3.28125,101.3422,1,0.74
2022-06-02T11:07:33.864+02:00,1654160853.000259,53.2290433128372,10.39848793038811,36.83508,0.2687733,0.7115527,131.7370277298109,45.71954500393949,2.400000095367432,7.999579855010836,-9999,3938.000455666667,-0.1587677001953125,-0.10943603515625,-0.9913330078125,3937.990460666667,0.3579459626572003,-0.1267808749773645,0.1128642894919143,0.195889338850975,0.01338105276226997,-0.4175050854682922,-0.05240249633789062,0.01846280694007874,0.001135110855102539,XArbitraryZVertical,0.06664901200016479,-0.05221640724023299,0.1738627949550178,0.9811233634090093,-0.1256370395421982,-0.1126248240470886,-0.9856626987457275,0,0,0,-1,-1,3922.954816041667,unknown,2,2022-06-02T11:07:18.817+02:00,2022-06-02T10:17:13.754+02:00,757,1.530461,0,0,607.4087,0,0,2022-06-02T11:07:31.596+02:00,675853651.596262,0,3.28125,101.3422,1,0.74
2022-06-02T11:07:33.874+02:00,1654160853.000259,53.2290433128372,10.39848793038811,36.83508,0.2687733,0.7115527,131.7370277298109,45.71954500393949,2.400000095367432,7.999579855010836,-9999,3938.010449666667,-0.14599609375,-0.129486083984375,-0.999969482421875,3938.000455666667,0.354242447704078,-0.1260922450343871,0.1152617083614261,0.1854148656129837,0.0439075380563736,-0.3729954063892365,-0.0439298078417778,0.01353569328784943,-0.001643240451812744,XArbitraryZVertical,0.06766790601829183,-0.05178712422497898,0.1719823707506684,0.981407707101312,-0.124923937022686,-0.1150066629052162,-0.9854782819747925,0,0,0,-1,-1,3922.954816041667,unknown,2,2022-06-02T11:07:18.817+02:00,2022-06-02T10:17:13.754+02:00,757,1.530461,0,0,607.4087,0,0,2022-06-02T11:07:31.596+02:00,675853651.596262,0,3.28125,101.3422,1,0.74
2022-06-02T11:07:33.884+02:00,1654160853.000259,53.2290433128372,10.39848793038811,36.83508,0.2687733,0.7115527,131.7370277298109,45.71954500393949,2.400000095367432,7.999579855010836,-9999,3938.020444666667,-0.1546783447265625,-0.1261749267578125,-1.007278442382812,3938.010449666667,0.350923688081975,-0.1252920329537747,0.1174532449984961,0.1696260571479797,0.04341565072536469,-0.3382944464683533,-0.02585986256599426,-0.002430297434329987,-0.01063090562820435,XArbitraryZVertical,0.06858802084275191,-0.05131204414309132,0.1703020959578382,0.9816617910489845,-0.1241035163402557,-0.1171833798289299,-0.9853255152702332,0,0,0,-1,-1,3922.954816041667,unknown,2,2022-06-02T11:07:18.817+02:00,2022-06-02T10:17:13.754+02:00,757,1.530461,0,0,607.4087,0,0,2022-06-02T11:07:31.596+02:00,675853651.596262,0,3.28125,101.3422,1,0.74
2022-06-02T11:07:33.894+02:00,1654160853.000259,53.2290433128372,10.39848793038811,36.83508,0.2687733,0.7115527,131.7370277298109,45.71954500393949,2.400000095367432,7.999579855010836,-9999,3938.030439666667,-0.1553955078125,-0.121612548828125,-1.008529663085938,3938.020444666667,0.347901124336353,-0.1244812152285988,0.1194551806274454,0.1550460457801819,0.0534893237054348,-0.30551677942276,-0.02510126680135727,-0.01205433160066605,-0.01982903480529785,XArbitraryZVertical,0.06942353785914769,-0.0508413250937608,0.1687746442166664,0.9818913403380556,-0.1232751831412315,-0.1191712915897369,-0.9851910471916199,0,0,0,-1,-1,3922.954816041667,unknown,2,2022-06-02T11:07:18.817+02:00,2022-06-02T10:17:13.754+02:00,757,1.530461,0,0,607.4087,0,0,2022-06-02T11:07:31.596+02:00,675853651.596262,0,3.28125,101.3422,1,0.74
2022-06-02T11:07:33.904+02:00,1654160853.000259,53.2290433128372,10.39848793038811,36.83508,0.2687733,0.7115527,131.7370277298109,45.71954500393949,2.400000095367432,7.999579855010836,-9999,3938.040433666667,-0.1595306396484375,-0.136199951171875,-0.99407958984375,3938.030439666667,0.3452766700376455,-0.1236661475911129,0.121321778032057,0.1551809906959534,0.04795194417238235,-0.2633177936077118,-0.0354381799697876,-0.002098828554153442,-0.02365922927856445,XArbitraryZVertical,0.07020390876452123,-0.05036898640786897,0.1674479443645477,0.9820873500596015,-0.1224444881081581,-0.121024377644062,-0.9850687384605408,0,0,0,-1,-1,3922.954816041667,unknown,2,2022-06-02T11:07:18.817+02:00,2022-06-02T10:17:13.754+02:00,757,1.530461,0,0,607.4087,0,0,2022-06-02T11:07:31.596+02:00,675853651.596262,0,3.28125,101.3422,1,0.74
2022-06-02T11:07:33.914+02:00,1654160853.000259,53.2290433128372,10.39848793038811,36.83508,0.2687733,0.7115527,131.7370277298109,45.71954500393949,2.400000095367432,7.999579855010836,-9999,3938.050428666667,-0.168304443359375,-0.136474609375,-0.977996826171875,3938.040433666667,0.3428252048431552,-0.1229724992708058,0.123155320788302,0.1538709998130798,0.03680421784520149,-0.2648555040359497,-0.03271570801734924,-0.002888217568397522,-0.0181354284286499,XArbitraryZVertical,0.07098381231973946,-0.04995513245587167,0.1662034189638978,0.9822638355791262,-0.1217337474226952,-0.1228442341089249,-0.9849315881729126,0,0,0,-1,-1,3922.954816041667,unknown,2,2022-06-02T11:07:18.817+02:00,2022-06-02T10:17:13.754+02:00,757,1.530461,0,0,607.4087,0,0,2022-06-02T11:07:31.596+02:00,675853651.596262,0,3.28125,101.3422,1,0.74
2022-06-02T11:07:33.924+02:00,1654160853.000259,53.2290433128372,10.39848793038811,36.83508,0.2687733,0.7115527,131.7370277298109,45.71954500393949,2.400000095367432,7.999579855010836,-9999,3938.060423666667,-0.1822357177734375,-0.1339263916015625,-0.9562835693359375,3938.050428666667,0.3403928319480936,-0.1223516989647639,0.1250577071969753,0.1600856781005859,0.03971785306930542,-0.2578312754631042,-0.04365560412406921,-0.01657968759536743,1.674890518188477e-05,XArbitraryZVertical,0.07180506518615856,-0.04957241209751291,0.1649635077953677,0.982432560551378,-0.1210935339331627,-0.1247319877147675,-0.9847732186317444,0,0,0,-1,-1,3922.954816041667,unknown,2,2022-06-02T11:07:18.817+02:00,2022-06-02T10:17:13.754+02:00,757,1.530461,0,0,607.4087,0,0,2022-06-02T11:07:31.596+02:00,675853651.596262,0,3.28125,101.3422,1,0.74
2022-06-02T11:07:33.934+02:00,1654160853.000259,53.2290433128372,10.39848793038811,36.83508,0.2687733,0.7115527,131.7370277298109,45.71954500393949,2.400000095367432,7.999579855010836,-9999,3938.070417666667,-0.1784515380859375,-0.1373443603515625,-0.9438934326171875,3938.060423666667,0.3380478885623902,-0.1215502257746512,0.126959427547871,0.168317511677742,0.068731389939785,-0.245649978518486,-0.05636048316955566,-0.00378301739692688,0.01917862892150879,XArbitraryZVertical,0.07261435880163782,-0.0490998646044034,0.1637733973416174,0.9825958520709153,-0.1202752441167831,-0.1266186386346817,-0.9846327304840088,0,0,0,-1,-1,3922.954816041667,unknown,2,2022-06-02T11:07:18.817+02:00,2022-06-02T10:17:13.754+02:00,757,1.530461,0,0,607.4087,0,0,2022-06-02T11:07:31.596+02:00,675853651.596262,0,3.28125,101.3422,1,0.74
2022-06-02T11:07:33.944+02:00,1654160853.000259,53.2290433128372,10.39848793038811,36.83508,0.2687733,0.7115527,131.7370277298109,45.71954500393949,2.400000095367432,7.999579855010836,-9999,3938.080412666667,-0.1836090087890625,-0.136260986328125,-0.937347412109375,3938.070417666667,0.3358235832356749,-0.1205022124297362,0.1289877420538816,0.1811315268278122,0.08864378929138184,-0.2476081401109695,-0.06354235112667084,-0.01059086620807648,0.03453481197357178,XArbitraryZVertical,0.07346984178457902,-0.04849291928722229,0.1626476049485216,0.982749321488537,-0.1192121580243111,-0.1286303550004959,-0.9845012426376343,0,0,0,-1,-1,3922.954816041667,unknown,2,2022-06-02T11:07:18.817+02:00,2022-06-02T10:17:13.754+02:00,757,1.530461,0,0,607.4087,0,0,2022-06-02T11:07:31.596+02:00,675853651.596262,0,3.28125,101.3422,1,0.74
2022-06-02T11:07:33.954+02:00,1654160853.000259,53.2290433128372,10.39848793038811,36.83508,0.2687733,0.7115527,131.7370277298109,45.71954500393949,2.400000095367432,7.999579855010836,-9999,3938.090407666667,-0.1747589111328125,-0.153228759765625,-0.9457244873046875,3938.080412666667,0.3334600337835653,-0.1192028401266574,0.1310699494049532,0.1686783283948898,0.1178256422281265,-0.2638510167598724,-0.06195462495088577,-0.003124624490737915,0.04497987031936646,XArbitraryZVertical,0.07432955722938728,-0.04776501363892693,0.1614615264203793,0.9829159404630439,-0.1179007142782211,-0.1306949853897095,-0.984387218952179,0,0,0,-1,-1,3922.954816041667,unknown,2,2022-06-02T11:07:18.817+02:00,2022-06-02T10:17:13.754+02:00,757,1.530461,0,0,607.4087,0,0,2022-06-02T11:07:31.596+02:00,675853651.596262,0,3.28125,101.3422,1,0.74
2022-06-02T11:07:33.964+02:00,1654160853.000259,53.2290433128372,10.39848793038811,36.83508,0.2687733,0.7115527,131.7370277298109,45.71954500393949,2.400000095367432,7.999579855010836,-9999,3938.100401666667,-0.1592559814453125,-0.1641082763671875,-0.9544525146484375,3938.090407666667,0.3310815753572553,-0.1176660952772433,0.1328457589106836,0.1261302083730698,0.1285003870725632,-0.2481652647256851,-0.06549384444952011,-0.01253369450569153,0.04422599077224731,XArbitraryZVertical,0.07502130175585744,-0.04694883118324249,0.1602885176174201,0.9830946254676753,-0.1163603961467743,-0.1324553638696671,-0.9843352437019348,0,0,0,-1,-1,3922.954816041667,unknown,2,2022-06-02T11:07:18.817+02:00,2022-06-02T10:17:13.754+02:00,757,1.530461,0,0,607.4087,0,0,2022-06-02T11:07:31.596+02:00,675853651.596262,0,3.28125,101.3422,1,0.74
2022-06-02T11:07:33.974+02:00,1654160853.000259,53.2290433128372,10.39848793038811,36.83508,0.2687733,0.7115527,131.7370277298109,45.71954500393949,2.400000095367432,7.999579855010836,-9999,3938.110396666667,-0.139678955078125,-0.1451416015625,-0.9718170166015625,3938.100401666667,0.3286867116163205,-0.1161405826478579,0.1341186218638699,0.07898107171058655,0.1273017078638077,-0.2301002442836761,-0.05717331171035767,-0.02906389534473419,0.03645211458206177,XArbitraryZVertical,0.07546863862383528,-0.04618246140966337,0.1591250478976886,0.983285743252672,-0.1148390099406242,-0.1337168961763382,-0.9843433499336243,0,0,0,-1,-1,3922.954816041667,unknown,2,2022-06-02T11:07:18.817+02:00,2022-06-02T10:17:13.754+02:00,757,1.530461,0,0,607.4087,0,0,2022-06-02T11:07:31.596+02:00,675853651.596262,0,3.28125,101.3422,1,0.74
2022-06-02T11:07:33.984+02:00,1654160853.000259,53.2290433128372,10.39848793038811,36.83508,0.2687733,0.7115527,131.7370277298109,45.71954500393949,2.400000095367432,7.999579855010836,-9999,3938.120391666667,-0.1441650390625,-0.1555633544921875,-0.9829864501953125,3938.110396666667,0.3267236188760658,-0.1147295363816779,0.1349564650564958,0.05074849724769592,0.1163467839360237,-0.1941220015287399,-0.02779826521873474,-0.01189146935939789,0.02295172214508057,XArbitraryZVertical,0.07572313692488893,-0.04549320426227012,0.1581847885347354,0.9834499988165516,-0.1134370788931847,-0.1345471739768982,-0.9843927621841431,0,0,0,-1,-1,3922.954816041667,unknown,2,2022-06-02T11:07:18.817+02:00,2022-06-02T10:17:13.754+02:00,757,1.530461,0,0,607.4087,0,0,2022-06-02T11:07:31.596+02:00,675853651.596262,0,3.28125,101.3422,1,0.74
2022-06-02T11:07:33.994+02:00,1654160853.000259,53.2290433128372,10.39848793038811,36.83508,0.2687733,0.7115527,131.7370277298109,45.71954500393949,2.400000095367432,7.999579855010836,-9999,3938.130385666667,-0.1432952880859375,-0.149993896484375,-0.9903717041015625,3938.120391666667,0.3249638610261392,-0.1134273894452295,0.1355548436872433,0.02757154032588005,0.1043013036251068,-0.1651119142770767,-0.0321410745382309,-0.01944674551486969,0.003639757633209229,XArbitraryZVertical,0.0758745480746453,-0.04487007298687301,0.1573486844869471,0.9836011107329223,-0.1121460273861885,-0.1351400911808014,-0.9844594597816467,0,0,0,-1,-1,3922.954816041667,unknown,2,2022-06-02T11:07:18.817+02:00,2022-06-02T10:17:13.754+02:00,757,1.530461,0,0,607.4087,0,0,2022-06-02T11:07:31.596+02:00,675853651.596262,0,3.28125,101.3422,1,0.74
2022-06-02T11:07:34.004+02:00,1654160853.000259,53.2290433128372,10.39848793038811,36.83508,0.2687733,0.7115527,131.7370277298109,45.71954500393949,2.400000095367432,7.999579855010836,-9999,3938.140380666667,-0.1373443603515625,-0.1490020751953125,-1.004119873046875,3938.130385666667,0.3235358639467277,-0.1122286967640329,0.1360214352155559,0.0347282849252224,0.1012299507856369,-0.1316091567277908,-0.03294681757688522,-0.01549018919467926,-0.001568794250488281,XArbitraryZVertical,0.07597780687790405,-0.04429633693102342,0.1566763527272954,0.9837264676145687,-0.1109588071703911,-0.1356023848056793,-0.9845303893089294,0,0,0,-1,-1,3922.954816041667,unknown,2,2022-06-02T11:07:18.817+02:00,2022-06-02T10:17:13.754+02:00,757,1.530461,0,0,607.4087,0,0,2022-06-02T11:07:31.596+02:00,675853651.596262,0,3.28125,101.3422,1,0.74
2022-06-02T11:07:34.014+02:00,1654160853.000259,53.2290433128372,10.39848793038811,36.83508,0.2687733,0.7115527,131.7370277298109,45.71954500393949,2.400000095367432,7.999579855010836,-9999,3938.150375666667,-0.147491455078125,-0.139892578125,-1.009368896484375,3938.140380666667,0.3223813442550492,-0.1111891304275418,0.1365169299328412,0.04065275564789772,0.08286665380001068,-0.1070068776607513,-0.03138384222984314,-0.01626574993133545,-0.01191210746765137,XArbitraryZVertical,0.07611450970800941,-0.04378827726755439,0.1561316557518786,0.98382526872049,-0.1099277958273888,-0.1360932886600494,-0.9845783114433289,0,0,0,-1,-1,3922.954816041667,unknown,2,2022-06-02T11:07:18.817+02:00,2022-06-02T10:17:13.754+02:00,757,1.530461,0,0,607.4087,0,0,2022-06-02T11:07:31.596+02:00,675853651.596262,0,3.28125,101.3422,1,0.74
2022-06-02T11:07:34.024+02:00,1654160853.000259,53.2290433128372,10.39848793038811,36.83508,0.2687733,0.7115527,131.7370277298109,45.71954500393949,2.400000095367432,7.999579855010836,-9999,3938.160369666667,-0.158233642578125,-0.156982421875,-1.00006103515625,3938.150375666667,0.3215001228300324,-0.1102900824840313,0.1370639924557611,0.04852252826094627,0.08242350071668625,-0.08069271594285965,-0.03011053055524826,-0.00623282790184021,-0.02337771654129028,XArbitraryZVertical,0.07629402337082994,-0.04333489506322551,0.1557145336485327,0.983897394995472,-0.1090343594551086,-0.1366352289915085,-0.9846026301383972,0,0,0,-1,-1,3922.954816041667,unknown,2,2022-06-02T11:07:18.817+02:00,2022-06-02T10:17:13.754+02:00,757,1.530461,0,0,607.4087,0,0,2022-06-02T11:07:31.596+02:00,675853651.596262,0,3.28125,101.3422,1,0.74
2022-06-02T11:07:34.034+02:00,1654160853.000259,53.2290433128372,10.39848793038811,36.83508,0.2687733,0.7115527,131.7370277298109,45.71954500393949,2.400000095367432,7.999579855010836,-9999,3938.170364666667,-0.1758575439453125,-0.153594970703125,-0.9885101318359375,3938.160369666667,0.3208109262997588,-0.1094628311117243,0.1376188722856147,0.05241553857922554,0.06940144300460815,-0.07267872989177704,-0.04631423950195312,-0.009528398513793945,-0.02081513404846191,XArbitraryZVertical,0.0764874662074061,-0.04290902177289074,0.1553890250198801,0.9839525356977015,-0.1082115098834038,-0.1371848881244659,-0.9846169948577881,0,0,0,-1,-1,3922.954816041667,unknown,2,2022-06-02T11:07:18.817+02:00,2022-06-02T10:17:13.754+02:00,757,1.530461,0,0,607.4087,0,0,2022-06-02T11:07:31.596+02:00,675853651.596262,0,3.28125,101.3422,1,0.74
2022-06-02T11:07:34.044+02:00,1654160853.000259,53.2290433128372,10.39848793038811,36.83508,0.2687733,0.7115527,131.7370277298109,45.71954500393949,2.400000095367432,7.999579855010836,-9999,3938.180359666667,-0.19586181640625,-0.1433563232421875,-0.9763946533203125,3938.170364666667,0.3207251192552604,-0.1127565413515394,0.1390188648145798,0.07030505686998367,0.08386427164077759,-0.07221667468547821,-0.05304223299026489,-0.02086760103702545,-0.01042813062667847,XArbitraryZVertical,0.07742918776200505,-0.0444186637980039,0.1551740824836588,0.9838458021117393,-0.1114322394132614,-0.1385715156793594,-0.9840633869171143,0,0,0,-1,-1,3922.954816041667,unknown,2,2022-06-02T11:07:18.817+02:00,2022-06-02T10:17:13.754+02:00,757,1.530461,0,0,607.4087,0,0,2022-06-02T11:07:31.596+02:00,675853651.596262,0,3.28125,101.3422,1,0.74
2022-06-02T11:07:34.054+02:00,1654160853.000259,53.2290433128372,10.39848793038811,36.83508,0.2687733,0.7115527,131.7370277298109,45.71954500393949,2.400000095367432,7.999579855010836,-9999,3938.190353666667,-0.1994781494140625,-0.132720947265625,-0.96923828125,3938.180359666667,0.3205924232217218,-0.1152108567718813,0.1416069397892322,0.1131441295146942,0.1059871539473534,-0.07371176779270172,-0.07357242703437805,-0.004709377884864807,0.00243985652923584,XArbitraryZVertical,0.0788878836350381,-0.04542026614116364,0.1549258546274941,0.9837232995906844,-0.1138054952025414,-0.1411341577768326,-0.9834274053573608,0,0,0,-1,-1,3922.954816041667,unknown,2,2022-06-02T11:07:18.817+02:00,2022-06-02T10:17:13.754+02:00,757,1.530461,0,0,607.4087,0,0,2022-06-02T11:07:31.596+02:00,675853651.596262,0,3.28125,101.3422,1,0.74
2022-06-02T11:07:34.064+02:00,1654160853.000259,53.2290433128372,10.39848793038811,36.83508,0.2687733,0.7115527,131.7370277298109,45.71954500393949,2.400000095367432,7.999579855010836,-9999,3938.200348666667,-0.2002105712890625,-0.1383056640625,-0.9654541015625,3938.190353666667,0.3201970335588082,-0.1156131363910161,0.1435834882750648,0.1644662767648697,0.1446966677904129,-0.09159669280052185,-0.08440917730331421,0.005441084504127502,0.009622335433959961,XArbitraryZVertical,0.0798809019377681,-0.04547283219637695,0.1546480703549662,0.9836844990009178,-0.1141686961054802,-0.1430906355381012,-0.9831025004386902,0,0,0,-1,-1,3922.954816041667,unknown,2,2022-06-02T11:07:18.817+02:00,2022-06-02T10:17:13.754+02:00,757,1.530461,0,0,607.4087,0,0,2022-06-02T11:07:31.596+02:00,675853651.596262,0,3.28125,101.3422,1,0.74
2022-06-02T11:07:34.074+02:00,1654160853.000259,53.2290433128372,10.39848793038811,36.83508,0.2687733,0.7115527,131.7370277298109,45.71954500393949,2.400000095367432,7.999579855010836,-9999,3938.210343666667,-0.18756103515625,-0.1517486572265625,-0.9762420654296875,3938.200348666667,0.3196880475403511,-0.1155739570933158,0.1462910807425544,0.208956241607666,0.1997556537389755,-0.1068089380860329,-0.08780394494533539,0.01211807131767273,0.01830202341079712,XArbitraryZVertical,0.08119620237396405,-0.04525374756373186,0.1543067191471242,0.9836405577476175,-0.1140850856900215,-0.1457698345184326,-0.9827185273170471,0,0,0,-1,-1,3922.954816041667,unknown,2,2022-06-02T11:07:18.817+02:00,2022-06-02T10:17:13.754+02:00,757,1.530461,0,0,607.4087,0,0,2022-06-02T11:07:31.596+02:00,675853651.596262,0,3.28125,101.3422,1,0.74
2022-06-02T11:07:34.083+02:00,1654160854.000256,53.22904238157639,10.3984917625138,36.83326,0.1479272,0.6770604,128.4640967021892,43.77953842308307,2.400000095367432,7.999579855010836,-9999,3938.220337666667,-0.171722412109375,-0.1549224853515625,-0.987884521484375,3938.210343666667,0.3190675817684976,-0.1149676928195604,0.1487469990905437,0.211456686258316,0.2242900282144547,-0.1124324724078178,-0.0814221203327179,0.00411030650138855,0.01287025213241577,XArbitraryZVertical,0.08234171994876932,-0.0447813934265248,0.153942341883113,0.9836240345881112,-0.113447867333889,-0.1481990814208984,-0.9824289083480835,0,0,0,-1,-1,3922.954816041667,unknown,2,2022-06-02T11:07:18.817+02:00,2022-06-02T10:17:13.754+02:00,757,1.530461,0,0,607.4087,0,0,2022-06-02T11:07:31.596+02:00,675853651.596262,0,3.28125,101.3422,1,0.74
2022-06-02T11:07:34.093+02:00,1654160854.000256,53.22904238157639,10.3984917625138,36.83326,0.1479272,0.6770604,128.4640967021892,43.77953842308307,2.400000095367432,7.999579855010836,-9999,3938.230332666667,-0.1627197265625,-0.147705078125,-0.9972991943359375,3938.220337666667,0.3183691285358802,-0.1139363290411824,0.1509159329126203,0.1892547160387039,0.2333154827356339,-0.1146575435996056,-0.06587067246437073,-0.00586053729057312,0.0005037784576416016,XArbitraryZVertical,0.08331214797700817,-0.044127171463875,0.1535676227623256,0.9836304264001287,-0.1123977527022362,-0.1503437161445618,-0.9822237491607666,0,0,0,-1,-1,3922.954816041667,unknown,2,2022-06-02T11:07:18.817+02:00,2022-06-02T10:17:13.754+02:00,757,1.530461,0,0,607.4087,0,0,2022-06-02T11:07:31.596+02:00,675853651.596262,0,3.28125,101.3422,1,0.74
2022-06-02T11:07:34.103+02:00,1654160854.000256,53.22904238157639,10.3984917625138,36.83326,0.1479272,0.6770604,128.4640967021892,43.77953842308307,2.400000095367432,7.999579855010836,-9999,3938.240327666667,-0.1578521728515625,-0.1361846923828125,-1.000747680664062,3938.230332666667,0.3176144454181017,-0.1126389874662285,0.1520481767801053,0.167661264538765,0.24259153008461,-0.1162495836615562,-0.05478935688734055,-0.0009112805128097534,-0.01156014204025269,XArbitraryZVertical,0.08375223272439915,-0.04342899720050773,0.1532123109609546,0.9836795047701348,-0.1111041754484177,-0.1514630019664764,-0.98219895362854,0,0,0,-1,-1,3922.954816041667,unknown,2,2022-06-02T11:07:18.817+02:00,2022-06-02T10:17:13.754+02:00,757,1.530461,0,0,607.4087,0,0,2022-06-02T11:07:31.596+02:00,675853651.596262,0,3.28125,101.3422,1,0.74
2022-06-02T11:07:34.113+02:00,1654160854.000256,53.22904238157639,10.3984917625138,36.83326,0.1479272,0.6770604,128.4640967021892,43.77953842308307,2.400000095367432,7.999579855010836,-9999,3938.250321666667,-0.1493072509765625,-0.1397705078125,-1.006378173828125,3938.240327666667,0.3168446399706421,-0.112047078032771,0.1531252558951928,0.1295791268348694,0.2453423142433167,-0.1270654797554016,-0.04972804337739944,0.01164315640926361,-0.0161890983581543,XArbitraryZVertical,0.08421933458133013,-0.04308323756252849,0.1528223049931333,0.9837154404727081,-0.1105044782161713,-0.1525275558233261,-0.9821018576622009,0,0,0,-1,-1,3922.954816041667,unknown,2,2022-06-02T11:07:18.817+02:00,2022-06-02T10:17:13.754+02:00,757,1.530461,0,0,607.4087,0,0,2022-06-02T11:07:31.596+02:00,675853651.596262,0,3.28125,101.3422,1,0.74
2022-06-02T11:07:34.123+02:00,1654160854.000256,53.22904238157639,10.3984917625138,36.83326,0.1479272,0.6770604,128.4640967021892,43.77953842308307,2.400000095367432,7.999579855010836,-9999,3938.260316666667,-0.1587982177734375,-0.141937255859375,-1.01470947265625,3938.250321666667,0.3161072238861696,-0.1120043066622496,0.1547080887604671,0.09378384798765182,0.2418160289525986,-0.1279416531324387,-0.0422898605465889,0.01670151948928833,-0.02101844549179077,XArbitraryZVertical,0.08497765209237403,-0.04296588033156926,0.1524081965308141,0.9837197286454371,-0.110435351729393,-0.1540916860103607,-0.9818654656410217,0,0,0,-1,-1,3922.954816041667,unknown,2,2022-06-02T11:07:18.817+02:00,2022-06-02T10:17:13.754+02:00,757,1.530461,0,0,607.4087,0,0,2022-06-02T11:07:31.596+02:00,675853651.596262,0,3.28125,101.3422,1,0.74
2022-06-02T11:07:34.133+02:00,1654160854.000256,53.22904238157639,10.3984917625138,36.83326,0.1479272,0.6770604,128.4640967021892,43.77953842308307,2.400000095367432,7.999579855010836,-9999,3938.270311666667,-0.1608734130859375,-0.151947021484375,-1.012527465820312,3938.260316666667,0.3152930673509257,-0.112500325906275,0.1552048838447052,0.06063734740018845,0.2419377267360687,-0.1472642123699188,-0.04081963747739792,0.01482725143432617,-0.02873313426971436,XArbitraryZVertical,0.08524188587294304,-0.04320457092124885,0.1519699066426971,0.9837541201246655,-0.1109137535095215,-0.1545825302600861,-0.9817343950271606,0,0,0,-1,-1,3922.954816041667,unknown,2,2022-06-02T11:07:18.817+02:00,2022-06-02T10:17:13.754+02:00,757,1.530461,0,0,607.4087,0,0,2022-06-02T11:07:31.596+02:00,675853651.596262,0,3.28125,101.3422,1,0.74
2022-06-02T11:07:34.143+02:00,1654160854.000256,53.22904238157639,10.3984917625138,36.83326,0.1479272,0.6770604,128.4640967021892,43.77953842308307,2.400000095367432,7.999579855010836,-9999,3938.280305666667,-0.151397705078125,-0.1426849365234375,-1.008224487304688,3938.270311666667,0.3143145046781047,-0.1124698852275831,0.1551213501298506,0.02509932778775692,0.2429031282663345,-0.1357899904251099,-0.05198698490858078,0.00636763870716095,-0.03312671184539795,XArbitraryZVertical,0.08517739777795436,-0.04323798579121653,0.1514926725572835,0.9838318257011957,-0.110885314643383,-0.1544999927282333,-0.9817505478858948,0,0,0,-1,-1,3922.954816041667,unknown,2,2022-06-02T11:07:18.817+02:00,2022-06-02T10:17:13.754+02:00,757,1.530461,0,0,607.4087,0,0,2022-06-02T11:07:31.596+02:00,675853651.596262,0,3.28125,101.3422,1,0.74
2022-06-02T11:07:34.153+02:00,1654160854.000256,53.22904238157639,10.3984917625138,36.83326,0.1479272,0.6770604,128.4640967021892,43.77953842308307,2.400000095367432,7.999579855010836,-9999,3938.290300666667,-0.1551055908203125,-0.1426544189453125,-0.992828369140625,3938.280305666667,0.3132730562085106,-0.1121871054753344,0.154771611039089,0.00194766977801919,0.2421853989362717,-0.1531359553337097,-0.04496486485004425,0.004053711891174316,-0.03063088655471802,XArbitraryZVertical,0.08496170143198546,-0.04317112233865857,0.151004147683099,0.983928514780628,-0.1106137335300446,-0.1541544497013092,-0.9818355441093445,0,0,0,-1,-1,3922.954816041667,unknown,2,2022-06-02T11:07:18.817+02:00,2022-06-02T10:17:13.754+02:00,757,1.530461,0,0,607.4087,0,0,2022-06-02T11:07:31.596+02:00,675853651.596262,0,3.28125,101.3422,1,0.74
2022-06-02T11:07:34.164+02:00,1654160854.000256,53.22904238157639,10.3984917625138,36.83326,0.1479272,0.6770604,128.4640967021892,43.77953842308307,2.400000095367432,7.999579855010836,-9999,3938.300295666667,-0.150726318359375,-0.15460205078125,-0.981597900390625,3938.290300666667,0.3119610837013578,-0.1115469542497678,0.1546448233243585,-0.02375050261616707,0.240679919719696,-0.1613059937953949,-0.04287517815828323,0.01567769050598145,-0.01815074682235718,XArbitraryZVertical,0.08482292367418476,-0.04292195253312787,0.1503900730730164,0.984045555344131,-0.1099873632192612,-0.1540291756391525,-0.9819255471229553,0,0,0,-1,-1,3922.954816041667,unknown,2,2022-06-02T11:07:18.817+02:00,2022-06-02T10:17:13.754+02:00,757,1.530461,0,0,607.4087,0,0,2022-06-02T11:07:34.156+02:00,675853654.1559486,0,3.542969,101.3401,1,0.74
2022-06-02T11:07:34.173+02:00,1654160854.000256,53.22904238157639,10.3984917625138,36.83326,0.1479272,0.6770604,128.4640967021892,43.77953842308307,2.400000095367432,7.999579855010836,-9999,3938.310289666667,-0.152374267578125,-0.1546173095703125,-0.97430419921875,3938.300295666667,0.3105134004342664,-0.1105440825256968,0.1547546599204727,-0.03772876784205437,0.2401227802038193,-0.1725437343120575,-0.04517409205436707,0.005120337009429932,-0.005606591701507568,XArbitraryZVertical,0.08477075603338659,-0.04248116044092003,0.1497166109824437,0.9841717496170045,-0.1090006977319717,-0.1541377007961273,-0.9820185303688049,0,0,0,-1,-1,3922.954816041667,unknown,2,2022-06-02T11:07:18.817+02:00,2022-06-02T10:17:13.754+02:00,757,1.530461,0,0,607.4087,0,0,2022-06-02T11:07:34.156+02:00,675853654.1559486,0,3.542969,101.3401,1,0.74
2022-06-02T11:07:34.184+02:00,1654160854.000256,53.22904238157639,10.3984917625138,36.83326,0.1479272,0.6770604,128.4640967021892,43.77953842308307,2.400000095367432,7.999579855010836,-9999,3938.320284666667,-0.1426849365234375,-0.1717987060546875,-0.9716033935546875,3938.310289666667,0.3088031520155479,-0.1093183560675213,0.1544912807988169,-0.04500912129878998,0.2416459769010544,-0.2040868997573853,-0.04330642521381378,-0.001365482807159424,0.004423797130584717,XArbitraryZVertical,0.08451368920532072,-0.04197109655002103,0.1489355217450315,0.9843342231888623,-0.1078013554215431,-0.1538774520158768,-0.9821917414665222,0,0,0,-1,-1,3922.954816041667,unknown,2,2022-06-02T11:07:18.817+02:00,2022-06-02T10:17:13.754+02:00,757,1.530461,0,0,607.4087,0,0,2022-06-02T11:07:34.156+02:00,675853654.1559486,0,3.542969,101.3401,1,0.74
2022-06-02T11:07:34.193+02:00,1654160854.000256,53.22904238157639,10.3984917625138,36.83326,0.1479272,0.6770604,128.4640967021892,43.77953842308307,2.400000095367432,7.999579855010836,-9999,3938.330279666667,-0.1297149658203125,-0.165313720703125,-0.9792022705078125,3938.320284666667,0.3066613906846756,-0.1065783266387938,0.1541950471018849,-0.06037289649248123,0.2318460792303085,-0.2074528634548187,-0.04552018642425537,-0.008799299597740173,0.009506285190582275,XArbitraryZVertical,0.084120362967801,-0.04073588935140249,0.1480064184395269,0.984560021750259,-0.1051145642995834,-0.153584748506546,-0.9825286865234375,0,0,0,-1,-1,3922.954816041667,unknown,2,2022-06-02T11:07:18.817+02:00,2022-06-02T10:17:13.754+02:00,757,1.530461,0,0,607.4087,0,0,2022-06-02T11:07:34.156+02:00,675853654.1559486,0,3.542969,101.3401,1,0.74
2022-06-02T11:07:34.204+02:00,1654160854.000256,53.22904238157639,10.3984917625138,36.83326,0.1479272,0.6770604,128.4640967021892,43.77953842308307,2.400000095367432,7.999579855010836,-9999,3938.340273666667,-0.11993408203125,-0.1507415771484375,-0.9756927490234375,3938.330279666667,0.3043854927112753,-0.1039513454313891,0.1537454479793684,-0.06935913115739822,0.2187519818544388,-0.2283912897109985,-0.0332324206829071,-0.01804791390895844,0.008657395839691162,XArbitraryZVertical,0.08365984008964661,-0.0395729440317025,0.1470103750950485,0.9847958876047929,-0.1025402769446373,-0.1531404703855515,-0.9828700423240662,0,0,0,-1,-1,3922.954816041667,unknown,2,2022-06-02T11:07:18.817+02:00,2022-06-02T10:17:13.754+02:00,757,1.530461,0,0,607.4087,0,0,2022-06-02T11:07:34.156+02:00,675853654.1559486,0,3.542969,101.3401,1,0.74
2022-06-02T11:07:34.213+02:00,1654160854.000256,53.22904238157639,10.3984917625138,36.83326,0.1479272,0.6770604,128.4640967021892,43.77953842308307,2.400000095367432,7.999579855010836,-9999,3938.350268666667,-0.114410400390625,-0.1494140625,-0.98583984375,3938.340273666667,0.3019315337764379,-0.1014677276758896,0.1533253781273106,-0.06517930328845978,0.1978115439414978,-0.2420224249362946,-0.0241621732711792,-0.004012972116470337,0.00410538911819458,XArbitraryZVertical,0.08322345624297431,-0.03848464358323919,0.1459185786270851,0.9850383188763651,-0.1001053974032402,-0.1527253389358521,-0.9831855893135071,0,0,0,-1,-1,3922.954816041667,unknown,2,2022-06-02T11:07:18.817+02:00,2022-06-02T10:17:13.754+02:00,757,1.530461,0,0,607.4087,0,0,2022-06-02T11:07:34.156+02:00,675853654.1559486,0,3.542969,101.3401,1,0.74
2022-06-02T11:07:34.224+02:00,1654160854.000256,53.22904238157639,10.3984917625138,36.83326,0.1479272,0.6770604,128.4640967021892,43.77953842308307,2.400000095367432,7.999579855010836,-9999,3938.360263666667,-0.1028594970703125,-0.137786865234375,-0.9922943115234375,3938.350268666667,0.2993959433740473,-0.09910818982539775,0.1530157165527085,-0.04139257967472076,0.1889161169528961,-0.2496590912342072,-0.0206182673573494,0.00451582670211792,0.004675805568695068,XArbitraryZVertical,0.08285149080120073,-0.03745133731395192,0.1447769898490107,0.9852778985047099,-0.09778992831707001,-0.1524192988872528,-0.9834660291671753,0,0,0,-1,-1,3922.954816041667,unknown,2,2022-06-02T11:07:18.817+02:00,2022-06-02T10:17:13.754+02:00,757,1.530461,0,0,607.4087,0,0,2022-06-02T11:07:34.156+02:00,675853654.1559486,0,3.542969,101.3401,1,0.74
2022-06-02T11:07:34.234+02:00,1654160854.000256,53.22904238157639,10.3984917625138,36.83326,0.1479272,0.6770604,128.4640967021892,43.77953842308307,2.400000095367432,7.999579855010836,-9999,3938.370257666667,-0.0938873291015625,-0.14697265625,-0.99224853515625,3938.360263666667,0.2968942478514741,-0.09686450264909575,0.1529607486932935,-0.01200060360133648,0.1792054325342178,-0.2403356283903122,-0.01286029815673828,0.007528528571128845,-0.00611579418182373,XArbitraryZVertical,0.08261643252389131,-0.03645353721397578,0.1436388620357383,0.9855016739088583,-0.09558390825986862,-0.15236496925354,-0.9836913347244263,0,0,0,-1,-1,3922.954816041667,unknown,2,2022-06-02T11:07:18.817+02:00,2022-06-02T10:17:13.754+02:00,757,1.530461,0,0,607.4087,0,0,2022-06-02T11:07:34.156+02:00,675853654.1559486,0,3.542969,101.3401,1,0.74
2022-06-02T11:07:34.244+02:00,1654160854.000256,53.22904238157639,10.3984917625138,36.83326,0.1479272,0.6770604,128.4640967021892,43.77953842308307,2.400000095367432,7.999579855010836,-9999,3938.380252666667,-0.0887603759765625,-0.1578521728515625,-0.98651123046875,3938.370257666667,0.2944924101890222,-0.09474556413622981,0.1531578323923432,0.007442636415362358,0.1634553074836731,-0.2376616299152374,-0.005395740270614624,0.01468130946159363,-0.009760081768035889,XArbitraryZVertical,0.08251865274227459,-0.03549366377164433,0.1425369505686313,0.9857048517082686,-0.09349646419286728,-0.152559757232666,-0.9838617444038391,0,0,0,-1,-1,3922.954816041667,unknown,2,2022-06-02T11:07:18.817+02:00,2022-06-02T10:17:13.754+02:00,757,1.530461,0,0,607.4087,0,0,2022-06-02T11:07:34.156+02:00,675853654.1559486,0,3.542969,101.3401,1,0.74
2022-06-02T11:07:34.255+02:00,1654160854.000256,53.22904238157639,10.3984917625138,36.83326,0.1479272,0.6770604,128.4640967021892,43.77953842308307,2.400000095367432,7.999579855010836,-9999,3938.390246666667,-0.07440185546875,-0.1642608642578125,-0.9613800048828125,3938.380252666667,0.2921315129087931,-0.09277000753842524,0.1534988694164935,0.01642947271466255,0.1531392782926559,-0.2319936156272888,-0.0008594319224357605,-0.001674771308898926,-0.007721781730651855,XArbitraryZVertical,0.08250494662975076,-0.03459188907694746,0.1414449753072591,0.9858953676175479,-0.09154778718948364,-0.1528967916965485,-0.9839926958084106,0,0,0,-1,-1,3922.954816041667,unknown,2,2022-06-02T11:07:18.817+02:00,2022-06-02T10:17:13.754+02:00,757,1.530461,0,0,607.4087,0,0,2022-06-02T11:07:34.156+02:00,675853654.1559486,0,3.542969,101.3401,1,0.74
2022-06-02T11:07:34.264+02:00,1654160854.000256,53.22904238157639,10.3984917625138,36.83326,0.1479272,0.6770604,128.4640967021892,43.77953842308307,2.400000095367432,7.999579855010836,-9999,3938.400241666667,-0.07305908203125,-0.16839599609375,-0.946502685546875,3938.390246666667,0.2897752333487998,-0.09097572673941631,0.1539019017370828,0.02501324191689491,0.1368561834096909,-0.2409162819385529,0.008920162916183472,-0.006937503814697266,0.008965730667114258,XArbitraryZVertical,0.0825367662210368,-0.03377474370997607,0.1403460207507847,0.9860779741081876,-0.08977647870779037,-0.1532950699329376,-0.9840939044952393,0,0,0,-1,-1,3922.954816041667,unknown,2,2022-06-02T11:07:18.817+02:00,2022-06-02T10:17:13.754+02:00,757,1.530461,0,0,607.4087,0,0,2022-06-02T11:07:34.156+02:00,675853654.1559486,0,3.542969,101.3401,1,0.74
2022-06-02T11:07:34.274+02:00,1654160854.000256,53.22904238157639,10.3984917625138,36.83326,0.1479272,0.6770604,128.4640967021892,43.77953842308307,2.400000095367432,7.999579855010836,-9999,3938.410236666667,-0.073028564453125,-0.17999267578125,-0.928375244140625,3938.400241666667,0.2872251663215848,-0.08920157523872445,0.1544237759750607,0.03511274605989456,0.1384016126394272,-0.2659912705421448,0.01829060912132263,-0.01287627220153809,0.02901738882064819,XArbitraryZVertical,0.0826273207904671,-0.03296697224333738,0.1391473951573682,0.9862675733674819,-0.08802326768636703,-0.1538107544183731,-0.9841718077659607,0,0,0,-1,-1,3922.954816041667,unknown,2,2022-06-02T11:07:18.817+02:00,2022-06-02T10:17:13.754+02:00,757,1.530461,0,0,607.4087,0,0,2022-06-02T11:07:34.156+02:00,675853654.1559486,0,3.542969,101.3401,1,0.74
2022-06-02T11:07:34.284+02:00,1654160854.000256,53.22904238157639,10.3984917625138,36.83326,0.1479272,0.6770604,128.4640967021892,43.77953842308307,2.400000095367432,7.999579855010836,-9999,3938.420230666667,-0.0527191162109375,-0.1853485107421875,-0.9215087890625,3938.410236666667,0.2845713437157644,-0.08729474779833758,0.1550426084594133,0.04421406611800194,0.153171718120575,-0.2654846906661987,0.009554289281368256,-0.01914656162261963,0.04759734869003296,XArbitraryZVertical,0.08275697221513592,-0.03209133282026994,0.1379005288506312,0.9864608139035699,-0.08613814413547516,-0.1544221937656403,-0.984242856502533,0,0,0,-1,-1,3922.954816041667,unknown,2,2022-06-02T11:07:18.817+02:00,2022-06-02T10:17:13.754+02:00,757,1.530461,0,0,607.4087,0,0,2022-06-02T11:07:34.156+02:00,675853654.1559486,0,3.542969,101.3401,1,0.74
2022-06-02T11:07:34.294+02:00,1654160854.000256,53.22904238157639,10.3984917625138,36.83326,0.1479272,0.6770604,128.4640967021892,43.77953842308307,2.400000095367432,7.999579855010836,-9999,3938.430225666667,-0.0348663330078125,-0.17938232421875,-0.922119140625,3938.420230666667,0.2817987380079581,-0.08536212942627945,0.1557732217398351,0.05521372333168983,0.1374894231557846,-0.2941682636737823,0.02110058069229126,-0.02988409996032715,0.0599784255027771,XArbitraryZVertical,0.0829405411816717,-0.03120030647841152,0.1365933764977769,0.9866557002616727,-0.08422617614269257,-0.1551440060138702,-0.9842948317527771,0,0,0,-1,-1,3922.954816041667,unknown,2,2022-06-02T11:07:18.817+02:00,2022-06-02T10:17:13.754+02:00,757,1.530461,0,0,607.4087,0,0,2022-06-02T11:07:34.156+02:00,675853654.1559486,0,3.542969,101.3401,1,0.74
2022-06-02T11:07:34.304+02:00,1654160854.000256,53.22904238157639,10.3984917625138,36.83326,0.1479272,0.6770604,128.4640967021892,43.77953842308307,2.400000095367432,7.999579855010836,-9999,3938.440220666667,-0.0395965576171875,-0.169097900390625,-0.93621826171875,3938.430225666667,0.2787370151011751,-0.08360372742386171,0.1566195332300861,0.06771592795848846,0.1137992739677429,-0.3243367969989777,0.04188063740730286,-0.02669824659824371,0.06525808572769165,XArbitraryZVertical,0.08319109353521607,-0.0303996562006248,0.1351335575519499,0.9868606965037511,-0.08248426765203476,-0.1559800207614899,-0.9843102097511292,0,0,0,-1,-1,3922.954816041667,unknown,2,2022-06-02T11:07:18.817+02:00,2022-06-02T10:17:13.754+02:00,757,1.530461,0,0,607.4087,0,0,2022-06-02T11:07:34.156+02:00,675853654.1559486,0,3.542969,101.3401,1,0.74
2022-06-02T11:07:34.314+02:00,1654160854.000256,53.22904238157639,10.3984917625138,36.83326,0.1479272,0.6770604,128.4640967021892,43.77953842308307,2.400000095367432,7.999579855010836,-9999,3938.450214666667,-0.037109375,-0.150909423828125,-0.95697021484375,3938.440220666667,0.2754708368935254,-0.08191982980434365,0.1576294598451797,0.08481369167566299,0.1130189597606659,-0.3330245614051819,0.04474197328090668,-0.01628607511520386,0.05681520700454712,XArbitraryZVertical,0.08352688852496626,-0.02963372537518973,0.1335658475119891,0.987069011244098,-0.08081374317407608,-0.156977504491806,-0.9842901825904846,0,0,0,-1,-1,3922.954816041667,unknown,2,2022-06-02T11:07:18.817+02:00,2022-06-02T10:17:13.754+02:00,757,1.530461,0,0,607.4087,0,0,2022-06-02T11:07:34.156+02:00,675853654.1559486,0,3.542969,101.3401,1,0.74
2022-06-02T11:07:34.324+02:00,1654160854.000256,53.22904238157639,10.3984917625138,36.83326,0.1479272,0.6770604,128.4640967021892,43.77953842308307,2.400000095367432,7.999579855010836,-9999,3938.460209666667,-0.0266265869140625,-0.153778076171875,-0.97308349609375,3938.450214666667,0.2721726810357758,-0.08016592665737074,0.1587771650798696,0.09579520672559738,0.1259277760982513,-0.3323499262332916,0.03900322318077087,-0.003189817070960999,0.03826630115509033,XArbitraryZVertical,0.08392823843838831,-0.02882626506743063,0.1319822089233721,0.9872718834764672,-0.07907278835773468,-0.1581108719110489,-0.9842501878738403,0,0,0,-1,-1,3922.954816041667,unknown,2,2022-06-02T11:07:18.817+02:00,2022-06-02T10:17:13.754+02:00,757,1.530461,0,0,607.4087,0,0,2022-06-02T11:07:34.156+02:00,675853654.1559486,0,3.542969,101.3401,1,0.74
2022-06-02T11:07:34.334+02:00,1654160854.000256,53.22904238157639,10.3984917625138,36.83326,0.1479272,0.6770604,128.4640967021892,43.77953842308307,2.400000095367432,7.999579855010836,-9999,3938.470204666667,-0.0085296630859375,-0.1824188232421875,-0.9875946044921875,3938.460209666667,0.2688577309371837,-0.0783216899560817,0.1599542105397428,0.08643552660942078,0.126379981637001,-0.3355411887168884,0.04423809796571732,0.01445180177688599,0.01904398202896118,XArbitraryZVertical,0.08434079102510957,-0.02797435718100355,0.1303939145695045,0.9874722047246909,-0.07724285125732422,-0.1592729985713959,-0.9842081069946289,0,0,0,-1,-1,3922.954816041667,unknown,2,2022-06-02T11:07:18.817+02:00,2022-06-02T10:17:13.754+02:00,757,1.530461,0,0,607.4087,0,0,2022-06-02T11:07:34.156+02:00,675853654.1559486,0,3.542969,101.3401,1,0.74
2022-06-02T11:07:34.357+02:00,1654160854.000256,53.22904238157639,10.3984917625138,36.83326,0.1479272,0.6770604,128.4640967021892,43.77953842308307,2.400000095367432,7.999579855010836,-9999,3938.480198666667,-0.009796142578125,-0.18536376953125,-0.9935150146484375,3938.470204666667,0.2655926064081682,-0.07658412001469321,0.1609450233670177,0.06152158603072166,0.1069222539663315,-0.3240785300731659,0.06013964861631393,-0.01162391901016235,0.003622770309448242,XArbitraryZVertical,0.08467200089846785,-0.02718707358758692,0.1288308290459195,0.9876709707465625,-0.07552049309015274,-0.1602510809898376,-0.9841830134391785,0,0,0,-1,-1,3922.954816041667,unknown,2,2022-06-02T11:07:18.817+02:00,2022-06-02T10:17:13.754+02:00,757,1.530461,0,0,607.4087,0,0,2022-06-02T11:07:34.156+02:00,675853654.1559486,0,3.542969,101.3401,1,0.74
2022-06-02T11:07:34.360+02:00,1654160854.000256,53.22904238157639,10.3984917625138,36.83326,0.1479272,0.6770604,128.4640967021892,43.77953842308307,2.400000095367432,7.999579855010836,-9999,3938.490193666667,-0.0206146240234375,-0.1894989013671875,-0.9915008544921875,3938.480198666667,0.2623098316338118,-0.07519975989099831,0.1616612385202222,0.04006609320640564,0.08033964037895203,-0.3373860716819763,0.06594010442495346,-0.02307826280593872,-0.00709998607635498,XArbitraryZVertical,0.08489267727341268,-0.02659449528705892,0.1272509804776944,0.9878729391229386,-0.07414931803941727,-0.160958006978035,-0.9841719269752502,0,0,0,-1,-1,3922.954816041667,unknown,2,2022-06-02T11:07:18.817+02:00,2022-06-02T10:17:13.754+02:00,757,1.530461,0,0,607.4087,0,0,2022-06-02T11:07:34.156+02:00,675853654.1559486,0,3.542969,101.3401,1,0.74
2022-06-02T11:07:34.363+02:00,1654160854.000256,53.22904238157639,10.3984917625138,36.83326,0.1479272,0.6770604,128.4640967021892,43.77953842308307,2.400000095367432,7.999579855010836,-9999,3938.500188666667,-0.0159912109375,-0.1890411376953125,-0.9732818603515625,3938.490193666667,0.2588879420378684,-0.0737071049753915,0.1622406767796074,0.02398096583783627,0.09062817692756653,-0.3394244015216827,0.05462219566106796,-0.02897614240646362,-0.01344650983810425,XArbitraryZVertical,0.08503936100727782,-0.0259641509798741,0.1256103068701803,0.9880871047727671,-0.07267332822084427,-0.1615298688411713,-0.9841883182525635,0,0,0,-1,-1,3922.954816041667,unknown,2,2022-06-02T11:07:18.817+02:00,2022-06-02T10:17:13.754+02:00,757,1.530461,0,0,607.4087,0,0,2022-06-02T11:07:34.156+02:00,675853654.1559486,0,3.542969,101.3401,1,0.74
2022-06-02T11:07:34.374+02:00,1654160854.000256,53.22904238157639,10.3984917625138,36.83326,0.1479272,0.6770604,128.4640967021892,43.77953842308307,2.400000095367432,7.999579855010836,-9999,3938.510182666667,-0.0075836181640625,-0.1759796142578125,-0.9569549560546875,3938.500188666667,0.2553946515321696,-0.07216427465697337,0.1626240590974126,0.008285360410809517,0.09640483558177948,-0.3517244756221771,0.05320601910352707,-0.02669045329093933,0.002303898334503174,XArbitraryZVertical,0.08508760046195628,-0.02532537165817875,0.1239409940680156,0.9883102851178687,-0.07115033268928528,-0.1619081944227219,-0.9842374324798584,0,0,0,-1,-1,3922.954816041667,unknown,2,2022-06-02T11:07:18.817+02:00,2022-06-02T10:17:13.754+02:00,757,1.530461,0,0,607.4087,0,0,2022-06-02T11:07:34.156+02:00,675853654.1559486,0,3.542969,101.3401,1,0.74
