loggingTime(txt),locationTimestamp_since1970(s),locationLatitude(WGS84),locationLongitude(WGS84),locationAltitude(m),locationSpeed(m/s),locationSpeedAccuracy(m/s),locationCourse(°),locationCourseAccuracy(°),locationVerticalAccuracy(m),locationHorizontalAccuracy(m),locationFloor(Z),accelerometerTimestamp_sinceReboot(s),accelerometerAccelerationX(G),accelerometerAccelerationY(G),accelerometerAccelerationZ(G),motionTimestamp_sinceReboot(s),motionYaw(rad),motionRoll(rad),motionPitch(rad),motionRotationRateX(rad/s),motionRotationRateY(rad/s),motionRotationRateZ(rad/s),motionUserAccelerationX(G),motionUserAccelerationY(G),motionUserAccelerationZ(G),motionAttitudeReferenceFrame(txt),motionQuaternionX(R),motionQuaternionY(R),motionQuaternionZ(R),motionQuaternionW(R),motionGravityX(G),motionGravityY(G),motionGravityZ(G),motionMagneticFieldX(µT),motionMagneticFieldY(µT),motionMagneticFieldZ(µT),motionHeading(°),motionMagneticFieldCalibrationAccuracy(Z),activityTimestamp_sinceReboot(s),activity(txt),activityActivityConfidence(Z),activityActivityStartDate(txt),pedometerStartDate(txt),pedometerNumberofSteps(N),pedometerAverageActivePace(s/m),pedometerCurrentPace(s/m),pedometerCurrentCadence(steps/s),pedometerDistance(m),pedometerFloorAscended(N),pedometerFloorDescended(N),pedometerEndDate(txt),altimeterTimestamp_sinceReboot(s),altimeterReset(bool),altimeterRelativeAltitude(m),altimeterPressure(kPa),batteryState(N),batteryLevel(R)
2022-06-02T11:08:42.169+02:00,1654160922.00024,53.22912066769875,10.39856500788329,37.13083,0.03524953,0.7171914,59.2043256124807,180,2.400000095367432,7.999579855010837,-9999,4006.289372416667,-0.0776824951171875,-0.2531585693359375,-0.9173736572265625,4006.279377416667,0.1266748272072595,-0.02563768889286595,0.3054358074349919,-0.1144202500581741,0.1604990065097809,-0.2068126946687698,-0.04230879619717598,0.04672625660896301,0.04938036203384399,XArbitraryZVertical,0.1526093611028159,-0.003015928837614786,0.06060715771944968,0.9864218415128598,-0.02444839477539062,-0.3007088303565979,-0.953402578830719,0,0,0,-1,-1,4004.803703375,unknown,2,2022-06-02T11:08:40.666+02:00,2022-06-02T10:17:13.754+02:00,757,1.541467,0,0,607.4087,0,0,2022-06-02T11:08:40.666+02:00,675853720.6658913,0,4.703125,101.3248,1,0.74
2022-06-02T11:08:42.175+02:00,1654160922.00024,53.22912066769875,10.39856500788329,37.13083,0.03524953,0.7171914,59.2043256124807,180,2.400000095367432,7.999579855010837,-9999,4006.299366416667,-0.06414794921875,-0.25677490234375,-0.924774169921875,4006.289372416667,0.1245881509692082,-0.02357948920706403,0.304047605140651,-0.1379857659339905,0.164092943072319,-0.1941123455762863,-0.05712448060512543,0.04547831416130066,0.03902661800384521,XArbitraryZVertical,0.1518601469810439,-0.002203902915807538,0.0597496037496404,0.9865918439755781,-0.02249587327241898,-0.299384593963623,-0.9538672566413879,0,0,0,-1,-1,4004.803703375,unknown,2,2022-06-02T11:08:40.666+02:00,2022-06-02T10:17:13.754+02:00,757,1.541467,0,0,607.4087,0,0,2022-06-02T11:08:40.666+02:00,675853720.6658913,0,4.703125,101.3248,1,0.74
2022-06-02T11:08:42.177+02:00,1654160922.00024,53.22912066769875,10.39856500788329,37.13083,0.03524953,0.7171914,59.2043256124807,180,2.400000095367432,7.999579855010837,-9999,4006.309360416667,-0.059844970703125,-0.2694091796875,-0.9314117431640625,4006.299366416667,0.1227598288915888,-0.02198180405072278,0.3017122748471813,-0.1662387400865555,0.154568076133728,-0.1842037290334702,-0.04981359839439392,0.04627054929733276,0.03423404693603516,XArbitraryZVertical,0.15065906560813,-0.001627286180033851,0.0589924324401926,0.9868226821506817,-0.02098717540502548,-0.2971555590629578,-0.9545983672142029,0,0,0,-1,-1,4004.803703375,unknown,2,2022-06-02T11:08:40.666+02:00,2022-06-02T10:17:13.754+02:00,757,1.541467,0,0,607.4087,0,0,2022-06-02T11:08:40.666+02:00,675853720.6658913,0,4.703125,101.3248,1,0.74
2022-06-02T11:08:42.183+02:00,1654160922.00024,53.22912066769875,10.39856500788329,37.13083,0.03524953,0.7171914,59.2043256124807,180,2.400000095367432,7.999579855010837,-9999,4006.319355416667,-0.0608062744140625,-0.2700653076171875,-0.937713623046875,4006.309360416667,0.1212237742764209,-0.02122399915494158,0.2986917032126522,-0.2002630233764648,0.128026470541954,-0.1672673523426056,-0.04095078259706497,0.02719548344612122,0.02749800682067871,XArbitraryZVertical,0.149145360987962,-0.001461913123522356,0.05832108539947729,0.9870927570794746,-0.02028272673487663,-0.2942700982093811,-0.9555070400238037,0,0,0,-1,-1,4004.803703375,unknown,2,2022-06-02T11:08:40.666+02:00,2022-06-02T10:17:13.754+02:00,757,1.541467,0,0,607.4087,0,0,2022-06-02T11:08:40.666+02:00,675853720.6658913,0,4.703125,101.3248,1,0.74
2022-06-02T11:08:42.192+02:00,1654160922.00024,53.22912066769875,10.39856500788329,37.13083,0.03524953,0.7171914,59.2043256124807,180,2.400000095367432,7.999579855010837,-9999,4006.329349416667,-0.0634307861328125,-0.2108917236328125,-0.9342041015625,4006.319355416667,0.1199075810571574,-0.02088131214450779,0.2957666085740999,-0.2071874141693115,0.1034851148724556,-0.1462549567222595,-0.03875789791345596,0.02116379141807556,0.02260887622833252,XArbitraryZVertical,0.1476908703655284,-0.001479845248227701,0.05772507375176865,0.9873464249209988,-0.01997317187488079,-0.2914732694625854,-0.9563704133033752,0,0,0,-1,-1,4004.803703375,unknown,2,2022-06-02T11:08:40.666+02:00,2022-06-02T10:17:13.754+02:00,757,1.541467,0,0,607.4087,0,0,2022-06-02T11:08:40.666+02:00,675853720.6658913,0,4.703125,101.3248,1,0.74
2022-06-02T11:08:42.203+02:00,1654160922.00024,53.22912066769875,10.39856500788329,37.13083,0.03524953,0.7171914,59.2043256124807,180,2.400000095367432,7.999579855010837,-9999,4006.339343416667,-0.0801239013671875,-0.2762603759765625,-0.9300079345703125,4006.329349416667,0.1196139246623644,-0.02206902777833965,0.2937502948129232,-0.08962029963731766,0.07559968531131744,0.03011316247284412,-0.04072188213467598,0.02385783195495605,0.01598316431045532,XArbitraryZVertical,0.1467295336762462,-0.002149111169116871,0.05751221785320482,0.9875009339979922,-0.02112198062241077,-0.2895438969135284,-0.9569316506385803,0,0,0,-1,-1,4004.803703375,unknown,2,2022-06-02T11:08:40.666+02:00,2022-06-02T10:17:13.754+02:00,757,1.541467,0,0,607.4087,0,0,2022-06-02T11:08:40.666+02:00,675853720.6658913,0,4.703125,101.3248,1,0.74
2022-06-02T11:08:42.212+02:00,1654160922.00024,53.22912066769875,10.39856500788329,37.13083,0.03524953,0.7171914,59.2043256124807,180,2.400000095367432,7.999579855010837,-9999,4006.349338416667,0.0007171630859375,-0.3003082275390625,-0.8940887451171875,4006.339343416667,0.1194443898558059,-0.02259209746742874,0.2925252387530579,-0.1072933375835419,0.1433376520872116,-0.1413842290639877,-0.06659579277038574,0.08965587615966797,0.006529748439788818,XArbitraryZVertical,0.146139585263844,-0.002456990219053966,0.0574023049553582,0.9875940822293788,-0.02163051627576351,-0.2883711159229279,-0.9572743773460388,0,0,0,-1,-1,4004.803703375,unknown,2,2022-06-02T11:08:40.666+02:00,2022-06-02T10:17:13.754+02:00,757,1.541467,0,0,607.4087,0,0,2022-06-02T11:08:40.666+02:00,675853720.6658913,0,4.703125,101.3248,1,0.74
2022-06-02T11:08:42.222+02:00,1654160922.00024,53.22912066769875,10.39856500788329,37.13083,0.03524953,0.7171914,59.2043256124807,180,2.400000095367432,7.999579855010837,-9999,4006.359332416667,-0.034759521484375,-0.279510498046875,-0.9112091064453125,4006.349338416667,0.1182426946012258,-0.02227358601646665,0.2914224685427569,-0.1579383909702301,0.05484933406114578,-0.1467038840055466,-0.007048655301332474,-0.0264056921005249,0.05507171154022217,XArbitraryZVertical,0.1455845553936689,-0.002420634459149322,0.05684297801009917,0.9877084780015138,-0.02133268117904663,-0.2873150110244751,-0.9575985670089722,0,0,0,-1,-1,4004.803703375,unknown,2,2022-06-02T11:08:40.666+02:00,2022-06-02T10:17:13.754+02:00,757,1.541467,0,0,607.4087,0,0,2022-06-02T11:08:40.666+02:00,675853720.6658913,0,4.703125,101.3248,1,0.74
2022-06-02T11:08:42.233+02:00,1654160922.00024,53.22912066769875,10.39856500788329,37.13083,0.03524953,0.7171914,59.2043256124807,180,2.400000095367432,7.999579855010837,-9999,4006.369327416667,-0.0810394287109375,-0.3018341064453125,-0.9246826171875,4006.359332416667,0.1169444388464014,-0.02250594123147485,0.2896962009185732,-0.1653236746788025,0.03766648471355438,-0.1507344543933868,0.01253312081098557,0.002519011497497559,0.05397427082061768,XArbitraryZVertical,0.1447370365728419,-0.002681200559088564,0.05620179873891629,0.9878690405161578,-0.02156631276011467,-0.2856611013412476,-0.9580879807472229,0,0,0,-1,-1,4004.803703375,unknown,2,2022-06-02T11:08:40.666+02:00,2022-06-02T10:17:13.754+02:00,757,1.541467,0,0,607.4087,0,0,2022-06-02T11:08:40.666+02:00,675853720.6658913,0,4.703125,101.3248,1,0.74
2022-06-02T11:08:42.242+02:00,1654160922.00024,53.22912066769875,10.39856500788329,37.13083,0.03524953,0.7171914,59.2043256124807,180,2.400000095367432,7.999579855010837,-9999,4006.379321416667,-0.0008087158203125,-0.304046630859375,-0.9052886962890625,4006.369327416667,0.1158696122938662,-0.02289822072464141,0.2879149931524225,-0.1671817600727081,0.1214466094970703,-0.1553526371717453,-0.0465124100446701,0.002337425947189331,0.04716390371322632,XArbitraryZVertical,0.1438667785338816,-0.003005242845675167,0.05566000094750585,0.9880258892760055,-0.0219537653028965,-0.2839536666870117,-0.9585866332054138,0,0,0,-1,-1,4004.803703375,unknown,2,2022-06-02T11:08:40.666+02:00,2022-06-02T10:17:13.754+02:00,757,1.541467,0,0,607.4087,0,0,2022-06-02T11:08:40.666+02:00,675853720.6658913,0,4.703125,101.3248,1,0.74
2022-06-02T11:08:42.255+02:00,1654160922.00024,53.22912066769875,10.39856500788329,37.13083,0.03524953,0.7171914,59.2043256124807,180,2.400000095367432,7.999579855010837,-9999,4006.389315416667,-0.0185089111328125,-0.29638671875,-0.9295196533203125,4006.379321416667,0.1145981694188965,-0.02338132138737073,0.2857077421594393,-0.2171681672334671,0.02273027971386909,-0.1578872948884964,-0.01673784479498863,-0.03011414408683777,0.04426795244216919,XArbitraryZVertical,0.142787802439805,-0.003399757899201009,0.05501890809785128,0.9882170288566284,-0.02243145555257797,-0.2818365693092346,-0.9592001438140869,0,0,0,-1,-1,4004.803703375,unknown,2,2022-06-02T11:08:40.666+02:00,2022-06-02T10:17:13.754+02:00,757,1.541467,0,0,607.4087,0,0,2022-06-02T11:08:40.666+02:00,675853720.6658913,0,4.703125,101.3248,1,0.74
2022-06-02T11:08:42.265+02:00,1654160922.00024,53.22912066769875,10.39856500788329,37.13083,0.03524953,0.7171914,59.2043256124807,180,2.400000095367432,7.999579855010837,-9999,4006.399310416667,-0.03497314453125,-0.2705230712890625,-0.9482574462890625,4006.389315416667,0.1130937221442382,-0.02377709232325062,0.2836616527512462,-0.2164320647716522,-0.005212139338254929,-0.1776764392852783,0.02172611653804779,-0.02003869414329529,0.0453065037727356,XArbitraryZVertical,0.1417850363621449,-0.003761679725771595,0.05426749952232279,0.9884015987937799,-0.02282474003732204,-0.2798728346824646,-0.9597657322883606,0,0,0,-1,-1,4004.803703375,unknown,2,2022-06-02T11:08:40.666+02:00,2022-06-02T10:17:13.754+02:00,757,1.541467,0,0,607.4087,0,0,2022-06-02T11:08:40.666+02:00,675853720.6658913,0,4.703125,101.3248,1,0.74
2022-06-02T11:08:42.274+02:00,1654160922.00024,53.22912066769875,10.39856500788329,37.13083,0.03524953,0.7171914,59.2043256124807,180,2.400000095367432,7.999579855010837,-9999,4006.409304416667,-0.0271148681640625,-0.251983642578125,-0.9698486328125,4006.399310416667,0.111171045047944,-0.02329167989245774,0.2815877720572252,-0.2094545364379883,-0.004809335805475712,-0.1784968376159668,-0.008297828957438469,-0.004345297813415527,0.01972687244415283,XArbitraryZVertical,0.1407435493868527,-0.003716807244236466,0.05337174361832631,0.9885994161839222,-0.02237232401967049,-0.2778812348842621,-0.9603548645973206,0,0,0,-1,-1,4004.803703375,unknown,2,2022-06-02T11:08:40.666+02:00,2022-06-02T10:17:13.754+02:00,757,1.541467,0,0,607.4087,0,0,2022-06-02T11:08:40.666+02:00,675853720.6658913,0,4.703125,101.3248,1,0.74
2022-06-02T11:08:42.282+02:00,1654160922.00024,53.22912066769875,10.39856500788329,37.13083,0.03524953,0.7171914,59.2043256124807,180,2.400000095367432,7.999579855010837,-9999,4006.419299416667,-0.018280029296875,-0.24798583984375,-0.9843292236328125,4006.409304416667,0.1092184183378669,-0.02277792919471035,0.2797430788644967,-0.1741354167461395,-0.006596317049115896,-0.1855627298355103,-0.01206021755933762,0.01240631937980652,0.001404464244842529,XArbitraryZVertical,0.1398146033541614,-0.003651567979110028,0.05246011141025328,0.9887802871959943,-0.02189057692885399,-0.2761087119579315,-0.9608770608901978,0,0,0,-1,-1,4004.803703375,unknown,2,2022-06-02T11:08:40.666+02:00,2022-06-02T10:17:13.754+02:00,757,1.541467,0,0,607.4087,0,0,2022-06-02T11:08:40.666+02:00,675853720.6658913,0,4.703125,101.3248,1,0.74
2022-06-02T11:08:42.292+02:00,1654160922.00024,53.22912066769875,10.39856500788329,37.13083,0.03524953,0.7171914,59.2043256124807,180,2.400000095367432,7.999579855010837,-9999,4006.429293416667,-0.0166778564453125,-0.2514190673828125,-0.98651123046875,4006.419299416667,0.1075822239538308,-0.02357003475767622,0.2769786438427118,-0.1355359852313995,-0.0214200709015131,-0.1827458441257477,0.002253338694572449,0.02625828981399536,-0.01599651575088501,XArbitraryZVertical,0.1384653561154601,-0.004233422680839165,0.05162221484912866,0.9890119299214919,-0.02266958728432655,-0.2734507024288177,-0.9616188406944275,0,0,0,-1,-1,4004.803703375,unknown,2,2022-06-02T11:08:40.666+02:00,2022-06-02T10:17:13.754+02:00,757,1.541467,0,0,607.4087,0,0,2022-06-02T11:08:40.666+02:00,675853720.6658913,0,4.703125,101.3248,1,0.74
2022-06-02T11:08:42.303+02:00,1654160922.00024,53.22912066769875,10.39856500788329,37.13083,0.03524953,0.7171914,59.2043256124807,180,2.400000095367432,7.999579855010837,-9999,4006.439287416667,-0.0197601318359375,-0.255218505859375,-0.988616943359375,4006.429293416667,0.1057955045402803,-0.02389293302766468,0.2774571313424257,-0.1055013909935951,-0.0301312692463398,-0.185260146856308,0.00495634414255619,0.02435341477394104,-0.02507644891738892,XArbitraryZVertical,0.138706291940394,-0.004503880880242353,0.05071172260928559,0.9890240566622855,-0.0229769628494978,-0.2739109098911285,-0.9614805579185486,0,0,0,-1,-1,4004.803703375,unknown,2,2022-06-02T11:08:40.666+02:00,2022-06-02T10:17:13.754+02:00,757,1.541467,0,0,607.4087,0,0,2022-06-02T11:08:40.666+02:00,675853720.6658913,0,4.703125,101.3248,1,0.74
2022-06-02T11:08:42.312+02:00,1654160922.00024,53.22912066769875,10.39856500788329,37.13083,0.03524953,0.7171914,59.2043256124807,180,2.400000095367432,7.999579855010837,-9999,4006.449282416667,-0.015899658203125,-0.258880615234375,-0.9845123291015625,4006.439287416667,0.1037461414298789,-0.02340741606708624,0.2774181726692158,-0.08065856248140335,-0.03225234523415565,-0.188776433467865,0.003803130239248276,0.02089798450469971,-0.0264279842376709,XArbitraryZVertical,0.138670263741902,-0.004406933969551418,0.04973229334845425,0.9890793365420225,-0.02251039445400238,-0.2738734483718872,-0.9615022540092468,0,0,0,-1,-1,4004.803703375,unknown,2,2022-06-02T11:08:40.666+02:00,2022-06-02T10:17:13.754+02:00,757,1.541467,0,0,607.4087,0,0,2022-06-02T11:08:40.666+02:00,675853720.6658913,0,4.703125,101.3248,1,0.74
2022-06-02T11:08:42.322+02:00,1654160922.00024,53.22912066769875,10.39856500788329,37.13083,0.03524953,0.7171914,59.2043256124807,180,2.400000095367432,7.999579855010837,-9999,4006.459276416667,-0.0170745849609375,-0.2662811279296875,-0.9832916259765625,4006.449282416667,0.1023989107361544,-0.02542129456108217,0.2780456990026673,-0.08103007078170776,-0.03078600950539112,-0.1887130588293076,0.006482740864157677,0.01846498250961304,-0.02509087324142456,XArbitraryZVertical,0.1390268938570374,-0.005479863471933483,0.04892020565471392,0.9890643273507881,-0.02444232255220413,-0.2744769155979156,-0.9612829685211182,0,0,0,-1,-1,4004.803703375,unknown,2,2022-06-02T11:08:40.666+02:00,2022-06-02T10:17:13.754+02:00,757,1.541467,0,0,607.4087,0,0,2022-06-02T11:08:40.666+02:00,675853720.6658913,0,4.703125,101.3248,1,0.74
2022-06-02T11:08:42.332+02:00,1654160922.00024,53.22912066769875,10.39856500788329,37.13083,0.03524953,0.7171914,59.2043256124807,180,2.400000095367432,7.999579855010837,-9999,4006.469271416667,-0.0213165283203125,-0.2662200927734375,-0.9835357666015625,4006.459276416667,0.1006710016198615,-0.02622324068076301,0.279568279120083,-0.09361813217401505,-0.03349144756793976,-0.192307323217392,0.008493863046169281,0.01164323091506958,-0.02217274904251099,XArbitraryZVertical,0.1397941831643516,-0.005957264867323999,0.04799473821542007,0.9889987680461185,-0.02520222589373589,-0.2759407162666321,-0.9608442187309265,0,0,0,-1,-1,4004.803703375,unknown,2,2022-06-02T11:08:40.666+02:00,2022-06-02T10:17:13.754+02:00,757,1.541467,0,0,607.4087,0,0,2022-06-02T11:08:40.666+02:00,675853720.6658913,0,4.703125,101.3248,1,0.74
2022-06-02T11:08:42.342+02:00,1654160922.00024,53.22912066769875,10.39856500788329,37.13083,0.03524953,0.7171914,59.2043256124807,180,2.400000095367432,7.999579855010837,-9999,4006.479265416667,-0.022186279296875,-0.261474609375,-0.987762451171875,4006.469271416667,0.09852156396791902,-0.02539933257145993,0.2800418456704741,-0.1014475598931313,-0.02638879790902138,-0.1844874918460846,0.005242221057415009,0.009412825107574463,-0.02254247665405273,XArbitraryZVertical,0.1400024923400883,-0.005688094341676428,0.04698479501919871,0.9890194367111783,-0.02440724894404411,-0.276395857334137,-0.9607338905334473,0,0,0,-1,-1,4004.803703375,unknown,2,2022-06-02T11:08:40.666+02:00,2022-06-02T10:17:13.754+02:00,757,1.541467,0,0,607.4087,0,0,2022-06-02T11:08:40.666+02:00,675853720.6658913,0,4.703125,101.3248,1,0.74
2022-06-02T11:08:42.352+02:00,1654160922.00024,53.22912066769875,10.39856500788329,37.13083,0.03524953,0.7171914,59.2043256124807,180,2.400000095367432,7.999579855010837,-9999,4006.489259416667,-0.02618408203125,-0.2591400146484375,-0.9931640625,4006.479265416667,0.09664006905086994,-0.02536155396156714,0.2795307008583255,-0.1010744571685791,-0.01988082937896252,-0.1855884343385696,0.001883089542388916,0.01206487417221069,-0.02482658624649048,XArbitraryZVertical,0.1397434763090705,-0.005813790031086584,0.04606192938890349,0.9890987104694516,-0.02437453344464302,-0.2759045958518982,-0.960875928401947,0,0,0,-1,-1,4004.803703375,unknown,2,2022-06-02T11:08:40.666+02:00,2022-06-02T10:17:13.754+02:00,757,1.541467,0,0,607.4087,0,0,2022-06-02T11:08:40.666+02:00,675853720.6658913,0,4.703125,101.3248,1,0.74
2022-06-02T11:08:42.362+02:00,1654160922.00024,53.22912066769875,10.39856500788329,37.13083,0.03524953,0.7171914,59.2043256124807,180,2.400000095367432,7.999579855010837,-9999,4006.499254416667,-0.02545166015625,-0.25042724609375,-1.000518798828125,4006.489259416667,0.09476658138958324,-0.02518356320345572,0.2781683444421271,-0.114656575024128,-0.006139451637864113,-0.1798261553049088,0.0008212365210056305,0.01386791467666626,-0.02827733755111694,XArbitraryZVertical,0.1390602584149296,-0.005889801251828854,0.04516078321381186,0.9892360428608751,-0.02421294711530209,-0.2745948731899261,-0.9612551331520081,0,0,0,-1,-1,4004.803703375,unknown,2,2022-06-02T11:08:40.666+02:00,2022-06-02T10:17:13.754+02:00,757,1.541467,0,0,607.4087,0,0,2022-06-02T11:08:40.666+02:00,675853720.6658913,0,4.703125,101.3248,1,0.74
2022-06-02T11:08:42.372+02:00,1654160922.00024,53.22912066769875,10.39856500788329,37.13083,0.03524953,0.7171914,59.2043256124807,180,2.400000095367432,7.999579855010837,-9999,4006.509248416667,-0.022369384765625,-0.2481689453125,-1.0032958984375,4006.499254416667,0.09283745862283282,-0.02445629178284638,0.2761856375905289,-0.1088927909731865,0.008572183549404144,-0.1761755496263504,-0.002214450389146805,0.01737776398658752,-0.03624725341796875,XArbitraryZVertical,0.1380577807261599,-0.00571142260710828,0.04427549056935867,0.9894175611039719,-0.0235271155834198,-0.2726878225803375,-0.9618148803710938,0,0,0,-1,-1,4004.803703375,unknown,2,2022-06-02T11:08:40.666+02:00,2022-06-02T10:17:13.754+02:00,757,1.541467,0,0,607.4087,0,0,2022-06-02T11:08:40.666+02:00,675853720.6658913,0,4.703125,101.3248,1,0.74
2022-06-02T11:08:42.382+02:00,1654160922.00024,53.22912066769875,10.39856500788329,37.13083,0.03524953,0.7171914,59.2043256124807,180,2.400000095367432,7.999579855010837,-9999,4006.519242416667,-0.0187530517578125,-0.25140380859375,-1.003280639648438,4006.509248416667,0.09091954102054142,-0.023521008451481,0.2742482905297194,-0.1040208041667938,0.02935735695064068,-0.1740988194942474,-0.001880943775177002,0.02353945374488831,-0.03891897201538086,XArbitraryZVertical,0.1370735792527628,-0.005426260788171869,0.04340852546173694,0.9895943828333922,-0.0226399190723896,-0.2708233892917633,-0.9623627662658691,0,0,0,-1,-1,4004.803703375,unknown,2,2022-06-02T11:08:40.666+02:00,2022-06-02T10:17:13.754+02:00,757,1.541467,0,0,607.4087,0,0,2022-06-02T11:08:40.666+02:00,675853720.6658913,0,4.703125,101.3248,1,0.74
2022-06-02T11:08:42.392+02:00,1654160922.00024,53.22912066769875,10.39856500788329,37.13083,0.03524953,0.7171914,59.2043256124807,180,2.400000095367432,7.999579855010837,-9999,4006.529237416667,-0.01605224609375,-0.254547119140625,-1.001632690429688,4006.519242416667,0.08905638891986006,-0.02246994886701402,0.2724744867321189,-0.08734019845724106,0.03840284794569016,-0.1684042513370514,-0.0004555508494377136,0.01777264475822449,-0.04046159982681274,XArbitraryZVertical,0.1361684797830669,-0.005074334224711133,0.04257389388643765,0.9897574119386852,-0.02163916453719139,-0.2691154479980469,-0.9628648161888123,0,0,0,-1,-1,4004.803703375,unknown,2,2022-06-02T11:08:40.666+02:00,2022-06-02T10:17:13.754+02:00,757,1.541467,0,0,607.4087,0,0,2022-06-02T11:08:40.666+02:00,675853720.6658913,0,4.703125,101.3248,1,0.74
2022-06-02T11:08:42.403+02:00,1654160922.00024,53.22912066769875,10.39856500788329,37.13083,0.03524953,0.7171914,59.2043256124807,180,2.400000095367432,7.999579855010837,-9999,4006.539231416667,-0.014556884765625,-0.257568359375,-0.9941558837890625,4006.529237416667,0.08724147975938812,-0.02133531125149336,0.2708196577122938,-0.08977006375789642,0.04738728702068329,-0.1638150960206985,0.004870098084211349,0.01634636521339417,-0.0397496223449707,XArbitraryZVertical,0.1353212341146589,-0.004673309162731516,0.04176657906433989,0.9899099992484672,-0.0205561202019453,-0.2675213217735291,-0.9633326530456543,0,0,0,-1,-1,4004.803703375,unknown,2,2022-06-02T11:08:40.666+02:00,2022-06-02T10:17:13.754+02:00,757,1.541467,0,0,607.4087,0,0,2022-06-02T11:08:40.666+02:00,675853720.6658913,0,4.703125,101.3248,1,0.74
2022-06-02T11:08:42.412+02:00,1654160922.00024,53.22912066769875,10.39856500788329,37.13083,0.03524953,0.7171914,59.2043256124807,180,2.400000095367432,7.999579855010837,-9999,4006.549226416667,-0.0099639892578125,-0.2534637451171875,-0.9927215576171875,4006.539231416667,0.08545183161555146,-0.02009420118325547,0.2695249650827874,-0.09408991038799286,0.06487080454826355,-0.1647816896438599,0.003116847947239876,0.009941190481185913,-0.03231453895568848,XArbitraryZVertical,0.1346508049976934,-0.004208350605476562,0.0409748918726912,0.9900366180864263,-0.01936744712293148,-0.2662735879421234,-0.963702917098999,0,0,0,-1,-1,4004.803703375,unknown,2,2022-06-02T11:08:40.666+02:00,2022-06-02T10:17:13.754+02:00,757,1.541467,0,0,607.4087,0,0,2022-06-02T11:08:40.666+02:00,675853720.6658913,0,4.703125,101.3248,1,0.74
2022-06-02T11:08:42.422+02:00,1654160922.00024,53.22912066769875,10.39856500788329,37.13083,0.03524953,0.7171914,59.2043256124807,180,2.400000095367432,7.999579855010837,-9999,4006.559220416667,-0.00701904296875,-0.2501220703125,-0.9919281005859375,4006.549226416667,0.08370617556830995,-0.01892592003239734,0.2684663354664794,-0.09232343733310699,0.07265815138816833,-0.1677407324314117,0.005215886980295181,0.008630692958831787,-0.02911210060119629,XArbitraryZVertical,0.1340996099693551,-0.003770150751392753,0.04019732123330659,0.9901450209864112,-0.01824688166379929,-0.2652530372142792,-0.9640061855316162,0,0,0,-1,-1,4004.803703375,unknown,2,2022-06-02T11:08:40.666+02:00,2022-06-02T10:17:13.754+02:00,757,1.541467,0,0,607.4087,0,0,2022-06-02T11:08:40.666+02:00,675853720.6658913,0,4.703125,101.3248,1,0.74
2022-06-02T11:08:42.432+02:00,1654160922.00024,53.22912066769875,10.39856500788329,37.13083,0.03524953,0.7171914,59.2043256124807,180,2.400000095367432,7.999579855010837,-9999,4006.569214416667,-0.0055084228515625,-0.25457763671875,-0.9920654296875,4006.559220416667,0.08200117028244315,-0.01777333054419793,0.267439584015689,-0.08389287441968918,0.08131249994039536,-0.1615796536207199,0.00880931131541729,0.01285907626152039,-0.02608859539031982,XArbitraryZVertical,0.1335653364561414,-0.003335296753784309,0.03943780415129633,0.9902493837343628,-0.01714059896767139,-0.2642629146575928,-0.9642983675003052,0,0,0,-1,-1,4004.803703375,unknown,2,2022-06-02T11:08:40.666+02:00,2022-06-02T10:17:13.754+02:00,757,1.541467,0,0,607.4087,0,0,2022-06-02T11:08:40.666+02:00,675853720.6658913,0,4.703125,101.3248,1,0.74
2022-06-02T11:08:42.442+02:00,1654160922.00024,53.22912066769875,10.39856500788329,37.13083,0.03524953,0.7171914,59.2043256124807,180,2.400000095367432,7.999579855010837,-9999,4006.579209416667,0.003204345703125,-0.2595062255859375,-0.9886016845703125,4006.569214416667,0.08036409906442478,-0.01658848638361956,0.2664463291090028,-0.07816441357135773,0.09076085686683655,-0.1576597392559052,0.008708702400326729,0.01316753029823303,-0.0280652642250061,XArbitraryZVertical,0.1330478887682323,-0.002878277755320829,0.03871309150773217,0.9903490074139577,-0.01600238867104053,-0.2633048295974731,-0.9645799398422241,0,0,0,-1,-1,4004.803703375,unknown,2,2022-06-02T11:08:40.666+02:00,2022-06-02T10:17:13.754+02:00,757,1.541467,0,0,607.4087,0,0,2022-06-02T11:08:40.666+02:00,675853720.6658913,0,4.703125,101.3248,1,0.74
2022-06-02T11:08:42.452+02:00,1654160922.00024,53.22912066769875,10.39856500788329,37.13083,0.03524953,0.7171914,59.2043256124807,180,2.400000095367432,7.999579855010837,-9999,4006.589203416667,0.008270263671875,-0.260772705078125,-0.9873046875,4006.579209416667,0.07880374726850238,-0.01538300550430044,0.2653590086538749,-0.07438138872385025,0.09557612240314484,-0.1525115817785263,0.01319605391472578,0.004183828830718994,-0.02571630477905273,XArbitraryZVertical,0.1324842996922797,-0.002406915837869901,0.03802759741899552,0.9904524041183848,-0.01484399009495974,-0.2622557282447815,-0.9648842215538025,0,0,0,-1,-1,4004.803703375,unknown,2,2022-06-02T11:08:40.666+02:00,2022-06-02T10:17:13.754+02:00,757,1.541467,0,0,607.4087,0,0,2022-06-02T11:08:40.666+02:00,675853720.6658913,0,4.703125,101.3248,1,0.74
2022-06-02T11:08:42.462+02:00,1654160922.00024,53.22912066769875,10.39856500788329,37.13083,0.03524953,0.7171914,59.2043256124807,180,2.400000095367432,7.999579855010837,-9999,4006.599198416667,0.009307861328125,-0.2590179443359375,-0.9836883544921875,4006.589203416667,0.07726703397425531,-0.01417257072542111,0.2641460119766113,-0.06990008801221848,0.09409646689891815,-0.1492353677749634,0.02008925192058086,0.001136243343353271,-0.02210104465484619,XArbitraryZVertical,0.1318591323218697,-0.001933039590093424,0.03735408988952919,0.990562445608299,-0.01368054840713739,-0.2610850036144257,-0.9652188420295715,0,0,0,-1,-1,4004.803703375,unknown,2,2022-06-02T11:08:40.666+02:00,2022-06-02T10:17:13.754+02:00,757,1.541467,0,0,607.4087,0,0,2022-06-02T11:08:40.666+02:00,675853720.6658913,0,4.703125,101.3248,1,0.74
2022-06-02T11:08:42.472+02:00,1654160922.00024,53.22912066769875,10.39856500788329,37.13083,0.03524953,0.7171914,59.2043256124807,180,2.400000095367432,7.999579855010837,-9999,4006.609192416667,0.01275634765625,-0.2530517578125,-0.9781036376953125,4006.599198416667,0.07576176354658404,-0.01293933544439342,0.2630276971292509,-0.07736965268850327,0.0952521488070488,-0.14651720225811,0.02035225369036198,-0.0006911158561706543,-0.02098488807678223,XArbitraryZVertical,0.1312811598677055,-0.001442932311626608,0.03669621208539548,0.9906646384956789,-0.01249396614730358,-0.2600052952766418,-0.9655263423919678,0,0,0,-1,-1,4004.803703375,unknown,2,2022-06-02T11:08:40.666+02:00,2022-06-02T10:17:13.754+02:00,757,1.541467,0,0,607.4087,0,0,2022-06-02T11:08:40.666+02:00,675853720.6658913,0,4.703125,101.3248,1,0.74
2022-06-02T11:08:42.482+02:00,1654160922.00024,53.22912066769875,10.39856500788329,37.13083,0.03524953,0.7171914,59.2043256124807,180,2.400000095367432,7.999579855010837,-9999,4006.619186416667,0.01348876953125,-0.2479095458984375,-0.9757080078125,4006.609192416667,0.07427238965919636,-0.01161801165657314,0.2619122007792641,-0.07172082364559174,0.0917772576212883,-0.1408566534519196,0.02211633324623108,0.002381950616836548,-0.0151408314704895,XArbitraryZVertical,0.1307037101643632,-0.0009071363397788901,0.03605110829017597,0.9907653678748134,-0.01122154574841261,-0.2589280009269714,-0.965831458568573,0,0,0,-1,-1,4004.803703375,unknown,2,2022-06-02T11:08:40.666+02:00,2022-06-02T10:17:13.754+02:00,757,1.541467,0,0,607.4087,0,0,2022-06-02T11:08:40.666+02:00,675853720.6658913,0,4.703125,101.3248,1,0.74
2022-06-02T11:08:42.492+02:00,1654160922.00024,53.22912066769875,10.39856500788329,37.13083,0.03524953,0.7171914,59.2043256124807,180,2.400000095367432,7.999579855010837,-9999,4006.629181416667,0.0095977783203125,-0.2461700439453125,-0.97064208984375,4006.619186416667,0.07286334018766399,-0.0104375659118176,0.2610017529762027,-0.06531386077404022,0.08937974274158478,-0.136618360877037,0.02432034537196159,0.008445233106613159,-0.01110875606536865,XArbitraryZVertical,0.1302311407171021,-0.0004311804502771517,0.03543473728169821,0.9908500489459195,-0.01008388306945562,-0.2580485045909882,-0.9660793542861938,0,0,0,-1,-1,4004.803703375,unknown,2,2022-06-02T11:08:40.666+02:00,2022-06-02T10:17:13.754+02:00,757,1.541467,0,0,607.4087,0,0,2022-06-02T11:08:40.666+02:00,675853720.6658913,0,4.703125,101.3248,1,0.74
2022-06-02T11:08:42.502+02:00,1654160922.00024,53.22912066769875,10.39856500788329,37.13083,0.03524953,0.7171914,59.2043256124807,180,2.400000095367432,7.999579855010837,-9999,4006.639175416667,0.01287841796875,-0.247802734375,-0.967315673828125,4006.629181416667,0.07152867800077371,-0.00927442642698134,0.2601766055838413,-0.06399932503700256,0.08874564617872238,-0.1257731765508652,0.02034523338079453,0.01179835200309753,-0.007390797138214111,XArbitraryZVertical,0.1298017587937363,4.329776000659035e-05,0.03485304442078663,0.9909272494517688,-0.008962162770330906,-0.2572512030601501,-0.9663029909133911,0,0,0,-1,-1,4004.803703375,unknown,2,2022-06-02T11:08:40.666+02:00,2022-06-02T10:17:13.754+02:00,757,1.541467,0,0,607.4087,0,0,2022-06-02T11:08:40.666+02:00,675853720.6658913,0,4.703125,101.3248,1,0.74
2022-06-02T11:08:42.512+02:00,1654160922.00024,53.22912066769875,10.39856500788329,37.13083,0.03524953,0.7171914,59.2043256124807,180,2.400000095367432,7.999579855010837,-9999,4006.649170416667,0.0173492431640625,-0.2465057373046875,-0.966094970703125,4006.639175416667,0.07025132552662118,-0.007979922004527957,0.2592466547620362,-0.06262626498937607,0.09350831806659698,-0.1148639395833015,0.01766191981732845,0.009785681962966919,-0.002761960029602051,XArbitraryZVertical,0.1293188261863688,0.0005853593271493721,0.0343081176209053,0.9910091829938128,-0.007713178172707558,-0.2563524544239044,-0.9665526151657104,0,0,0,-1,-1,4004.803703375,unknown,2,2022-06-02T11:08:40.666+02:00,2022-06-02T10:17:13.754+02:00,757,1.541467,0,0,607.4087,0,0,2022-06-02T11:08:40.666+02:00,675853720.6658913,0,4.703125,101.3248,1,0.74
2022-06-02T11:08:42.522+02:00,1654160922.00024,53.22912066769875,10.39856500788329,37.13083,0.03524953,0.7171914,59.2043256124807,180,2.400000095367432,7.999579855010837,-9999,4006.659164416667,0.0166168212890625,-0.2449188232421875,-0.9677886962890625,4006.649170416667,0.06909872881587917,-0.006761340939682092,0.2583004615325142,-0.05545596778392792,0.08451934158802032,-0.1062970757484436,0.02129224687814713,0.008260637521743774,0.000937342643737793,XArbitraryZVertical,0.1288297104219736,0.001098245903678168,0.03381947530249083,0.9910892426285204,-0.006536987144500017,-0.2554377615451813,-0.9668033719062805,0,0,0,-1,-1,4004.803703375,unknown,2,2022-06-02T11:08:40.666+02:00,2022-06-02T10:17:13.754+02:00,757,1.541467,0,0,607.4087,0,0,2022-06-02T11:08:40.666+02:00,675853720.6658913,0,4.703125,101.3248,1,0.74
2022-06-02T11:08:42.532+02:00,1654160922.00024,53.22912066769875,10.39856500788329,37.13083,0.03524953,0.7171914,59.2043256124807,180,2.400000095367432,7.999579855010837,-9999,4006.669158416667,0.0143280029296875,-0.2548370361328125,-0.968170166015625,4006.659164416667,0.06797339103509491,-0.005513878537155009,0.2576661301060006,-0.04814792051911354,0.07990927994251251,-0.09991041570901871,0.02379496954381466,0.008990049362182617,-0.001289069652557373,XArbitraryZVertical,0.128495197473274,0.001633142343668066,0.0333444181306112,0.9911479882449276,-0.005331823602318764,-0.2548244297504425,-0.9669726490974426,0,0,0,-1,-1,4004.803703375,unknown,2,2022-06-02T11:08:40.666+02:00,2022-06-02T10:17:13.754+02:00,757,1.541467,0,0,607.4087,0,0,2022-06-02T11:08:40.666+02:00,675853720.6658913,0,4.703125,101.3248,1,0.74
2022-06-02T11:08:42.542+02:00,1654160922.00024,53.22912066769875,10.39856500788329,37.13083,0.03524953,0.7171914,59.2043256124807,180,2.400000095367432,7.999579855010837,-9999,4006.679153416667,0.016021728515625,-0.259765625,-0.9661712646484375,4006.669158416667,0.0668333535540486,-0.004048639791686087,0.2571370100406485,-0.05165157467126846,0.07798594236373901,-0.09855300188064575,0.01995251700282097,0.005304574966430664,-0.001529037952423096,XArbitraryZVertical,0.1282098298800579,0.002277209916972946,0.03287523355251949,0.991199387296832,-0.003915518056601286,-0.2543127238750458,-0.9671140909194946,0,0,0,-1,-1,4004.803703375,unknown,2,2022-06-02T11:08:40.666+02:00,2022-06-02T10:17:13.754+02:00,757,1.541467,0,0,607.4087,0,0,2022-06-02T11:08:40.666+02:00,675853720.6658913,0,4.703125,101.3248,1,0.74
2022-06-02T11:08:42.553+02:00,1654160922.00024,53.22912066769875,10.39856500788329,37.13083,0.03524953,0.7171914,59.2043256124807,180,2.400000095367432,7.999579855010837,-9999,4006.689147416667,0.016571044921875,-0.2545318603515625,-0.966583251953125,4006.679153416667,0.06570852321567452,-0.00256567254456492,0.2565873606834266,-0.05966156721115112,0.07345377653837204,-0.09461339563131332,0.01764892227947712,-0.00477910041809082,-8.767843246459961e-05,XArbitraryZVertical,0.127914676690148,0.002931074908162558,0.03241432529491821,0.9912510033927865,-0.002481674076989293,-0.2537811100482941,-0.9672585129737854,0,0,0,-1,-1,4004.803703375,unknown,2,2022-06-02T11:08:40.666+02:00,2022-06-02T10:17:13.754+02:00,757,1.541467,0,0,607.4087,0,0,2022-06-02T11:08:40.666+02:00,675853720.6658913,0,4.703125,101.3248,1,0.74
2022-06-02T11:08:42.562+02:00,1654160922.00024,53.22912066769875,10.39856500788329,37.13083,0.03524953,0.7171914,59.2043256124807,180,2.400000095367432,7.999579855010837,-9999,4006.699141416667,0.0097808837890625,-0.2613525390625,-0.9730224609375,4006.689147416667,0.06457716428442878,-0.001015138702253827,0.2558890784271706,-0.06481344997882843,0.06371220201253891,-0.09162026643753052,0.01651554182171822,-0.003745585680007935,0.001678884029388428,XArbitraryZVertical,0.1275454885431511,0.003616012008779075,0.03195436680024059,0.9913112001342032,-0.0009820841951295733,-0.253105640411377,-0.9674381613731384,0,0,0,-1,-1,4004.803703375,unknown,2,2022-06-02T11:08:40.666+02:00,2022-06-02T10:17:13.754+02:00,757,1.541467,0,0,607.4087,0,0,2022-06-02T11:08:40.666+02:00,675853720.6658913,0,4.703125,101.3248,1,0.74
2022-06-02T11:08:42.572+02:00,1654160922.00024,53.22912066769875,10.39856500788329,37.13083,0.03524953,0.7171914,59.2043256124807,180,2.400000095367432,7.999579855010837,-9999,4006.709136416667,0.00848388671875,-0.2600250244140625,-0.974151611328125,4006.699141416667,0.06345220600405797,0.0006571304824830489,0.2548805594976351,-0.06943842768669128,0.06364428997039795,-0.08865377306938171,0.01323434989899397,-0.005820006132125854,-0.002689480781555176,XArbitraryZVertical,0.1270213014582712,0.004357308663942186,0.03150527811547067,0.9913899059103057,0.0006359007675200701,-0.2521298229694366,-0.9676932096481323,0,0,0,-1,-1,4004.803703375,unknown,2,2022-06-02T11:08:40.666+02:00,2022-06-02T10:17:13.754+02:00,757,1.541467,0,0,607.4087,0,0,2022-06-02T11:08:40.666+02:00,675853720.6658913,0,4.703125,101.3248,1,0.74
2022-06-02T11:08:42.582+02:00,1654160922.00024,53.22912066769875,10.39856500788329,37.13083,0.03524953,0.7171914,59.2043256124807,180,2.400000095367432,7.999579855010837,-9999,4006.719130416667,0.0097503662109375,-0.2533721923828125,-0.970794677734375,4006.709136416667,0.06237629712291982,0.002065069385401046,0.2537362905079892,-0.07411413639783859,0.05740343779325485,-0.09096086770296097,0.007430995348840952,-0.01153564453125,-0.005912959575653076,XArbitraryZVertical,0.1264345503939303,0.00496927329076098,0.03106304067658078,0.991475984994003,0.001998947001993656,-0.2510223686695099,-0.9679791927337646,0,0,0,-1,-1,4004.803703375,unknown,2,2022-06-02T11:08:40.666+02:00,2022-06-02T10:17:13.754+02:00,757,1.541467,0,0,607.4087,0,0,2022-06-02T11:08:40.666+02:00,675853720.6658913,0,4.703125,101.3248,1,0.74
2022-06-02T11:08:42.592+02:00,1654160922.00024,53.22912066769875,10.39856500788329,37.13083,0.03524953,0.7171914,59.2043256124807,180,2.400000095367432,7.999579855010837,-9999,4006.729125416667,0.01031494140625,-0.2483978271484375,-0.96795654296875,4006.719130416667,0.06136056358303169,0.003244278510005096,0.2527505857406335,-0.07202542573213577,0.05352400988340378,-0.08681246638298035,0.004732348956167698,-0.006996750831604004,-0.005150258541107178,XArbitraryZVertical,0.125930343935297,0.005474751922277943,0.03063515929983463,0.9915507616840075,0.003141196677461267,-0.2500680983066559,-0.9682231545448303,0,0,0,-1,-1,4004.803703375,unknown,2,2022-06-02T11:08:40.666+02:00,2022-06-02T10:17:13.754+02:00,757,1.541467,0,0,607.4087,0,0,2022-06-02T11:08:40.666+02:00,675853720.6658913,0,4.703125,101.3248,1,0.74
2022-06-02T11:08:42.602+02:00,1654160922.00024,53.22912066769875,10.39856500788329,37.13083,0.03524953,0.7171914,59.2043256124807,180,2.400000095367432,7.999579855010837,-9999,4006.739119416667,0.01239013671875,-0.244873046875,-0.9694976806640625,4006.729125416667,0.06031699554874447,0.004559157086937588,0.2519287812215405,-0.06710203737020493,0.05081957206130028,-0.08822287619113922,0.005472481716424227,-0.0001783818006515503,-0.001013278961181641,XArbitraryZVertical,0.125505905469622,0.006048762812616328,0.03020119773106575,0.9916145271797493,0.004415224771946669,-0.2492723166942596,-0.9684233665466309,0,0,0,-1,-1,4004.803703375,unknown,2,2022-06-02T11:08:40.666+02:00,2022-06-02T10:17:13.754+02:00,757,1.541467,0,0,607.4087,0,0,2022-06-02T11:08:40.666+02:00,675853720.6658913,0,4.703125,101.3248,1,0.74
2022-06-02T11:08:42.612+02:00,1654160922.00024,53.22912066769875,10.39856500788329,37.13083,0.03524953,0.7171914,59.2043256124807,180,2.400000095367432,7.999579855010837,-9999,4006.749113416667,0.0139617919921875,-0.24188232421875,-0.970550537109375,4006.739119416667,0.05926512654552348,0.005934495911956276,0.2511212968227671,-0.05772135034203529,0.04842985048890114,-0.08387333154678345,0.005100686103105545,0.0006569921970367432,-0.001139700412750244,XArbitraryZVertical,0.1250882436275667,0.006652948460729621,0.02976628190668445,0.9916766262041733,0.005748323164880276,-0.2484902441501617,-0.96861732006073,0,0,0,-1,-1,4004.803703375,unknown,2,2022-06-02T11:08:40.666+02:00,2022-06-02T10:17:13.754+02:00,757,1.541467,0,0,607.4087,0,0,2022-06-02T11:08:40.666+02:00,675853720.6658913,0,4.703125,101.3248,1,0.74
2022-06-02T11:08:42.622+02:00,1654160922.00024,53.22912066769875,10.39856500788329,37.13083,0.03524953,0.7171914,59.2043256124807,180,2.400000095367432,7.999579855010837,-9999,4006.759108416667,0.018768310546875,-0.242919921875,-0.966949462890625,4006.749113416667,0.05831443145563495,0.007097509892618034,0.2506170778005584,-0.04178952425718307,0.04738323017954826,-0.08152441680431366,0.005377095658332109,0.005432814359664917,-0.001845896244049072,XArbitraryZVertical,0.1248243148717436,0.007162981581873814,0.02936765708669033,0.9917181870359214,0.006875722669064999,-0.2480018138885498,-0.9687351584434509,0,0,0,-1,-1,4004.803703375,unknown,2,2022-06-02T11:08:40.666+02:00,2022-06-02T10:17:13.754+02:00,757,1.541467,0,0,607.4087,0,0,2022-06-02T11:08:40.666+02:00,675853720.6658913,0,4.703125,101.3248,1,0.74
2022-06-02T11:08:42.632+02:00,1654160922.00024,53.22912066769875,10.39856500788329,37.13083,0.03524953,0.7171914,59.2043256124807,180,2.400000095367432,7.999579855010837,-9999,4006.769102416667,0.0185699462890625,-0.2444305419921875,-0.9710540771484375,4006.759108416667,0.05738712045751509,0.008094956875193573,0.2506834763330428,-0.02897559106349945,0.04402045533061028,-0.08000615239143372,0.008774983696639538,0.005741283297538757,0.0002207756042480469,XArbitraryZVertical,0.124846110051148,0.00760063194428326,0.02897010203085692,0.9917239225898485,0.007841847836971283,-0.2480661273002625,-0.9687113761901855,0,0,0,-1,-1,4004.803703375,unknown,2,2022-06-02T11:08:40.666+02:00,2022-06-02T10:17:13.754+02:00,757,1.541467,0,0,607.4087,0,0,2022-06-02T11:08:40.666+02:00,675853720.6658913,0,4.703125,101.3248,1,0.74
2022-06-02T11:08:42.642+02:00,1654160922.00024,53.22912066769875,10.39856500788329,37.13083,0.03524953,0.7171914,59.2043256124807,180,2.400000095367432,7.999579855010837,-9999,4006.779097416667,0.0175628662109375,-0.2490234375,-0.9716644287109375,4006.769102416667,0.05649170372923223,0.009003455989188561,0.2508036416385514,-0.01957117021083832,0.03602511063218117,-0.07943809777498245,0.009909342974424362,0.004179224371910095,0.000412285327911377,XArbitraryZVertical,0.1248961083921485,0.007996880422607463,0.02858285986625879,0.9917258167982944,0.008721649646759033,-0.2481825351715088,-0.9686740040779114,0,0,0,-1,-1,4004.803703375,unknown,2,2022-06-02T11:08:40.666+02:00,2022-06-02T10:17:13.754+02:00,757,1.541467,0,0,607.4087,0,0,2022-06-02T11:08:40.666+02:00,675853720.6658913,0,4.703125,101.3248,1,0.74
2022-06-02T11:08:42.652+02:00,1654160922.00024,53.22912066769875,10.39856500788329,37.13083,0.03524953,0.7171914,59.2043256124807,180,2.400000095367432,7.999579855010837,-9999,4006.789091416667,0.0168609619140625,-0.25274658203125,-0.97705078125,4006.779097416667,0.05563959840994456,0.009743974522412742,0.2509463968222967,-0.01684159785509109,0.03567696735262871,-0.07661455124616623,0.009955307468771935,0.001265749335289001,-0.001781344413757324,XArbitraryZVertical,0.124959866866029,0.008312794296033616,0.02820667156856208,0.9917258943126843,0.009438622742891312,-0.2483208179473877,-0.9686318635940552,0,0,0,-1,-1,4004.803703375,unknown,2,2022-06-02T11:08:40.666+02:00,2022-06-02T10:17:13.754+02:00,757,1.541467,0,0,607.4087,0,0,2022-06-02T11:08:40.666+02:00,675853720.6658913,0,4.703125,101.3248,1,0.74
2022-06-02T11:08:42.662+02:00,1654160922.00024,53.22912066769875,10.39856500788329,37.13083,0.03524953,0.7171914,59.2043256124807,180,2.400000095367432,7.999579855010837,-9999,4006.799084916667,0.017547607421875,-0.2558135986328125,-0.97735595703125,4006.789091416667,0.05486309685708411,0.01026681983515901,0.2512582373094006,-0.01489056553691626,0.03399251773953438,-0.07436684519052505,0.005665481090545654,-0.002536803483963013,-0.00613635778427124,XArbitraryZVertical,0.1251104473895686,0.00852768333907364,0.02785455764367448,0.99171500196259,0.009944270364940166,-0.2486228793859482,-0.9685493111610413,0,0,0,-1,-1,4004.803703375,unknown,2,2022-06-02T11:08:40.666+02:00,2022-06-02T10:17:13.754+02:00,757,1.541467,0,0,607.4087,0,0,2022-06-02T11:08:40.666+02:00,675853720.6658913,0,4.703125,101.3248,1,0.74
2022-06-02T11:08:42.672+02:00,1654160922.00024,53.22912066769875,10.39856500788329,37.13083,0.03524953,0.7171914,59.2043256124807,180,2.400000095367432,7.999579855010837,-9999,4006.809079916667,0.0126495361328125,-0.2592010498046875,-0.9769439697265625,4006.799084916667,0.05415901739444542,0.01066584612723952,0.2512979874239579,-0.02592457458376884,0.02926807291805744,-0.06516562402248383,0.007491634227335453,-0.004787102341651917,-0.009079933166503906,XArbitraryZVertical,0.125127662005288,0.008682021456876261,0.02753043153114621,0.9917205478718605,0.01033064071089029,-0.2486613839864731,-0.9685353636741638,0,0,0,-1,-1,4004.803703375,unknown,2,2022-06-02T11:08:40.666+02:00,2022-06-02T10:17:13.754+02:00,757,1.541467,0,0,607.4087,0,0,2022-06-02T11:08:40.666+02:00,675853720.6658913,0,4.703125,101.3248,1,0.74
2022-06-02T11:08:42.682+02:00,1654160922.00024,53.22912066769875,10.39856500788329,37.13083,0.03524953,0.7171914,59.2043256124807,180,2.400000095367432,7.999579855010837,-9999,4006.819073916667,0.0151824951171875,-0.25689697265625,-0.976409912109375,4006.809079916667,0.05351817553025009,0.01109289923105875,0.2509729375311793,-0.03974931314587593,0.02889656275510788,-0.06164439022541046,0.004391576163470745,-0.01027469336986542,-0.008896887302398682,XArbitraryZVertical,0.1249634353846921,0.008849486453272232,0.02723903058579915,0.9917478246365667,0.010745151899755,-0.2483465373516083,-0.9686116576194763,0,0,0,-1,-1,4004.803703375,unknown,2,2022-06-02T11:08:40.666+02:00,2022-06-02T10:17:13.754+02:00,757,1.541467,0,0,607.4087,0,0,2022-06-02T11:08:40.666+02:00,675853720.6658913,0,4.703125,101.3248,1,0.74
2022-06-02T11:08:42.692+02:00,1654160922.00024,53.22912066769875,10.39856500788329,37.13083,0.03524953,0.7171914,59.2043256124807,180,2.400000095367432,7.999579855010837,-9999,4006.829068916667,0.0156707763671875,-0.25555419921875,-0.9781646728515625,4006.819073916667,0.0529223446652667,0.01151864055308954,0.2505046201044816,-0.04673661291599274,0.0292377807199955,-0.056990846991539,0.002192582003772259,-0.0116591602563858,-0.00800710916519165,XArbitraryZVertical,0.1247280841434041,0.009017394536175085,0.02696960968837869,0.9917833297072604,0.01115886773914099,-0.2478928565979004,-0.9687231779098511,0,0,0,-1,-1,4004.803703375,unknown,2,2022-06-02T11:08:40.666+02:00,2022-06-02T10:17:13.754+02:00,757,1.541467,0,0,607.4087,0,0,2022-06-02T11:08:40.666+02:00,675853720.6658913,0,4.703125,101.3248,1,0.74
2022-06-02T11:08:42.702+02:00,1654160922.00024,53.22912066769875,10.39856500788329,37.13083,0.03524953,0.7171914,59.2043256124807,180,2.400000095367432,7.999579855010837,-9999,4006.839062916667,0.0137481689453125,-0.25628662109375,-0.97589111328125,4006.829068916667,0.05237507622329489,0.01193184549998529,0.2498059323415105,-0.0539332702755928,0.02297855354845524,-0.04991030320525169,0.003194047138094902,-0.008384078741073608,-0.008342444896697998,XArbitraryZVertical,0.124378523039948,0.009179353568193074,0.02672306387593436,0.9918324848137817,0.01156121212989092,-0.2472159266471863,-0.968891441822052,0,0,0,-1,-1,4004.803703375,unknown,2,2022-06-02T11:08:40.666+02:00,2022-06-02T10:17:13.754+02:00,757,1.541467,0,0,607.4087,0,0,2022-06-02T11:08:40.666+02:00,675853720.6658913,0,4.703125,101.3248,1,0.74
2022-06-02T11:08:42.712+02:00,1654160922.00024,53.22912066769875,10.39856500788329,37.13083,0.03524953,0.7171914,59.2043256124807,180,2.400000095367432,7.999579855010837,-9999,4006.849056916667,0.0151824951171875,-0.2517547607421875,-0.975799560546875,4006.839062916667,0.05181418545221902,0.01245797079339907,0.2490464915602253,-0.06625934690237045,0.02173931710422039,-0.04995045065879822,0.002849802374839783,-0.01037123799324036,-0.007444024085998535,XArbitraryZVertical,0.1239974985478473,0.009395923437325543,0.02647650728947821,0.9918846797953044,0.01207330357283354,-0.2464799880981445,-0.969072699546814,0,0,0,-1,-1,4004.803703375,unknown,2,2022-06-02T11:08:40.666+02:00,2022-06-02T10:17:13.754+02:00,757,1.541467,0,0,607.4087,0,0,2022-06-02T11:08:40.666+02:00,675853720.6658913,0,4.703125,101.3248,1,0.74
2022-06-02T11:08:42.722+02:00,1654160922.00024,53.22912066769875,10.39856500788329,37.13083,0.03524953,0.7171914,59.2043256124807,180,2.400000095367432,7.999579855010837,-9999,4006.859051916667,0.016448974609375,-0.2427825927734375,-0.9779052734375,4006.849056916667,0.05124901830654555,0.01304137652454605,0.2483109644668617,-0.06592778116464615,0.0241372287273407,-0.05043567717075348,0.002266822382807732,-0.009497225284576416,-0.006415724754333496,XArbitraryZVertical,0.1236276876661385,0.009641167050855572,0.02623117356429152,0.9919350834728539,0.01264102477580309,-0.2457670867443085,-0.969246506690979,0,0,0,-1,-1,4004.803703375,unknown,2,2022-06-02T11:08:40.666+02:00,2022-06-02T10:17:13.754+02:00,757,1.541467,0,0,607.4087,0,0,2022-06-02T11:08:40.666+02:00,675853720.6658913,0,4.703125,101.3248,1,0.74
2022-06-02T11:08:42.732+02:00,1654160922.00024,53.22912066769875,10.39856500788329,37.13083,0.03524953,0.7171914,59.2043256124807,180,2.400000095367432,7.999579855010837,-9999,4006.869045916667,0.0167999267578125,-0.240966796875,-0.9780120849609375,4006.859051916667,0.05065513837289171,0.01362091898079274,0.2477483338048291,-0.05470125749707222,0.02107159607112408,-0.05350916460156441,0.001520117744803429,-0.002031773328781128,-0.006376683712005615,XArbitraryZVertical,0.1233439720100136,0.009885061878441567,0.02597143426565944,0.9919747358780111,0.01320462394505739,-0.2452216595411301,-0.9693771004676819,0,0,0,-1,-1,4004.803703375,unknown,2,2022-06-02T11:08:40.666+02:00,2022-06-02T10:17:13.754+02:00,757,1.541467,0,0,607.4087,0,0,2022-06-02T11:08:40.666+02:00,675853720.6658913,0,4.703125,101.3248,1,0.74
2022-06-02T11:08:42.742+02:00,1654160922.00024,53.22912066769875,10.39856500788329,37.13083,0.03524953,0.7171914,59.2043256124807,180,2.400000095367432,7.999579855010837,-9999,4006.879039916667,0.013519287109375,-0.2471771240234375,-0.9746856689453125,4006.869045916667,0.0500878873164908,0.01405430803186569,0.247409584036752,-0.04286084696650505,0.02585037238895893,-0.05590867251157761,0.003326619043946266,0.005192920565605164,-0.008847713470458984,XArbitraryZVertical,0.1231731744940782,0.01006097285938528,0.0257161545676241,0.9920008464644502,0.01362590678036213,-0.2448932528495789,-0.969454288482666,0,0,0,-1,-1,4004.803703375,unknown,2,2022-06-02T11:08:40.666+02:00,2022-06-02T10:17:13.754+02:00,757,1.541467,0,0,607.4087,0,0,2022-06-02T11:08:40.666+02:00,675853720.6658913,0,4.703125,101.3248,1,0.74
2022-06-02T11:08:42.754+02:00,1654160922.00024,53.22912066769875,10.39856500788329,37.13083,0.03524953,0.7171914,59.2043256124807,180,2.400000095367432,7.999579855010837,-9999,4006.889034916667,0.013031005859375,-0.251739501953125,-0.9751129150390625,4006.879039916667,0.04948502273247207,0.01459927661559531,0.247183761586663,-0.04324923828244209,0.03128062561154366,-0.05534494668245316,0.0009359186515212059,0.0008235722780227661,-0.005107343196868896,XArbitraryZVertical,0.1230572437932567,0.01029147829397773,0.02545021886679446,0.9920198319899634,0.01415503397583961,-0.2446742951869965,-0.9695019721984863,0,0,0,-1,-1,4004.803703375,unknown,2,2022-06-02T11:08:40.666+02:00,2022-06-02T10:17:13.754+02:00,757,1.541467,0,0,607.4087,0,0,2022-06-02T11:08:40.666+02:00,675853720.6658913,0,4.703125,101.3248,1,0.74
2022-06-02T11:08:42.762+02:00,1654160922.00024,53.22912066769875,10.39856500788329,37.13083,0.03524953,0.7171914,59.2043256124807,180,2.400000095367432,7.999579855010837,-9999,4006.899028916667,0.01416015625,-0.254669189453125,-0.9719696044921875,4006.889034916667,0.04891665358984193,0.01508134769199311,0.2470739039932895,-0.0496610626578331,0.03460265323519707,-0.05802461877465248,-0.002873528748750687,-0.004516720771789551,-0.006216585636138916,XArbitraryZVertical,0.1229996109681173,0.01049433981308749,0.02519771931750538,0.9920312129977712,0.01462280564010143,-0.2445677667856216,-0.9695219397544861,0,0,0,-1,-1,4004.803703375,unknown,2,2022-06-02T11:08:40.666+02:00,2022-06-02T10:17:13.754+02:00,757,1.541467,0,0,607.4087,0,0,2022-06-02T11:08:40.666+02:00,675853720.6658913,0,4.703125,101.3248,1,0.74
2022-06-02T11:08:42.772+02:00,1654160922.00024,53.22912066769875,10.39856500788329,37.13083,0.03524953,0.7171914,59.2043256124807,180,2.400000095367432,7.999579855010837,-9999,4006.909023916667,0.0129547119140625,-0.2568817138671875,-0.967376708984375,4006.899028916667,0.04832614919144766,0.01553690087841667,0.2468955699817098,-0.06683072447776794,0.03942883014678955,-0.06286332011222839,-0.001820512115955353,-0.009358838200569153,-0.004119813442230225,XArbitraryZVertical,0.122908564358527,0.0106819334946235,0.02493241294101766,0.9920472166556362,0.0150651503354311,-0.2443948537111282,-0.9695587754249573,0,0,0,-1,-1,4004.803703375,unknown,2,2022-06-02T11:08:40.666+02:00,2022-06-02T10:17:13.754+02:00,757,1.541467,0,0,607.4087,0,0,2022-06-02T11:08:40.666+02:00,675853720.6658913,0,4.703125,101.3248,1,0.74
2022-06-02T11:08:42.782+02:00,1654160922.00024,53.22912066769875,10.39856500788329,37.13083,0.03524953,0.7171914,59.2043256124807,180,2.400000095367432,7.999579855010837,-9999,4006.919017916667,0.013824462890625,-0.2547607421875,-0.961181640625,4006.909023916667,0.04766215004127916,0.01607195439796331,0.2464081482008477,-0.08353646844625473,0.03900698572397232,-0.06917181611061096,-0.001685058698058128,-0.01150995492935181,0.0001871585845947266,XArbitraryZVertical,0.122663737910959,0.01090100742019093,0.02463470710392581,0.9920824967541589,0.01558582670986652,-0.2439221739768982,-0.9696695804595947,0,0,0,-1,-1,4004.803703375,unknown,2,2022-06-02T11:08:40.666+02:00,2022-06-02T10:17:13.754+02:00,757,1.541467,0,0,607.4087,0,0,2022-06-02T11:08:40.666+02:00,675853720.6658913,0,4.703125,101.3248,1,0.74
2022-06-02T11:08:42.792+02:00,1654160922.00024,53.22912066769875,10.39856500788329,37.13083,0.03524953,0.7171914,59.2043256124807,180,2.400000095367432,7.999579855010837,-9999,4006.929011916667,0.01519775390625,-0.252349853515625,-0.95361328125,4006.919017916667,0.046920965215185,0.01662209566299253,0.2458221797603095,-0.0987105667591095,0.04182900488376617,-0.08070902526378632,-0.002541318535804749,-0.01297853887081146,0.005890607833862305,XArbitraryZVertical,0.1223703883757982,0.01112191925930634,0.02429921283563685,0.9921246694026391,0.01612165197730064,-0.2433538734912872,-0.9698035717010498,0,0,0,-1,-1,4004.803703375,unknown,2,2022-06-02T11:08:40.666+02:00,2022-06-02T10:17:13.754+02:00,757,1.541467,0,0,607.4087,0,0,2022-06-02T11:08:40.666+02:00,675853720.6658913,0,4.703125,101.3248,1,0.74
2022-06-02T11:08:42.802+02:00,1654160922.00024,53.22912066769875,10.39856500788329,37.13083,0.03524953,0.7171914,59.2043256124807,180,2.400000095367432,7.999579855010837,-9999,4006.939006916667,0.017974853515625,-0.2555084228515625,-0.947265625,4006.929011916667,0.04606357001213696,0.01721842936985652,0.2450848218813886,-0.1078547909855843,0.04604345932602882,-0.09103782474994659,-0.002756519243121147,-0.01018428802490234,0.01179730892181396,XArbitraryZVertical,0.1220022124492251,0.01135724102980276,0.02390826542406472,0.9921768796763447,0.01670306175947189,-0.2426386177539825,-0.9699729681015015,0,0,0,-1,-1,4004.803703375,unknown,2,2022-06-02T11:08:40.666+02:00,2022-06-02T10:17:13.754+02:00,757,1.541467,0,0,607.4087,0,0,2022-06-02T11:08:40.666+02:00,675853720.6658913,0,4.703125,101.3248,1,0.74
2022-06-02T11:08:42.812+02:00,1654160922.00024,53.22912066769875,10.39856500788329,37.13083,0.03524953,0.7171914,59.2043256124807,180,2.400000095367432,7.999579855010837,-9999,4006.949000916667,0.0157623291015625,-0.2535247802734375,-0.94036865234375,4006.939006916667,0.04513406334123916,0.01783726625612372,0.2440101410341599,-0.124640665948391,0.04656630381941795,-0.09814267605543137,-0.001774497330188751,-0.01375995576381683,0.0199815034866333,XArbitraryZVertical,0.1214670444468334,0.01159609150339775,0.02348162180388772,0.9922498650267888,0.0173079539090395,-0.2415959089994431,-0.9702225923538208,0,0,0,-1,-1,4004.803703375,unknown,2,2022-06-02T11:08:40.666+02:00,2022-06-02T10:17:13.754+02:00,757,1.541467,0,0,607.4087,0,0,2022-06-02T11:08:40.666+02:00,675853720.6658913,0,4.703125,101.3248,1,0.74
2022-06-02T11:08:42.822+02:00,1654160922.00024,53.22912066769875,10.39856500788329,37.13083,0.03524953,0.7171914,59.2043256124807,180,2.400000095367432,7.999579855010837,-9999,4006.958995916667,0.0171661376953125,-0.2502593994140625,-0.9355621337890625,4006.949000916667,0.0440907195799595,0.01853921008604485,0.2425965559637392,-0.1367415487766266,0.04750347137451172,-0.1107862964272499,-0.00102752260863781,-0.0154217928647995,0.02720659971237183,XArbitraryZVertical,0.1207636278201211,0.01186631034652988,0.02300201174212439,0.9923437296628906,0.01799530535936356,-0.2402239590883255,-0.9705506563186646,0,0,0,-1,-1,4004.803703375,unknown,2,2022-06-02T11:08:40.666+02:00,2022-06-02T10:17:13.754+02:00,757,1.541467,0,0,607.4087,0,0,2022-06-02T11:08:40.666+02:00,675853720.6658913,0,4.703125,101.3248,1,0.74
2022-06-02T11:08:42.832+02:00,1654160922.00024,53.22912066769875,10.39856500788329,37.13083,0.03524953,0.7171914,59.2043256124807,180,2.400000095367432,7.999579855010837,-9999,4006.968989916667,0.01812744140625,-0.251800537109375,-0.9314117431640625,4006.958995916667,0.04291627228811081,0.01920203755931981,0.2412465266242674,-0.1487475633621216,0.04513252526521683,-0.1275736093521118,-0.001905918121337891,-0.01317723095417023,0.03262948989868164,XArbitraryZVertical,0.1200932170872224,0.0121106770170175,0.02245461798838029,0.992434729518146,0.01864481903612614,-0.2389132380485535,-0.9708619117736816,0,0,0,-1,-1,4004.803703375,unknown,2,2022-06-02T11:08:40.666+02:00,2022-06-02T10:17:13.754+02:00,757,1.541467,0,0,607.4087,0,0,2022-06-02T11:08:40.666+02:00,675853720.6658913,0,4.703125,101.3248,1,0.74
2022-06-02T11:08:42.842+02:00,1654160922.00024,53.22912066769875,10.39856500788329,37.13083,0.03524953,0.7171914,59.2043256124807,180,2.400000095367432,7.999579855010837,-9999,4006.978983916667,0.0107879638671875,-0.261505126953125,-0.925567626953125,4006.968989916667,0.04164235729904345,0.01974556844650861,0.2399233932371992,-0.1658879369497299,0.04159105196595192,-0.1407815515995026,-0.0008986927568912506,-0.01183775067329407,0.03606247901916504,XArbitraryZVertical,0.1194383349035242,0.01229100207117092,0.02185028136202226,0.9925251015782953,0.01917873322963715,-0.2376282215118408,-0.9711668491363525,0,0,0,-1,-1,4004.803703375,unknown,2,2022-06-02T11:08:40.666+02:00,2022-06-02T10:17:13.754+02:00,757,1.541467,0,0,607.4087,0,0,2022-06-02T11:08:40.666+02:00,675853720.6658913,0,4.703125,101.3248,1,0.74
2022-06-02T11:08:42.852+02:00,1654160922.00024,53.22912066769875,10.39856500788329,37.13083,0.03524953,0.7171914,59.2043256124807,180,2.400000095367432,7.999579855010837,-9999,4006.988978916667,0.006317138671875,-0.270477294921875,-0.9133758544921875,4006.978983916667,0.04017428421910977,0.02034505038325315,0.2385417647928105,-0.1957978010177612,0.04515855759382248,-0.1598217636346817,-0.005241211503744125,-0.01894783973693848,0.04364132881164551,XArbitraryZVertical,0.1187552764433014,0.01248789528232484,0.02115221014519043,0.9926196496489863,0.01976758800446987,-0.2362859398126602,-0.9714824557304382,0,0,0,-1,-1,4004.803703375,unknown,2,2022-06-02T11:08:40.666+02:00,2022-06-02T10:17:13.754+02:00,757,1.541467,0,0,607.4087,0,0,2022-06-02T11:08:40.666+02:00,675853720.6658913,0,4.703125,101.3248,1,0.74
2022-06-02T11:08:42.862+02:00,1654160922.00024,53.22912066769875,10.39856500788329,37.13083,0.03524953,0.7171914,59.2043256124807,180,2.400000095367432,7.999579855010837,-9999,4006.998972916667,0.0014190673828125,-0.27191162109375,-0.9077911376953125,4006.988978916667,0.03851827182884503,0.021024500311339,0.2369150763139408,-0.2374624162912369,0.04593539983034134,-0.1773640066385269,-0.01262319833040237,-0.03265951573848724,0.05151796340942383,XArbitraryZVertical,0.1179512311985046,0.01271224535666658,0.0203640233699369,0.9927291528613424,0.02043570950627327,-0.234705001115799,-0.9718518257141113,0,0,0,-1,-1,4004.803703375,unknown,2,2022-06-02T11:08:40.666+02:00,2022-06-02T10:17:13.754+02:00,757,1.541467,0,0,607.4087,0,0,2022-06-02T11:08:40.666+02:00,675853720.6658913,0,4.703125,101.3248,1,0.74
