loggingTime(txt),locationTimestamp_since1970(s),locationLatitude(WGS84),locationLongitude(WGS84),locationAltitude(m),locationSpeed(m/s),locationSpeedAccuracy(m/s),locationCourse(°),locationCourseAccuracy(°),locationVerticalAccuracy(m),locationHorizontalAccuracy(m),locationFloor(Z),accelerometerTimestamp_sinceReboot(s),accelerometerAccelerationX(G),accelerometerAccelerationY(G),accelerometerAccelerationZ(G),motionTimestamp_sinceReboot(s),motionYaw(rad),motionRoll(rad),motionPitch(rad),motionRotationRateX(rad/s),motionRotationRateY(rad/s),motionRotationRateZ(rad/s),motionUserAccelerationX(G),motionUserAccelerationY(G),motionUserAccelerationZ(G),motionAttitudeReferenceFrame(txt),motionQuaternionX(R),motionQuaternionY(R),motionQuaternionZ(R),motionQuaternionW(R),motionGravityX(G),motionGravityY(G),motionGravityZ(G),motionMagneticFieldX(µT),motionMagneticFieldY(µT),motionMagneticFieldZ(µT),motionHeading(°),motionMagneticFieldCalibrationAccuracy(Z),activityTimestamp_sinceReboot(s),activity(txt),activityActivityConfidence(Z),activityActivityStartDate(txt),pedometerStartDate(txt),pedometerNumberofSteps(N),pedometerAverageActivePace(s/m),pedometerCurrentPace(s/m),pedometerCurrentCadence(steps/s),pedometerDistance(m),pedometerFloorAscended(N),pedometerFloorDescended(N),pedometerEndDate(txt),altimeterTimestamp_sinceReboot(s),altimeterReset(bool),altimeterRelativeAltitude(m),altimeterPressure(kPa),batteryState(N),batteryLevel(R)
2022-06-02T11:09:14.824+02:00,1654160954.000234,53.22910960898542,10.39855371886888,36.95144,0.005685984,0.7847024,22.41513381813486,72.82185749647012,2.400000095367432,7.999579855010835,-9999,4038.92076825,-0.0833587646484375,-0.2921905517578125,-0.938262939453125,4038.91077325,0.05904632110219371,-0.0975623963258644,0.2416668218841755,-0.1368496865034103,0.1350670754909515,0.1031606793403625,-0.03765557706356049,-0.1415380388498306,0.004134476184844971,XArbitraryZVertical,0.1217726259559589,-0.04483125330625108,0.02339360482251829,0.991269056648646,-0.09457706660032272,-0.2393213361501694,-0.96632319688797,0,0,0,-1,-1,4038.062922916667,unknown,2,2022-06-02T11:09:13.925+02:00,2022-06-02T10:17:13.754+02:00,757,1.564864,0,0,607.4087,0,0,2022-06-02T11:09:13.925+02:00,675853753.9251039,0,6.050781,101.3103,1,0.73
2022-06-02T11:09:14.829+02:00,1654160954.000234,53.22910960898542,10.39855371886888,36.95144,0.005685984,0.7847024,22.41513381813486,72.82185749647012,2.400000095367432,7.999579855010835,-9999,4038.93076225,-0.0953216552734375,-0.24871826171875,-0.947784423828125,4038.92076825,0.059968444478616,-0.09646379710546613,0.2399793855126964,-0.1409821808338165,0.1338384300470352,0.08995445072650909,-0.0005772784352302551,-0.09817862510681152,0.03355377912521362,XArbitraryZVertical,0.1209440603643613,-0.04426056839851737,0.02396093733731579,0.9913825095323326,-0.09355417639017105,-0.2376825958490372,-0.9668270945549011,0,0,0,-1,-1,4038.062922916667,unknown,2,2022-06-02T11:09:13.925+02:00,2022-06-02T10:17:13.754+02:00,757,1.564864,0,0,607.4087,0,0,2022-06-02T11:09:13.925+02:00,675853753.9251039,0,6.050781,101.3103,1,0.73
2022-06-02T11:09:14.832+02:00,1654160954.000234,53.22910960898542,10.39855371886888,36.95144,0.005685984,0.7847024,22.41513381813486,72.82185749647012,2.400000095367432,7.999579855010835,-9999,4038.94075625,-0.1127166748046875,-0.260498046875,-0.958740234375,4038.93076225,0.06075342140847087,-0.09525034623252121,0.2385673413423043,-0.07547561824321747,0.166509822010994,0.08077320456504822,0.004979901015758514,-0.02487391233444214,0.0224335789680481,XArbitraryZVertical,0.1202468908412759,-0.04363687207667358,0.02445934008319767,0.9914827889550912,-0.09241273254156113,-0.2363107800483704,-0.9672729969024658,0,0,0,-1,-1,4038.062922916667,unknown,2,2022-06-02T11:09:13.925+02:00,2022-06-02T10:17:13.754+02:00,757,1.564864,0,0,607.4087,0,0,2022-06-02T11:09:13.925+02:00,675853753.9251039,0,6.050781,101.3103,1,0.73
2022-06-02T11:09:14.840+02:00,1654160954.000234,53.22910960898542,10.39855371886888,36.95144,0.005685984,0.7847024,22.41513381813486,72.82185749647012,2.400000095367432,7.999579855010835,-9999,4038.95075025,-0.10418701171875,-0.273101806640625,-0.9782867431640625,4038.94075625,0.06150361944232776,-0.09339843945837095,0.2377144193519643,-0.06090995296835899,0.2053241282701492,0.07936832308769226,-0.01504231244325638,-0.01598292589187622,0.01598268747329712,XArbitraryZVertical,0.1198175008759039,-0.04268905711073704,0.0249639040876773,0.9915634424645547,-0.09064004570245743,-0.235481932759285,-0.9676428437232971,0,0,0,-1,-1,4038.062922916667,unknown,2,2022-06-02T11:09:13.925+02:00,2022-06-02T10:17:13.754+02:00,757,1.564864,0,0,607.4087,0,0,2022-06-02T11:09:13.925+02:00,675853753.9251039,0,6.050781,101.3103,1,0.73
2022-06-02T11:09:14.842+02:00,1654160954.000234,53.22910960898542,10.39855371886888,36.95144,0.005685984,0.7847024,22.41513381813486,72.82185749647012,2.400000095367432,7.999579855010835,-9999,4038.96074425,-0.0941009521484375,-0.273101806640625,-0.9895172119140625,4038.95075025,0.06216089403465222,-0.09131455984601909,0.2371443072287711,-0.0580848716199398,0.2260858714580536,0.05914268270134926,-0.0231502428650856,-0.03438982367515564,-0.001519262790679932,XArbitraryZVertical,0.1195225372857953,-0.04162684109441073,0.02542857155360426,0.9916323972536624,-0.08863562345504761,-0.2349278181791306,-0.9679631590843201,0,0,0,-1,-1,4038.062922916667,unknown,2,2022-06-02T11:09:13.925+02:00,2022-06-02T10:17:13.754+02:00,757,1.564864,0,0,607.4087,0,0,2022-06-02T11:09:13.925+02:00,675853753.9251039,0,6.050781,101.3103,1,0.73
2022-06-02T11:09:14.845+02:00,1654160954.000234,53.22910960898542,10.39855371886888,36.95144,0.005685984,0.7847024,22.41513381813486,72.82185749647012,2.400000095367432,7.999579855010835,-9999,4038.97073925,-0.0988922119140625,-0.2834320068359375,-0.9996337890625,4038.96074425,0.06257056468876203,-0.08912999340184742,0.236569760695333,-0.04924301430583,0.2252779304981232,0.03462209552526474,-0.01078770309686661,-0.03848837316036224,-0.01646769046783447,XArbitraryZVertical,0.1192181998332108,-0.04052962026567623,0.02577600149823586,0.9917055291495352,-0.0865328311920166,-0.234369307756424,-0.9682887196540833,0,0,0,-1,-1,4038.062922916667,unknown,2,2022-06-02T11:09:13.925+02:00,2022-06-02T10:17:13.754+02:00,757,1.564864,0,0,607.4087,0,0,2022-06-02T11:09:13.925+02:00,675853753.9251039,0,6.050781,101.3103,1,0.73
2022-06-02T11:09:14.847+02:00,1654160954.000234,53.22910960898542,10.39855371886888,36.95144,0.005685984,0.7847024,22.41513381813486,72.82185749647012,2.400000095367432,7.999579855010835,-9999,4038.98073325,-0.0974273681640625,-0.28265380859375,-0.996063232421875,4038.97073925,0.06282073623330978,-0.08694170028049823,0.2359265696158574,-0.05534005910158157,0.2347603738307953,0.01932143233716488,-0.01164251565933228,-0.04468315839767456,-0.02739167213439941,XArbitraryZVertical,0.1188760138940705,-0.03944128145094328,0.02604554215143476,0.9917834517855442,-0.08442679792642593,-0.2337439805269241,-0.9686257839202881,0,0,0,-1,-1,4038.062922916667,unknown,2,2022-06-02T11:09:13.925+02:00,2022-06-02T10:17:13.754+02:00,757,1.564864,0,0,607.4087,0,0,2022-06-02T11:09:13.925+02:00,675853753.9251039,0,6.050781,101.3103,1,0.73
2022-06-02T11:09:14.854+02:00,1654160954.000234,53.22910960898542,10.39855371886888,36.95144,0.005685984,0.7847024,22.41513381813486,72.82185749647012,2.400000095367432,7.999579855010835,-9999,4038.99072725,-0.0865325927734375,-0.2760162353515625,-0.9847869873046875,4038.98073325,0.06285203839178569,-0.08449378229477211,0.2351926124942876,-0.06672000885009766,0.2386611104011536,-0.0007196525111794472,-0.01642557233572006,-0.05096630752086639,-0.02924501895904541,XArbitraryZVertical,0.1184807678412811,-0.03823875013801758,0.02622328271364766,0.9918731748553271,-0.08206988871097565,-0.233030304312706,-0.9690002202987671,0,0,0,-1,-1,4038.062922916667,unknown,2,2022-06-02T11:09:13.925+02:00,2022-06-02T10:17:13.754+02:00,757,1.564864,0,0,607.4087,0,0,2022-06-02T11:09:13.925+02:00,675853753.9251039,0,6.050781,101.3103,1,0.73
2022-06-02T11:09:14.864+02:00,1654160954.000234,53.22910960898542,10.39855371886888,36.95144,0.005685984,0.7847024,22.41513381813486,72.82185749647012,2.400000095367432,7.999579855010835,-9999,4039.00072125,-0.0825958251953125,-0.273651123046875,-0.9675445556640625,4038.99072725,0.06277122284830519,-0.08225729272171441,0.2349770344237818,-0.06360730528831482,0.2347161620855331,-0.01312625408172607,-0.01250054687261581,-0.04548440873622894,-0.02178114652633667,XArbitraryZVertical,0.1183429801450029,-0.03713823066922719,0.026320470773284,0.9919288927865574,-0.0799066573381424,-0.2328206449747086,-0.9692313671112061,0,0,0,-1,-1,4038.062922916667,unknown,2,2022-06-02T11:09:13.925+02:00,2022-06-02T10:17:13.754+02:00,757,1.564864,0,0,607.4087,0,0,2022-06-02T11:09:13.925+02:00,675853753.9251039,0,6.050781,101.3103,1,0.73
2022-06-02T11:09:14.874+02:00,1654160954.000234,53.22910960898542,10.39855371886888,36.95144,0.005685984,0.7847024,22.41513381813486,72.82185749647012,2.400000095367432,7.999579855010835,-9999,4039.01071525,-0.0775146484375,-0.2698974609375,-0.9549713134765625,4039.00072125,0.06252688329292735,-0.07995461837328399,0.2347944337539655,-0.05218374356627464,0.2265164405107498,-0.02889709547162056,-0.006153754889965057,-0.04181680083274841,-0.005886614322662354,XArbitraryZVertical,0.118217655351372,-0.03601387432716926,0.02633947270455293,0.9919848126505435,-0.07767801731824875,-0.2326430678367615,-0.9694551825523376,0,0,0,-1,-1,4038.062922916667,unknown,2,2022-06-02T11:09:13.925+02:00,2022-06-02T10:17:13.754+02:00,757,1.564864,0,0,607.4087,0,0,2022-06-02T11:09:13.925+02:00,675853753.9251039,0,6.050781,101.3103,1,0.73
2022-06-02T11:09:14.884+02:00,1654160954.000234,53.22910960898542,10.39855371886888,36.95144,0.005685984,0.7847024,22.41513381813486,72.82185749647012,2.400000095367432,7.999579855010835,-9999,4039.02071025,-0.0696563720703125,-0.2650146484375,-0.94525146484375,4039.01071525,0.0621930363742447,-0.07770486613066026,0.2345549936191849,-0.04399771615862846,0.2248229384422302,-0.03275548294186592,-0.004042938351631165,-0.03890636563301086,0.008837044239044189,XArbitraryZVertical,0.1180633942344391,-0.03492195814738148,0.02631189542543299,0.9920429389860234,-0.07550110667943954,-0.232410192489624,-0.9696829915046692,0,0,0,-1,-1,4038.062922916667,unknown,2,2022-06-02T11:09:13.925+02:00,2022-06-02T10:17:13.754+02:00,757,1.564864,0,0,607.4087,0,0,2022-06-02T11:09:13.925+02:00,675853753.9251039,0,6.050781,101.3103,1,0.73
2022-06-02T11:09:14.894+02:00,1654160954.000234,53.22910960898542,10.39855371886888,36.95144,0.005685984,0.7847024,22.41513381813486,72.82185749647012,2.400000095367432,7.999579855010835,-9999,4039.03070425,-0.05816650390625,-0.2561187744140625,-0.936676025390625,4039.02071025,0.0618943506319892,-0.07568096544562737,0.234347793059457,-0.03617365285754204,0.2169337719678879,-0.03173915296792984,-0.0007834956049919128,-0.03588828444480896,0.02102929353713989,XArbitraryZVertical,0.1179288912082035,-0.03393930994189627,0.02628746181591865,0.9920936662023121,-0.07354205101728439,-0.2322086542844772,-0.9698817729949951,0,0,0,-1,-1,4038.062922916667,unknown,2,2022-06-02T11:09:13.925+02:00,2022-06-02T10:17:13.754+02:00,757,1.564864,0,0,607.4087,0,0,2022-06-02T11:09:13.925+02:00,675853753.9251039,0,6.050781,101.3103,1,0.73
2022-06-02T11:09:14.904+02:00,1654160954.000234,53.22910960898542,10.39855371886888,36.95144,0.005685984,0.7847024,22.41513381813486,72.82185749647012,2.400000095367432,7.999579855010835,-9999,4039.04069825,-0.0515594482421875,-0.2430877685546875,-0.9366455078125,4039.03070425,0.06159529797968359,-0.07382110623406449,0.2343397630527566,-0.03024172782897949,0.2057082802057266,-0.03513681516051292,0.008688919246196747,-0.02776317298412323,0.02952802181243896,XArbitraryZVertical,0.1178954703755988,-0.03303448673597638,0.02624892788818791,0.9921292305997882,-0.07173822075128555,-0.2322008460760117,-0.970018744468689,0,0,0,-1,-1,4038.062922916667,unknown,2,2022-06-02T11:09:13.925+02:00,2022-06-02T10:17:13.754+02:00,757,1.564864,0,0,607.4087,0,0,2022-06-02T11:09:13.925+02:00,675853753.9251039,0,6.050781,101.3103,1,0.73
2022-06-02T11:09:14.914+02:00,1654160954.000234,53.22910960898542,10.39855371886888,36.95144,0.005685984,0.7847024,22.41513381813486,72.82185749647012,2.400000095367432,7.999579855010835,-9999,4039.05069225,-0.050811767578125,-0.2388458251953125,-0.943145751953125,4039.04069825,0.06124749160545637,-0.07197878181696446,0.2343442589285226,-0.03502293303608894,0.1875723600387573,-0.03563262894749641,0.01511086523532867,-0.01886291801929474,0.03612726926803589,XArbitraryZVertical,0.1178678827936678,-0.03214098083427617,0.02618488918483536,0.9921635495625081,-0.06995093077421188,-0.2322052121162415,-0.9701482653617859,0,0,0,-1,-1,4038.062922916667,unknown,2,2022-06-02T11:09:13.925+02:00,2022-06-02T10:17:13.754+02:00,757,1.564864,0,0,607.4087,0,0,2022-06-02T11:09:13.925+02:00,675853753.9251039,0,6.050781,101.3103,1,0.73
2022-06-02T11:09:14.924+02:00,1654160954.000234,53.22910960898542,10.39855371886888,36.95144,0.005685984,0.7847024,22.41513381813486,72.82185749647012,2.400000095367432,7.999579855010835,-9999,4039.06068625,-0.0469512939453125,-0.232635498046875,-0.954132080078125,4039.05069225,0.06093590254283875,-0.07033159556551963,0.234411690747221,-0.03644958883523941,0.1752187609672546,-0.03257718309760094,0.01750945299863815,-0.008421361446380615,0.02984738349914551,XArbitraryZVertical,0.117874839430683,-0.03134103237053363,0.02612608063005505,0.9921898679684141,-0.06835172325372696,-0.2322708070278168,-0.9702465534210205,0,0,0,-1,-1,4038.062922916667,unknown,2,2022-06-02T11:09:13.925+02:00,2022-06-02T10:17:13.754+02:00,757,1.564864,0,0,607.4087,0,0,2022-06-02T11:09:13.925+02:00,675853753.9251039,0,6.050781,101.3103,1,0.73
2022-06-02T11:09:14.934+02:00,1654160954.000234,53.22910960898542,10.39855371886888,36.95144,0.005685984,0.7847024,22.41513381813486,72.82185749647012,2.400000095367432,7.999579855010835,-9999,4039.07068125,-0.0471343994140625,-0.2274322509765625,-0.9649810791015625,4039.06068625,0.06069128025372084,-0.06890521601707862,0.2346666163358596,-0.02449598908424377,0.1694812327623367,-0.03091803565621376,0.01818130910396576,-0.0008186697959899902,0.02198070287704468,XArbitraryZVertical,0.1179788736630424,-0.03064346899369701,0.02608397267598296,0.9922003479570798,-0.06696363538503647,-0.2325187474489212,-0.9702839255332947,0,0,0,-1,-1,4038.062922916667,unknown,2,2022-06-02T11:09:13.925+02:00,2022-06-02T10:17:13.754+02:00,757,1.564864,0,0,607.4087,0,0,2022-06-02T11:09:13.925+02:00,675853753.9251039,0,6.050781,101.3103,1,0.73
2022-06-02T11:09:14.944+02:00,1654160954.000234,53.22910960898542,10.39855371886888,36.95144,0.005685984,0.7847024,22.41513381813486,72.82185749647012,2.400000095367432,7.999579855010835,-9999,4039.08067525,-0.0478057861328125,-0.2187347412109375,-0.9704742431640625,4039.07068125,0.06055893002484963,-0.06788775978489797,0.2355901863697538,-0.01567479968070984,0.1616310328245163,-0.02444735169410706,0.0178813561797142,0.002002090215682983,0.01042008399963379,XArbitraryZVertical,0.1184216652468724,-0.03013079850144095,0.02606113363408639,0.9921638691637766,-0.06596178561449051,-0.2334169149398804,-0.9701368808746338,0,0,0,-1,-1,4038.062922916667,unknown,2,2022-06-02T11:09:13.925+02:00,2022-06-02T10:17:13.754+02:00,757,1.564864,0,0,607.4087,0,0,2022-06-02T11:09:13.925+02:00,675853753.9251039,0,6.050781,101.3103,1,0.73
2022-06-02T11:09:14.954+02:00,1654160954.000234,53.22910960898542,10.39855371886888,36.95144,0.005685984,0.7847024,22.41513381813486,72.82185749647012,2.400000095367432,7.999579855010835,-9999,4039.09066925,-0.0508270263671875,-0.2125396728515625,-0.9764556884765625,4039.08067525,0.06050181426977502,-0.0669178694172753,0.2368014270837032,-0.009425260126590729,0.1512668877840042,-0.01345548778772354,0.01733343303203583,0.01138892769813538,0.001671135425567627,XArbitraryZVertical,0.1190088791343168,-0.02963246436419624,0.02606795689773951,0.9921084786282544,-0.06500187516212463,-0.2345945239067078,-0.9699175953865051,0,0,0,-1,-1,4038.062922916667,unknown,2,2022-06-02T11:09:13.925+02:00,2022-06-02T10:17:13.754+02:00,757,1.564864,0,0,607.4087,0,0,2022-06-02T11:09:13.925+02:00,675853753.9251039,0,6.050781,101.3103,1,0.73
2022-06-02T11:09:14.964+02:00,1654160954.000234,53.22910960898542,10.39855371886888,36.95144,0.005685984,0.7847024,22.41513381813486,72.82185749647012,2.400000095367432,7.999579855010835,-9999,4039.10066325,-0.0492401123046875,-0.208038330078125,-0.9738616943359375,4039.09066925,0.0605369184383964,-0.06589376209744885,0.2378877120826249,-0.0135603491216898,0.149506539106369,0.0007074689492583275,0.0142023116350174,0.01963165402412415,-0.004422783851623535,XArbitraryZVertical,0.1195347486955711,-0.02910392931014921,0.02612660407145529,0.9920593319649458,-0.0639917254447937,-0.2356503456830978,-0.9697288274765015,0,0,0,-1,-1,4038.062922916667,unknown,2,2022-06-02T11:09:13.925+02:00,2022-06-02T10:17:13.754+02:00,757,1.564864,0,0,607.4087,0,0,2022-06-02T11:09:13.925+02:00,675853753.9251039,0,6.050781,101.3103,1,0.73
2022-06-02T11:09:14.974+02:00,1654160954.000234,53.22910960898542,10.39855371886888,36.95144,0.005685984,0.7847024,22.41513381813486,72.82185749647012,2.400000095367432,7.999579855010835,-9999,4039.11065725,-0.0491485595703125,-0.2075347900390625,-0.9777984619140625,4039.11065725,0.06087324796511175,-0.06350949079640728,0.2390929760122454,-0.0369214341044426,0.1275962442159653,0.02310644835233688,0.01362672448158264,0.0271809846162796,-0.005106449127197266,XArbitraryZVertical,0.1201059192489141,-0.02788066851979153,0.02641475333597462,0.9920178180235251,-0.06166137754917145,-0.2368215024471283,-0.9695944786071777,0,0,0,-1,-1,4038.062922916667,unknown,2,2022-06-02T11:09:13.925+02:00,2022-06-02T10:17:13.754+02:00,757,1.564864,0,0,607.4087,0,0,2022-06-02T11:09:13.925+02:00,675853753.9251039,0,6.050781,101.3103,1,0.73
2022-06-02T11:09:14.984+02:00,1654160954.000234,53.22910960898542,10.39855371886888,36.95144,0.005685984,0.7847024,22.41513381813486,72.82185749647012,2.400000095367432,7.999579855010835,-9999,4039.12065225,-0.0506591796875,-0.2017669677734375,-0.975982666015625,4039.11065725,0.06087324796511175,-0.06350949079640728,0.2390929760122454,-0.0369214341044426,0.1275962442159653,0.02310644835233688,0.01362672448158264,0.0271809846162796,-0.005106449127197266,XArbitraryZVertical,0.1201059192489141,-0.02788066851979153,0.02641475333597462,0.9920178180235251,-0.06166137754917145,-0.2368215024471283,-0.9695944786071777,0,0,0,-1,-1,4038.062922916667,unknown,2,2022-06-02T11:09:13.925+02:00,2022-06-02T10:17:13.754+02:00,757,1.564864,0,0,607.4087,0,0,2022-06-02T11:09:13.925+02:00,675853753.9251039,0,6.050781,101.3103,1,0.73
2022-06-02T11:09:14.994+02:00,1654160954.000234,53.22910960898542,10.39855371886888,36.95144,0.005685984,0.7847024,22.41513381813486,72.82185749647012,2.400000095367432,7.999579855010835,-9999,4039.13064625,-0.0522918701171875,-0.1964111328125,-0.970245361328125,4039.12065225,0.06113308516951566,-0.06219480905369574,0.2392260340090977,-0.02973922155797482,0.1285354048013687,0.03763039782643318,0.01086990535259247,0.03173528611660004,-0.009101271629333496,XArbitraryZVertical,0.120158049336848,-0.0272107021327069,0.02662028654288492,0.9920246185778311,-0.06038465723395348,-0.2369507700204849,-0.969643235206604,0,0,0,-1,-1,4038.062922916667,unknown,2,2022-06-02T11:09:13.925+02:00,2022-06-02T10:17:13.754+02:00,757,1.564864,0,0,607.4087,0,0,2022-06-02T11:09:13.925+02:00,675853753.9251039,0,6.050781,101.3103,1,0.73
2022-06-02T11:09:15.004+02:00,1654160954.000234,53.22910960898542,10.39855371886888,36.95144,0.005685984,0.7847024,22.41513381813486,72.82185749647012,2.400000095367432,7.999579855010835,-9999,4039.14064025,-0.0501556396484375,-0.19757080078125,-0.968780517578125,4039.13064625,0.06156714195518266,-0.06085676354493125,0.2391418835440387,-0.02762413956224918,0.128403052687645,0.05624110251665115,0.007559474557638168,0.03917612135410309,-0.003874480724334717,XArbitraryZVertical,0.1201042365454921,-0.0265223716798915,0.02691739398985985,0.9920417922849475,-0.05908838659524918,-0.2368690222501755,-0.9697430729866028,0,0,0,-1,-1,4038.062922916667,unknown,2,2022-06-02T11:09:13.925+02:00,2022-06-02T10:17:13.754+02:00,757,1.564864,0,0,607.4087,0,0,2022-06-02T11:09:13.925+02:00,675853753.9251039,0,6.050781,101.3103,1,0.73
2022-06-02T11:09:15.014+02:00,1654160954.000234,53.22910960898542,10.39855371886888,36.95144,0.005685984,0.7847024,22.41513381813486,72.82185749647012,2.400000095367432,7.999579855010835,-9999,4039.15063425,-0.047607421875,-0.1906280517578125,-0.968505859375,4039.14064025,0.06217537913164036,-0.05958002585892128,0.2388647007039015,-0.02844269201159477,0.1247187703847885,0.07283186167478561,0.006554111838340759,0.03887632489204407,0.000232994556427002,XArbitraryZVertical,0.1199574332761433,-0.02585732239390884,0.02730037093629665,0.99206667166081,-0.05785414204001427,-0.2365997135639191,-0.9698832035064697,0,0,0,-1,-1,4038.062922916667,unknown,2,2022-06-02T11:09:13.925+02:00,2022-06-02T10:17:13.754+02:00,757,1.564864,0,0,607.4087,0,0,2022-06-02T11:09:13.925+02:00,675853753.9251039,0,6.050781,101.3103,1,0.73
2022-06-02T11:09:15.024+02:00,1654160954.000234,53.22910960898542,10.39855371886888,36.95144,0.005685984,0.7847024,22.41513381813486,72.82185749647012,2.400000095367432,7.999579855010835,-9999,4039.16062825,-0.045867919921875,-0.18914794921875,-0.96942138671875,4039.15063425,0.0629749934961851,-0.05836403830044199,0.2384947749087522,-0.02550815790891647,0.1214444041252136,0.09376217424869537,0.007928017526865005,0.04191957414150238,0.001320719718933105,XArbitraryZVertical,0.1197674392276983,-0.02521261305263345,0.0277759869653313,0.9920930403169307,-0.05667983368039131,-0.2362402826547623,-0.9700401425361633,0,0,0,-1,-1,4038.062922916667,unknown,2,2022-06-02T11:09:13.925+02:00,2022-06-02T10:17:13.754+02:00,757,1.564864,0,0,607.4087,0,0,2022-06-02T11:09:13.925+02:00,675853753.9251039,0,6.050781,101.3103,1,0.73
2022-06-02T11:09:15.034+02:00,1654160954.000234,53.22910960898542,10.39855371886888,36.95144,0.005685984,0.7847024,22.41513381813486,72.82185749647012,2.400000095367432,7.999579855010835,-9999,4039.17062225,-0.0503082275390625,-0.2014007568359375,-0.9862060546875,4039.16062825,0.06395219855534826,-0.05725437583407435,0.237909820533475,-0.03041426464915276,0.1133376732468605,0.1081837937235832,0.008904144167900085,0.04736310243606567,0.003992736339569092,XArbitraryZVertical,0.1194739484799148,-0.02461392704525061,0.02833659626811988,0.9921275341391064,-0.05561127886176109,-0.2356718331575394,-0.9702402353286743,0,0,0,-1,-1,4038.062922916667,unknown,2,2022-06-02T11:09:13.925+02:00,2022-06-02T10:17:13.754+02:00,757,1.564864,0,0,607.4087,0,0,2022-06-02T11:09:13.925+02:00,675853753.9251039,0,6.050781,101.3103,1,0.73
2022-06-02T11:09:15.044+02:00,1654160954.000234,53.22910960898542,10.39855371886888,36.95144,0.005685984,0.7847024,22.41513381813486,72.82185749647012,2.400000095367432,7.999579855010835,-9999,4039.18061725,-0.0506134033203125,-0.210693359375,-0.99609375,4039.17062225,0.06508996115082279,-0.05622440443150853,0.2369581585303486,-0.04229755699634552,0.1201479062438011,0.1217997372150421,0.0079784095287323,0.04234880208969116,-0.007415235042572021,XArbitraryZVertical,0.1190010377431434,-0.02405198142810368,0.02897763191733487,0.9921796420936904,-0.05462450906634331,-0.2347468733787537,-0.9705204963684082,0,0,0,-1,-1,4038.062922916667,unknown,2,2022-06-02T11:09:13.925+02:00,2022-06-02T10:17:13.754+02:00,757,1.564864,0,0,607.4087,0,0,2022-06-02T11:09:13.925+02:00,675853753.9251039,0,6.050781,101.3103,1,0.73
2022-06-02T11:09:15.054+02:00,1654160954.000234,53.22910960898542,10.39855371886888,36.95144,0.005685984,0.7847024,22.41513381813486,72.82185749647012,2.400000095367432,7.999579855010835,-9999,4039.19061125,-0.0491790771484375,-0.2039947509765625,-1.005233764648438,4039.18061725,0.06637331397190031,-0.05521874843777922,0.2355711319272896,-0.04711484909057617,0.115888386964798,0.1402680277824402,0.002702053636312485,0.02374261617660522,-0.02009814977645874,XArbitraryZVertical,0.118313572573388,-0.023501823597142,0.02969583652817034,0.9922538429572469,-0.05366639047861099,-0.2333983778953552,-0.9708991050720215,0,0,0,-1,-1,4038.062922916667,unknown,2,2022-06-02T11:09:13.925+02:00,2022-06-02T10:17:13.754+02:00,757,1.564864,0,0,607.4087,0,0,2022-06-02T11:09:13.925+02:00,675853753.9251039,0,6.050781,101.3103,1,0.73
2022-06-02T11:09:15.066+02:00,1654160954.000234,53.22910960898542,10.39855371886888,36.95144,0.005685984,0.7847024,22.41513381813486,72.82185749647012,2.400000095367432,7.999579855010835,-9999,4039.20060525,-0.049407958984375,-0.2061004638671875,-1.004745483398438,4039.19061125,0.06778596915263879,-0.05418319785210177,0.2341684856413482,-0.05184382200241089,0.121534027159214,0.1518967151641846,0.00180584192276001,0.02536919713020325,-0.03006261587142944,XArbitraryZVertical,0.1176186314482507,-0.02293031115238949,0.03047959007932992,0.9923260267759292,-0.05267862603068352,-0.2320342510938644,-0.9712800979614258,0,0,0,-1,-1,4038.062922916667,unknown,2,2022-06-02T11:09:13.925+02:00,2022-06-02T10:17:13.754+02:00,757,1.564864,0,0,607.4087,0,0,2022-06-02T11:09:13.925+02:00,675853753.9251039,0,6.050781,101.3103,1,0.73
2022-06-02T11:09:15.077+02:00,1654160955.000233,53.22910944374659,10.39855394633368,36.94783,0.003281811,0.7973969,23.12938548266331,41.856303738277,2.400000095367432,7.999579855010836,-9999,4039.21059925,-0.04638671875,-0.2079620361328125,-0.99652099609375,4039.20060525,0.06934250459189568,-0.05319065437538969,0.232539740290466,-0.06825265288352966,0.1258661150932312,0.1635867208242416,0.001594219356775284,0.02578349411487579,-0.03528046607971191,XArbitraryZVertical,0.1168129390173868,-0.0223768581676484,0.03133503236804274,0.9924072045903437,-0.05173458531498909,-0.2304496467113495,-0.9717079997062683,0,0,0,-1,-1,4038.062922916667,unknown,2,2022-06-02T11:09:13.925+02:00,2022-06-02T10:17:13.754+02:00,757,1.564864,0,0,607.4087,0,0,2022-06-02T11:09:13.925+02:00,675853753.9251039,0,6.050781,101.3103,1,0.73
2022-06-02T11:09:15.084+02:00,1654160955.000233,53.22910944374659,10.39855394633368,36.94783,0.003281811,0.7973969,23.12938548266331,41.856303738277,2.400000095367432,7.999579855010836,-9999,4039.22059325,-0.044525146484375,-0.2080078125,-0.9922027587890625,4039.21059925,0.07103331161822474,-0.05230947877186418,0.230628538847555,-0.08137059211730957,0.1278150230646133,0.1747003644704819,0.003080230206251144,0.02042905986309052,-0.02815961837768555,XArbitraryZVertical,0.1158694530981998,-0.02187744267668862,0.03225420413795065,0.9924994831272942,-0.05090125650167465,-0.2285894602537155,-0.9721912741661072,0,0,0,-1,-1,4038.062922916667,unknown,2,2022-06-02T11:09:13.925+02:00,2022-06-02T10:17:13.754+02:00,757,1.564864,0,0,607.4087,0,0,2022-06-02T11:09:13.925+02:00,675853753.9251039,0,6.050781,101.3103,1,0.73
2022-06-02T11:09:15.094+02:00,1654160955.000233,53.22910944374659,10.39855394633368,36.94783,0.003281811,0.7973969,23.12938548266331,41.856303738277,2.400000095367432,7.999579855010836,-9999,4039.23058825,-0.042877197265625,-0.2113037109375,-0.985321044921875,4039.22059325,0.0728542206133248,-0.05147027470990461,0.2287363123451428,-0.08232290297746658,0.1296321600675583,0.1883018612861633,0.003873422741889954,0.01948678493499756,-0.02088159322738647,XArbitraryZVertical,0.1149365620723409,-0.02139250242624895,0.03323455874457485,0.9925861200003735,-0.05010753497481346,-0.2267469316720963,-0.9726638793945312,0,0,0,-1,-1,4038.062922916667,unknown,2,2022-06-02T11:09:13.925+02:00,2022-06-02T10:17:13.754+02:00,757,1.564864,0,0,607.4087,0,0,2022-06-02T11:09:13.925+02:00,675853753.9251039,0,6.050781,101.3103,1,0.73
2022-06-02T11:09:15.104+02:00,1654160955.000233,53.22910944374659,10.39855394633368,36.94783,0.003281811,0.7973969,23.12938548266331,41.856303738277,2.400000095367432,7.999579855010836,-9999,4039.24058225,-0.0407257080078125,-0.2042236328125,-0.974853515625,4039.23058825,0.07474888339638641,-0.0505816263125222,0.2268432967141978,-0.07964642345905304,0.1287703514099121,0.1901801824569702,0.006296038627624512,0.01425521075725555,-0.01595497131347656,XArbitraryZVertical,0.1140022598791359,-0.02088043630532808,0.03425370751629905,0.9926701532753569,-0.04926477372646332,-0.2249028235673904,-0.9731349945068359,0,0,0,-1,-1,4038.062922916667,unknown,2,2022-06-02T11:09:13.925+02:00,2022-06-02T10:17:13.754+02:00,757,1.564864,0,0,607.4087,0,0,2022-06-02T11:09:13.925+02:00,675853753.9251039,0,6.050781,101.3103,1,0.73
2022-06-02T11:09:15.114+02:00,1654160955.000233,53.22910944374659,10.39855394633368,36.94783,0.003281811,0.7973969,23.12938548266331,41.856303738277,2.400000095367432,7.999579855010836,-9999,4039.25057625,-0.040618896484375,-0.196014404296875,-0.9735107421875,4039.24058225,0.07670647186035887,-0.0496803615905338,0.2248679694779609,-0.076537124812603,0.1250865459442139,0.2022569626569748,0.006371721625328064,0.01448154449462891,-0.005230486392974854,XArbitraryZVertical,0.1130265156258592,-0.02036190578473273,0.03530531304778082,0.9927556524501753,-0.04840966686606407,-0.2229776531457901,-0.9736207723617554,0,0,0,-1,-1,4038.062922916667,unknown,2,2022-06-02T11:09:13.925+02:00,2022-06-02T10:17:13.754+02:00,757,1.564864,0,0,607.4087,0,0,2022-06-02T11:09:13.925+02:00,675853753.9251039,0,6.050781,101.3103,1,0.73
2022-06-02T11:09:15.124+02:00,1654160955.000233,53.22910944374659,10.39855394633368,36.94783,0.003281811,0.7973969,23.12938548266331,41.856303738277,2.400000095367432,7.999579855010836,-9999,4039.26057025,-0.03863525390625,-0.19427490234375,-0.9704132080078125,4039.25057625,0.07874495566752752,-0.04883074578149699,0.2230637514150315,-0.07273173332214355,0.1267275959253311,0.2041984051465988,0.00705941766500473,0.02207602560520172,-0.0002270936965942383,XArbitraryZVertical,0.1121363691622414,-0.01986271202797059,0.03639100717739294,0.9928275332829917,-0.04760200530290604,-0.2212184965610504,-0.9740617871284485,0,0,0,-1,-1,4038.062922916667,unknown,2,2022-06-02T11:09:13.925+02:00,2022-06-02T10:17:13.754+02:00,757,1.564864,0,0,607.4087,0,0,2022-06-02T11:09:13.925+02:00,675853753.9251039,0,6.050781,101.3103,1,0.73
2022-06-02T11:09:15.134+02:00,1654160955.000233,53.22910944374659,10.39855394633368,36.94783,0.003281811,0.7973969,23.12938548266331,41.856303738277,2.400000095367432,7.999579855010836,-9999,4039.27056425,-0.032958984375,-0.202880859375,-0.976318359375,4039.26057025,0.08085236743549269,-0.04814707398334794,0.2218032446554727,-0.06810452044010162,0.1232915073633194,0.2080954760313034,0.00658995658159256,0.02664490044116974,0.0006933212280273438,XArbitraryZVertical,0.1115188239039538,-0.01943215886282896,0.03749336055820551,0.9928646810668743,-0.04694943875074387,-0.2199890464544296,-0.9743719100952148,0,0,0,-1,-1,4038.062922916667,unknown,2,2022-06-02T11:09:13.925+02:00,2022-06-02T10:17:13.754+02:00,757,1.564864,0,0,607.4087,0,0,2022-06-02T11:09:13.925+02:00,675853753.9251039,0,6.050781,101.3103,1,0.73
2022-06-02T11:09:15.144+02:00,1654160955.000233,53.22910944374659,10.39855394633368,36.94783,0.003281811,0.7973969,23.12938548266331,41.856303738277,2.400000095367432,7.999579855010836,-9999,4039.28055925,-0.0384521484375,-0.2124481201171875,-0.9835205078125,4039.27056425,0.08298886680924315,-0.04747993425927783,0.2205533680964683,-0.0500301793217659,0.1175699681043625,0.2115631699562073,0.01057633012533188,0.02098517119884491,0.0006626248359680176,XArbitraryZVertical,0.1109063126077285,-0.01900923515486445,0.03860876303225791,0.9928986956967638,-0.04631239920854568,-0.2187696248292923,-0.9746769070625305,0,0,0,-1,-1,4038.062922916667,unknown,2,2022-06-02T11:09:13.925+02:00,2022-06-02T10:17:13.754+02:00,757,1.564864,0,0,607.4087,0,0,2022-06-02T11:09:13.925+02:00,675853753.9251039,0,6.050781,101.3103,1,0.73
2022-06-02T11:09:15.154+02:00,1654160955.000233,53.22910944374659,10.39855394633368,36.94783,0.003281811,0.7973969,23.12938548266331,41.856303738277,2.400000095367432,7.999579855010836,-9999,4039.29055325,-0.044158935546875,-0.2233428955078125,-0.989776611328125,4039.28055925,0.08516339985124741,-0.04685416901585113,0.2194586038679876,-0.03363635763525963,0.1195003613829613,0.2145764082670212,0.01159502565860748,0.01016643643379211,-0.003922224044799805,XArbitraryZVertical,0.1103711209314557,-0.01860255151228007,0.03973828144388323,0.9929214681574703,-0.04571366310119629,-0.2177012413740158,-0.9749442934989929,0,0,0,-1,-1,4038.062922916667,unknown,2,2022-06-02T11:09:13.925+02:00,2022-06-02T10:17:13.754+02:00,757,1.564864,0,0,607.4087,0,0,2022-06-02T11:09:13.925+02:00,675853753.9251039,0,6.050781,101.3103,1,0.73
2022-06-02T11:09:15.164+02:00,1654160955.000233,53.22910944374659,10.39855394633368,36.94783,0.003281811,0.7973969,23.12938548266331,41.856303738277,2.400000095367432,7.999579855010836,-9999,4039.30054725,-0.0417022705078125,-0.2202301025390625,-0.9821929931640625,4039.29055325,0.08736149455635454,-0.04616151139055391,0.2186210964393011,-0.03001951798796654,0.1204391270875931,0.2158629894256592,0.002108529210090637,0.0006666779518127441,-0.01147574186325073,XArbitraryZVertical,0.1099616611088259,-0.01815660068898449,0.04087934947745332,0.9929288327368223,-0.04504674673080444,-0.2168837487697601,-0.9751575589179993,0,0,0,-1,-1,4038.062922916667,unknown,2,2022-06-02T11:09:13.925+02:00,2022-06-02T10:17:13.754+02:00,757,1.564864,0,0,607.4087,0,0,2022-06-02T11:09:13.925+02:00,675853753.9251039,0,6.050781,101.3103,1,0.73
2022-06-02T11:09:15.174+02:00,1654160955.000233,53.22910944374659,10.39855394633368,36.94783,0.003281811,0.7973969,23.12938548266331,41.856303738277,2.400000095367432,7.999579855010836,-9999,4039.31054125,-0.0400543212890625,-0.2163543701171875,-0.9843902587890625,4039.30054725,0.08956497758173471,-0.04545096141101952,0.217808479705452,-0.03674177080392838,0.119241438806057,0.2152145802974701,0.001118436455726624,-0.008427441120147705,-0.0124126672744751,XArbitraryZVertical,0.1095633393674668,-0.01770177350558363,0.04202349465187482,0.992933328336106,-0.04436182975769043,-0.2160903960466385,-0.9753650426864624,0,0,0,-1,-1,4038.062922916667,unknown,2,2022-06-02T11:09:13.925+02:00,2022-06-02T10:17:13.754+02:00,757,1.564864,0,0,607.4087,0,0,2022-06-02T11:09:13.925+02:00,675853753.9251039,0,6.050781,101.3103,1,0.73
2022-06-02T11:09:15.184+02:00,1654160955.000233,53.22910944374659,10.39855394633368,36.94783,0.003281811,0.7973969,23.12938548266331,41.856303738277,2.400000095367432,7.999579855010836,-9999,4039.32053525,-0.040313720703125,-0.2249298095703125,-0.981475830078125,4039.31054125,0.0917068730143094,-0.04469696006932681,0.2171173697829296,-0.03746455162763596,0.1178667172789574,0.2114666998386383,0.003594007343053818,0.0002818703651428223,-0.006188035011291504,XArbitraryZVertical,0.1092229608083719,-0.01722668562445066,0.0431375487256889,0.9929313451185348,-0.04363305494189262,-0.2154155671596527,-0.975547194480896,0,0,0,-1,-1,4038.062922916667,unknown,2,2022-06-02T11:09:13.925+02:00,2022-06-02T10:17:13.754+02:00,757,1.564864,0,0,607.4087,0,0,2022-06-02T11:09:13.925+02:00,675853753.9251039,0,6.050781,101.3103,1,0.73
2022-06-02T11:09:15.194+02:00,1654160955.000233,53.22910944374659,10.39855394633368,36.94783,0.003281811,0.7973969,23.12938548266331,41.856303738277,2.400000095367432,7.999579855010836,-9999,4039.33053025,-0.041839599609375,-0.237060546875,-0.9834136962890625,4039.32053525,0.093803845811116,-0.04397270780047956,0.216361578678844,-0.049158725887537,0.1121796071529388,0.2055557519197464,0.004130557179450989,-0.006300345063209534,-0.007627010345458984,XArbitraryZVertical,0.1088498276386089,-0.01677111351712912,0.0442283230156825,0.9929321042448754,-0.04293364658951759,-0.2146774530410767,-0.975740909576416,0,0,0,-1,-1,4038.062922916667,unknown,2,2022-06-02T11:09:13.925+02:00,2022-06-02T10:17:13.754+02:00,757,1.564864,0,0,607.4087,0,0,2022-06-02T11:09:13.925+02:00,675853753.9251039,0,6.050781,101.3103,1,0.73
2022-06-02T11:09:15.204+02:00,1654160955.000233,53.22910944374659,10.39855394633368,36.94783,0.003281811,0.7973969,23.12938548266331,41.856303738277,2.400000095367432,7.999579855010836,-9999,4039.34052425,-0.0424957275390625,-0.2303009033203125,-0.980926513671875,4039.33053025,0.09586955884934979,-0.04323670291569327,0.2153231451684468,-0.05677349865436554,0.1116730719804764,0.2056404501199722,0.0008280202746391296,-0.01894186437129974,-0.006915688514709473,XArbitraryZVertical,0.1083350009326225,-0.01631922847198507,0.04530773893594828,0.9929473170812489,-0.04222509637475014,-0.2136631160974503,-0.9759944081306458,0,0,0,-1,-1,4038.062922916667,unknown,2,2022-06-02T11:09:13.925+02:00,2022-06-02T10:17:13.754+02:00,757,1.564864,0,0,607.4087,0,0,2022-06-02T11:09:13.925+02:00,675853753.9251039,0,6.050781,101.3103,1,0.73
2022-06-02T11:09:15.214+02:00,1654160955.000233,53.22910944374659,10.39855394633368,36.94783,0.003281811,0.7973969,23.12938548266331,41.856303738277,2.400000095367432,7.999579855010836,-9999,4039.35051825,-0.04071044921875,-0.2195587158203125,-0.9796295166015625,4039.34052425,0.09793494222644526,-0.04253288528007359,0.2141051094639975,-0.05986849591135979,0.1102746427059174,0.2037373483181,-0.001083843410015106,-0.02223765850067139,-0.00583350658416748,XArbitraryZVertical,0.107730904725023,-0.01588894977139936,0.046387304945653,0.9929701589516365,-0.0415491983294487,-0.2124730497598648,-0.9762831926345825,0,0,0,-1,-1,4038.062922916667,unknown,2,2022-06-02T11:09:13.925+02:00,2022-06-02T10:17:13.754+02:00,757,1.564864,0,0,607.4087,0,0,2022-06-02T11:09:13.925+02:00,675853753.9251039,0,6.050781,101.3103,1,0.73
2022-06-02T11:09:15.224+02:00,1654160955.000233,53.22910944374659,10.39855394633368,36.94783,0.003281811,0.7973969,23.12938548266331,41.856303738277,2.400000095367432,7.999579855010836,-9999,4039.36051225,-0.0393524169921875,-0.2171173095703125,-0.974212646484375,4039.35051825,0.09994188287274802,-0.0417116461236102,0.2130438205883566,-0.06028900668025017,0.1078546270728111,0.2019847184419632,-0.0006250180304050446,-0.01230376958847046,-0.004934072494506836,XArbitraryZVertical,0.1072005388627788,-0.01540064904815018,0.04744175033022476,0.9929854362800807,-0.04075680300593376,-0.2114358842372894,-0.9765417575836182,0,0,0,-1,-1,4038.062922916667,unknown,2,2022-06-02T11:09:13.925+02:00,2022-06-02T10:17:13.754+02:00,757,1.564864,0,0,607.4087,0,0,2022-06-02T11:09:13.925+02:00,675853753.9251039,0,6.050781,101.3103,1,0.73
2022-06-02T11:09:15.234+02:00,1654160955.000233,53.22910944374659,10.39855394633368,36.94783,0.003281811,0.7973969,23.12938548266331,41.856303738277,2.400000095367432,7.999579855010836,-9999,4039.37050625,-0.0377044677734375,-0.2193603515625,-0.9734954833984375,4039.36051225,0.1019206329527932,-0.04087066598538379,0.2122604509908759,-0.05830185860395432,0.1077289879322052,0.1961717754602432,0.0007272213697433472,-0.006157249212265015,4.106760025024414e-05,XArbitraryZVertical,0.1068065111507067,-0.01489774133058901,0.04847930671999109,0.9929854387810529,-0.03994229063391685,-0.2106701582670212,-0.976740837097168,0,0,0,-1,-1,4038.062922916667,unknown,2,2022-06-02T11:09:13.925+02:00,2022-06-02T10:17:13.754+02:00,757,1.564864,0,0,607.4087,0,0,2022-06-02T11:09:13.925+02:00,675853753.9251039,0,6.050781,101.3103,1,0.73
2022-06-02T11:09:15.243+02:00,1654160955.000233,53.22910944374659,10.39855394633368,36.94783,0.003281811,0.7973969,23.12938548266331,41.856303738277,2.400000095367432,7.999579855010836,-9999,4039.38050125,-0.036773681640625,-0.2185211181640625,-0.9766387939453125,4039.37050625,0.103902728552175,-0.04029393354768079,0.2116960013717725,-0.0605279952287674,0.1084453836083412,0.1899503618478775,0.000321265310049057,-0.008662208914756775,0.003905713558197021,XArbitraryZVertical,0.1065267879373638,-0.01452072463844168,0.04950137961949361,0.9929705800598232,-0.03938375040888786,-0.2101183384656906,-0.9768823981285095,0,0,0,-1,-1,4038.062922916667,unknown,2,2022-06-02T11:09:13.925+02:00,2022-06-02T10:17:13.754+02:00,757,1.564864,0,0,607.4087,0,0,2022-06-02T11:09:13.925+02:00,675853753.9251039,0,6.050781,101.3103,1,0.73
2022-06-02T11:09:15.254+02:00,1654160955.000233,53.22910944374659,10.39855394633368,36.94783,0.003281811,0.7973969,23.12938548266331,41.856303738277,2.400000095367432,7.999579855010836,-9999,4039.39049525,-0.0391387939453125,-0.2181854248046875,-0.9808349609375,4039.38050125,0.1058194405650242,-0.03976018898349137,0.2113288889972664,-0.06400561332702637,0.1008115634322166,0.1872367262840271,0.002290103584527969,-0.00995190441608429,0.002264142036437988,XArbitraryZVertical,0.1063449576495567,-0.01416367885151846,0.05048605079038625,0.992945744716895,-0.03886540234088898,-0.2097594141960144,-0.9769802689552307,0,0,0,-1,-1,4038.062922916667,unknown,2,2022-06-02T11:09:13.925+02:00,2022-06-02T10:17:13.754+02:00,757,1.564864,0,0,607.4087,0,0,2022-06-02T11:09:13.925+02:00,675853753.9251039,0,6.050781,101.3103,1,0.73
2022-06-02T11:09:15.264+02:00,1654160955.000233,53.22910944374659,10.39855394633368,36.94783,0.003281811,0.7973969,23.12938548266331,41.856303738277,2.400000095367432,7.999579855010836,-9999,4039.40048925,-0.039794921875,-0.2222747802734375,-0.984100341796875,4039.39049525,0.1076829690621525,-0.03920674949032946,0.2107603743090016,-0.05893123149871826,0.09655849635601044,0.1825873851776123,0.0009758658707141876,-0.00710509717464447,-0.0009371638298034668,XArbitraryZVertical,0.1060616996697425,-0.01380562469558765,0.0514477945102159,0.9929316974627289,-0.03832936659455299,-0.2092035114765167,-0.9771206378936768,0,0,0,-1,-1,4038.062922916667,unknown,2,2022-06-02T11:09:13.925+02:00,2022-06-02T10:17:13.754+02:00,757,1.564864,0,0,607.4087,0,0,2022-06-02T11:09:13.925+02:00,675853753.9251039,0,6.050781,101.3103,1,0.73
2022-06-02T11:09:15.274+02:00,1654160955.000233,53.22910944374659,10.39855394633368,36.94783,0.003281811,0.7973969,23.12938548266331,41.856303738277,2.400000095367432,7.999579855010836,-9999,4039.41048325,-0.0411224365234375,-0.228515625,-0.985107421875,4039.40048925,0.1095110927663061,-0.03862330400935966,0.2103789356188828,-0.05956472456455231,0.09987612813711166,0.1781373769044876,-0.001803681254386902,-0.01121650636196136,-0.006755709648132324,XArbitraryZVertical,0.105869665677107,-0.01342978875787694,0.05239106586988807,0.9929081015361431,-0.03776234015822411,-0.2088304907083511,-0.9772225022315979,0,0,0,-1,-1,4038.062922916667,unknown,2,2022-06-02T11:09:13.925+02:00,2022-06-02T10:17:13.754+02:00,757,1.564864,0,0,607.4087,0,0,2022-06-02T11:09:13.925+02:00,675853753.9251039,0,6.050781,101.3103,1,0.73
2022-06-02T11:09:15.283+02:00,1654160955.000233,53.22910944374659,10.39855394633368,36.94783,0.003281811,0.7973969,23.12938548266331,41.856303738277,2.400000095367432,7.999579855010836,-9999,4039.42047725,-0.0455169677734375,-0.2291412353515625,-0.98480224609375,4039.41048325,0.111269500870715,-0.03809862962275808,0.2102915109217375,-0.06568759679794312,0.09863349795341492,0.1651741713285446,-0.003902629017829895,-0.01607801020145416,-0.007282376289367676,XArbitraryZVertical,0.1058240777461092,-0.01307874180250811,0.05329287691780182,0.9928695326624345,-0.03725030645728111,-0.208745002746582,-0.977260410785675,0,0,0,-1,-1,4038.062922916667,unknown,2,2022-06-02T11:09:13.925+02:00,2022-06-02T10:17:13.754+02:00,757,1.564864,0,0,607.4087,0,0,2022-06-02T11:09:13.925+02:00,675853753.9251039,0,6.050781,101.3103,1,0.73
2022-06-02T11:09:15.294+02:00,1654160955.000233,53.22910944374659,10.39855394633368,36.94783,0.003281811,0.7973969,23.12938548266331,41.856303738277,2.400000095367432,7.999579855010836,-9999,4039.43047225,-0.0477752685546875,-0.2287445068359375,-0.9757080078125,4039.42047725,0.1129232516709732,-0.03761168568951294,0.2101555568575357,-0.08190994709730148,0.09653498977422714,0.1562522649765015,-0.005460813641548157,-0.02019351720809937,-0.008517742156982422,XArbitraryZVertical,0.1057542003220819,-0.01275345657882746,0.05414127468744537,0.9928353336848676,-0.03677549958229065,-0.2086120396852493,-0.9773067831993103,0,0,0,-1,-1,4038.062922916667,unknown,2,2022-06-02T11:09:13.925+02:00,2022-06-02T10:17:13.754+02:00,757,1.564864,0,0,607.4087,0,0,2022-06-02T11:09:13.925+02:00,675853753.9251039,0,6.050781,101.3103,1,0.73
2022-06-02T11:09:15.304+02:00,1654160955.000233,53.22910944374659,10.39855394633368,36.94783,0.003281811,0.7973969,23.12938548266331,41.856303738277,2.400000095367432,7.999579855010836,-9999,4039.44046625,-0.0518646240234375,-0.226165771484375,-0.9657745361328125,4039.43047225,0.1144474678417587,-0.03707171815495248,0.2095796402094819,-0.09841941297054291,0.1004548966884613,0.144912526011467,-0.01065327972173691,-0.02031430602073669,-0.002930760383605957,XArbitraryZVertical,0.1054632394132907,-0.0124217518211206,0.05493348338882122,0.992826969519187,-0.0362522266805172,-0.2080487608909607,-0.977446436882019,0,0,0,-1,-1,4038.062922916667,unknown,2,2022-06-02T11:09:13.925+02:00,2022-06-02T10:17:13.754+02:00,757,1.564864,0,0,607.4087,0,0,2022-06-02T11:09:13.925+02:00,675853753.9251039,0,6.050781,101.3103,1,0.73
2022-06-02T11:09:15.314+02:00,1654160955.000233,53.22910944374659,10.39855394633368,36.94783,0.003281811,0.7973969,23.12938548266331,41.856303738277,2.400000095367432,7.999579855010836,-9999,4039.45046025,-0.0536041259765625,-0.2248992919921875,-0.9571075439453125,4039.44046625,0.1158323572993795,-0.03640177763348181,0.208711619754195,-0.1146086379885674,0.1061085313558578,0.1296086460351944,-0.01557401940226555,-0.02050727605819702,0.006581246852874756,XArbitraryZVertical,0.1050223822699276,-0.0120419698788735,0.05566673963537158,0.9928375331391338,-0.03560394793748856,-0.2071996480226517,-0.9776505827903748,0,0,0,-1,-1,4038.062922916667,unknown,2,2022-06-02T11:09:13.925+02:00,2022-06-02T10:17:13.754+02:00,757,1.564864,0,0,607.4087,0,0,2022-06-02T11:09:13.925+02:00,675853753.9251039,0,6.050781,101.3103,1,0.73
2022-06-02T11:09:15.324+02:00,1654160955.000233,53.22910944374659,10.39855394633368,36.94783,0.003281811,0.7973969,23.12938548266331,41.856303738277,2.400000095367432,7.999579855010836,-9999,4039.46045425,-0.05389404296875,-0.22064208984375,-0.94659423828125,4039.45046025,0.1170843725721954,-0.03562909821374075,0.207788458841567,-0.1323026716709137,0.1197657510638237,0.1198689416050911,-0.01708558201789856,-0.0192284882068634,0.01685476303100586,XArbitraryZVertical,0.1045499681227069,-0.0116203718916988,0.05633979293255931,0.9928545107553548,-0.03485532477498055,-0.2062964290380478,-0.9778685569763184,0,0,0,-1,-1,4038.062922916667,unknown,2,2022-06-02T11:09:13.925+02:00,2022-06-02T10:17:13.754+02:00,757,1.564864,0,0,607.4087,0,0,2022-06-02T11:09:13.925+02:00,675853753.9251039,0,6.050781,101.3103,1,0.73
2022-06-02T11:09:15.334+02:00,1654160955.000233,53.22910944374659,10.39855394633368,36.94783,0.003281811,0.7973969,23.12938548266331,41.856303738277,2.400000095367432,7.999579855010836,-9999,4039.47044825,-0.05340576171875,-0.2198333740234375,-0.9476776123046875,4039.46045425,0.1181900993245408,-0.0346800294011934,0.2067064266121076,-0.1518697589635849,0.1303669363260269,0.1042080223560333,-0.02058467641472816,-0.01786123216152191,0.02733331918716431,XArbitraryZVertical,0.1039923350228336,-0.01112418340531913,0.05695092642147188,0.9928838672870191,-0.03393496572971344,-0.205237552523613,-0.978123664855957,0,0,0,-1,-1,4038.062922916667,unknown,2,2022-06-02T11:09:13.925+02:00,2022-06-02T10:17:13.754+02:00,757,1.564864,0,0,607.4087,0,0,2022-06-02T11:09:13.925+02:00,675853753.9251039,0,6.050781,101.3103,1,0.73
2022-06-02T11:09:15.344+02:00,1654160955.000233,53.22910944374659,10.39855394633368,36.94783,0.003281811,0.7973969,23.12938548266331,41.856303738277,2.400000095367432,7.999579855010836,-9999,4039.48044325,-0.053314208984375,-0.2244415283203125,-0.9449615478515625,4039.47044825,0.1191231038043364,-0.03360469614050275,0.2053184539028033,-0.1780539602041245,0.1423255950212479,0.0890948548913002,-0.02075721696019173,-0.01581713557243347,0.03328347206115723,XArbitraryZVertical,0.1032777161257827,-0.01058412421582794,0.0574858367294559,0.9929335075165056,-0.03289267420768738,-0.2038789391517639,-0.9784433841705322,0,0,0,-1,-1,4038.062922916667,unknown,2,2022-06-02T11:09:13.925+02:00,2022-06-02T10:17:13.754+02:00,757,1.564864,0,0,607.4087,0,0,2022-06-02T11:09:13.925+02:00,675853753.9251039,0,6.050781,101.3103,1,0.73
2022-06-02T11:09:15.354+02:00,1654160955.000233,53.22910944374659,10.39855394633368,36.94783,0.003281811,0.7973969,23.12938548266331,41.856303738277,2.400000095367432,7.999579855010836,-9999,4039.49043725,-0.0542144775390625,-0.2236480712890625,-0.9457550048828125,4039.48044325,0.1199191089885557,-0.0324578181341627,0.2037497470316469,-0.2138174474239349,0.1551819294691086,0.07330477237701416,-0.02135025337338448,-0.01933678984642029,0.03342539072036743,XArbitraryZVertical,0.1024700335361227,-0.01002169000219391,0.05795767269993049,0.9929956488534655,-0.03178083896636963,-0.2023429274559021,-0.9787989258766174,0,0,0,-1,-1,4038.062922916667,unknown,2,2022-06-02T11:09:13.925+02:00,2022-06-02T10:17:13.754+02:00,757,1.564864,0,0,607.4087,0,0,2022-06-02T11:09:13.925+02:00,675853753.9251039,0,6.050781,101.3103,1,0.73
2022-06-02T11:09:15.364+02:00,1654160955.000233,53.22910944374659,10.39855394633368,36.94783,0.003281811,0.7973969,23.12938548266331,41.856303738277,2.400000095367432,7.999579855010836,-9999,4039.50043125,-0.0553131103515625,-0.2218017578125,-0.94671630859375,4039.49043725,0.1204821632189633,-0.03123895445000409,0.2020043787792793,-0.2454432845115662,0.164134681224823,0.03999342024326324,-0.02251705527305603,-0.02461691200733185,0.03349447250366211,XArbitraryZVertical,0.1015709080686705,-0.009441327382537824,0.05831852162739369,0.9930725608174604,-0.03059877641499043,-0.2006333619356155,-0.9791884422302246,0,0,0,-1,-1,4038.062922916667,unknown,2,2022-06-02T11:09:13.925+02:00,2022-06-02T10:17:13.754+02:00,757,1.564864,0,0,607.4087,0,0,2022-06-02T11:09:13.925+02:00,675853753.9251039,0,6.050781,101.3103,1,0.73
2022-06-02T11:09:15.374+02:00,1654160955.000233,53.22910944374659,10.39855394633368,36.94783,0.003281811,0.7973969,23.12938548266331,41.856303738277,2.400000095367432,7.999579855010836,-9999,4039.51042525,-0.0568389892578125,-0.2258453369140625,-0.9437408447265625,4039.50043125,0.1206947374245203,-0.02979630105511947,0.2000692107577577,-0.2836124897003174,0.1902869194746017,0.005756355822086334,-0.02675633877515793,-0.02384282648563385,0.03358817100524902,XArbitraryZVertical,0.1005689921955928,-0.008773702392128189,0.05851749674345386,0.9931689048026452,-0.02919762767851353,-0.198737159371376,-0.9796177744865417,0,0,0,-1,-1,4038.062922916667,unknown,2,2022-06-02T11:09:13.925+02:00,2022-06-02T10:17:13.754+02:00,757,1.564864,0,0,607.4087,0,0,2022-06-02T11:09:13.925+02:00,675853753.9251039,0,6.050781,101.3103,1,0.73
2022-06-02T11:09:15.384+02:00,1654160955.000233,53.22910944374659,10.39855394633368,36.94783,0.003281811,0.7973969,23.12938548266331,41.856303738277,2.400000095367432,7.999579855010836,-9999,4039.52041925,-0.0596771240234375,-0.217681884765625,-0.9328765869140625,4039.51042525,0.1205768036250413,-0.02822531856790518,0.1977057749130708,-0.347563773393631,0.2130412310361862,-0.02942213788628578,-0.0270461943000555,-0.02800597250461578,0.03432852029800415,XArbitraryZVertical,0.09934899849476479,-0.008071996250548727,0.05856154267440445,0.9932950341180655,-0.0276718083769083,-0.1964203119277954,-0.9801292419433594,0,0,0,-1,-1,4038.062922916667,unknown,2,2022-06-02T11:09:13.925+02:00,2022-06-02T10:17:13.754+02:00,757,1.564864,0,0,607.4087,0,0,2022-06-02T11:09:13.925+02:00,675853753.9251039,0,6.050781,101.3103,1,0.73
2022-06-02T11:09:15.394+02:00,1654160955.000233,53.22910944374659,10.39855394633368,36.94783,0.003281811,0.7973969,23.12938548266331,41.856303738277,2.400000095367432,7.999579855010836,-9999,4039.53041425,-0.0550079345703125,-0.2102203369140625,-0.9081573486328125,4039.52041925,0.1200722880836032,-0.02638945742267059,0.1946681501931537,-0.4259500205516815,0.2483915686607361,-0.0756557434797287,-0.03209538012742996,-0.02941367030143738,0.04194283485412598,XArbitraryZVertical,0.09778485371023832,-0.007277906689203431,0.05843097524060423,0.993464053064931,-0.02588800527155399,-0.1934409588575363,-0.9807702898979187,0,0,0,-1,-1,4038.062922916667,unknown,2,2022-06-02T11:09:13.925+02:00,2022-06-02T10:17:13.754+02:00,757,1.564864,0,0,607.4087,0,0,2022-06-02T11:09:13.925+02:00,675853753.9251039,0,6.050781,101.3103,1,0.73
2022-06-02T11:09:15.404+02:00,1654160955.000233,53.22910944374659,10.39855394633368,36.94783,0.003281811,0.7973969,23.12938548266331,41.856303738277,2.400000095367432,7.999579855010836,-9999,4039.54040825,-0.0528106689453125,-0.2076263427734375,-0.87384033203125,4039.53041425,0.1189306185920315,-0.02343578330747079,0.1899209056300559,-0.5244792699813843,0.2928261458873749,-0.1245961263775826,-0.03454386070370674,-0.02320915460586548,0.06175136566162109,XArbitraryZVertical,0.09533695985267267,-0.006009552377900049,0.05804938251596011,0.9937327836017444,-0.02301228232681751,-0.1887812167406082,-0.9817494750022888,0,0,0,-1,-1,4038.062922916667,unknown,2,2022-06-02T11:09:13.925+02:00,2022-06-02T10:17:13.754+02:00,757,1.564864,0,0,607.4087,0,0,2022-06-02T11:09:13.925+02:00,675853753.9251039,0,6.050781,101.3103,1,0.73
2022-06-02T11:09:15.414+02:00,1654160955.000233,53.22910944374659,10.39855394633368,36.94783,0.003281811,0.7973969,23.12938548266331,41.856303738277,2.400000095367432,7.999579855010836,-9999,4039.55040225,-0.0552978515625,-0.2020263671875,-0.8335113525390625,4039.54040825,0.1172231445617166,-0.01997381045524659,0.1841348517594089,-0.6429544687271118,0.3375721871852875,-0.1863951683044434,-0.03325210511684418,-0.02703273296356201,0.09016823768615723,XArbitraryZVertical,0.09235750250716698,-0.004542123121587958,0.05741044903494179,0.9940589822018614,-0.01963484846055508,-0.1830960810184479,-0.9828989505767822,0,0,0,-1,-1,4038.062922916667,unknown,2,2022-06-02T11:09:13.925+02:00,2022-06-02T10:17:13.754+02:00,757,1.564864,0,0,607.4087,0,0,2022-06-02T11:09:13.925+02:00,675853753.9251039,0,6.050781,101.3103,1,0.73
2022-06-02T11:09:15.424+02:00,1654160955.000233,53.22910944374659,10.39855394633368,36.94783,0.003281811,0.7973969,23.12938548266331,41.856303738277,2.400000095367432,7.999579855010836,-9999,4039.56039625,-0.0534515380859375,-0.1890106201171875,-0.78045654296875,4039.55040225,0.1149177480101054,-0.01586381041590957,0.1770542889582427,-0.7888930439949036,0.3994091749191284,-0.2439359724521637,-0.03905707597732544,-0.02810823917388916,0.1312003135681152,XArbitraryZVertical,0.08871659883686081,-0.002810648187586777,0.05650047495293632,0.9944491215732788,-0.01561515312641859,-0.1761306822299957,-0.9842429161071777,0,0,0,-1,-1,4038.062922916667,unknown,2,2022-06-02T11:09:13.925+02:00,2022-06-02T10:17:13.754+02:00,757,1.564864,0,0,607.4087,0,0,2022-06-02T11:09:13.925+02:00,675853753.9251039,0,6.050781,101.3103,1,0.73
2022-06-02T11:09:15.434+02:00,1654160955.000233,53.22910944374659,10.39855394633368,36.94783,0.003281811,0.7973969,23.12938548266331,41.856303738277,2.400000095367432,7.999579855010836,-9999,4039.57039025,-0.042572021484375,-0.184967041015625,-0.7262115478515625,4039.56039625,0.1120188078537368,-0.01103877793429977,0.1682653272407984,-0.9836651086807251,0.4656426608562469,-0.3054801523685455,-0.0426909439265728,-0.02941174805164337,0.1776349544525146,XArbitraryZVertical,0.08420827893687984,-0.0007870827431906298,0.05531818807482961,0.994911132449659,-0.0108826532959938,-0.1674724221229553,-0.9858167171478271,0,0,0,-1,-1,4038.062922916667,unknown,2,2022-06-02T11:09:13.925+02:00,2022-06-02T10:17:13.754+02:00,757,1.564864,0,0,607.4087,0,0,2022-06-02T11:09:13.925+02:00,675853753.9251039,0,6.050781,101.3103,1,0.73
2022-06-02T11:09:15.444+02:00,1654160955.000233,53.22910944374659,10.39855394633368,36.94783,0.003281811,0.7973969,23.12938548266331,41.856303738277,2.400000095367432,7.999579855010836,-9999,4039.58038525,-0.0330963134765625,-0.1851043701171875,-0.67510986328125,4039.57039025,0.1085417151700802,-0.005448005355813521,0.1573201177927616,-1.214734554290771,0.5383840203285217,-0.3621793985366821,-0.04471389576792717,-0.02875284850597382,0.2365526556968689,XArbitraryZVertical,0.0786102932966762,0.001550861384401912,0.05386256047249231,0.9954479977323554,-0.005380699411034584,-0.1566719859838486,-0.9876360297203064,0,0,0,-1,-1,4038.062922916667,unknown,2,2022-06-02T11:09:13.925+02:00,2022-06-02T10:17:13.754+02:00,757,1.564864,0,0,607.4087,0,0,2022-06-02T11:09:13.925+02:00,675853753.9251039,0,6.050781,101.3103,1,0.73
2022-06-02T11:09:15.454+02:00,1654160955.000233,53.22910944374659,10.39855394633368,36.94783,0.003281811,0.7973969,23.12938548266331,41.856303738277,2.400000095367432,7.999579855010836,-9999,4039.59037925,-0.0272369384765625,-0.1927032470703125,-0.6204986572265625,4039.58038525,0.1045324364619236,0.000929363354612643,0.1438555458817223,-1.478650689125061,0.6155592203140259,-0.4269845485687256,-0.03708308562636375,-0.03979139029979706,0.2876591086387634,XArbitraryZVertical,0.0717434109829066,0.004217289086675274,0.05214068713824443,0.9960504007453607,0.0009197634644806385,-0.1433598846197128,-0.9896702170372009,0,0,0,-1,-1,4038.062922916667,unknown,2,2022-06-02T11:09:13.925+02:00,2022-06-02T10:17:13.754+02:00,757,1.564864,0,0,607.4087,0,0,2022-06-02T11:09:13.925+02:00,675853753.9251039,0,6.050781,101.3103,1,0.73
2022-06-02T11:09:15.464+02:00,1654160955.000233,53.22910944374659,10.39855394633368,36.94783,0.003281811,0.7973969,23.12938548266331,41.856303738277,2.400000095367432,7.999579855010836,-9999,4039.60037325,-0.0210113525390625,-0.1710052490234375,-0.5880126953125,4039.59037925,0.0998810554186724,0.008052845747124816,0.1277190455501416,-1.755385875701904,0.6819276213645935,-0.5091635584831238,-0.03835215047001839,-0.06282873451709747,0.3448959589004517,XArbitraryZVertical,0.0635354626438796,0.007198856435755333,0.05007424675422729,0.9966964899813839,0.007987168617546558,-0.1273721009492874,-0.9918228387832642,0,0,0,-1,-1,4038.062922916667,unknown,2,2022-06-02T11:09:13.925+02:00,2022-06-02T10:17:13.754+02:00,757,1.564864,0,0,607.4087,0,0,2022-06-02T11:09:13.925+02:00,675853753.9251039,0,6.050781,101.3103,1,0.73
2022-06-02T11:09:15.474+02:00,1654160955.000233,53.22910944374659,10.39855394633368,36.94783,0.003281811,0.7973969,23.12938548266331,41.856303738277,2.400000095367432,7.999579855010836,-9999,4039.61036725,-0.02783203125,-0.163787841796875,-0.5756988525390625,4039.60037325,0.09465450516361953,0.01573721555497764,0.1083536689343667,-2.115358829498291,0.7277292013168335,-0.5760195851325989,-0.03941746801137924,-0.07623019814491272,0.3898559212684631,XArbitraryZVertical,0.05371632049880909,0.01040993585238818,0.04766432075761803,0.9973636128139227,0.01564427837729454,-0.1081417724490166,-0.9940123558044434,0,0,0,-1,-1,4038.062922916667,unknown,2,2022-06-02T11:09:13.925+02:00,2022-06-02T10:17:13.754+02:00,757,1.564864,0,0,607.4087,0,0,2022-06-02T11:09:13.925+02:00,675853753.9251039,0,6.050781,101.3103,1,0.73
2022-06-02T11:09:15.484+02:00,1654160955.000233,53.22910944374659,10.39855394633368,36.94783,0.003281811,0.7973969,23.12938548266331,41.856303738277,2.400000095367432,7.999579855010836,-9999,4039.62036125,-0.0410308837890625,-0.139556884765625,-0.5803375244140625,4039.61036725,0.08891115917006794,0.023704859559629,0.08529771161782167,-2.473836660385132,0.755633533000946,-0.6578129529953003,-0.04619946330785751,-0.08033306151628494,0.4188292026519775,XArbitraryZVertical,0.04206457303483671,0.01372432431918617,0.04490223928370832,0.9980109623241276,0.02361646480858326,-0.08519431948661804,-0.996084451675415,0,0,0,-1,-1,4038.062922916667,unknown,2,2022-06-02T11:09:13.925+02:00,2022-06-02T10:17:13.754+02:00,757,1.564864,0,0,607.4087,0,0,2022-06-02T11:09:13.925+02:00,675853753.9251039,0,6.050781,101.3103,1,0.73
