loggingTime(txt),locationTimestamp_since1970(s),locationLatitude(WGS84),locationLongitude(WGS84),locationAltitude(m),locationSpeed(m/s),locationSpeedAccuracy(m/s),locationCourse(°),locationCourseAccuracy(°),locationVerticalAccuracy(m),locationHorizontalAccuracy(m),locationFloor(Z),accelerometerTimestamp_sinceReboot(s),accelerometerAccelerationX(G),accelerometerAccelerationY(G),accelerometerAccelerationZ(G),motionTimestamp_sinceReboot(s),motionYaw(rad),motionRoll(rad),motionPitch(rad),motionRotationRateX(rad/s),motionRotationRateY(rad/s),motionRotationRateZ(rad/s),motionUserAccelerationX(G),motionUserAccelerationY(G),motionUserAccelerationZ(G),motionAttitudeReferenceFrame(txt),motionQuaternionX(R),motionQuaternionY(R),motionQuaternionZ(R),motionQuaternionW(R),motionGravityX(G),motionGravityY(G),motionGravityZ(G),motionMagneticFieldX(µT),motionMagneticFieldY(µT),motionMagneticFieldZ(µT),motionHeading(°),motionMagneticFieldCalibrationAccuracy(Z),activityTimestamp_sinceReboot(s),activity(txt),activityActivityConfidence(Z),activityActivityStartDate(txt),pedometerStartDate(txt),pedometerNumberofSteps(N),pedometerAverageActivePace(s/m),pedometerCurrentPace(s/m),pedometerCurrentCadence(steps/s),pedometerDistance(m),pedometerFloorAscended(N),pedometerFloorDescended(N),pedometerEndDate(txt),altimeterTimestamp_sinceReboot(s),altimeterReset(bool),altimeterRelativeAltitude(m),altimeterPressure(kPa),batteryState(N),batteryLevel(R)
2022-06-02T10:45:12.755+02:00,1654159511.14246,53.22907412977236,10.39845990821668,36.71472,0,20,-1,-1,2.400000095367432,11.99936978251625,-9999,2657.001171541667,-0.16552734375,-0.3010406494140625,-0.9876708984375,2656.991176541667,0.1499519663737286,0.02433093909797726,0.3288003813153485,0.147619292140007,0.07491418719291687,0.05208317562937737,-0.3121030330657959,-0.01866009831428528,-0.02923727035522461,XArbitraryZVertical,0.1622898192501231,0.02422564323359263,0.07587567755307902,0.9835232817395032,0.02302526868879795,-0.3229078948497772,-0.9461502432823181,0,0,0,-1,-1,2653.347029125,unknown,2,2022-06-02T10:45:09.069+02:00,2022-06-02T10:17:13.754+02:00,448,1.401249,0,0,345.1212,0,0,2022-06-02T10:45:11.626+02:00,675852311.6256452,0,7.441406,101.2925,1,0.82
2022-06-02T10:45:12.760+02:00,1654159511.14246,53.22907412977236,10.39845990821668,36.71472,0,20,-1,-1,2.400000095367432,11.99936978251625,-9999,2657.011166541667,0.01971435546875,-0.3088531494140625,-0.965362548828125,2657.001171541667,0.150676044528159,0.02557888086829446,0.3298281808797526,0.06510047614574432,0.2419229447841644,0.05702220275998116,-0.2468232214450836,0.02795153856277466,-0.04301148653030396,XArbitraryZVertical,0.1627390017290203,0.02493514726917658,0.07633312109260053,0.9833958572216108,0.02419748902320862,-0.3238804638385773,-0.9457885026931763,0,0,0,-1,-1,2653.347029125,unknown,2,2022-06-02T10:45:09.069+02:00,2022-06-02T10:17:13.754+02:00,448,1.401249,0,0,345.1212,0,0,2022-06-02T10:45:11.626+02:00,675852311.6256452,0,7.441406,101.2925,1,0.82
2022-06-02T10:45:12.762+02:00,1654159511.14246,53.22907412977236,10.39845990821668,36.71472,0,20,-1,-1,2.400000095367432,11.99936978251625,-9999,2657.021160541667,0.148406982421875,-0.2948455810546875,-0.9568634033203125,2657.011166541667,0.1509174512308386,0.02791877319429035,0.3304037269220595,0.05159345269203186,0.2259474396705627,0.002516887150704861,-0.09937278181314468,0.01786062121391296,-0.02802890539169312,XArbitraryZVertical,0.162929507655087,0.0261260206065345,0.07664254483159894,0.9833093462920008,0.02640525624155998,-0.3244249522686005,-0.9455428123474121,0,0,0,-1,-1,2653.347029125,unknown,2,2022-06-02T10:45:09.069+02:00,2022-06-02T10:17:13.754+02:00,448,1.401249,0,0,345.1212,0,0,2022-06-02T10:45:11.626+02:00,675852311.6256452,0,7.441406,101.2925,1,0.82
2022-06-02T10:45:12.769+02:00,1654159511.14246,53.22907412977236,10.39845990821668,36.71472,0,20,-1,-1,2.400000095367432,11.99936978251625,-9999,2657.031155541667,0.11895751953125,-0.2875823974609375,-0.938385009765625,2657.021160541667,0.1509288564286408,0.02923577989328185,0.3308786318758687,0.03457355871796608,0.05055878311395645,0.003598995506763458,0.07837206125259399,0.02163618803024292,-0.01573699712753296,XArbitraryZVertical,0.1631124296800822,0.02679154709399612,0.07675589974515433,0.9832521905008426,0.0276460126042366,-0.3248741328716278,-0.945353090763092,0,0,0,-1,-1,2653.347029125,unknown,2,2022-06-02T10:45:09.069+02:00,2022-06-02T10:17:13.754+02:00,448,1.401249,0,0,345.1212,0,0,2022-06-02T10:45:11.626+02:00,675852311.6256452,0,7.441406,101.2925,1,0.82
2022-06-02T10:45:12.771+02:00,1654159511.14246,53.22907412977236,10.39845990821668,36.71472,0,20,-1,-1,2.400000095367432,11.99936978251625,-9999,2657.041149541667,0.039154052734375,-0.302947998046875,-0.9230499267578125,2657.031155541667,0.1506834858086745,0.02924442785793539,0.3310317594990867,0.0006118612363934517,-0.04032132029533386,-0.05216439813375473,0.1257896572351456,0.03894713521003723,5.900859832763672e-06,XArbitraryZVertical,0.1631906875377084,0.02678128483996737,0.07663612267527641,0.9832488639550784,0.02765273302793503,-0.3250189423561096,-0.9453031420707703,0,0,0,-1,-1,2653.347029125,unknown,2,2022-06-02T10:45:09.069+02:00,2022-06-02T10:17:13.754+02:00,448,1.401249,0,0,345.1212,0,0,2022-06-02T10:45:11.626+02:00,675852311.6256452,0,7.441406,101.2925,1,0.82
2022-06-02T10:45:12.773+02:00,1654159511.14246,53.22907412977236,10.39845990821668,36.71472,0,20,-1,-1,2.400000095367432,11.99936978251625,-9999,2657.051144541667,-0.009979248046875,-0.3116302490234375,-0.910736083984375,2657.041149541667,0.1499242818358874,0.02897681905152485,0.3309170921482716,-0.02231735736131668,-0.05216187238693237,-0.07957139611244202,0.05305875837802887,0.03201806545257568,0.01494312286376953,XArbitraryZVertical,0.163154645254818,0.02658366876836515,0.07624092461743813,0.9832909523801233,0.02740084007382393,-0.3249104917049408,-0.9453477263450623,0,0,0,-1,-1,2653.347029125,unknown,2,2022-06-02T10:45:09.069+02:00,2022-06-02T10:17:13.754+02:00,448,1.401249,0,0,345.1212,0,0,2022-06-02T10:45:11.626+02:00,675852311.6256452,0,7.441406,101.2925,1,0.82
2022-06-02T10:45:12.784+02:00,1654159511.14246,53.22907412977236,10.39845990821668,36.71472,0,20,-1,-1,2.400000095367432,11.99936978251625,-9999,2657.061138541667,-0.013824462890625,-0.3212738037109375,-0.9101104736328125,2657.051144541667,0.1493159242990443,0.02881428328726631,0.3304122523557749,-0.08526808768510818,-0.01963934674859047,-0.02576115727424622,-0.01579255238175392,0.01481691002845764,0.03267425298690796,XArbitraryZVertical,0.1629205855047103,0.02643615323149951,0.07592808291026136,0.983357981348157,0.02725190855562687,-0.3244329988956451,-0.945516049861908,0,0,0,-1,-1,2653.347029125,unknown,2,2022-06-02T10:45:09.069+02:00,2022-06-02T10:17:13.754+02:00,448,1.401249,0,0,345.1212,0,0,2022-06-02T10:45:11.626+02:00,675852311.6256452,0,7.441406,101.2925,1,0.82
2022-06-02T10:45:12.794+02:00,1654159511.14246,53.22907412977236,10.39845990821668,36.71472,0,20,-1,-1,2.400000095367432,11.99936978251625,-9999,2657.071133541667,0.0116424560546875,-0.329071044921875,-0.93389892578125,2657.061138541667,0.1492902278782748,0.02885238559753708,0.3291221493634493,-0.1702101826667786,0.02423962578177452,0.01256712432950735,-0.04234515130519867,0.01144483685493469,0.03620356321334839,XArbitraryZVertical,0.1622849010017689,0.02640686968988354,0.0759172943950432,0.9834647018908232,0.02729998715221882,-0.3232124149799347,-0.9459325671195984,0,0,0,-1,-1,2653.347029125,unknown,2,2022-06-02T10:45:09.069+02:00,2022-06-02T10:17:13.754+02:00,448,1.401249,0,0,345.1212,0,0,2022-06-02T10:45:11.626+02:00,675852311.6256452,0,7.441406,101.2925,1,0.82
2022-06-02T10:45:12.803+02:00,1654159511.14246,53.22907412977236,10.39845990821668,36.71472,0,20,-1,-1,2.400000095367432,11.99936978251625,-9999,2657.081128541667,0.0446014404296875,-0.2911529541015625,-0.9540252685546875,2657.071133541667,0.1495574273332173,0.02917191212619411,0.3273483880445751,-0.1692423820495605,0.04869863018393517,0.03492223098874092,-0.03057911805808544,-0.008056461811065674,0.0279010534286499,XArbitraryZVertical,0.1613966394557599,0.02652241804946729,0.07607270970613317,0.983595729188201,0.02761891484260559,-0.3215333521366119,-0.9464953541755676,0,0,0,-1,-1,2653.347029125,unknown,2,2022-06-02T10:45:09.069+02:00,2022-06-02T10:17:13.754+02:00,448,1.401249,0,0,345.1212,0,0,2022-06-02T10:45:11.626+02:00,675852311.6256452,0,7.441406,101.2925,1,0.82
2022-06-02T10:45:12.814+02:00,1654159511.14246,53.22907412977236,10.39845990821668,36.71472,0,20,-1,-1,2.400000095367432,11.99936978251625,-9999,2657.091122541667,0.0487213134765625,-0.2503814697265625,-0.96710205078125,2657.081128541667,0.1501335556845549,0.02936170582879269,0.3260735608849768,-0.08901841938495636,0.02579910680651665,0.06546369940042496,0.004690662026405334,0.007063001394271851,-0.002411246299743652,XArbitraryZVertical,0.1607545414758765,0.02661660240395439,0.07636992616806439,0.9836753088986029,0.02781056426465511,-0.3203259706497192,-0.9468990564346313,0,0,0,-1,-1,2653.347029125,unknown,2,2022-06-02T10:45:09.069+02:00,2022-06-02T10:17:13.754+02:00,448,1.401249,0,0,345.1212,0,0,2022-06-02T10:45:11.626+02:00,675852311.6256452,0,7.441406,101.2925,1,0.82
2022-06-02T10:45:12.823+02:00,1654159511.14246,53.22907412977236,10.39845990821668,36.71472,0,20,-1,-1,2.400000095367432,11.99936978251625,-9999,2657.101117541667,0.0488739013671875,-0.25830078125,-0.971527099609375,2657.091122541667,0.1508977074210924,0.02934411179931806,0.3256859970416611,0.001568735111504793,0.02582920156419277,0.07799679785966873,0.02206818014383316,0.05416595935821533,-0.01104521751403809,XArbitraryZVertical,0.1605543477840876,0.02665541523309209,0.07674391588305586,0.9836778596759584,0.02779754437506199,-0.3199588060379028,-0.9470235705375671,0,0,0,-1,-1,2653.347029125,unknown,2,2022-06-02T10:45:09.069+02:00,2022-06-02T10:17:13.754+02:00,448,1.401249,0,0,345.1212,0,0,2022-06-02T10:45:11.626+02:00,675852311.6256452,0,7.441406,101.2925,1,0.82
2022-06-02T10:45:12.833+02:00,1654159511.14246,53.22907412977236,10.39845990821668,36.71472,0,20,-1,-1,2.400000095367432,11.99936978251625,-9999,2657.111111541667,0.05322265625,-0.3021240234375,-0.970794677734375,2657.101117541667,0.1517005074408579,0.02938390887448564,0.326070460767343,0.0611037015914917,0.02973472513258457,0.07395943999290466,0.02131694555282593,0.07253554463386536,-0.02595514059066772,XArbitraryZVertical,0.1607312553401523,0.02675334839479744,0.07714236872061447,0.9836151395674623,0.02783161774277687,-0.3203230202198029,-0.9468994140625,0,0,0,-1,-1,2653.347029125,unknown,2,2022-06-02T10:45:09.069+02:00,2022-06-02T10:17:13.754+02:00,448,1.401249,0,0,345.1212,0,0,2022-06-02T10:45:11.626+02:00,675852311.6256452,0,7.441406,101.2925,1,0.82
2022-06-02T10:45:12.843+02:00,1654159511.14246,53.22907412977236,10.39845990821668,36.71472,0,20,-1,-1,2.400000095367432,11.99936978251625,-9999,2657.121106541667,0.0621337890625,-0.3373565673828125,-0.9710845947265625,2657.111111541667,0.1524085071481144,0.02946947490210502,0.326725224643914,0.05380131304264069,0.03105219267308712,0.0662195011973381,0.02174564823508263,0.0434773862361908,-0.02404642105102539,XArbitraryZVertical,0.1610405704722793,0.0268761322950549,0.07749813230579516,0.983533277346933,0.02790645323693752,-0.3209432065486908,-0.9466872215270996,0,0,0,-1,-1,2653.347029125,unknown,2,2022-06-02T10:45:09.069+02:00,2022-06-02T10:17:13.754+02:00,448,1.401249,0,0,345.1212,0,0,2022-06-02T10:45:11.626+02:00,675852311.6256452,0,7.441406,101.2925,1,0.82
2022-06-02T10:45:12.853+02:00,1654159511.14246,53.22907412977236,10.39845990821668,36.71472,0,20,-1,-1,2.400000095367432,11.99936978251625,-9999,2657.131101541667,0.0629425048828125,-0.34332275390625,-0.96612548828125,2657.121106541667,0.1530837191552975,0.02952070356584287,0.3271562690419847,0.02339623495936394,0.0228879377245903,0.06047113239765167,0.02969684451818466,-0.0005174875259399414,-0.02507126331329346,XArbitraryZVertical,0.1612415502686219,0.02697143796153595,0.07783475390719892,0.9834710745600097,0.02795086614787579,-0.3213514387607574,-0.9465473890304565,0,0,0,-1,-1,2653.347029125,unknown,2,2022-06-02T10:45:09.069+02:00,2022-06-02T10:17:13.754+02:00,448,1.401249,0,0,345.1212,0,0,2022-06-02T10:45:11.626+02:00,675852311.6256452,0,7.441406,101.2925,1,0.82
2022-06-02T10:45:12.863+02:00,1654159511.14246,53.22907412977236,10.39845990821668,36.71472,0,20,-1,-1,2.400000095367432,11.99936978251625,-9999,2657.141095541667,0.0576934814453125,-0.364898681640625,-0.9500732421875,2657.131101541667,0.1535875695140161,0.0295733066726143,0.3271639204080788,-0.03291710093617439,0.0189382042735815,0.03329597413539886,0.03555227816104889,-0.02127742767333984,-0.02341192960739136,XArbitraryZVertical,0.1612364604307666,0.02703820458438353,0.07808676115550262,0.9834500984437231,0.02800058387219906,-0.3213586807250977,-0.9465434551239014,0,0,0,-1,-1,2653.347029125,unknown,2,2022-06-02T10:45:09.069+02:00,2022-06-02T10:17:13.754+02:00,448,1.401249,0,0,345.1212,0,0,2022-06-02T10:45:11.626+02:00,675852311.6256452,0,7.441406,101.2925,1,0.82
2022-06-02T10:45:12.873+02:00,1654159511.14246,53.22907412977236,10.39845990821668,36.71472,0,20,-1,-1,2.400000095367432,11.99936978251625,-9999,2657.151090541667,0.0457000732421875,-0.3806304931640625,-0.961181640625,2657.141095541667,0.1537788998384331,0.02966603491410424,0.326559465601738,-0.08606468141078949,0.00852804072201252,-0.002259226515889168,0.03352088108658791,-0.02769401669502258,-0.01405000686645508,XArbitraryZVertical,0.1609328969668358,0.02707704660540888,0.07818768038205788,0.9834907863290805,0.02809411101043224,-0.3207862377166748,-0.9467348456382751,0,0,0,-1,-1,2653.347029125,unknown,2,2022-06-02T10:45:09.069+02:00,2022-06-02T10:17:13.754+02:00,448,1.401249,0,0,345.1212,0,0,2022-06-02T10:45:11.626+02:00,675852311.6256452,0,7.441406,101.2925,1,0.82
2022-06-02T10:45:12.883+02:00,1654159511.14246,53.22907412977236,10.39845990821668,36.71472,0,20,-1,-1,2.400000095367432,11.99936978251625,-9999,2657.161084541667,0.017486572265625,-0.3305816650390625,-0.977630615234375,2657.151090541667,0.1538227828118893,0.02950818776520097,0.3257732482382284,-0.09614421427249908,0.0005071323830634356,-0.00109835434705019,0.02522477693855762,-0.06216070055961609,-0.002075016498565674,XArbitraryZVertical,0.1605516918857214,0.02697409307632861,0.07819575214085445,0.9835553175334505,0.02795210480690002,-0.3200414478778839,-0.9469910860061646,0,0,0,-1,-1,2653.347029125,unknown,2,2022-06-02T10:45:09.069+02:00,2022-06-02T10:17:13.754+02:00,448,1.401249,0,0,345.1212,0,0,2022-06-02T10:45:11.626+02:00,675852311.6256452,0,7.441406,101.2925,1,0.82
2022-06-02T10:45:12.893+02:00,1654159511.14246,53.22907412977236,10.39845990821668,36.71472,0,20,-1,-1,2.400000095367432,11.99936978251625,-9999,2657.171079541667,-0.0060577392578125,-0.2982177734375,-0.9962310791015625,2657.161084541667,0.1540230227657711,0.02961262087779555,0.3245345663688864,-0.1209615468978882,0.02247474901378155,0.03318504989147186,0.006223786622285843,-0.04151439666748047,-0.02388399839401245,XArbitraryZVertical,0.1599355000882617,0.02699599151688383,0.07830130235523387,0.9836466575797592,0.0280627179890871,-0.3188676834106445,-0.9473837018013,0,0,0,-1,-1,2653.347029125,unknown,2,2022-06-02T10:45:09.069+02:00,2022-06-02T10:17:13.754+02:00,448,1.401249,0,0,345.1212,0,0,2022-06-02T10:45:11.626+02:00,675852311.6256452,0,7.441406,101.2925,1,0.82
2022-06-02T10:45:12.903+02:00,1654159511.14246,53.22907412977236,10.39845990821668,36.71472,0,20,-1,-1,2.400000095367432,11.99936978251625,-9999,2657.181074541667,0.0045318603515625,-0.293792724609375,-0.990936279296875,2657.171079541667,0.1542473454507315,0.03051555716980209,0.3223048758436003,-0.02282751724123955,0.06328742206096649,0.03743439167737961,-0.0269408468157053,0.008251398801803589,-0.04039806127548218,XArbitraryZVertical,0.1587999405546685,0.02737597321538117,0.0784809153864737,0.9838058154742614,0.02893975377082825,-0.3167535960674286,-0.9480662941932678,0,0,0,-1,-1,2653.347029125,unknown,2,2022-06-02T10:45:09.069+02:00,2022-06-02T10:17:13.754+02:00,448,1.401249,0,0,345.1212,0,0,2022-06-02T10:45:11.626+02:00,675852311.6256452,0,7.441406,101.2925,1,0.82
2022-06-02T10:45:12.913+02:00,1654159511.14246,53.22907412977236,10.39845990821668,36.71472,0,20,-1,-1,2.400000095367432,11.99936978251625,-9999,2657.191068541667,0.034210205078125,-0.3162841796875,-0.9730377197265625,2657.181074541667,0.1544655489471361,0.03170748997234452,0.3208603934485871,0.1213661432266235,0.0876028835773468,0.04093911126255989,-0.03531799837946892,0.02139204740524292,-0.04693490266799927,XArbitraryZVertical,0.158039242602274,0.02792643365706745,0.07868052872123706,0.983896852976056,0.03008423745632172,-0.3153831660747528,-0.948487401008606,0,0,0,-1,-1,2653.347029125,unknown,2,2022-06-02T10:45:09.069+02:00,2022-06-02T10:17:13.754+02:00,448,1.401249,0,0,345.1212,0,0,2022-06-02T10:45:11.626+02:00,675852311.6256452,0,7.441406,101.2925,1,0.82
2022-06-02T10:45:12.923+02:00,1654159511.14246,53.22907412977236,10.39845990821668,36.71472,0,20,-1,-1,2.400000095367432,11.99936978251625,-9999,2657.201063541667,0.0594024658203125,-0.353271484375,-0.9615020751953125,2657.191068541667,0.1546214732958248,0.0331946243733435,0.3207718702736524,0.1659613102674484,0.08836135268211365,0.04043284431099892,-0.01269682869315147,0.01462474465370178,-0.03416591882705688,XArbitraryZVertical,0.1579348987980867,0.02866708027632358,0.07887455015846566,0.983876741876661,0.03149566054344177,-0.3152991533279419,-0.9484695196151733,0,0,0,-1,-1,2653.347029125,unknown,2,2022-06-02T10:45:09.069+02:00,2022-06-02T10:17:13.754+02:00,448,1.401249,0,0,345.1212,0,0,2022-06-02T10:45:11.626+02:00,675852311.6256452,0,7.441406,101.2925,1,0.82
2022-06-02T10:45:12.933+02:00,1654159511.14246,53.22907412977236,10.39845990821668,36.71472,0,20,-1,-1,2.400000095367432,11.99936978251625,-9999,2657.211057541667,0.0675506591796875,-0.3783416748046875,-0.9508514404296875,2657.201063541667,0.1546212684012274,0.0348997922888998,0.3220645055778394,0.09380409121513367,0.07758180797100067,0.02568172663450241,0.01527170091867447,-0.01927459239959717,-0.01827174425125122,XArbitraryZVertical,0.1585037135777681,0.02955335529042988,0.07901218067120118,0.9837480571743742,0.03309866413474083,-0.3165255784988403,-0.9480063319206238,0,0,0,-1,-1,2653.347029125,unknown,2,2022-06-02T10:45:09.069+02:00,2022-06-02T10:17:13.754+02:00,448,1.401249,0,0,345.1212,0,0,2022-06-02T10:45:11.626+02:00,675852311.6256452,0,7.441406,101.2925,1,0.82
2022-06-02T10:45:12.943+02:00,1654159511.14246,53.22907412977236,10.39845990821668,36.71472,0,20,-1,-1,2.400000095367432,11.99936978251625,-9999,2657.221052541667,0.059600830078125,-0.38214111328125,-0.9497222900390625,2657.211057541667,0.1544533202485256,0.03650226034948748,0.3229264773266922,-0.02526877261698246,0.06286677718162537,0.002240050584077835,0.03129491209983826,-0.05077517032623291,-0.009031713008880615,XArbitraryZVertical,0.1588670531149686,0.03035980655572199,0.07905894719923631,0.9836611517277032,0.03460780158638954,-0.3173431158065796,-0.9476791024208069,0,0,0,-1,-1,2653.347029125,unknown,2,2022-06-02T10:45:09.069+02:00,2022-06-02T10:17:13.754+02:00,448,1.401249,0,0,345.1212,0,0,2022-06-02T10:45:11.626+02:00,675852311.6256452,0,7.441406,101.2925,1,0.82
2022-06-02T10:45:12.953+02:00,1654159511.14246,53.22907412977236,10.39845990821668,36.71472,0,20,-1,-1,2.400000095367432,11.99936978251625,-9999,2657.231046541667,0.043975830078125,-0.3494720458984375,-0.953857421875,2657.221052541667,0.1541449252506224,0.0378123147192223,0.322888183850233,-0.1068677976727486,0.049317616969347,-0.02067585103213787,0.03025133535265923,-0.06607028841972351,0.0001658201217651367,XArbitraryZVertical,0.1588011720515117,0.03097823965947956,0.07901119872659788,0.9836563278441601,0.03584974259138107,-0.3173068165779114,-0.9476450681686401,0,0,0,-1,-1,2653.347029125,unknown,2,2022-06-02T10:45:09.069+02:00,2022-06-02T10:17:13.754+02:00,448,1.401249,0,0,345.1212,0,0,2022-06-02T10:45:11.626+02:00,675852311.6256452,0,7.441406,101.2925,1,0.82
2022-06-02T10:45:12.963+02:00,1654159511.14246,53.22907412977236,10.39845990821668,36.71472,0,20,-1,-1,2.400000095367432,11.99936978251625,-9999,2657.241041541667,0.0251617431640625,-0.32257080078125,-0.9652862548828125,2657.231046541667,0.1538399786528346,0.03876743682077548,0.3228899357414239,-0.170056626200676,0.04415800794959068,-0.01958635076880455,0.01437738537788391,-0.0527324378490448,-0.005240499973297119,XArbitraryZVertical,0.1587690713581527,0.0314238463651331,0.07893705009993671,0.983653360290635,0.03675482049584389,-0.3173084855079651,-0.9476098418235779,0,0,0,-1,-1,2653.347029125,unknown,2,2022-06-02T10:45:09.069+02:00,2022-06-02T10:17:13.754+02:00,448,1.401249,0,0,345.1212,0,0,2022-06-02T10:45:11.626+02:00,675852311.6256452,0,7.441406,101.2925,1,0.82
2022-06-02T10:45:12.973+02:00,1654159511.14246,53.22907412977236,10.39845990821668,36.71472,0,20,-1,-1,2.400000095367432,11.99936978251625,-9999,2657.251036541667,0.0205230712890625,-0.2818756103515625,-0.96917724609375,2657.241041541667,0.1537412057585914,0.03923690436888035,0.3219950052293474,-0.1366534531116486,0.05757088586688042,-0.01420157309621572,-0.002573356032371521,-0.01711273193359375,-0.006057858467102051,XArbitraryZVertical,0.1583117379002313,0.03161440279779324,0.0789226242053824,0.9837220027290002,0.03721081092953682,-0.3164596557617188,-0.9478758573532104,0,0,0,-1,-1,2653.347029125,unknown,2,2022-06-02T10:45:09.069+02:00,2022-06-02T10:17:13.754+02:00,448,1.401249,0,0,345.1212,0,0,2022-06-02T10:45:11.626+02:00,675852311.6256452,0,7.441406,101.2925,1,0.82
2022-06-02T10:45:12.983+02:00,1654159511.14246,53.22907412977236,10.39845990821668,36.71472,0,20,-1,-1,2.400000095367432,11.99936978251625,-9999,2657.261030541667,0.026947021484375,-0.254486083984375,-0.9362335205078125,2657.251036541667,0.1539733555782182,0.03877781764488796,0.3208019739385191,0.001797900069504976,0.04573739320039749,-0.0074030552059412,-0.01599252596497536,0.009083807468414307,-0.03178733587265015,XArbitraryZVertical,0.1577390766601499,0.03136353525327405,0.07899641977731608,0.9838161666124283,0.03679026290774345,-0.3153277337551117,-0.9482694268226624,0,0,0,-1,-1,2653.347029125,unknown,2,2022-06-02T10:45:09.069+02:00,2022-06-02T10:17:13.754+02:00,448,1.401249,0,0,345.1212,0,0,2022-06-02T10:45:11.626+02:00,675852311.6256452,0,7.441406,101.2925,1,0.82
2022-06-02T10:45:12.993+02:00,1654159511.14246,53.22907412977236,10.39845990821668,36.71472,0,20,-1,-1,2.400000095367432,11.99936978251625,-9999,2657.271025541667,0.0357818603515625,-0.267547607421875,-0.930816650390625,2657.261030541667,0.1542765998329762,0.03794881957253278,0.3207409382904588,0.1836975961923599,0.0396822988986969,-0.004781040363013744,-0.01223166659474373,0.05248290300369263,0.0009158849716186523,XArbitraryZVertical,0.1577370787052907,0.03097743600789659,0.0790800081978333,0.9838219708182456,0.03600486367940903,-0.31526979804039,-0.9483188390731812,0,0,0,-1,-1,2653.347029125,unknown,2,2022-06-02T10:45:09.069+02:00,2022-06-02T10:17:13.754+02:00,448,1.401249,0,0,345.1212,0,0,2022-06-02T10:45:11.626+02:00,675852311.6256452,0,7.441406,101.2925,1,0.82
2022-06-02T10:45:13.003+02:00,1654159511.14246,53.22907412977236,10.39845990821668,36.71472,0,20,-1,-1,2.400000095367432,11.99936978251625,-9999,2657.281019541667,0.0399322509765625,-0.313720703125,-0.939239501953125,2657.271025541667,0.1544120449109131,0.03780250829447012,0.322649597438672,0.3020103871822357,0.02545329555869102,0.01680468022823334,-0.003906659781932831,0.05937486886978149,0.01551586389541626,XArbitraryZVertical,0.1586800351999794,0.03098591197987861,0.07914106311031688,0.983665111983464,0.03584330901503563,-0.317080557346344,-0.9477210640907288,0,0,0,-1,-1,2653.347029125,unknown,2,2022-06-02T10:45:09.069+02:00,2022-06-02T10:17:13.754+02:00,448,1.401249,0,0,345.1212,0,0,2022-06-02T10:45:11.626+02:00,675852311.6256452,0,7.441406,101.2925,1,0.82
2022-06-02T10:45:13.017+02:00,1654159511.14246,53.22907412977236,10.39845990821668,36.71472,0,20,-1,-1,2.400000095367432,11.99936978251625,-9999,2657.291014541667,0.0422821044921875,-0.378814697265625,-0.9497222900390625,2657.281019541667,0.1544278108541875,0.03825846987990483,0.3257229980299982,0.2484160661697388,0.01920352317392826,0.0188788827508688,0.00232098251581192,0.03408992290496826,0.01403284072875977,XArbitraryZVertical,0.1601738586187462,0.03132364662775707,0.07919478106802069,0.9834080167416488,0.03623798489570618,-0.3199938535690308,-0.9467263221740723,0,0,0,-1,-1,2653.347029125,unknown,2,2022-06-02T10:45:09.069+02:00,2022-06-02T10:17:13.754+02:00,448,1.401249,0,0,345.1212,0,0,2022-06-02T10:45:11.626+02:00,675852311.6256452,0,7.441406,101.2925,1,0.82
2022-06-02T10:45:13.023+02:00,1654159511.14246,53.22907412977236,10.39845990821668,36.71472,0,20,-1,-1,2.400000095367432,11.99936978251625,-9999,2657.301009541667,0.0475921630859375,-0.3965911865234375,-0.95330810546875,2657.291014541667,0.1542764898211608,0.03920263862858302,0.3282394450601571,0.06751792132854462,0.04037804901599884,0.005038700997829437,0.003366153687238693,-0.02634739875793457,-0.001061081886291504,XArbitraryZVertical,0.1613766805922383,0.03186742497136114,0.07920446317392582,0.9831931162547067,0.03710015863180161,-0.3223769664764404,-0.9458840489387512,0,0,0,-1,-1,2653.347029125,unknown,2,2022-06-02T10:45:09.069+02:00,2022-06-02T10:17:13.754+02:00,448,1.401249,0,0,345.1212,0,0,2022-06-02T10:45:11.626+02:00,675852311.6256452,0,7.441406,101.2925,1,0.82
2022-06-02T10:45:13.033+02:00,1654159511.14246,53.22907412977236,10.39845990821668,36.71472,0,20,-1,-1,2.400000095367432,11.99936978251625,-9999,2657.311003541667,0.042572021484375,-0.3549652099609375,-0.9766845703125,2657.301009541667,0.1541028285020242,0.04019114279524798,0.3288736213458721,-0.1365548819303513,0.04562028124928474,-0.005304284393787384,0.006254076957702637,-0.072683185338974,-0.004995346069335938,XArbitraryZVertical,0.1616522369048108,0.03236239490047023,0.07920112369684294,0.9831319106987764,0.03802692890167236,-0.322977215051651,-0.9456424713134766,0,0,0,-1,-1,2653.347029125,unknown,2,2022-06-02T10:45:09.069+02:00,2022-06-02T10:17:13.754+02:00,448,1.401249,0,0,345.1212,0,0,2022-06-02T10:45:11.626+02:00,675852311.6256452,0,7.441406,101.2925,1,0.82
2022-06-02T10:45:13.043+02:00,1654159511.14246,53.22907412977236,10.39845990821668,36.71472,0,20,-1,-1,2.400000095367432,11.99936978251625,-9999,2657.320998541667,0.0244140625,-0.2735137939453125,-0.979400634765625,2657.311003541667,0.1540224053771953,0.04090129219171819,0.3278077536708482,-0.2120973020792007,0.04722004011273384,-0.006285392679274082,0.0079946368932724,-0.06198862195014954,-0.01604694128036499,XArbitraryZVertical,0.1611011800786218,0.03266631237287566,0.07921496311991358,0.9832112090081963,0.0387125201523304,-0.321968287229538,-0.9459586143493652,0,0,0,-1,-1,2653.347029125,unknown,2,2022-06-02T10:45:09.069+02:00,2022-06-02T10:17:13.754+02:00,448,1.401249,0,0,345.1212,0,0,2022-06-02T10:45:11.626+02:00,675852311.6256452,0,7.441406,101.2925,1,0.82
2022-06-02T10:45:13.053+02:00,1654159511.14246,53.22907412977236,10.39845990821668,36.71472,0,20,-1,-1,2.400000095367432,11.99936978251625,-9999,2657.330992541667,0.0113983154296875,-0.2307281494140625,-0.9560699462890625,2657.320998541667,0.1540921890011464,0.04128181181603328,0.3261431425638639,-0.1413940191268921,0.04828524217009544,-0.005089567042887211,-0.003633115440607071,0.00706791877746582,-0.04006367921829224,XArbitraryZVertical,0.1602661471497055,0.03279859070689676,0.07927344399512117,0.9833385527397233,0.03909453749656677,-0.3203918635845184,-0.946478009223938,0,0,0,-1,-1,2653.347029125,unknown,2,2022-06-02T10:45:09.069+02:00,2022-06-02T10:17:13.754+02:00,448,1.401249,0,0,345.1212,0,0,2022-06-02T10:45:11.626+02:00,675852311.6256452,0,7.441406,101.2925,1,0.82
2022-06-02T10:45:13.063+02:00,1654159511.14246,53.22907412977236,10.39845990821668,36.71472,0,20,-1,-1,2.400000095367432,11.99936978251625,-9999,2657.340987541667,0.0175933837890625,-0.249664306640625,-0.9404296875,2657.330992541667,0.1541230933985961,0.04145209858168759,0.3252489680053241,0.0428386777639389,0.03925712779164314,-0.01161164883524179,-0.02457335591316223,0.07607546448707581,-0.01646906137466431,XArbitraryZVertical,0.1598190018467876,0.03285233191267199,0.07929874553686264,0.9834075098077013,0.03926756605505943,-0.3195447027683258,-0.9467571973800659,0,0,0,-1,-1,2653.347029125,unknown,2,2022-06-02T10:45:09.069+02:00,2022-06-02T10:17:13.754+02:00,448,1.401249,0,0,345.1212,0,0,2022-06-02T10:45:11.626+02:00,675852311.6256452,0,7.441406,101.2925,1,0.82
2022-06-02T10:45:13.073+02:00,1654159511.14246,53.22907412977236,10.39845990821668,36.71472,0,20,-1,-1,2.400000095367432,11.99936978251625,-9999,2657.350982541667,0.03564453125,-0.2972869873046875,-0.9196319580078125,2657.340987541667,0.1541020871157893,0.04159973717576277,0.3258853759508288,0.2053770571947098,0.02796865068376064,0.00703966710716486,-0.02725287526845932,0.08587947487831116,-0.007385671138763428,XArbitraryZVertical,0.1601265882292157,0.03294634829437892,0.07930276455293619,0.9833539146685444,0.03939887881278992,-0.320147693157196,-0.9465480446815491,0,0,0,-1,-1,2653.347029125,unknown,2,2022-06-02T10:45:09.069+02:00,2022-06-02T10:17:13.754+02:00,448,1.401249,0,0,345.1212,0,0,2022-06-02T10:45:11.626+02:00,675852311.6256452,0,7.441406,101.2925,1,0.82
2022-06-02T10:45:13.083+02:00,1654159511.14246,53.22907412977236,10.39845990821668,36.71472,0,20,-1,-1,2.400000095367432,11.99936978251625,-9999,2657.360976541667,0.0462188720703125,-0.3574371337890625,-0.91876220703125,2657.350982541667,0.1541910267931976,0.04168554622986936,0.3274595258399982,0.2216084897518158,0.009489242918789387,0.02141328155994415,-0.01293927431106567,0.051298588514328,0.01835137605667114,XArbitraryZVertical,0.1608960502080563,0.03305280053470257,0.07935964712862818,0.9832201336861819,0.03945904970169067,-0.3216385841369629,-0.9460399746894836,0,0,0,-1,-1,2653.347029125,unknown,2,2022-06-02T10:45:09.069+02:00,2022-06-02T10:17:13.754+02:00,448,1.401249,0,0,345.1212,0,0,2022-06-02T10:45:11.626+02:00,675852311.6256452,0,7.441406,101.2925,1,0.82
2022-06-02T10:45:13.093+02:00,1654159511.14246,53.22907412977236,10.39845990821668,36.71472,0,20,-1,-1,2.400000095367432,11.99936978251625,-9999,2657.370971541667,0.039276123046875,-0.3757171630859375,-0.9336700439453125,2657.360976541667,0.1543349969252931,0.04163124802963394,0.3289846099835644,0.1492154449224472,-0.008949819020926952,0.01746208034455776,0.004313953220844269,-0.005271613597869873,0.02938270568847656,XArbitraryZVertical,0.1616459091825251,0.03309308175029181,0.07943205875445919,0.9830900080975757,0.03938722237944603,-0.3230822682380676,-0.9455509185791016,0,0,0,-1,-1,2653.347029125,unknown,2,2022-06-02T10:45:09.069+02:00,2022-06-02T10:17:13.754+02:00,448,1.401249,0,0,345.1212,0,0,2022-06-02T10:45:11.626+02:00,675852311.6256452,0,7.441406,101.2925,1,0.82
2022-06-02T10:45:13.103+02:00,1654159511.14246,53.22907412977236,10.39845990821668,36.71472,0,20,-1,-1,2.400000095367432,11.99936978251625,-9999,2657.380965541667,0.021087646484375,-0.3472747802734375,-0.955352783203125,2657.370971541667,0.1544700701300207,0.04143270071608306,0.3302338558137333,0.04453803971409798,-0.01985732838511467,0.01907169632613659,0.005830693989992142,-0.05160549283027649,0.02208954095840454,XArbitraryZVertical,0.1622659209977538,0.03305181973636121,0.07948722693294975,0.9829847822660104,0.03918273374438286,-0.324264258146286,-0.9451546669006348,0,0,0,-1,-1,2653.347029125,unknown,2,2022-06-02T10:45:09.069+02:00,2022-06-02T10:17:13.754+02:00,448,1.401249,0,0,345.1212,0,0,2022-06-02T10:45:11.626+02:00,675852311.6256452,0,7.441406,101.2925,1,0.82
2022-06-02T10:45:13.113+02:00,1654159511.14246,53.22907412977236,10.39845990821668,36.71472,0,20,-1,-1,2.400000095367432,11.99936978251625,-9999,2657.390960541667,0.006134033203125,-0.306365966796875,-0.9689483642578125,2657.380965541667,0.154654831349326,0.04132205102597717,0.3309152418864087,-0.05195274576544762,0.004314720630645752,0.02167107537388802,-0.007315471768379211,-0.03919649124145508,-0.001000046730041504,XArbitraryZVertical,0.1626023386026606,0.03303722860229415,0.07957165360251434,0.9829228135930045,0.03906901925802231,-0.3249087631702423,-0.944938063621521,0,0,0,-1,-1,2653.347029125,unknown,2,2022-06-02T10:45:09.069+02:00,2022-06-02T10:17:13.754+02:00,448,1.401249,0,0,345.1212,0,0,2022-06-02T10:45:11.626+02:00,675852311.6256452,0,7.441406,101.2925,1,0.82
2022-06-02T10:45:13.123+02:00,1654159511.14246,53.22907412977236,10.39845990821668,36.71472,0,20,-1,-1,2.400000095367432,11.99936978251625,-9999,2657.400954541667,0.0141143798828125,-0.2822723388671875,-0.9649658203125,2657.390960541667,0.1549243564662225,0.04150560410634625,0.3308334663945441,-0.07583330571651459,0.02827597968280315,0.02989784628152847,-0.02869973331689835,-0.001645654439926147,-0.018451988697052,XArbitraryZVertical,0.1625503495349478,0.0331463649007479,0.0797187180864426,0.98291587723387,0.03924356400966644,-0.3248313963413239,-0.9449573755264282,0,0,0,-1,-1,2653.347029125,unknown,2,2022-06-02T10:45:09.069+02:00,2022-06-02T10:17:13.754+02:00,448,1.401249,0,0,345.1212,0,0,2022-06-02T10:45:11.626+02:00,675852311.6256452,0,7.441406,101.2925,1,0.82
2022-06-02T10:45:13.133+02:00,1654159511.14246,53.22907412977236,10.39845990821668,36.71472,0,20,-1,-1,2.400000095367432,11.99936978251625,-9999,2657.410949541667,0.03375244140625,-0.2725830078125,-0.9600677490234375,2657.400954541667,0.1553084304379579,0.04163572898290713,0.3300424563725415,-0.01676533184945583,0.0356697142124176,0.03218762949109077,-0.03020668029785156,0.03221306204795837,-0.02282410860061646,XArbitraryZVertical,0.1621498126995409,0.03321262056129048,0.07991499417223474,0.9829638886554339,0.03937720879912376,-0.3240831792354584,-0.945208728313446,0,0,0,-1,-1,2653.347029125,unknown,2,2022-06-02T10:45:09.069+02:00,2022-06-02T10:17:13.754+02:00,448,1.401249,0,0,345.1212,0,0,2022-06-02T10:45:11.626+02:00,675852311.6256452,0,7.441406,101.2925,1,0.82
2022-06-02T10:45:13.143+02:00,1654159511.14246,53.22907412977236,10.39845990821668,36.71472,0,20,-1,-1,2.400000095367432,11.99936978251625,-9999,2657.420944541667,0.049285888671875,-0.2700653076171875,-0.9464111328125,2657.410949541667,0.1557376187160905,0.04147977896357753,0.3294674019009267,0.09799666702747345,0.02170116640627384,0.03662978112697601,-0.01619675010442734,0.04866728186607361,-0.0215638279914856,XArbitraryZVertical,0.1618661518809667,0.03314969028822032,0.08011109704333673,0.9829967608931875,0.03923752531409264,-0.3235391080379486,-0.9454008936882019,0,0,0,-1,-1,2653.347029125,unknown,2,2022-06-02T10:45:09.069+02:00,2022-06-02T10:17:13.754+02:00,448,1.401249,0,0,345.1212,0,0,2022-06-02T10:45:11.626+02:00,675852311.6256452,0,7.441406,101.2925,1,0.82
2022-06-02T10:45:13.153+02:00,1654159511.14246,53.22907412977236,10.39845990821668,36.71472,0,20,-1,-1,2.400000095367432,11.99936978251625,-9999,2657.430938541667,0.057525634765625,-0.3038177490234375,-0.9377593994140625,2657.420944541667,0.1562955829122652,0.04110719336384683,0.3297813918406372,0.1686852127313614,0.002384461462497711,0.05694491043686867,0.003187380731105804,0.05383190512657166,-0.006269931793212891,XArbitraryZVertical,0.1620262789252851,0.03302328709674949,0.08035634398333444,0.9829545829113782,0.03888110443949699,-0.3238362073898315,-0.9453138709068298,0,0,0,-1,-1,2653.347029125,unknown,2,2022-06-02T10:45:09.069+02:00,2022-06-02T10:17:13.754+02:00,448,1.401249,0,0,345.1212,0,0,2022-06-02T10:45:11.626+02:00,675852311.6256452,0,7.441406,101.2925,1,0.82
2022-06-02T10:45:13.163+02:00,1654159511.14246,53.22907412977236,10.39845990821668,36.71472,0,20,-1,-1,2.400000095367432,11.99936978251625,-9999,2657.440933041667,0.0567626953125,-0.3624725341796875,-0.9207305908203125,2657.430938541667,0.1568625317100626,0.04068914712326417,0.331024400959221,0.1918805539608002,-0.02278560772538185,0.05046357586979866,0.01653842255473137,0.0439755916595459,0.0036429762840271,XArbitraryZVertical,0.1626449575885427,0.03290970978739018,0.08060554306459586,0.9828358024918982,0.03846951201558113,-0.3250119984149933,-0.9449271559715271,0,0,0,-1,-1,2653.347029125,unknown,2,2022-06-02T10:45:09.069+02:00,2022-06-02T10:17:13.754+02:00,448,1.401249,0,0,345.1212,0,0,2022-06-02T10:45:11.626+02:00,675852311.6256452,0,7.441406,101.2925,1,0.82
2022-06-02T10:45:13.173+02:00,1654159511.14246,53.22907412977236,10.39845990821668,36.71472,0,20,-1,-1,2.400000095367432,11.99936978251625,-9999,2657.450927041667,0.046966552734375,-0.4016571044921875,-0.924957275390625,2657.440933041667,0.1571789111724521,0.04030930973413403,0.3329720620865548,0.158254474401474,-0.04735766351222992,0.02835494093596935,0.02029511705040932,-0.005986660718917847,0.01368916034698486,XArbitraryZVertical,0.1636126330319803,0.03282093910901081,0.08073679735363787,0.9826673182221748,0.03808500990271568,-0.3268532752990723,-0.9443073868751526,0,0,0,-1,-1,2653.347029125,unknown,2,2022-06-02T10:45:09.069+02:00,2022-06-02T10:17:13.754+02:00,448,1.401249,0,0,345.1212,0,0,2022-06-02T10:45:11.626+02:00,675852311.6256452,0,7.441406,101.2925,1,0.82
2022-06-02T10:45:13.183+02:00,1654159511.14246,53.22907412977236,10.39845990821668,36.71472,0,20,-1,-1,2.400000095367432,11.99936978251625,-9999,2657.460922041667,0.028350830078125,-0.3879547119140625,-0.9438018798828125,2657.450927041667,0.1574095291432347,0.03976616809750367,0.3347749315364703,0.07560861110687256,-0.06199333071708679,0.03267325460910797,0.01669637858867645,-0.0586046576499939,0.02294600009918213,XArbitraryZVertical,0.1645170081518971,0.03263984840972091,0.08081151661238992,0.9825162057678358,0.03754862397909164,-0.3285565972328186,-0.9437375664710999,0,0,0,-1,-1,2653.347029125,unknown,2,2022-06-02T10:45:09.069+02:00,2022-06-02T10:17:13.754+02:00,448,1.401249,0,0,345.1212,0,0,2022-06-02T10:45:11.626+02:00,675852311.6256452,0,7.441406,101.2925,1,0.82
2022-06-02T10:45:13.193+02:00,1654159511.14246,53.22907412977236,10.39845990821668,36.71472,0,20,-1,-1,2.400000095367432,11.99936978251625,-9999,2657.470917041667,0.0033111572265625,-0.327392578125,-0.962005615234375,2657.460922041667,0.1577867530460426,0.03898003544249993,0.3354441571484759,-0.01227480825036764,-0.05521298572421074,0.03668218106031418,0.002691611647605896,-0.07344505190849304,0.01100605726242065,XArbitraryZVertical,0.1648715860318901,0.03230959596107185,0.0809341662567211,0.9824576550628419,0.03679813072085381,-0.3291886150836945,-0.9435468912124634,0,0,0,-1,-1,2653.347029125,unknown,2,2022-06-02T10:45:09.069+02:00,2022-06-02T10:17:13.754+02:00,448,1.401249,0,0,345.1212,0,0,2022-06-02T10:45:11.626+02:00,675852311.6256452,0,7.441406,101.2925,1,0.82
2022-06-02T10:45:13.203+02:00,1654159511.14246,53.22907412977236,10.39845990821668,36.71472,0,20,-1,-1,2.400000095367432,11.99936978251625,-9999,2657.480911041667,-0.0110931396484375,-0.2930145263671875,-0.9557952880859375,2657.470917041667,0.1583484594766091,0.03808902819217352,0.3350639117424452,-0.03332017362117767,-0.02403642609715462,0.04671484231948853,-0.02027613297104836,-0.02996563911437988,-0.01268601417541504,XArbitraryZVertical,0.1647117750286781,0.03190399322489283,0.08113557954872282,0.9824811556249651,0.03596217185258865,-0.3288295269012451,-0.9437043070793152,0,0,0,-1,-1,2653.347029125,unknown,2,2022-06-02T10:45:09.069+02:00,2022-06-02T10:17:13.754+02:00,448,1.401249,0,0,345.1212,0,0,2022-06-02T10:45:11.626+02:00,675852311.6256452,0,7.441406,101.2925,1,0.82
2022-06-02T10:45:13.213+02:00,1654159511.14246,53.22907412977236,10.39845990821668,36.71472,0,20,-1,-1,2.400000095367432,11.99936978251625,-9999,2657.490906041667,-0.011199951171875,-0.2974853515625,-0.95556640625,2657.480911041667,0.1588845497867957,0.03743773752834211,0.3344758185479298,0.02046226523816586,-0.009153816848993301,0.03019838221371174,-0.04139725118875504,0.02454787492752075,-0.01515531539916992,XArbitraryZVertical,0.1644406866698242,0.03160612196327591,0.08134377238847999,0.9825188842359787,0.03535477072000504,-0.3282740712165833,-0.9439206123352051,0,0,0,-1,-1,2653.347029125,unknown,2,2022-06-02T10:45:09.069+02:00,2022-06-02T10:17:13.754+02:00,448,1.401249,0,0,345.1212,0,0,2022-06-02T10:45:11.626+02:00,675852311.6256452,0,7.441406,101.2925,1,0.82
2022-06-02T10:45:13.223+02:00,1654159511.14246,53.22907412977236,10.39845990821668,36.71472,0,20,-1,-1,2.400000095367432,11.99936978251625,-9999,2657.500900041667,-0.0040283203125,-0.303497314453125,-0.946319580078125,2657.490906041667,0.1591510967253013,0.03715522308902879,0.3342459922384431,0.07623738050460815,0.003942010924220085,0.01331181079149246,-0.04755732789635658,0.03565281629562378,-0.01301002502441406,XArbitraryZVertical,0.1643350185538255,0.03148059878927451,0.08145090798824368,0.982531720602395,0.03509090095758438,-0.3280569911003113,-0.9440059661865234,0,0,0,-1,-1,2653.347029125,unknown,2,2022-06-02T10:45:09.069+02:00,2022-06-02T10:17:13.754+02:00,448,1.401249,0,0,345.1212,0,0,2022-06-02T10:45:11.626+02:00,675852311.6256452,0,7.441406,101.2925,1,0.82
2022-06-02T10:45:13.233+02:00,1654159511.14246,53.22907412977236,10.39845990821668,36.71472,0,20,-1,-1,2.400000095367432,11.99936978251625,-9999,2657.510895041667,0.00299072265625,-0.305755615234375,-0.9404449462890625,2657.500900041667,0.1592903439579377,0.03726137945214084,0.3340413447614647,0.06285399198532104,0.0051584099419415,0.02585623040795326,-0.04320447519421577,0.0254649817943573,-0.006827890872955322,XArbitraryZVertical,0.1642279133386194,0.03153648110078984,0.08152751795777152,0.9825414767502998,0.03519361466169357,-0.3278636634349823,-0.9440692663192749,0,0,0,-1,-1,2653.347029125,unknown,2,2022-06-02T10:45:09.069+02:00,2022-06-02T10:17:13.754+02:00,448,1.401249,0,0,345.1212,0,0,2022-06-02T10:45:11.626+02:00,675852311.6256452,0,7.441406,101.2925,1,0.82
2022-06-02T10:45:13.243+02:00,1654159511.14246,53.22907412977236,10.39845990821668,36.71472,0,20,-1,-1,2.400000095367432,11.99936978251625,-9999,2657.520890041667,0.016998291015625,-0.3217620849609375,-0.93255615234375,2657.510895041667,0.1594611125039231,0.03765665734539134,0.3337133338433723,0.02755885757505894,0.01479852106422186,0.02847545221447945,-0.03706618398427963,0.02388858795166016,0.001642584800720215,XArbitraryZVertical,0.164047862852182,0.03173232275932811,0.08164300172743801,0.9825556624663936,0.03557082638144493,-0.3275537490844727,-0.9441627264022827,0,0,0,-1,-1,2653.347029125,unknown,2,2022-06-02T10:45:09.069+02:00,2022-06-02T10:17:13.754+02:00,448,1.401249,0,0,345.1212,0,0,2022-06-02T10:45:11.626+02:00,675852311.6256452,0,7.441406,101.2925,1,0.82
2022-06-02T10:45:13.253+02:00,1654159511.14246,53.22907412977236,10.39845990821668,36.71472,0,20,-1,-1,2.400000095367432,11.99936978251625,-9999,2657.530884041667,0.0384368896484375,-0.3244781494140625,-0.9302215576171875,2657.520890041667,0.159418655284423,0.03827518349003084,0.3341514467011192,0.03105522133409977,0.02387410774827003,-0.005812016781419516,-0.02618532627820969,0.01684096455574036,0.007260024547576904,XArbitraryZVertical,0.1642386143905127,0.0320492053640824,0.08167408951037455,0.9825109977479918,0.03614931553602219,-0.3279676735401154,-0.9439970254898071,0,0,0,-1,-1,2653.347029125,unknown,2,2022-06-02T10:45:09.069+02:00,2022-06-02T10:17:13.754+02:00,448,1.401249,0,0,345.1212,0,0,2022-06-02T10:45:11.626+02:00,675852311.6256452,0,7.441406,101.2925,1,0.82
2022-06-02T10:45:13.263+02:00,1654159511.14246,53.22907412977236,10.39845990821668,36.71472,0,20,-1,-1,2.400000095367432,11.99936978251625,-9999,2657.540879041667,0.0528564453125,-0.3175201416015625,-0.93878173828125,2657.530884041667,0.1591409499592688,0.03889664706120671,0.3357092401808087,0.02869752421975136,0.008803012780845165,-0.01303930301219225,-0.01106602698564529,0.002336233854293823,0.01157796382904053,XArbitraryZVertical,0.1649833455068969,0.03239021701537624,0.08159326680027915,0.9823817447581416,0.03671605512499809,-0.3294388949871063,-0.9434627294540405,0,0,0,-1,-1,2653.347029125,unknown,2,2022-06-02T10:45:09.069+02:00,2022-06-02T10:17:13.754+02:00,448,1.401249,0,0,345.1212,0,0,2022-06-02T10:45:11.626+02:00,675852311.6256452,0,7.441406,101.2925,1,0.82
2022-06-02T10:45:13.273+02:00,1654159511.14246,53.22907412977236,10.39845990821668,36.71472,0,20,-1,-1,2.400000095367432,11.99936978251625,-9999,2657.550873041667,0.0538787841796875,-0.317352294921875,-0.96142578125,2657.540879041667,0.1590082191104559,0.03903568930917774,0.3373962035418966,0.01034777890890837,-0.002663027960807085,-0.01152682676911354,0.01197211444377899,0.012015700340271,0.01148921251296997,XArbitraryZVertical,0.1658088292203509,0.03251084716129386,0.08154450139216357,0.9822428125935481,0.03682549670338631,-0.3310312330722809,-0.9429009556770325,0,0,0,-1,-1,2653.347029125,unknown,2,2022-06-02T10:45:09.069+02:00,2022-06-02T10:17:13.754+02:00,448,1.401249,0,0,345.1212,0,0,2022-06-02T10:45:11.626+02:00,675852311.6256452,0,7.441406,101.2925,1,0.82
2022-06-02T10:45:13.283+02:00,1654159511.14246,53.22907412977236,10.39845990821668,36.71472,0,20,-1,-1,2.400000095367432,11.99936978251625,-9999,2657.560868041667,0.05133056640625,-0.3101959228515625,-0.970733642578125,2657.550873041667,0.1590084727128966,0.03858006831106748,0.3378864090050437,-0.001946437638252974,-0.005601559765636921,-0.02006731927394867,0.01707717776298523,0.01343956589698792,-0.005990326404571533,XArbitraryZVertical,0.1660682830026487,0.03230550057661997,0.08150823312632764,0.9822086930817049,0.03638962283730507,-0.3314937651157379,-0.9427553415298462,0,0,0,-1,-1,2653.347029125,unknown,2,2022-06-02T10:45:09.069+02:00,2022-06-02T10:17:13.754+02:00,448,1.401249,0,0,345.1212,0,0,2022-06-02T10:45:11.626+02:00,675852311.6256452,0,7.441406,101.2925,1,0.82
2022-06-02T10:45:13.293+02:00,1654159511.14246,53.22907412977236,10.39845990821668,36.71472,0,20,-1,-1,2.400000095367432,11.99936978251625,-9999,2657.570862041667,0.041839599609375,-0.316802978515625,-0.960479736328125,2657.560868041667,0.1590891260794651,0.0376007045133225,0.3369736217431922,-0.04641756787896156,-0.008383364416658878,-0.02640124782919884,0.017836544662714,0.01741528511047363,-0.02719855308532715,XArbitraryZVertical,0.1656583678330056,0.03179691783441606,0.08146417032533278,0.9822981545524975,0.035477664321661,-0.3306324481964111,-0.9430925250053406,0,0,0,-1,-1,2653.347029125,unknown,2,2022-06-02T10:45:09.069+02:00,2022-06-02T10:17:13.754+02:00,448,1.401249,0,0,345.1212,0,0,2022-06-02T10:45:11.626+02:00,675852311.6256452,0,7.441406,101.2925,1,0.82
2022-06-02T10:45:13.303+02:00,1654159511.14246,53.22907412977236,10.39845990821668,36.71472,0,20,-1,-1,2.400000095367432,11.99936978251625,-9999,2657.580857041667,0.03582763671875,-0.3209686279296875,-0.9472808837890625,2657.570862041667,0.159177776847169,0.03647889428748041,0.3353753886079069,-0.08405309170484543,0.00546374125406146,-0.03585946559906006,0.01312274485826492,0.01592177152633667,-0.02297037839889526,XArbitraryZVertical,0.16491722125359,0.03119308230911008,0.08141108084274062,0.9824466481369013,0.03443890064954758,-0.3291236758232117,-0.9436585903167725,0,0,0,-1,-1,2653.347029125,unknown,2,2022-06-02T10:45:09.069+02:00,2022-06-02T10:17:13.754+02:00,448,1.401249,0,0,345.1212,0,0,2022-06-02T10:45:11.626+02:00,675852311.6256452,0,7.441406,101.2925,1,0.82
2022-06-02T10:45:13.313+02:00,1654159511.14246,53.22907412977236,10.39845990821668,36.71472,0,20,-1,-1,2.400000095367432,11.99936978251625,-9999,2657.590852041667,0.035186767578125,-0.32012939453125,-0.9425506591796875,2657.580857041667,0.1591852293226777,0.03553965169808228,0.3335216496441446,-0.1407808810472488,0.02649245969951153,-0.04701264947652817,0.003870889544487,0.007350057363510132,-0.008811116218566895,XArbitraryZVertical,0.1640441888702954,0.03066238961566774,0.08133335394753444,0.9826160074447101,0.0335741825401783,-0.3273726403713226,-0.9442986249923706,0,0,0,-1,-1,2653.347029125,unknown,2,2022-06-02T10:45:09.069+02:00,2022-06-02T10:17:13.754+02:00,448,1.401249,0,0,345.1212,0,0,2022-06-02T10:45:11.626+02:00,675852311.6256452,0,7.441406,101.2925,1,0.82
2022-06-02T10:45:13.323+02:00,1654159511.14246,53.22907412977236,10.39845990821668,36.71472,0,20,-1,-1,2.400000095367432,11.99936978251625,-9999,2657.600846041667,0.0315704345703125,-0.3105621337890625,-0.927825927734375,2657.590852041667,0.1590842955564944,0.03489031376624041,0.3313281124084905,-0.1620938926935196,0.04227009043097496,-0.05082975700497627,0.002155017107725143,0.003857553005218506,0.002973318099975586,XArbitraryZVertical,0.1629938037043271,0.03025230747794374,0.08122611032814883,0.982812324772247,0.03298597410321236,-0.3252992033958435,-0.9450356364250183,0,0,0,-1,-1,2653.347029125,unknown,2,2022-06-02T10:45:09.069+02:00,2022-06-02T10:17:13.754+02:00,448,1.401249,0,0,345.1212,0,0,2022-06-02T10:45:11.626+02:00,675852311.6256452,0,7.441406,101.2925,1,0.82
2022-06-02T10:45:13.333+02:00,1654159511.14246,53.22907412977236,10.39845990821668,36.71472,0,20,-1,-1,2.400000095367432,11.99936978251625,-9999,2657.610841041667,0.0257568359375,-0.3233184814453125,-0.9075469970703125,2657.600846041667,0.1588299521721305,0.03476546203270075,0.329512025186828,-0.1399792730808258,0.04720040038228035,-0.05759791284799576,0.001016560941934586,0.008823037147521973,0.003551006317138672,XArbitraryZVertical,0.1621097907716268,0.03010177031698774,0.08108727755592773,0.9829745701066838,0.03288846462965012,-0.323581337928772,-0.9456285834312439,0,0,0,-1,-1,2653.347029125,unknown,2,2022-06-02T10:45:09.069+02:00,2022-06-02T10:17:13.754+02:00,448,1.401249,0,0,345.1212,0,0,2022-06-02T10:45:11.626+02:00,675852311.6256452,0,7.441406,101.2925,1,0.82
2022-06-02T10:45:13.343+02:00,1654159511.14246,53.22907412977236,10.39845990821668,36.71472,0,20,-1,-1,2.400000095367432,11.99936978251625,-9999,2657.620835041667,0.0237579345703125,-0.3364410400390625,-0.8871612548828125,2657.610841041667,0.1582366348450057,0.03518114576404333,0.328627547950959,-0.1034945026040077,0.05304950103163719,-0.08248675614595413,-0.004513517022132874,0.009420335292816162,0.02957969903945923,XArbitraryZVertical,0.1616669816330252,0.03022477982797559,0.08082743316706578,0.9830651253216716,0.03329160064458847,-0.3227443397045135,-0.9459004998207092,0,0,0,-1,-1,2653.347029125,unknown,2,2022-06-02T10:45:09.069+02:00,2022-06-02T10:17:13.754+02:00,448,1.401249,0,0,345.1212,0,0,2022-06-02T10:45:11.626+02:00,675852311.6256452,0,7.441406,101.2925,1,0.82
2022-06-02T10:45:13.353+02:00,1654159511.14246,53.22907412977236,10.39845990821668,36.71472,0,20,-1,-1,2.400000095367432,11.99936978251625,-9999,2657.630830041667,0.0214080810546875,-0.3523712158203125,-0.8613128662109375,2657.620835041667,0.1570278447311475,0.03690447870671091,0.3275608510612976,-0.1332498639822006,0.05188224092125893,-0.09808116406202316,-0.01142053678631783,-0.009991556406021118,0.04802238941192627,XArbitraryZVertical,0.1610914073166711,0.03093450197799297,0.08036969138783649,0.983175145989182,0.03493433445692062,-0.3217345178127289,-0.9461852312088013,0,0,0,-1,-1,2653.347029125,unknown,2,2022-06-02T10:45:09.069+02:00,2022-06-02T10:17:13.754+02:00,448,1.401249,0,0,345.1212,0,0,2022-06-02T10:45:11.626+02:00,675852311.6256452,0,7.441406,101.2925,1,0.82
2022-06-02T10:45:13.363+02:00,1654159511.14246,53.22907412977236,10.39845990821668,36.71472,0,20,-1,-1,2.400000095367432,11.99936978251625,-9999,2657.640825041667,0.02069091796875,-0.357421875,-0.83905029296875,2657.630830041667,0.1556121817591698,0.0385834464128389,0.3255498934813828,-0.237455353140831,0.0537714883685112,-0.1430859267711639,-0.01300346851348877,-0.02298936247825623,0.0732041597366333,XArbitraryZVertical,0.1600571667947589,0.03157191232077091,0.07980259987753205,0.9833699091466611,0.03654778003692627,-0.3198298513889313,-0.9467698335647583,0,0,0,-1,-1,2653.347029125,unknown,2,2022-06-02T10:45:09.069+02:00,2022-06-02T10:17:13.754+02:00,448,1.401249,0,0,345.1212,0,0,2022-06-02T10:45:11.626+02:00,675852311.6256452,0,7.441406,101.2925,1,0.82
2022-06-02T10:45:13.373+02:00,1654159511.14246,53.22907412977236,10.39845990821668,36.71472,0,20,-1,-1,2.400000095367432,11.99936978251625,-9999,2657.650819041667,0.021514892578125,-0.330291748046875,-0.7967529296875,2657.640825041667,0.1539004500410806,0.04004507470068518,0.3222138002301548,-0.3704213798046112,0.05615614727139473,-0.1766655147075653,-0.01658124476671219,-0.04420319199562073,0.09461158514022827,XArbitraryZVertical,0.1583849407194576,0.03203245532107812,0.07906571508343094,0.9836852742073504,0.03797407075762749,-0.3166671991348267,-0.9477762579917908,0,0,0,-1,-1,2653.347029125,unknown,2,2022-06-02T10:45:09.069+02:00,2022-06-02T10:17:13.754+02:00,448,1.401249,0,0,345.1212,0,0,2022-06-02T10:45:11.626+02:00,675852311.6256452,0,7.441406,101.2925,1,0.82
2022-06-02T10:45:13.383+02:00,1654159511.14246,53.22907412977236,10.39845990821668,36.71472,0,20,-1,-1,2.400000095367432,11.99936978251625,-9999,2657.660814041667,-0.0159912109375,-0.370819091796875,-0.745452880859375,2657.650819041667,0.1518953340255676,0.04120205593518751,0.3174330893214182,-0.5514444708824158,0.0181600283831358,-0.2645514309406281,-0.01744977012276649,-0.02464783191680908,0.1312097907066345,XArbitraryZVertical,0.156018636873881,0.03227154697407333,0.07815150837323918,0.9841285324077053,0.03913251683115959,-0.3121289312839508,-0.9492334723472595,0,0,0,-1,-1,2653.347029125,unknown,2,2022-06-02T10:45:09.069+02:00,2022-06-02T10:17:13.754+02:00,448,1.401249,0,0,345.1212,0,0,2022-06-02T10:45:11.626+02:00,675852311.6256452,0,7.441406,101.2925,1,0.82
2022-06-02T10:45:13.393+02:00,1654159511.14246,53.22907412977236,10.39845990821668,36.71472,0,20,-1,-1,2.400000095367432,11.99936978251625,-9999,2657.670808041667,-0.038543701171875,-0.3934478759765625,-0.68048095703125,2657.660814041667,0.1484759198929114,0.04226757092350226,0.3106562776672332,-0.8078907132148743,-0.01172703038901091,-0.4215831458568573,-0.03359479457139969,-0.04796940088272095,0.175892174243927,XArbitraryZVertical,0.1526952264343492,0.03229211405351311,0.07652071871203626,0.9847771322927059,0.04023237526416779,-0.3056835532188416,-0.951282799243927,0,0,0,-1,-1,2653.347029125,unknown,2,2022-06-02T10:45:09.069+02:00,2022-06-02T10:17:13.754+02:00,448,1.401249,0,0,345.1212,0,0,2022-06-02T10:45:11.626+02:00,675852311.6256452,0,7.441406,101.2925,1,0.82
2022-06-02T10:45:13.403+02:00,1654159511.14246,53.22907412977236,10.39845990821668,36.71472,0,20,-1,-1,2.400000095367432,11.99936978251625,-9999,2657.680803041667,-0.0567626953125,-0.4461669921875,-0.5956573486328125,2657.670808041667,0.1441013531653658,0.04325335628207203,0.3002809160725881,-1.283648729324341,-0.05384119227528572,-0.5085150599479675,-0.07369944453239441,-0.08456727862358093,0.2395925521850586,XArbitraryZVertical,0.1476148043432524,0.03209152065043559,0.07438805224750349,0.9857212975252223,0.04130503535270691,-0.2957885563373566,-0.9543600082397461,0,0,0,-1,-1,2653.347029125,unknown,2,2022-06-02T10:45:09.069+02:00,2022-06-02T10:17:13.754+02:00,448,1.401249,0,0,345.1212,0,0,2022-06-02T10:45:11.626+02:00,675852311.6256452,0,7.441406,101.2925,1,0.82
2022-06-02T10:45:13.413+02:00,1654159511.14246,53.22907412977236,10.39845990821668,36.71472,0,20,-1,-1,2.400000095367432,11.99936978251625,-9999,2657.690798041667,-0.096954345703125,-0.5763397216796875,-0.55548095703125,2657.680803041667,0.1386683166033877,0.04386113790960783,0.2837970866638196,-1.999253392219543,-0.1380405724048615,-0.6907828450202942,-0.08464991301298141,-0.1323049068450928,0.3128814697265625,XArbitraryZVertical,0.1395451870641044,0.03145147609451392,0.07165961324796823,0.9871184486049401,0.04209315776824951,-0.2800028622150421,-0.9590758681297302,0,0,0,-1,-1,2653.347029125,unknown,2,2022-06-02T10:45:09.069+02:00,2022-06-02T10:17:13.754+02:00,448,1.401249,0,0,345.1212,0,0,2022-06-02T10:45:11.626+02:00,675852311.6256452,0,7.441406,101.2925,1,0.82
2022-06-02T10:45:13.423+02:00,1654159511.14246,53.22907412977236,10.39845990821668,36.71472,0,20,-1,-1,2.400000095367432,11.99936978251625,-9999,2657.700792041667,-0.123077392578125,-0.6085052490234375,-0.556549072265625,2657.690798041667,0.1311129137450537,0.04422089921236552,0.2594800907610786,-2.802136182785034,-0.1813749969005585,-0.9678384065628052,-0.1213398873806,-0.2546676695346832,0.4132410287857056,XArbitraryZVertical,0.1276307615994724,0.03034905790298762,0.06779725552450928,0.9890363156208296,0.04272660985589027,-0.2565780878067017,-0.9655786752700806,0,0,0,-1,-1,2653.347029125,unknown,2,2022-06-02T10:45:09.069+02:00,2022-06-02T10:17:13.754+02:00,448,1.401249,0,0,345.1212,0,0,2022-06-02T10:45:11.626+02:00,675852311.6256452,0,7.441406,101.2925,1,0.82
2022-06-02T10:45:13.433+02:00,1654159511.14246,53.22907412977236,10.39845990821668,36.71472,0,20,-1,-1,2.400000095367432,11.99936978251625,-9999,2657.710787041667,-0.179412841796875,-0.580078125,-0.5966796875,2657.700792041667,0.1214007858075399,0.04467442674027282,0.2269341793027108,-3.617641687393188,-0.186702698469162,-1.211561441421509,-0.1522333920001984,-0.3801874816417694,0.4135436415672302,XArbitraryZVertical,0.1116408281393933,0.02901765090781064,0.06278222848770991,0.9913388691514355,0.04351453110575676,-0.2249913662672043,-0.9733886122703552,0,0,0,-1,-1,2653.347029125,unknown,2,2022-06-02T10:45:09.069+02:00,2022-06-02T10:17:13.754+02:00,448,1.401249,0,0,345.1212,0,0,2022-06-02T10:45:11.626+02:00,675852311.6256452,0,7.441406,101.2925,1,0.82
2022-06-02T10:45:13.443+02:00,1654159511.14246,53.22907412977236,10.39845990821668,36.71472,0,20,-1,-1,2.400000095367432,11.99936978251625,-9999,2657.720781041667,-0.25079345703125,-0.4861907958984375,-0.657928466796875,2657.710787041667,0.1096765890945313,0.04537164415570911,0.1869738546622659,-4.229339122772217,-0.1536321043968201,-1.442122220993042,-0.1920265108346939,-0.4157677292823792,0.4146503210067749,XArbitraryZVertical,0.09194860666539631,0.02766618963400577,0.0566718041072709,0.9937647132514001,0.04456558078527451,-0.1858863532543182,-0.9815600514411926,0,0,0,-1,-1,2653.347029125,unknown,2,2022-06-02T10:45:09.069+02:00,2022-06-02T10:17:13.754+02:00,448,1.401249,0,0,345.1212,0,0,2022-06-02T10:45:11.626+02:00,675852311.6256452,0,7.441406,101.2925,1,0.82
2022-06-02T10:45:13.453+02:00,1654159511.14246,53.22907412977236,10.39845990821668,36.71472,0,20,-1,-1,2.400000095367432,11.99936978251625,-9999,2657.730776041667,-0.3361968994140625,-0.349517822265625,-0.6817626953125,2657.720781041667,0.09593033457492765,0.04621898046776903,0.1423161471846732,-4.548820018768311,-0.1308262646198273,-1.676825404167175,-0.2588854432106018,-0.4011935591697693,0.3543726205825806,XArbitraryZVertical,0.06989218063475604,0.02643045831474484,0.04945367289344498,0.9959773507512971,0.0457354262471199,-0.1418362259864807,-0.9888330101966858,0,0,0,-1,-1,2653.347029125,unknown,2,2022-06-02T10:45:09.069+02:00,2022-06-02T10:17:13.754+02:00,448,1.401249,0,0,345.1212,0,0,2022-06-02T10:45:11.626+02:00,675852311.6256452,0,7.441406,101.2925,1,0.82
2022-06-02T10:45:13.463+02:00,1654159511.14246,53.22907412977236,10.39845990821668,36.71472,0,20,-1,-1,2.400000095367432,11.99936978251625,-9999,2657.740770041667,-0.4177398681640625,-0.247772216796875,-0.737884521484375,2657.730776041667,0.08016891293374596,0.04691090202406754,0.09539264734783982,-4.656524658203125,-0.09825526177883148,-1.889070272445679,-0.3400154411792755,-0.3221104145050049,0.3279156088829041,XArbitraryZVertical,0.04668804692346425,0.0253179294879769,0.04113445303693103,0.997741027386416,0.04668049886822701,-0.0952480360865593,-0.9943584799766541,0,0,0,-1,-1,2653.347029125,unknown,2,2022-06-02T10:45:09.069+02:00,2022-06-02T10:17:13.754+02:00,448,1.401249,0,0,345.1212,0,0,2022-06-02T10:45:11.626+02:00,675852311.6256452,0,7.441406,101.2925,1,0.82
