loggingTime(txt),locationTimestamp_since1970(s),locationLatitude(WGS84),locationLongitude(WGS84),locationAltitude(m),locationSpeed(m/s),locationSpeedAccuracy(m/s),locationCourse(°),locationCourseAccuracy(°),locationVerticalAccuracy(m),locationHorizontalAccuracy(m),locationFloor(Z),accelerometerTimestamp_sinceReboot(s),accelerometerAccelerationX(G),accelerometerAccelerationY(G),accelerometerAccelerationZ(G),motionTimestamp_sinceReboot(s),motionYaw(rad),motionRoll(rad),motionPitch(rad),motionRotationRateX(rad/s),motionRotationRateY(rad/s),motionRotationRateZ(rad/s),motionUserAccelerationX(G),motionUserAccelerationY(G),motionUserAccelerationZ(G),motionAttitudeReferenceFrame(txt),motionQuaternionX(R),motionQuaternionY(R),motionQuaternionZ(R),motionQuaternionW(R),motionGravityX(G),motionGravityY(G),motionGravityZ(G),motionMagneticFieldX(µT),motionMagneticFieldY(µT),motionMagneticFieldZ(µT),motionHeading(°),motionMagneticFieldCalibrationAccuracy(Z),activityTimestamp_sinceReboot(s),activity(txt),activityActivityConfidence(Z),activityActivityStartDate(txt),pedometerStartDate(txt),pedometerNumberofSteps(N),pedometerAverageActivePace(s/m),pedometerCurrentPace(s/m),pedometerCurrentCadence(steps/s),pedometerDistance(m),pedometerFloorAscended(N),pedometerFloorDescended(N),pedometerEndDate(txt),altimeterTimestamp_sinceReboot(s),altimeterReset(bool),altimeterRelativeAltitude(m),altimeterPressure(kPa),batteryState(N),batteryLevel(R)
2022-06-02T10:45:33.900+02:00,1654159533.499566,53.22888795108437,10.39798063911611,42.58036,-1,-1,-1,-1,22.88975524902344,40,-9999,2678.139676625,0.0516357421875,-0.22918701171875,-0.9837646484375,2678.129682625,0.8012944428788804,-0.01725324469212907,0.1533498219988385,0.1990901082754135,0.1002507731318474,0.02199631184339523,-0.03795802220702171,-0.00438554584980011,0.003956496715545654,XArbitraryZVertical,0.07388572646276967,0.0219538820700457,0.388245568734467,0.91832689870662,-0.01704993098974228,-0.1527494937181473,-0.9881178736686707,0,0,0,-1,-1,2676.372242916667,unknown,2,2022-06-02T10:45:32.094+02:00,2022-06-02T10:17:13.754+02:00,448,1.401249,0,0,345.1212,0,0,2022-06-02T10:45:32.094+02:00,675852332.0936673,0,6.933594,101.298,1,0.82
2022-06-02T10:45:33.903+02:00,1654159533.499566,53.22888795108437,10.39798063911611,42.58036,-1,-1,-1,-1,22.88975524902344,40,-9999,2678.149671625,0.0391387939453125,-0.219268798828125,-0.9705657958984375,2678.139676625,0.8012442690990325,-0.01595752195436988,0.1547086185337379,0.1200607940554619,0.06495483219623566,-0.0300636924803257,0.04753504693508148,-0.06860983371734619,-0.004455149173736572,XArbitraryZVertical,0.07425831408583032,0.02281152984055038,0.3882449609095946,0.9182761765431438,-0.01576626300811768,-0.1540922075510025,-0.9879306554794312,0,0,0,-1,-1,2676.372242916667,unknown,2,2022-06-02T10:45:32.094+02:00,2022-06-02T10:17:13.754+02:00,448,1.401249,0,0,345.1212,0,0,2022-06-02T10:45:32.094+02:00,675852332.0936673,0,6.933594,101.298,1,0.82
2022-06-02T10:45:33.906+02:00,1654159533.499566,53.22888795108437,10.39798063911611,42.58036,-1,-1,-1,-1,22.88975524902344,40,-9999,2678.159665625,-0.0080108642578125,-0.18310546875,-0.96209716796875,2678.149671625,0.8008033849613314,-0.01525100721065125,0.155574887408887,0.08705833554267883,0.01932709105312824,-0.04995850473642349,0.06706815958023071,-0.07455939054489136,0.0136408805847168,XArbitraryZVertical,0.07452382227233237,0.02328813043292707,0.3880526203993262,0.918323999540658,-0.01506623066961765,-0.1549480706453323,-0.9878077507019043,0,0,0,-1,-1,2676.372242916667,unknown,2,2022-06-02T10:45:32.094+02:00,2022-06-02T10:17:13.754+02:00,448,1.401249,0,0,345.1212,0,0,2022-06-02T10:45:32.094+02:00,675852332.0936673,0,6.933594,101.298,1,0.82
2022-06-02T10:45:33.917+02:00,1654159533.499566,53.22888795108437,10.39798063911611,42.58036,-1,-1,-1,-1,22.88975524902344,40,-9999,2678.169660625,-0.0306243896484375,-0.158111572265625,-0.97210693359375,2678.159665625,0.8002956753139857,-0.0147524072468483,0.1563569755757501,0.06387259066104889,0.01558694895356894,-0.04366545379161835,0.0303800031542778,-0.04622942209243774,0.0208204984664917,XArbitraryZVertical,0.07479200289874537,0.02365024075391135,0.3878235203253515,0.918389798931027,-0.01457191631197929,-0.1557206660509109,-0.9876936674118042,0,0,0,-1,-1,2676.372242916667,unknown,2,2022-06-02T10:45:32.094+02:00,2022-06-02T10:17:13.754+02:00,448,1.401249,0,0,345.1212,0,0,2022-06-02T10:45:32.094+02:00,675852332.0936673,0,6.933594,101.298,1,0.82
2022-06-02T10:45:33.920+02:00,1654159533.499566,53.22888795108437,10.39798063911611,42.58036,-1,-1,-1,-1,22.88975524902344,40,-9999,2678.179654625,-0.0204925537109375,-0.1553802490234375,-0.989501953125,2678.169660625,0.7998013074447071,-0.01425177265685204,0.1572483746707971,0.04226962849497795,0.02364261262118816,-0.05050725117325783,-0.01183398813009262,-0.009460300207138062,0.02213805913925171,XArbitraryZVertical,0.07510999222490573,0.0240348855491741,0.3875987237164044,0.9184486730439836,-0.0140754571184516,-0.1566011309623718,-0.9875616431236267,0,0,0,-1,-1,2676.372242916667,unknown,2,2022-06-02T10:45:32.094+02:00,2022-06-02T10:17:13.754+02:00,448,1.401249,0,0,345.1212,0,0,2022-06-02T10:45:32.094+02:00,675852332.0936673,0,6.933594,101.298,1,0.82
2022-06-02T10:45:33.921+02:00,1654159533.499566,53.22888795108437,10.39798063911611,42.58036,-1,-1,-1,-1,22.88975524902344,40,-9999,2678.189649625,-0.0162506103515625,-0.1264495849609375,-1.000930786132812,2678.179654625,0.7992980841214817,-0.01372631771260633,0.1577217006751834,0.0213124118745327,0.02311530709266663,-0.03544973582029343,-0.01268962025642395,-0.003713294863700867,0.00897902250289917,XArbitraryZVertical,0.07523154166888429,0.02434922200025621,0.387378587400248,0.918523390012964,-0.01355551648885012,-0.157068595290184,-0.9874946475028992,0,0,0,-1,-1,2676.372242916667,unknown,2,2022-06-02T10:45:32.094+02:00,2022-06-02T10:17:13.754+02:00,448,1.401249,0,0,345.1212,0,0,2022-06-02T10:45:32.094+02:00,675852332.0936673,0,6.933594,101.298,1,0.82
2022-06-02T10:45:33.923+02:00,1654159533.499566,53.22888795108437,10.39798063911611,42.58036,-1,-1,-1,-1,22.88975524902344,40,-9999,2678.199643625,-0.014068603515625,-0.1324462890625,-0.98992919921875,2678.189649625,0.7989991214446178,-0.01352151055930808,0.1574412918013695,0.02270491234958172,0.009004147723317146,-0.03080185502767563,-0.001843906939029694,0.01792140305042267,-0.01166510581970215,XArbitraryZVertical,0.07506679507182257,0.02437761172368183,0.3872541518015031,0.9185885614660776,-0.0133538655936718,-0.1567916572093964,-0.9875414371490479,0,0,0,-1,-1,2676.372242916667,unknown,2,2022-06-02T10:45:32.094+02:00,2022-06-02T10:17:13.754+02:00,448,1.401249,0,0,345.1212,0,0,2022-06-02T10:45:32.094+02:00,675852332.0936673,0,6.933594,101.298,1,0.82
2022-06-02T10:45:33.932+02:00,1654159533.499566,53.22888795108437,10.39798063911611,42.58036,-1,-1,-1,-1,22.88975524902344,40,-9999,2678.209638625,-0.0019989013671875,-0.153656005859375,-0.953155517578125,2678.199643625,0.7987037077017655,-0.01409579671781363,0.1573385577554694,0.04330473020672798,-0.01534193847328424,-0.04157727211713791,-0.002543032169342041,0.03118664026260376,-0.007948994636535645,XArbitraryZVertical,0.07513438839324341,0.02408280939424026,0.3870988174481994,0.9186561969131816,-0.0139212217181921,-0.1566901952028275,-0.9875496625900269,0,0,0,-1,-1,2676.372242916667,unknown,2,2022-06-02T10:45:32.094+02:00,2022-06-02T10:17:13.754+02:00,448,1.401249,0,0,345.1212,0,0,2022-06-02T10:45:32.094+02:00,675852332.0936673,0,6.933594,101.298,1,0.82
2022-06-02T10:45:33.942+02:00,1654159533.499566,53.22888795108437,10.39798063911611,42.58036,-1,-1,-1,-1,22.88975524902344,40,-9999,2678.219632625,-0.0018310546875,-0.152099609375,-0.922943115234375,2678.209638625,0.7983664751158237,-0.01454880017820624,0.157887045938047,0.05558629706501961,-0.02981541864573956,-0.03123728185892105,0.00682947039604187,0.01245647668838501,0.01068109273910522,XArbitraryZVertical,0.07547791824194512,0.02396844509286131,0.3869166493350814,0.918707808350445,-0.01436733081936836,-0.1572318822145462,-0.9874572157859802,0,0,0,-1,-1,2676.372242916667,unknown,2,2022-06-02T10:45:32.094+02:00,2022-06-02T10:17:13.754+02:00,448,1.401249,0,0,345.1212,0,0,2022-06-02T10:45:32.094+02:00,675852332.0936673,0,6.933594,101.298,1,0.82
2022-06-02T10:45:33.952+02:00,1654159533.499566,53.22888795108437,10.39798063911611,42.58036,-1,-1,-1,-1,22.88975524902344,40,-9999,2678.229627625,0.0052032470703125,-0.135955810546875,-0.9192047119140625,2678.219632625,0.7981413732708355,-0.01445840408281728,0.1587302794074053,0.02130661904811859,-0.02568165957927704,0.0004511401057243347,0.01390991825610399,0.002012923359870911,0.05356401205062866,XArbitraryZVertical,0.07585029847032676,0.02416500386199746,0.3868009003407329,0.9187207435154043,-0.01427614688873291,-0.1580645740032196,-0.9873255491256714,0,0,0,-1,-1,2676.372242916667,unknown,2,2022-06-02T10:45:32.094+02:00,2022-06-02T10:17:13.754+02:00,448,1.401249,0,0,345.1212,0,0,2022-06-02T10:45:32.094+02:00,675852332.0936673,0,6.933594,101.298,1,0.82
2022-06-02T10:45:33.962+02:00,1654159533.499566,53.22888795108437,10.39798063911611,42.58036,-1,-1,-1,-1,22.88975524902344,40,-9999,2678.239621625,0.0177459716796875,-0.128265380859375,-0.944366455078125,2678.229627625,0.7983084813543867,-0.01422298155030689,0.1593648455799331,-0.002166414633393288,-0.02436299622058868,0.04592474922537804,0.01457631587982178,0.01344269514083862,0.0675201416015625,XArbitraryZVertical,0.07609407967042897,0.02440256272296057,0.3868747213663367,0.9186632129922874,-0.01404227875173092,-0.1586911380290985,-0.9872283935546875,0,0,0,-1,-1,2676.372242916667,unknown,2,2022-06-02T10:45:32.094+02:00,2022-06-02T10:17:13.754+02:00,448,1.401249,0,0,345.1212,0,0,2022-06-02T10:45:32.094+02:00,675852332.0936673,0,6.933594,101.298,1,0.82
2022-06-02T10:45:33.972+02:00,1654159533.499566,53.22888795108437,10.39798063911611,42.58036,-1,-1,-1,-1,22.88975524902344,40,-9999,2678.249616625,0.0237579345703125,-0.1396026611328125,-0.986846923828125,2678.239621625,0.7988092145035989,-0.0143625403561619,0.1596469542763378,-0.005242631770670414,-0.03279669582843781,0.057075135409832,0.02530304715037346,0.03010916709899902,0.06219387054443359,XArbitraryZVertical,0.07624448233066287,0.02441226442266335,0.3870940937258944,0.9185580995196055,-0.01417941134423018,-0.1589696556329727,-0.9871816635131836,0,0,0,-1,-1,2676.372242916667,unknown,2,2022-06-02T10:45:32.094+02:00,2022-06-02T10:17:13.754+02:00,448,1.401249,0,0,345.1212,0,0,2022-06-02T10:45:32.094+02:00,675852332.0936673,0,6.933594,101.298,1,0.82
2022-06-02T10:45:33.982+02:00,1654159533.499566,53.22888795108437,10.39798063911611,42.58036,-1,-1,-1,-1,22.88975524902344,40,-9999,2678.259610625,0.0233306884765625,-0.1533203125,-1.03021240234375,2678.249616625,0.7993605345151492,-0.01490898622757605,0.1596247605013885,-0.02326757088303566,-0.03375010564923286,0.04535376653075218,0.03699671849608421,0.02717281877994537,0.01700818538665771,XArbitraryZVertical,0.07633339187226586,0.02417802722759318,0.3873268623647005,0.9184587927253945,-0.01471890322864056,-0.1589477509260178,-0.9871772527694702,0,0,0,-1,-1,2676.372242916667,unknown,2,2022-06-02T10:45:32.094+02:00,2022-06-02T10:17:13.754+02:00,448,1.401249,0,0,345.1212,0,0,2022-06-02T10:45:32.094+02:00,675852332.0936673,0,6.933594,101.298,1,0.82
2022-06-02T10:45:33.992+02:00,1654159533.499566,53.22888795108437,10.39798063911611,42.58036,-1,-1,-1,-1,22.88975524902344,40,-9999,2678.269605625,0.0103912353515625,-0.1365814208984375,-1.053680419921875,2678.259610625,0.7998950114100334,-0.01543302275603108,0.1592726153628443,-0.05311255529522896,-0.03140093386173248,0.06718183308839798,0.03847619891166687,0.006744563579559326,-0.01652830839157104,XArbitraryZVertical,0.07626686588543667,0.02388936797304352,0.3875590124545483,0.9183738522990142,-0.01523708086460829,-0.1586000770330429,-0.987225353717804,0,0,0,-1,-1,2676.372242916667,unknown,2,2022-06-02T10:45:32.094+02:00,2022-06-02T10:17:13.754+02:00,448,1.401249,0,0,345.1212,0,0,2022-06-02T10:45:32.094+02:00,675852332.0936673,0,6.933594,101.298,1,0.82
2022-06-02T10:45:34.002+02:00,1654159533.499566,53.22888795108437,10.39798063911611,42.58036,-1,-1,-1,-1,22.88975524902344,40,-9999,2678.279599625,-0.00653076171875,-0.14398193359375,-1.049652099609375,2678.269605625,0.8005988272672232,-0.0158161937641761,0.1582838058876748,-0.09037920087575912,-0.02068430744111538,0.07196054607629776,0.03472181409597397,0.01591530442237854,-0.06125402450561523,XArbitraryZVertical,0.07587901237509651,0.02354794064777981,0.3878864091522152,0.9182766257060526,-0.01561782788485289,-0.1576236933469772,-0.9873757362365723,0,0,0,-1,-1,2676.372242916667,unknown,2,2022-06-02T10:45:32.094+02:00,2022-06-02T10:17:13.754+02:00,448,1.401249,0,0,345.1212,0,0,2022-06-02T10:45:32.094+02:00,675852332.0936673,0,6.933594,101.298,1,0.82
2022-06-02T10:45:34.012+02:00,1654159533.499566,53.22888795108437,10.39798063911611,42.58036,-1,-1,-1,-1,22.88975524902344,40,-9999,2678.289594625,-0.0080108642578125,-0.1568756103515625,-1.025100708007812,2678.279599625,0.8012720677535765,-0.01601983843480568,0.1568250777933062,-0.08354366570711136,0.001207943307235837,0.06541689485311508,0.01663126423954964,0.01931168138980865,-0.06571280956268311,XArbitraryZVertical,0.07524128524813904,0.02319600895482462,0.3882155252687142,0.9181989450654258,-0.01582256890833378,-0.1561830341815948,-0.9876013994216919,0,0,0,-1,-1,2676.372242916667,unknown,2,2022-06-02T10:45:32.094+02:00,2022-06-02T10:17:13.754+02:00,448,1.401249,0,0,345.1212,0,0,2022-06-02T10:45:32.094+02:00,675852332.0936673,0,6.933594,101.298,1,0.82
2022-06-02T10:45:34.022+02:00,1654159533.499566,53.22888795108437,10.39798063911611,42.58036,-1,-1,-1,-1,22.88975524902344,40,-9999,2678.299588625,-0.005126953125,-0.16094970703125,-0.9917755126953125,2678.289594625,0.8019538154579084,-0.01590340149260375,0.1560137737921926,-0.05364315584301949,0.01739436946809292,0.0747656524181366,0.005623508244752884,0.002427518367767334,-0.05410999059677124,XArbitraryZVertical,0.07483853070605331,0.02311702796313441,0.3885482045997563,0.9180931217302837,-0.01570958457887173,-0.1553816348314285,-0.9877296090126038,0,0,0,-1,-1,2676.372242916667,unknown,2,2022-06-02T10:45:32.094+02:00,2022-06-02T10:17:13.754+02:00,448,1.401249,0,0,345.1212,0,0,2022-06-02T10:45:32.094+02:00,675852332.0936673,0,6.933594,101.298,1,0.82
2022-06-02T10:45:34.032+02:00,1654159533.499566,53.22888795108437,10.39798063911611,42.58036,-1,-1,-1,-1,22.88975524902344,40,-9999,2678.309583625,-0.0047149658203125,-0.1782379150390625,-0.9646759033203125,2678.299588625,0.8027261216447176,-0.01563196993480694,0.1556354499550858,-0.04919993877410889,0.02060694061219692,0.08280174434185028,0.0107579343020916,-0.002539128065109253,-0.02063030004501343,XArbitraryZVertical,0.0746032657340584,0.02319672295221707,0.3889199553818271,0.9179528650913575,-0.01544240117073059,-0.1550078988075256,-0.9877925515174866,0,0,0,-1,-1,2676.372242916667,unknown,2,2022-06-02T10:45:32.094+02:00,2022-06-02T10:17:13.754+02:00,448,1.401249,0,0,345.1212,0,0,2022-06-02T10:45:32.094+02:00,675852332.0936673,0,6.933594,101.298,1,0.82
2022-06-02T10:45:34.042+02:00,1654159533.499566,53.22888795108437,10.39798063911611,42.58036,-1,-1,-1,-1,22.88975524902344,40,-9999,2678.319577625,0.0005035400390625,-0.1957550048828125,-0.9541473388671875,2678.309583625,0.8034898183884308,-0.01525675024125886,0.1551547077231684,-0.05839316546916962,0.03237837925553322,0.07773454487323761,0.009472902864217758,-0.01371048390865326,0.0104556679725647,XArbitraryZVertical,0.07430086775918995,0.0233035621990208,0.3892934145898939,0.9178163591462314,-0.01507289614528418,-0.1545329540967941,-0.9878726601600647,0,0,0,-1,-1,2676.372242916667,unknown,2,2022-06-02T10:45:32.094+02:00,2022-06-02T10:17:13.754+02:00,448,1.401249,0,0,345.1212,0,0,2022-06-02T10:45:32.094+02:00,675852332.0936673,0,6.933594,101.298,1,0.82
2022-06-02T10:45:34.052+02:00,1654159533.499566,53.22888795108437,10.39798063911611,42.58036,-1,-1,-1,-1,22.88975524902344,40,-9999,2678.329572625,0.0039825439453125,-0.20428466796875,-0.9529571533203125,2678.319577625,0.8041730676000751,-0.01468248553086616,0.154180703414721,-0.08799739927053452,0.02999751083552837,0.06919778138399124,0.01252413634210825,-0.03347167372703552,0.03141194581985474,XArbitraryZVertical,0.0737343298153566,0.02340217923346631,0.3896462681825554,0.9177097684506272,-0.01450779568403959,-0.1535705775022507,-0.9880311489105225,0,0,0,-1,-1,2676.372242916667,unknown,2,2022-06-02T10:45:32.094+02:00,2022-06-02T10:17:13.754+02:00,448,1.401249,0,0,345.1212,0,0,2022-06-02T10:45:32.094+02:00,675852332.0936673,0,6.933594,101.298,1,0.82
2022-06-02T10:45:34.062+02:00,1654159533.499566,53.22888795108437,10.39798063911611,42.58036,-1,-1,-1,-1,22.88975524902344,40,-9999,2678.339566625,-0.005279541015625,-0.194976806640625,-0.9608306884765625,2678.329572625,0.8047138900836245,-0.01403891233152894,0.1528471299051531,-0.1206653267145157,0.01736161299049854,0.05333146452903748,0.01628565415740013,-0.04927016794681549,0.03261679410934448,XArbitraryZVertical,0.07299095382719079,0.02345672370304581,0.3899424188030355,0.9176420673538109,-0.0138747850432992,-0.1522526890039444,-0.9882441759109497,0,0,0,-1,-1,2676.372242916667,unknown,2,2022-06-02T10:45:32.094+02:00,2022-06-02T10:17:13.754+02:00,448,1.401249,0,0,345.1212,0,0,2022-06-02T10:45:32.094+02:00,675852332.0936673,0,6.933594,101.298,1,0.82
2022-06-02T10:45:34.072+02:00,1654159533.499566,53.22888795108437,10.39798063911611,42.58036,-1,-1,-1,-1,22.88975524902344,40,-9999,2678.349561625,-0.0247039794921875,-0.17181396484375,-0.9762115478515625,2678.339566625,0.8050709205526487,-0.01354220632453686,0.1516853208829549,-0.09744389355182648,-0.004874982871115208,0.0384686291217804,0.01471380237489939,-0.05099835991859436,0.03618723154067993,XArbitraryZVertical,0.07235708792354266,0.0234704590590864,0.3901452791109065,0.9176056017154921,-0.01338630355894566,-0.1511043161153793,-0.9884271621704102,0,0,0,-1,-1,2676.372242916667,unknown,2,2022-06-02T10:45:32.094+02:00,2022-06-02T10:17:13.754+02:00,448,1.401249,0,0,345.1212,0,0,2022-06-02T10:45:32.094+02:00,675852332.0936673,0,6.933594,101.298,1,0.82
2022-06-02T10:45:34.082+02:00,1654159533.499566,53.22888795108437,10.39798063911611,42.58036,-1,-1,-1,-1,22.88975524902344,40,-9999,2678.359555625,-0.037200927734375,-0.155120849609375,-0.9993743896484375,2678.349561625,0.8053780459973668,-0.01326145755495392,0.1506752587197817,-0.06005658209323883,-0.008683569729328156,0.03447255492210388,-0.001858070492744446,-0.03290817141532898,0.0159572958946228,XArbitraryZVertical,0.07183549336302412,0.02341278162055529,0.390314332059974,0.9175762567616588,-0.01311082020401955,-0.1501057744026184,-0.9885830283164978,0,0,0,-1,-1,2676.372242916667,unknown,2,2022-06-02T10:45:32.094+02:00,2022-06-02T10:17:13.754+02:00,448,1.401249,0,0,345.1212,0,0,2022-06-02T10:45:32.094+02:00,675852332.0936673,0,6.933594,101.298,1,0.82
2022-06-02T10:45:34.092+02:00,1654159533.499566,53.22888795108437,10.39798063911611,42.58036,-1,-1,-1,-1,22.88975524902344,40,-9999,2678.369550625,-0.03106689453125,-0.150848388671875,-1.024322509765625,2678.359555625,0.805757457415732,-0.01319157230713606,0.1500267340730516,-0.01028209924697876,-0.004682436119765043,0.04962620884180069,-0.01951926201581955,-0.01137834787368774,0.00693058967590332,XArbitraryZVertical,0.07152001358471452,0.02333154498731367,0.390502396852337,0.9175230207649439,-0.01304301433265209,-0.1494645625352859,-0.9886810779571533,0,0,0,-1,-1,2676.372242916667,unknown,2,2022-06-02T10:45:32.094+02:00,2022-06-02T10:17:13.754+02:00,448,1.401249,0,0,345.1212,0,0,2022-06-02T10:45:32.094+02:00,675852332.0936673,0,6.933594,101.298,1,0.82
2022-06-02T10:45:34.102+02:00,1654159533.499566,53.22888795108437,10.39798063911611,42.58036,-1,-1,-1,-1,22.88975524902344,40,-9999,2678.379544625,-0.0169677734375,-0.1592864990234375,-1.03338623046875,2678.369550625,0.8062628752571087,-0.01322432030857853,0.1500852856733901,0.02983069978654385,0.007363040931522846,0.04892127215862274,-0.02220306172966957,-0.00309598445892334,-0.02869260311126709,XArbitraryZVertical,0.07154736449993045,0.02334606793305681,0.3907320632946896,0.9174226490952886,-0.01307527534663677,-0.149522453546524,-0.9886718988418579,0,0,0,-1,-1,2676.372242916667,unknown,2,2022-06-02T10:45:32.094+02:00,2022-06-02T10:17:13.754+02:00,448,1.401249,0,0,345.1212,0,0,2022-06-02T10:45:32.094+02:00,675852332.0936673,0,6.933594,101.298,1,0.82
2022-06-02T10:45:34.112+02:00,1654159533.499566,53.22888795108437,10.39798063911611,42.58036,-1,-1,-1,-1,22.88975524902344,40,-9999,2678.389539625,0.001129150390625,-0.1909942626953125,-1.036895751953125,2678.379544625,0.8067246176515966,-0.01304326166775955,0.1503924411786193,0.01545681990683079,0.02063117548823357,0.04521867632865906,-0.01084702461957932,-0.001113817095756531,-0.03918850421905518,XArbitraryZVertical,0.07164740099231645,0.02350580836020704,0.3909448857884047,0.9173201155472881,-0.01289566792547703,-0.1498261541128159,-0.9886282682418823,0,0,0,-1,-1,2676.372242916667,unknown,2,2022-06-02T10:45:32.094+02:00,2022-06-02T10:17:13.754+02:00,448,1.401249,0,0,345.1212,0,0,2022-06-02T10:45:32.094+02:00,675852332.0936673,0,6.933594,101.298,1,0.82
2022-06-02T10:45:34.122+02:00,1654159533.499566,53.22888795108437,10.39798063911611,42.58036,-1,-1,-1,-1,22.88975524902344,40,-9999,2678.399533625,0.0121002197265625,-0.20196533203125,-1.025970458984375,2678.389539625,0.8070864723342543,-0.01268908757272037,0.1506115511602215,-0.0368233285844326,0.03656799718737602,0.03162330389022827,0.005678632296621799,-0.02663873136043549,-0.04799062013626099,XArbitraryZVertical,0.0716743298208897,0.0237241452459126,0.3911196435824247,0.9172379459569804,-0.01254510413855314,-0.150042787194252,-0.9885998964309692,0,0,0,-1,-1,2676.372242916667,unknown,2,2022-06-02T10:45:32.094+02:00,2022-06-02T10:17:13.754+02:00,448,1.401249,0,0,345.1212,0,0,2022-06-02T10:45:32.094+02:00,675852332.0936673,0,6.933594,101.298,1,0.82
2022-06-02T10:45:34.131+02:00,1654159533.499566,53.22888795108437,10.39798063911611,42.58036,-1,-1,-1,-1,22.88975524902344,40,-9999,2678.409528625,0.0054473876953125,-0.20257568359375,-1.019760131835938,2678.399533625,0.8073108501437333,-0.01216207129929478,0.1505799044766057,-0.1185813099145889,0.04182827472686768,0.01781561598181725,0.01983663439750671,-0.04740674793720245,-0.04294401407241821,XArbitraryZVertical,0.07155407392661858,0.02396767806022194,0.3912420043334636,0.9171886943592399,-0.01202415209263563,-0.1500114947557449,-0.988611102104187,0,0,0,-1,-1,2676.372242916667,unknown,2,2022-06-02T10:45:32.094+02:00,2022-06-02T10:17:13.754+02:00,448,1.401249,0,0,345.1212,0,0,2022-06-02T10:45:32.094+02:00,675852332.0936673,0,6.933594,101.298,1,0.82
2022-06-02T10:45:34.142+02:00,1654159533.499566,53.22888795108437,10.39798063911611,42.58036,-1,-1,-1,-1,22.88975524902344,40,-9999,2678.419522625,-0.0041046142578125,-0.1827392578125,-1.011871337890625,2678.409528625,0.80737166843002,-0.01144809812764157,0.1501815841854577,-0.1704961657524109,0.04994958266615868,0.005742440931499004,0.02177124097943306,-0.05529263615608215,-0.03484988212585449,XArbitraryZVertical,0.07123105904647219,0.02421917530754253,0.3913023061804579,0.9171816244596221,-0.01131899002939463,-0.1496176719665527,-0.9886791110038757,0,0,0,-1,-1,2676.372242916667,unknown,2,2022-06-02T10:45:32.094+02:00,2022-06-02T10:17:13.754+02:00,448,1.401249,0,0,345.1212,0,0,2022-06-02T10:45:32.094+02:00,675852332.0936673,0,6.933594,101.298,1,0.82
2022-06-02T10:45:34.151+02:00,1654159533.499566,53.22888795108437,10.39798063911611,42.58036,-1,-1,-1,-1,22.88975524902344,40,-9999,2678.429517625,-0.0032958984375,-0.151092529296875,-0.9952239990234375,2678.419522625,0.8073845074555411,-0.01066227692301926,0.1494889068791707,-0.1776169240474701,0.06463105976581573,0.009549428708851337,0.01103142648935318,-0.04689855873584747,-0.02784097194671631,XArbitraryZVertical,0.07075960703551507,0.02444421579049506,0.391348051275751,0.917192533216494,-0.01054316386580467,-0.1489327549934387,-0.9887911081314087,0,0,0,-1,-1,2676.372242916667,unknown,2,2022-06-02T10:45:32.094+02:00,2022-06-02T10:17:13.754+02:00,448,1.401249,0,0,345.1212,0,0,2022-06-02T10:45:32.094+02:00,675852332.0936673,0,6.933594,101.298,1,0.82
2022-06-02T10:45:34.162+02:00,1654159533.499566,53.22888795108437,10.39798063911611,42.58036,-1,-1,-1,-1,22.88975524902344,40,-9999,2678.439511625,0.0093994140625,-0.1179962158203125,-1.006759643554688,2678.429517625,0.8074816334205994,-0.01014462779989469,0.1487341628382577,-0.1153673753142357,0.06294294446706772,0.0116436742246151,0.003150720149278641,-0.01953825354576111,-0.01444834470748901,XArbitraryZVertical,0.07031110902350375,0.02453706545275298,0.3914236891656198,0.9171922782685143,-0.01003245357424021,-0.1481863856315613,-0.988908588886261,0,0,0,-1,-1,2676.372242916667,unknown,2,2022-06-02T10:45:32.094+02:00,2022-06-02T10:17:13.754+02:00,448,1.401249,0,0,345.1212,0,0,2022-06-02T10:45:32.094+02:00,675852332.0936673,0,6.933594,101.298,1,0.82
2022-06-02T10:45:34.172+02:00,1654159533.499566,53.22888795108437,10.39798063911611,42.58036,-1,-1,-1,-1,22.88975524902344,40,-9999,2678.449506625,0.01849365234375,-0.08636474609375,-1.009368896484375,2678.439511625,0.8077531960106753,-0.01023011314007856,0.1486255215518561,0.03690232336521149,0.03027394786477089,0.02688094787299633,0.01185663882642984,0.01506806910037994,-0.009168803691864014,XArbitraryZVertical,0.07027471032012864,0.0244861061608002,0.3915470650328407,0.9171437393073739,-0.01011715549975634,-0.1480789482593536,-0.9889237880706787,0,0,0,-1,-1,2676.372242916667,unknown,2,2022-06-02T10:45:32.094+02:00,2022-06-02T10:17:13.754+02:00,448,1.401249,0,0,345.1212,0,0,2022-06-02T10:45:32.094+02:00,675852332.0936673,0,6.933594,101.298,1,0.82
2022-06-02T10:45:34.181+02:00,1654159533.499566,53.22888795108437,10.39798063911611,42.58036,-1,-1,-1,-1,22.88975524902344,40,-9999,2678.459500625,0.00579833984375,-0.1014251708984375,-1.007537841796875,2678.449506625,0.8081786299110232,-0.01082675767642777,0.1498385938066216,0.1917397826910019,-0.005430385004729033,0.0363672599196434,0.02817653119564056,0.04663264751434326,-0.02057057619094849,XArbitraryZVertical,0.07094238989600038,0.02446550671313859,0.3917003664158679,0.9170274715474787,-0.01070523634552956,-0.149278536438942,-0.9887372255325317,0,0,0,-1,-1,2676.372242916667,unknown,2,2022-06-02T10:45:32.094+02:00,2022-06-02T10:17:13.754+02:00,448,1.401249,0,0,345.1212,0,0,2022-06-02T10:45:32.094+02:00,675852332.0936673,0,6.933594,101.298,1,0.82
2022-06-02T10:45:34.191+02:00,1654159533.499566,53.22888795108437,10.39798063911611,42.58036,-1,-1,-1,-1,22.88975524902344,40,-9999,2678.469495666667,-0.0037994384765625,-0.1763458251953125,-1.011276245117188,2678.459500625,0.8086278846701531,-0.01119533250297925,0.1519925766136924,0.246926873922348,-0.009681855328381062,0.03910765424370766,0.0239139162003994,0.06901055574417114,-0.01857912540435791,XArbitraryZVertical,0.07199625908539024,0.02473534206935201,0.3918558009054524,0.9168716802587463,-0.01106603443622589,-0.1514080315828323,-0.9884093999862671,0,0,0,-1,-1,2676.372242916667,unknown,2,2022-06-02T10:45:32.094+02:00,2022-06-02T10:17:13.754+02:00,448,1.401249,0,0,345.1212,0,0,2022-06-02T10:45:32.094+02:00,675852332.0936673,0,6.933594,101.298,1,0.82
2022-06-02T10:45:34.201+02:00,1654159533.499566,53.22888795108437,10.39798063911611,42.58036,-1,-1,-1,-1,22.88975524902344,40,-9999,2678.479489666667,0.0017547607421875,-0.2183837890625,-1.012115478515625,2678.469495666667,0.8089870273738341,-0.01108639917604268,0.1545876302762232,0.2099975645542145,0.02676849626004696,0.03098428249359131,0.009672213345766068,0.01597215235233307,-0.02126294374465942,XArbitraryZVertical,0.07315954844501953,0.02530785401369706,0.3919786795208626,0.9167113834757573,-0.01095397025346756,-0.1539726555347443,-0.9880144000053406,0,0,0,-1,-1,2676.372242916667,unknown,2,2022-06-02T10:45:32.094+02:00,2022-06-02T10:17:13.754+02:00,448,1.401249,0,0,345.1212,0,0,2022-06-02T10:45:32.094+02:00,675852332.0936673,0,6.933594,101.298,1,0.82
2022-06-02T10:45:34.212+02:00,1654159533.499566,53.22888795108437,10.39798063911611,42.58036,-1,-1,-1,-1,22.88975524902344,40,-9999,2678.489484666667,0.00775146484375,-0.229888916015625,-1.009124755859375,2678.479489666667,0.8092482443338829,-0.01040842877357003,0.1565848927748599,0.08135651051998138,0.06083192303776741,0.02212580665946007,0.008129392750561237,-0.0469198077917099,-0.02519679069519043,XArbitraryZVertical,0.07393836749945179,0.02602045391150238,0.3920878698729828,0.9165822357798213,-0.01028090249747038,-0.1559457927942276,-0.9877120852470398,0,0,0,-1,-1,2676.372242916667,unknown,2,2022-06-02T10:45:32.094+02:00,2022-06-02T10:17:13.754+02:00,448,1.401249,0,0,345.1212,0,0,2022-06-02T10:45:32.094+02:00,675852332.0936673,0,6.933594,101.298,1,0.82
2022-06-02T10:45:34.222+02:00,1654159533.499566,53.22888795108437,10.39798063911611,42.58036,-1,-1,-1,-1,22.88975524902344,40,-9999,2678.499478666667,0.003448486328125,-0.2192840576171875,-1.002212524414062,2678.489484666667,0.8093470911995079,-0.009493044827300758,0.1571593924630073,-0.07385455071926117,0.07455167174339294,0.00708753801882267,0.01528104022145271,-0.07078170776367188,-0.02356857061386108,XArbitraryZVertical,0.07402078757307499,0.02655645096935128,0.3921568486918367,0.9165307378530422,-0.009375910274684429,-0.1565132439136505,-0.9876313805580139,0,0,0,-1,-1,2676.372242916667,unknown,2,2022-06-02T10:45:32.094+02:00,2022-06-02T10:17:13.754+02:00,448,1.401249,0,0,345.1212,0,0,2022-06-02T10:45:32.094+02:00,675852332.0936673,0,6.933594,101.298,1,0.82
2022-06-02T10:45:34.235+02:00,1654159533.499566,53.22888795108437,10.39798063911611,42.58036,-1,-1,-1,-1,22.88975524902344,40,-9999,2678.509473666667,-0.00732421875,-0.185089111328125,-0.9955902099609375,2678.499478666667,0.8094289244743574,-0.00859733073502957,0.1561038676292412,-0.2100688517093658,0.08629833906888962,0.01984727568924427,0.01613732054829597,-0.07167170941829681,-0.01576650142669678,XArbitraryZVertical,0.07336048168045245,0.0267626118751976,0.3922458023913263,0.9165397468728232,-0.008492686785757542,-0.1554706394672394,-0.9878039956092834,0,0,0,-1,-1,2676.372242916667,unknown,2,2022-06-02T10:45:32.094+02:00,2022-06-02T10:17:13.754+02:00,448,1.401249,0,0,345.1212,0,0,2022-06-02T10:45:32.094+02:00,675852332.0936673,0,6.933594,101.298,1,0.82
2022-06-02T10:45:34.248+02:00,1654159533.499566,53.22888795108437,10.39798063911611,42.58036,-1,-1,-1,-1,22.88975524902344,40,-9999,2678.519467666667,-0.0175933837890625,-0.1377410888671875,-0.9872283935546875,2678.509473666667,0.8096790522943899,-0.007719785965474302,0.1537539853855826,-0.2723915874958038,0.09561360627412796,0.03145246207714081,0.006438438314944506,-0.05040335655212402,-0.009934186935424805,XArbitraryZVertical,0.07210838866008927,0.02671220641723755,0.392432538781064,0.9165606627484891,-0.007628640625625849,-0.1531489044427872,-0.9881736636161804,0,0,0,-1,-1,2676.372242916667,unknown,2,2022-06-02T10:45:32.094+02:00,2022-06-02T10:17:13.754+02:00,448,1.401249,0,0,345.1212,0,0,2022-06-02T10:45:32.094+02:00,675852332.0936673,0,6.933594,101.298,1,0.82
2022-06-02T10:45:34.251+02:00,1654159533.499566,53.22888795108437,10.39798063911611,42.58036,-1,-1,-1,-1,22.88975524902344,40,-9999,2678.529462666667,-0.0089263916015625,-0.086517333984375,-0.9798736572265625,2678.519467666667,0.8100672482047996,-0.006663763031761224,0.1509439361372825,-0.2271447330713272,0.1035221293568611,0.05291407555341721,-0.0074043869972229,-0.01329439878463745,-0.002954244613647461,XArbitraryZVertical,0.07060843938439049,0.02665774471090331,0.3926948751876049,0.9165666609795919,-0.006587944459170103,-0.1503714025020599,-0.98860764503479,0,0,0,-1,-1,2676.372242916667,unknown,2,2022-06-02T10:45:32.094+02:00,2022-06-02T10:17:13.754+02:00,448,1.401249,0,0,345.1212,0,0,2022-06-02T10:45:32.094+02:00,675852332.0936673,0,6.933594,101.298,1,0.82
2022-06-02T10:45:34.261+02:00,1654159533.499566,53.22888795108437,10.39798063911611,42.58036,-1,-1,-1,-1,22.88975524902344,40,-9999,2678.539456666667,0.004302978515625,-0.062347412109375,-0.9617156982421875,2678.529462666667,0.810640235811693,-0.005581540762918471,0.1489170757733797,-0.06192165613174438,0.07469960302114487,0.06775767356157303,-0.009266048669815063,0.0371764600276947,0.005854189395904541,XArbitraryZVertical,0.06945953587621079,0.02677518663278712,0.3930280942966161,0.9165082817179577,-0.005519737489521503,-0.1483672857284546,-0.9889169335365295,0,0,0,-1,-1,2676.372242916667,unknown,2,2022-06-02T10:45:32.094+02:00,2022-06-02T10:17:13.754+02:00,448,1.401249,0,0,345.1212,0,0,2022-06-02T10:45:32.094+02:00,675852332.0936673,0,6.933594,101.298,1,0.82
2022-06-02T10:45:34.271+02:00,1654159533.499566,53.22888795108437,10.39798063911611,42.58036,-1,-1,-1,-1,22.88975524902344,40,-9999,2678.549451666667,0.0098724365234375,-0.0966033935546875,-0.9774169921875,2678.539456666667,0.8113286120780006,-0.005054336284001734,0.1488079587549477,0.1391139775514603,0.01872981339693069,0.0706261619925499,0.002694360911846161,0.07910650968551636,0.01859897375106812,XArbitraryZVertical,0.06929664643126095,0.02701917930268541,0.3933635790104866,0.9163693704433176,-0.004998457152396441,-0.1482593715190887,-0.9889358878135681,0,0,0,-1,-1,2676.372242916667,unknown,2,2022-06-02T10:45:32.094+02:00,2022-06-02T10:17:13.754+02:00,448,1.401249,0,0,345.1212,0,0,2022-06-02T10:45:32.094+02:00,675852332.0936673,0,6.933594,101.298,1,0.82
2022-06-02T10:45:34.281+02:00,1654159533.499566,53.22888795108437,10.39798063911611,42.58036,-1,-1,-1,-1,22.88975524902344,40,-9999,2678.559445666667,0.0056610107421875,-0.1667327880859375,-0.984619140625,2678.549451666667,0.8120240787672826,-0.005183955185690235,0.1506737381517367,0.2342040687799454,-0.0257115550339222,0.06330899894237518,0.01458562910556793,0.07960864901542664,0.02469813823699951,XArbitraryZVertical,0.07016733021666736,0.02735146376167588,0.3936479187916159,0.9161712248182059,-0.005125198978930712,-0.1501042693853378,-0.9886568784713745,0,0,0,-1,-1,2676.372242916667,unknown,2,2022-06-02T10:45:32.094+02:00,2022-06-02T10:17:13.754+02:00,448,1.401249,0,0,345.1212,0,0,2022-06-02T10:45:32.094+02:00,675852332.0936673,0,6.933594,101.298,1,0.82
2022-06-02T10:45:34.292+02:00,1654159533.499566,53.22888795108437,10.39798063911611,42.58036,-1,-1,-1,-1,22.88975524902344,40,-9999,2678.569440666667,-0.0025634765625,-0.204833984375,-0.9872894287109375,2678.559445666667,0.8126074145150037,-0.005520904816843122,0.1531147813096685,0.1720000952482224,-0.02327396348118782,0.04901501536369324,0.01494723185896873,0.01930795609951019,0.0001723766326904297,XArbitraryZVertical,0.07134353187615483,0.02769880706189372,0.3938636045661374,0.9159772500253665,-0.005456286948174238,-0.1525172144174576,-0.9882857799530029,0,0,0,-1,-1,2676.372242916667,unknown,2,2022-06-02T10:45:32.094+02:00,2022-06-02T10:17:13.754+02:00,448,1.401249,0,0,345.1212,0,0,2022-06-02T10:45:32.094+02:00,675852332.0936673,0,6.933594,101.298,1,0.82
2022-06-02T10:45:34.302+02:00,1654159533.499566,53.22888795108437,10.39798063911611,42.58036,-1,-1,-1,-1,22.88975524902344,40,-9999,2678.579434666667,-0.00616455078125,-0.20648193359375,-1.003204345703125,2678.569440666667,0.813093005377193,-0.005603075074788424,0.1545940724554492,0.03067468851804733,0.008176170289516449,0.04640371724963188,0.006772167980670929,-0.03576403856277466,0.007025301456451416,XArbitraryZVertical,0.07203028319471239,0.02797027030001123,0.3940587015675509,0.9158312507105224,-0.005536224693059921,-0.153979018330574,-0.9880586266517639,0,0,0,-1,-1,2676.372242916667,unknown,2,2022-06-02T10:45:32.094+02:00,2022-06-02T10:17:13.754+02:00,448,1.401249,0,0,345.1212,0,0,2022-06-02T10:45:32.094+02:00,675852332.0936673,0,6.933594,101.298,1,0.82
2022-06-02T10:45:34.311+02:00,1654159533.499566,53.22888795108437,10.39798063911611,42.58036,-1,-1,-1,-1,22.88975524902344,40,-9999,2678.589429666667,0.006256103515625,-0.1849517822265625,-1.012893676757812,2678.579434666667,0.8134474818975376,-0.005284181641054247,0.1547454661856889,-0.09170635044574738,0.04622262343764305,0.02911447733640671,0.0002924054861068726,-0.05714459717273712,-0.009857296943664551,XArbitraryZVertical,0.07203177038483152,0.02815891600840346,0.3942299792746267,0.9157517127220548,-0.005221015773713589,-0.1541286110877991,-0.9880369901657104,0,0,0,-1,-1,2676.372242916667,unknown,2,2022-06-02T10:45:32.094+02:00,2022-06-02T10:17:13.754+02:00,448,1.401249,0,0,345.1212,0,0,2022-06-02T10:45:32.094+02:00,675852332.0936673,0,6.933594,101.298,1,0.82
2022-06-02T10:45:34.321+02:00,1654159533.499566,53.22888795108437,10.39798063911611,42.58036,-1,-1,-1,-1,22.88975524902344,40,-9999,2678.599423666667,0.0055389404296875,-0.160980224609375,-1.025833129882812,2678.589429666667,0.8136945920937109,-0.004759559554656636,0.1537131922047361,-0.1679828017950058,0.05618723854422569,0.01922256499528885,0.003467444330453873,-0.04275324940681458,-0.01778328418731689,XArbitraryZVertical,0.07145228669759159,0.02820428739048481,0.3943788501808519,0.9157316586437296,-0.004703423473984003,-0.1531085968017578,-0.9881981611251831,0,0,0,-1,-1,2676.372242916667,unknown,2,2022-06-02T10:45:32.094+02:00,2022-06-02T10:17:13.754+02:00,448,1.401249,0,0,345.1212,0,0,2022-06-02T10:45:32.094+02:00,675852332.0936673,0,6.933594,101.298,1,0.82
2022-06-02T10:45:34.331+02:00,1654159533.499566,53.22888795108437,10.39798063911611,42.58036,-1,-1,-1,-1,22.88975524902344,40,-9999,2678.609418666667,-0.0153656005859375,-0.1402587890625,-1.023941040039062,2678.599423666667,0.8139427284266891,-0.004253366944222554,0.151948226218928,-0.1935646086931229,0.06514371186494827,0.02556035667657852,0.01316123455762863,-0.02394405007362366,-0.03266429901123047,XArbitraryZVertical,0.07054096122669848,0.02809648713335111,0.3945389317726894,0.9157366096524661,-0.004204347264021635,-0.1513641923666,-0.988469123840332,0,0,0,-1,-1,2676.372242916667,unknown,2,2022-06-02T10:45:32.094+02:00,2022-06-02T10:17:13.754+02:00,448,1.401249,0,0,345.1212,0,0,2022-06-02T10:45:32.094+02:00,675852332.0936673,0,6.933594,101.298,1,0.82
2022-06-02T10:45:34.342+02:00,1654159533.499566,53.22888795108437,10.39798063911611,42.58036,-1,-1,-1,-1,22.88975524902344,40,-9999,2678.619412666667,-0.0267181396484375,-0.1324615478515625,-1.005462646484375,2678.609418666667,0.8141806393463984,-0.003646741767910579,0.1498890222465122,-0.1544934958219528,0.07962145656347275,0.01978955045342445,0.0004625134170055389,0.002447277307510376,-0.03869998455047607,XArbitraryZVertical,0.06947520260560695,0.02797598893162481,0.3947016917792276,0.9157516269650224,-0.003605845151469111,-0.1493283957242966,-0.9887810945510864,0,0,0,-1,-1,2676.372242916667,unknown,2,2022-06-02T10:45:32.094+02:00,2022-06-02T10:17:13.754+02:00,448,1.401249,0,0,345.1212,0,0,2022-06-02T10:45:32.094+02:00,675852332.0936673,0,6.933594,101.298,1,0.82
2022-06-02T10:45:34.351+02:00,1654159533.499566,53.22888795108437,10.39798063911611,42.58036,-1,-1,-1,-1,22.88975524902344,40,-9999,2678.629407666667,-0.0233612060546875,-0.1289825439453125,-0.977264404296875,2678.619412666667,0.8143809890331861,-0.002831099737865037,0.1480351818355211,-0.08920077979564667,0.08871082961559296,0.02034561708569527,-0.0206526480615139,0.01204279065132141,-0.02865660190582275,XArbitraryZVertical,0.06846265837386128,0.02799023638860658,0.3948502573098872,0.9157633430648703,-0.002800131682306528,-0.1474950909614563,-0.989058792591095,0,0,0,-1,-1,2676.372242916667,unknown,2,2022-06-02T10:45:32.094+02:00,2022-06-02T10:17:13.754+02:00,448,1.401249,0,0,345.1212,0,0,2022-06-02T10:45:32.094+02:00,675852332.0936673,0,6.933594,101.298,1,0.82
2022-06-02T10:45:34.361+02:00,1654159533.499566,53.22888795108437,10.39798063911611,42.58036,-1,-1,-1,-1,22.88975524902344,40,-9999,2678.639401666667,-0.00994873046875,-0.1356048583984375,-0.9783935546875,2678.629407666667,0.8146050036261787,-0.001883918745937649,0.1467967634890876,-0.04026656225323677,0.08641644567251205,0.02746165171265602,-0.02432044595479965,0.01812678575515747,-0.001662790775299072,XArbitraryZVertical,0.06770547441330178,0.02818691019593551,0.3950037881429787,0.915747449292762,-0.001863655517809093,-0.1462700963020325,-0.9892429113388062,0,0,0,-1,-1,2676.372242916667,unknown,2,2022-06-02T10:45:32.094+02:00,2022-06-02T10:17:13.754+02:00,448,1.401249,0,0,345.1212,0,0,2022-06-02T10:45:32.094+02:00,675852332.0936673,0,6.933594,101.298,1,0.82
2022-06-02T10:45:34.372+02:00,1654159533.499566,53.22888795108437,10.39798063911611,42.58036,-1,-1,-1,-1,22.88975524902344,40,-9999,2678.649396666667,0.007904052734375,-0.112945556640625,-0.9805755615234375,2678.639401666667,0.8149126681951645,-0.001063906246279129,0.1465888079115048,0.02461176924407482,0.06287223845720291,0.03578029945492744,-0.01641883701086044,0.01221425831317902,0.01529079675674438,XArbitraryZVertical,0.0674439097034961,0.02853165773526488,0.3951754303176764,0.9156820963195328,-0.00105249579064548,-0.1460643857717514,-0.9892745018005371,0,0,0,-1,-1,2676.372242916667,unknown,2,2022-06-02T10:45:32.094+02:00,2022-06-02T10:17:13.754+02:00,448,1.401249,0,0,345.1212,0,0,2022-06-02T10:45:32.094+02:00,675852332.0936673,0,6.933594,101.298,1,0.82
2022-06-02T10:45:34.381+02:00,1654159533.499566,53.22888795108437,10.39798063911611,42.58036,-1,-1,-1,-1,22.88975524902344,40,-9999,2678.659390666667,0.018280029296875,-0.103759765625,-0.984710693359375,2678.649396666667,0.815271394097988,-0.0005878512214974819,0.1476448892439314,0.09949562698602676,0.03760982677340508,0.03241319954395294,9.315460920333862e-05,0.01936244964599609,0.007781624794006348,XArbitraryZVertical,0.06782815143294674,0.02897048493225122,0.3953402129567232,0.9155686599418288,-0.0005814555333927274,-0.1471090614795685,-0.9891201257705688,0,0,0,-1,-1,2676.372242916667,unknown,2,2022-06-02T10:45:32.094+02:00,2022-06-02T10:17:13.754+02:00,448,1.401249,0,0,345.1212,0,0,2022-06-02T10:45:32.094+02:00,675852332.0936673,0,6.933594,101.298,1,0.82
2022-06-02T10:45:34.391+02:00,1654159533.499566,53.22888795108437,10.39798063911611,42.58036,-1,-1,-1,-1,22.88975524902344,40,-9999,2678.669385666667,0.02606201171875,-0.1552276611328125,-0.9969482421875,2678.659390666667,0.8155413906954369,-0.0003596486622198721,0.1495595036260717,0.1474485099315643,0.02504929341375828,0.01746248081326485,0.01491250097751617,0.04675339162349701,0.007986545562744141,XArbitraryZVertical,0.06865549923502733,0.02946269646898677,0.3954431935744538,0.9154468596798743,-0.0003556338197086006,-0.1490025669336319,-0.9888367652893066,0,0,0,-1,-1,2676.372242916667,unknown,2,2022-06-02T10:45:32.094+02:00,2022-06-02T10:17:13.754+02:00,448,1.401249,0,0,345.1212,0,0,2022-06-02T10:45:32.094+02:00,675852332.0936673,0,6.933594,101.298,1,0.82
2022-06-02T10:45:34.402+02:00,1654159533.499566,53.22888795108437,10.39798063911611,42.58036,-1,-1,-1,-1,22.88975524902344,40,-9999,2678.679379666667,0.0241241455078125,-0.1977996826171875,-0.99755859375,2678.669385666667,0.8156061122657323,-0.0001887636758120446,0.1515035742096904,0.1215866804122925,0.01372340228408575,-0.004803677089512348,0.02244915440678596,0.02613826096057892,-0.00348961353302002,XArbitraryZVertical,0.06951055197023724,0.02992755760996902,0.3954496265721088,0.9153644095491323,-0.0001866014354163781,-0.1509246528148651,-0.9885452389717102,0,0,0,-1,-1,2676.372242916667,unknown,2,2022-06-02T10:45:32.094+02:00,2022-06-02T10:17:13.754+02:00,448,1.401249,0,0,345.1212,0,0,2022-06-02T10:45:32.094+02:00,675852332.0936673,0,6.933594,101.298,1,0.82
2022-06-02T10:45:34.412+02:00,1654159533.499566,53.22888795108437,10.39798063911611,42.58036,-1,-1,-1,-1,22.88975524902344,40,-9999,2678.689374666667,0.011566162109375,-0.1978759765625,-1.0001220703125,2678.679379666667,0.8154908224941414,6.939923667553062e-05,0.1523902945119,0.004820920526981354,0.01709309965372086,-0.01229408383369446,0.02494054287672043,-0.03049561381340027,-0.009651064872741699,XArbitraryZVertical,0.06986707581015238,0.03021701054823298,0.3953924942685704,0.9153524573140073,6.859497079858556e-05,-0.1518011540174484,-0.9884110689163208,0,0,0,-1,-1,2676.372242916667,unknown,2,2022-06-02T10:45:32.094+02:00,2022-06-02T10:17:13.754+02:00,448,1.401249,0,0,345.1212,0,0,2022-06-02T10:45:32.094+02:00,675852332.0936673,0,6.933594,101.298,1,0.82
2022-06-02T10:45:34.421+02:00,1654159533.499566,53.22888795108437,10.39798063911611,42.58036,-1,-1,-1,-1,22.88975524902344,40,-9999,2678.699368666667,0.0018463134765625,-0.17803955078125,-0.9932708740234375,2678.689374666667,0.8153474187511949,0.0002804440091485126,0.1517196346345261,-0.1166243180632591,0.02591528743505478,-0.01542536169290543,0.01894883066415787,-0.05184943974018097,-0.008954405784606934,XArbitraryZVertical,0.06952056460138507,0.03017602948851836,0.3953442802211116,0.9154010405808335,0.0002772224543150514,-0.1511382311582565,-0.9885125756263733,0,0,0,-1,-1,2676.372242916667,unknown,2,2022-06-02T10:45:32.094+02:00,2022-06-02T10:17:13.754+02:00,448,1.401249,0,0,345.1212,0,0,2022-06-02T10:45:32.094+02:00,675852332.0936673,0,6.933594,101.298,1,0.82
2022-06-02T10:45:34.431+02:00,1654159533.499566,53.22888795108437,10.39798063911611,42.58036,-1,-1,-1,-1,22.88975524902344,40,-9999,2678.709363666667,0.003173828125,-0.159637451171875,-0.9831085205078125,2678.699368666667,0.8152586503961524,0.0003358797326753795,0.1498343536938862,-0.202248141169548,0.04112779349088669,-0.009643638506531715,0.003787737339735031,-0.0384393036365509,-0.007282733917236328,XArbitraryZVertical,0.0686479977226712,0.02982569665657689,0.3953335841227555,0.9154829652779994,0.000332116469508037,-0.1492743492126465,-0.9887957572937012,0,0,0,-1,-1,2676.372242916667,unknown,2,2022-06-02T10:45:32.094+02:00,2022-06-02T10:17:13.754+02:00,448,1.401249,0,0,345.1212,0,0,2022-06-02T10:45:32.094+02:00,675852332.0936673,0,6.933594,101.298,1,0.82
2022-06-02T10:45:34.442+02:00,1654159533.499566,53.22888795108437,10.39798063911611,42.58036,-1,-1,-1,-1,22.88975524902344,40,-9999,2678.719357666667,0.006500244140625,-0.1432647705078125,-0.97674560546875,2678.709363666667,0.8152939622070134,0.0002110163124017705,0.1472196473952954,-0.2445816695690155,0.03515792265534401,0.001921537332236767,0.00217161700129509,-0.02245526015758514,-0.0004259943962097168,XArbitraryZVertical,0.0674752319584957,0.02925288828611061,0.3953837798106983,0.9155669977001829,0.0002087336906697601,-0.1466884315013885,-0.989182710647583,0,0,0,-1,-1,2676.372242916667,unknown,2,2022-06-02T10:45:32.094+02:00,2022-06-02T10:17:13.754+02:00,448,1.401249,0,0,345.1212,0,0,2022-06-02T10:45:32.094+02:00,675852332.0936673,0,6.933594,101.298,1,0.82
2022-06-02T10:45:34.452+02:00,1654159533.499566,53.22888795108437,10.39798063911611,42.58036,-1,-1,-1,-1,22.88975524902344,40,-9999,2678.729352666667,0.00518798828125,-0.122283935546875,-0.9703216552734375,2678.719357666667,0.8153874063133072,0.0001274124796485992,0.144594286277276,-0.2401959896087646,0.0189677644520998,0.007691275328397751,0.006191033869981766,-0.007459342479705811,0.01001125574111938,XArbitraryZVertical,0.06628850784749334,0.02869869086643462,0.3954615974779432,0.915637607298178,0.0001260828576050699,-0.1440909653902054,-0.9895644187927246,0,0,0,-1,-1,2676.372242916667,unknown,2,2022-06-02T10:45:32.094+02:00,2022-06-02T10:17:13.754+02:00,448,1.401249,0,0,345.1212,0,0,2022-06-02T10:45:32.094+02:00,675852332.0936673,0,6.933594,101.298,1,0.82
2022-06-02T10:45:34.462+02:00,1654159533.499566,53.22888795108437,10.39798063911611,42.58036,-1,-1,-1,-1,22.88975524902344,40,-9999,2678.739346666667,-0.0005645751953125,-0.094390869140625,-0.955474853515625,2678.729352666667,0.8154869979379128,0.0001859563445572849,0.142172224221235,-0.1799691617488861,-0.003289936110377312,0.007547265850007534,0.005217511206865311,0.008240357041358948,0.0140194296836853,XArbitraryZVertical,0.06516660765211119,0.02824981684712594,0.3955434385383073,0.91569670276847,0.0001840801414800808,-0.1416937559843063,-0.9899105429649353,0,0,0,-1,-1,2676.372242916667,unknown,2,2022-06-02T10:45:32.094+02:00,2022-06-02T10:17:13.754+02:00,448,1.401249,0,0,345.1212,0,0,2022-06-02T10:45:32.094+02:00,675852332.0936673,0,6.933594,101.298,1,0.82
2022-06-02T10:45:34.471+02:00,1654159533.499566,53.22888795108437,10.39798063911611,42.58036,-1,-1,-1,-1,22.88975524902344,40,-9999,2678.749341666667,-0.0089874267578125,-0.087738037109375,-0.93280029296875,2678.739346666667,0.8155407075934277,0.0003243982320232989,0.1401576839373315,-0.06267290562391281,-0.03376235812902451,0.008313721977174282,0.004195366054773331,0.03154492378234863,0.02708971500396729,XArbitraryZVertical,0.06421607839454113,0.02791650100676465,0.3956005274379933,0.9157495440492702,0.0003212171723134816,-0.139699250459671,-0.9901939034461975,0,0,0,-1,-1,2676.372242916667,unknown,2,2022-06-02T10:45:32.094+02:00,2022-06-02T10:17:13.754+02:00,448,1.401249,0,0,345.1212,0,0,2022-06-02T10:45:32.094+02:00,675852332.0936673,0,6.933594,101.298,1,0.82
2022-06-02T10:45:34.481+02:00,1654159533.499566,53.22888795108437,10.39798063911611,42.58036,-1,-1,-1,-1,22.88975524902344,40,-9999,2678.759335666667,-0.0026702880859375,-0.1298980712890625,-0.909637451171875,2678.749341666667,0.8155698206391327,0.0002517136097250503,0.1396704079220417,0.01376384869217873,-0.0659087747335434,0.005046756938099861,-0.005666151642799377,0.05233317613601685,0.04520881175994873,XArbitraryZVertical,0.06400693709503359,0.02778777505351877,0.3956182581278442,0.9157604059469174,0.0002492624043952674,-0.139216735959053,-0.9902619123458862,0,0,0,-1,-1,2676.372242916667,unknown,2,2022-06-02T10:45:32.094+02:00,2022-06-02T10:17:13.754+02:00,448,1.401249,0,0,345.1212,0,0,2022-06-02T10:45:32.094+02:00,675852332.0936673,0,6.933594,101.298,1,0.82
2022-06-02T10:45:34.491+02:00,1654159533.499566,53.22888795108437,10.39798063911611,42.58036,-1,-1,-1,-1,22.88975524902344,40,-9999,2678.769330666667,-0.035888671875,-0.1898651123046875,-0.880645751953125,2678.759335666667,0.8155944877399753,-6.207235393464986e-05,0.1405888582956212,0.002924517262727022,-0.1004451811313629,0.01322905346751213,-0.01182515919208527,0.03442855179309845,0.06772464513778687,XArbitraryZVertical,0.06448919653989392,0.02782656419579438,0.3956067364855064,0.9157303948539878,-6.145992665551603e-05,-0.1401261836290359,-0.9901336431503296,0,0,0,-1,-1,2676.372242916667,unknown,2,2022-06-02T10:45:32.094+02:00,2022-06-02T10:17:13.754+02:00,448,1.401249,0,0,345.1212,0,0,2022-06-02T10:45:32.094+02:00,675852332.0936673,0,6.933594,101.298,1,0.82
2022-06-02T10:45:34.501+02:00,1654159533.499566,53.22888795108437,10.39798063911611,42.58036,-1,-1,-1,-1,22.88975524902344,40,-9999,2678.779324666667,-0.0587615966796875,-0.2014923095703125,-0.8520050048828125,2678.769330666667,0.8152525365633631,-0.0006585340142982331,0.1412247964418721,-0.1085764467716217,-0.092182457447052,-0.0621035173535347,-0.008274435997009277,-0.02304729819297791,0.09503984451293945,XArbitraryZVertical,0.06490307696592795,0.02766816783706965,0.3954219553198741,0.9157857085390375,-0.0006519778398796916,-0.1407558172941208,-0.990044116973877,0,0,0,-1,-1,2676.372242916667,unknown,2,2022-06-02T10:45:32.094+02:00,2022-06-02T10:17:13.754+02:00,448,1.401249,0,0,345.1212,0,0,2022-06-02T10:45:32.094+02:00,675852332.0936673,0,6.933594,101.298,1,0.82
2022-06-02T10:45:34.511+02:00,1654159533.499566,53.22888795108437,10.39798063911611,42.58036,-1,-1,-1,-1,22.88975524902344,40,-9999,2678.789319666667,-0.0499725341796875,-0.21368408203125,-0.812469482421875,2678.779324666667,0.8146763715159621,-0.001353780937288902,0.1399091201387437,-0.2766810357570648,-0.07559256255626678,-0.0556621290743351,-0.05528483539819717,-0.05831605195999146,0.1234980821609497,XArbitraryZVertical,0.06444590021318414,0.02707108395825232,0.3951542506785511,0.9159513265550314,-0.001340552233159542,-0.1394531279802322,-0.9902277588844299,0,0,0,-1,-1,2676.372242916667,unknown,2,2022-06-02T10:45:32.094+02:00,2022-06-02T10:17:13.754+02:00,448,1.401249,0,0,345.1212,0,0,2022-06-02T10:45:32.094+02:00,675852332.0936673,0,6.933594,101.298,1,0.82
2022-06-02T10:45:34.521+02:00,1654159533.499566,53.22888795108437,10.39798063911611,42.58036,-1,-1,-1,-1,22.88975524902344,40,-9999,2678.799313666667,-0.0415496826171875,-0.21844482421875,-0.7603759765625,2678.789319666667,0.8140024196685987,-0.002052243054987826,0.1364593599013516,-0.4733542799949646,-0.09235875308513641,-0.08255979418754578,-0.05192193388938904,-0.072520911693573,0.1571294069290161,XArbitraryZVertical,0.06301275840568415,0.0260481509494331,0.394871806072372,0.9162024560054999,-0.002033163793385029,-0.1360362470149994,-0.9907017946243286,0,0,0,-1,-1,2676.372242916667,unknown,2,2022-06-02T10:45:32.094+02:00,2022-06-02T10:17:13.754+02:00,448,1.401249,0,0,345.1212,0,0,2022-06-02T10:45:32.094+02:00,675852332.0936673,0,6.933594,101.298,1,0.82
2022-06-02T10:45:34.531+02:00,1654159533.499566,53.22888795108437,10.39798063911611,42.58036,-1,-1,-1,-1,22.88975524902344,40,-9999,2678.809308666667,-0.05841064453125,-0.2503509521484375,-0.743743896484375,2678.799313666667,0.8129369638190354,-0.002989452595536186,0.1304814423055654,-0.7484513521194458,-0.1333152502775192,-0.123560756444931,-0.04168320074677467,-0.08520530164241791,0.2058504223823547,XArbitraryZVertical,0.0604722311848517,0.02440575324355578,0.3944369586374554,0.9166062098616672,-0.002964035840705037,-0.130111500620842,-0.9914949536323547,0,0,0,-1,-1,2676.372242916667,unknown,2,2022-06-02T10:45:32.094+02:00,2022-06-02T10:17:13.754+02:00,448,1.401249,0,0,345.1212,0,0,2022-06-02T10:45:32.094+02:00,675852332.0936673,0,6.933594,101.298,1,0.82
2022-06-02T10:45:34.541+02:00,1654159533.499566,53.22888795108437,10.39798063911611,42.58036,-1,-1,-1,-1,22.88975524902344,40,-9999,2678.819302666667,-0.0700225830078125,-0.3986358642578125,-0.721282958984375,2678.809308666667,0.8110640148105949,-0.004466014759158004,0.1208372972126667,-1.228592872619629,-0.2055423706769943,-0.2649018168449402,-0.03880999609827995,-0.1012278273701668,0.2435221076011658,XArbitraryZVertical,0.05636367443475487,0.02177291641978478,0.3936629674404875,0.9172668424641945,-0.00443343399092555,-0.1205434426665306,-0.9926981329917908,0,0,0,-1,-1,2676.372242916667,unknown,2,2022-06-02T10:45:32.094+02:00,2022-06-02T10:17:13.754+02:00,448,1.401249,0,0,345.1212,0,0,2022-06-02T10:45:32.094+02:00,675852332.0936673,0,6.933594,101.298,1,0.82
2022-06-02T10:45:34.551+02:00,1654159533.499566,53.22888795108437,10.39798063911611,42.58036,-1,-1,-1,-1,22.88975524902344,40,-9999,2678.829297666667,-0.094146728515625,-0.4194488525390625,-0.6982421875,2678.819302666667,0.8075867476232887,-0.00641778106972683,0.1053563036423321,-1.891336798667908,-0.2647694647312164,-0.3919165134429932,-0.06205353513360023,-0.2190267592668533,0.268116295337677,XArbitraryZVertical,0.0496780305996968,0.01774134705705955,0.3922070596543848,0.9183630999701109,-0.006382151506841183,-0.1051615029573441,-0.994434654712677,0,0,0,-1,-1,2676.372242916667,unknown,2,2022-06-02T10:45:32.094+02:00,2022-06-02T10:17:13.754+02:00,448,1.401249,0,0,345.1212,0,0,2022-06-02T10:45:32.094+02:00,675852332.0936673,0,6.933594,101.298,1,0.82
2022-06-02T10:45:34.561+02:00,1654159533.499566,53.22888795108437,10.39798063911611,42.58036,-1,-1,-1,-1,22.88975524902344,40,-9999,2678.839291666667,-0.1478271484375,-0.3725433349609375,-0.65570068359375,2678.829297666667,0.8030859440807206,-0.008689255055464163,0.08264722214427145,-2.655322313308716,-0.2685583531856537,-0.4826783537864685,-0.06659688055515289,-0.3442656993865967,0.2817816138267517,XArbitraryZVertical,0.03972210394006898,0.01215050849725512,0.3903365065802094,0.919734670342424,-0.008659486658871174,-0.08255316317081451,-0.9965490102767944,0,0,0,-1,-1,2676.372242916667,unknown,2,2022-06-02T10:45:32.094+02:00,2022-06-02T10:17:13.754+02:00,448,1.401249,0,0,345.1212,0,0,2022-06-02T10:45:32.094+02:00,675852332.0936673,0,6.933594,101.298,1,0.82
2022-06-02T10:45:34.571+02:00,1654159533.499566,53.22888795108437,10.39798063911611,42.58036,-1,-1,-1,-1,22.88975524902344,40,-9999,2678.849286666667,-0.1827239990234375,-0.270355224609375,-0.6238861083984375,2678.839291666667,0.7971101108364781,-0.01094148258612907,0.05302693517572779,-3.25492525100708,-0.2607768476009369,-0.6525565981864929,-0.1103662475943565,-0.3493416905403137,0.3196253180503845,XArbitraryZVertical,0.02655455430461203,0.005248013386643995,0.3878112051728532,0.9213412251722526,-0.01092588528990746,-0.05300208926200867,-0.998534619808197,0,0,0,-1,-1,2676.372242916667,unknown,2,2022-06-02T10:45:32.094+02:00,2022-06-02T10:17:13.754+02:00,448,1.401249,0,0,345.1212,0,0,2022-06-02T10:45:32.094+02:00,675852332.0936673,0,6.933594,101.298,1,0.82
2022-06-02T10:45:34.581+02:00,1654159533.499566,53.22888795108437,10.39798063911611,42.58036,-1,-1,-1,-1,22.88975524902344,40,-9999,2678.859280666667,-0.2178192138671875,-0.1699371337890625,-0.6502838134765625,2678.849286666667,0.789442901100887,-0.01329938090802651,0.01846388414571695,-3.66584300994873,-0.2681651413440704,-0.7935000061988831,-0.153863325715065,-0.3084720075130463,0.364685595035553,XArbitraryZVertical,0.01107874932807715,-0.002588022444266786,0.384469537206503,0.9230674888570104,-0.01329672243446112,-0.01846283487975597,-0.9997411370277405,0,0,0,-1,-1,2676.372242916667,unknown,2,2022-06-02T10:45:32.094+02:00,2022-06-02T10:17:13.754+02:00,448,1.401249,0,0,345.1212,0,0,2022-06-02T10:45:32.094+02:00,675852332.0936673,0,6.933594,101.298,1,0.82
2022-06-02T10:45:34.591+02:00,1654159533.499566,53.22888795108437,10.39798063911611,42.58036,-1,-1,-1,-1,22.88975524902344,40,-9999,2678.869275666667,-0.233154296875,-0.0837554931640625,-0.6955413818359375,2678.859280666667,0.7802210503817903,-0.01588702678715984,-0.01940212045390522,-3.917321681976318,-0.242607593536377,-0.9396180510520935,-0.1838389337062836,-0.2348092645406723,0.3718169927597046,XArbitraryZVertical,-0.005951097166468869,-0.011035318589473,0.3803320108789108,0.9247650519624011,-0.01588336750864983,0.01940090395510197,-0.9996855854988098,0,0,0,-1,-1,2676.372242916667,unknown,2,2022-06-02T10:45:32.094+02:00,2022-06-02T10:17:13.754+02:00,448,1.401249,0,0,345.1212,0,0,2022-06-02T10:45:32.094+02:00,675852332.0936673,0,6.933594,101.298,1,0.82
2022-06-02T10:45:34.601+02:00,1654159533.499566,53.22888795108437,10.39798063911611,42.58036,-1,-1,-1,-1,22.88975524902344,40,-9999,2678.879269666667,-0.2245025634765625,-0.021209716796875,-0.69659423828125,2678.869275666667,0.769474605136253,-0.01866613511655167,-0.05917189995953185,-4.070299625396729,-0.2257636338472366,-1.067423224449158,-0.211576983332634,-0.185220792889595,0.3179001808166504,XArbitraryZVertical,-0.02391667325575683,-0.01974885016010284,0.3753909819162272,0.9263473879870624,-0.01863238401710987,0.05913737788796425,-0.9980759620666504,0,0,0,-1,-1,2676.372242916667,unknown,2,2022-06-02T10:45:32.094+02:00,2022-06-02T10:17:13.754+02:00,448,1.401249,0,0,345.1212,0,0,2022-06-02T10:45:32.094+02:00,675852332.0936673,0,6.933594,101.298,1,0.82
2022-06-02T10:45:34.612+02:00,1654159533.499566,53.22888795108437,10.39798063911611,42.58036,-1,-1,-1,-1,22.88975524902344,40,-9999,2678.889264666667,-0.221435546875,0.0398712158203125,-0.69647216796875,2678.879269666667,0.7573582380672059,-0.02193076908563953,-0.1001431870007428,-4.175698757171631,-0.2409747987985611,-1.183951616287231,-0.2089242786169052,-0.1493381261825562,0.2963711023330688,XArbitraryZVertical,-0.04245330607901515,-0.02867785008555954,0.3697178785698459,0.9277305676419176,-0.02181914448738098,0.09997588396072388,-0.9947506189346313,0,0,0,-1,-1,2676.372242916667,unknown,2,2022-06-02T10:45:32.094+02:00,2022-06-02T10:17:13.754+02:00,448,1.401249,0,0,345.1212,0,0,2022-06-02T10:45:32.094+02:00,675852332.0936673,0,6.933594,101.298,1,0.82
