,loggingTime(txt),locationTimestamp_since1970(s),locationLatitude(WGS84),locationLongitude(WGS84),locationAltitude(m),locationSpeed(m/s),locationSpeedAccuracy(m/s),locationCourse(°),locationCourseAccuracy(°),locationVerticalAccuracy(m),locationHorizontalAccuracy(m),locationFloor(Z),accelerometerTimestamp_sinceReboot(s),accelerometerAccelerationX(G),accelerometerAccelerationY(G),accelerometerAccelerationZ(G),motionTimestamp_sinceReboot(s),motionYaw(rad),motionRoll(rad),motionPitch(rad),motionRotationRateX(rad/s),motionRotationRateY(rad/s),motionRotationRateZ(rad/s),motionUserAccelerationX(G),motionUserAccelerationY(G),motionUserAccelerationZ(G),motionAttitudeReferenceFrame(txt),motionQuaternionX(R),motionQuaternionY(R),motionQuaternionZ(R),motionQuaternionW(R),motionGravityX(G),motionGravityY(G),motionGravityZ(G),motionMagneticFieldX(µT),motionMagneticFieldY(µT),motionMagneticFieldZ(µT),motionHeading(°),motionMagneticFieldCalibrationAccuracy(Z),activityTimestamp_sinceReboot(s),activity(txt),activityActivityConfidence(Z),activityActivityStartDate(txt),pedometerStartDate(txt),pedometerNumberofSteps(N),pedometerAverageActivePace(s/m),pedometerCurrentPace(s/m),pedometerCurrentCadence(steps/s),pedometerDistance(m),pedometerFloorAscended(N),pedometerFloorDescended(N),pedometerEndDate(txt),altimeterTimestamp_sinceReboot(s),altimeterReset(bool),altimeterRelativeAltitude(m),altimeterPressure(kPa),batteryState(N),batteryLevel(R)
243,2022-06-02T10:46:28.182+02:00,1654159587.999705,53.22907182575999,10.39855804915555,36.85503,0.07379882,0.995001,42.00067394238977,55.83030142130843,2.400000095367432,7.999579855010837,-9999,2732.459856125,0.9577484130859376,0.20654296875,1.81414794921875,2732.449861125,0.0511804017974598,1.690702731223279,-0.0573204864475372,-0.7873448729515076,4.908237934112549,2.941707134246826,-0.1410458087921143,0.2702407538890839,1.413185119628906,XArbitraryZVertical,-0.0381430845424546,0.7471656558791261,-0.0044642956192735,0.6635274312388642,0.9911892414093018,0.0572891011834144,0.1194228231906891,0,0,0,-1,-1,2730.102895416667,unknown,2,2022-06-02T10:46:25.825+02:00,2022-06-02T10:17:13.754+02:00,448,1.423373,0,0,345.1212,0,0,2022-06-02T10:46:25.824+02:00,675852385.8243657,0,7.03125,101.2995,1,0.81
244,2022-06-02T10:46:28.192+02:00,1654159587.999705,53.22907182575999,10.39855804915555,36.85503,0.07379882,0.995001,42.00067394238977,55.83030142130843,2.400000095367432,7.999579855010837,-9999,2732.469850125,1.00048828125,0.3192901611328125,2.024749755859375,2732.459856125,0.0553017155542098,1.741512079846178,-0.0279564816235297,-0.914084017276764,5.219845771789551,2.74985671043396,-0.0640425682067871,0.2262127697467804,1.547448515892029,XArbitraryZVertical,-0.030144789209469,0.7642002167635739,0.0071236629841278,0.6442348867530686,0.9850783348083496,0.0279528405517339,0.1698213666677475,0,0,0,-1,-1,2730.102895416667,unknown,2,2022-06-02T10:46:25.825+02:00,2022-06-02T10:17:13.754+02:00,448,1.423373,0,0,345.1212,0,0,2022-06-02T10:46:25.824+02:00,675852385.8243657,0,7.03125,101.2995,1,0.81
245,2022-06-02T10:46:28.202+02:00,1654159587.999705,53.22907182575999,10.39855804915555,36.85503,0.07379882,0.995001,42.00067394238977,55.83030142130843,2.400000095367432,7.999579855010837,-9999,2732.479845125,0.91058349609375,0.61016845703125,2.198516845703125,2732.479845125,0.0729730621111012,1.849811831944096,0.029620781761043,-2.232569694519043,5.62485408782959,2.491034269332886,0.0152909159660339,0.4923697113990784,1.845973014831543,XArbitraryZVertical,-0.0202189187466059,0.7982702891860728,0.0337730613846786,0.6010116764852529,0.9609052538871764,-0.0296164508908987,0.2752885222434998,0,0,0,-1,-1,2730.102895416667,unknown,2,2022-06-02T10:46:25.825+02:00,2022-06-02T10:17:13.754+02:00,448,1.423373,0,0,345.1212,0,0,2022-06-02T10:46:25.824+02:00,675852385.8243657,0,7.03125,101.2995,1,0.81
246,2022-06-02T10:46:28.212+02:00,1654159587.999705,53.22907182575999,10.39855804915555,36.85503,0.07379882,0.995001,42.00067394238977,55.83030142130843,2.400000095367432,7.999579855010837,-9999,2732.489839125,0.745391845703125,0.662567138671875,2.3280029296875,2732.479845125,0.0729730621111012,1.849811831944096,0.029620781761043,-2.232569694519043,5.62485408782959,2.491034269332886,0.0152909159660339,0.4923697113990784,1.845973014831543,XArbitraryZVertical,-0.0202189187466059,0.7982702891860728,0.0337730613846786,0.6010116764852529,0.9609052538871764,-0.0296164508908987,0.2752885222434998,0,0,0,-1,-1,2730.102895416667,unknown,2,2022-06-02T10:46:25.825+02:00,2022-06-02T10:17:13.754+02:00,448,1.423373,0,0,345.1212,0,0,2022-06-02T10:46:25.824+02:00,675852385.8243657,0,7.03125,101.2995,1,0.81
247,2022-06-02T10:46:28.222+02:00,1654159587.999705,53.22907182575999,10.39855804915555,36.85503,0.07379882,0.995001,42.00067394238977,55.83030142130843,2.400000095367432,7.999579855010837,-9999,2732.499834125,0.69464111328125,0.671417236328125,2.712738037109375,2732.489839125,0.0893510238360779,1.907205021664927,0.0594932045385243,-2.690581083297729,6.013167381286621,2.184051275253296,-0.1201021075248718,0.7364752888679504,1.917066812515259,XArbitraryZVertical,-0.0192088095198065,0.8151003574422899,0.0500666212532691,0.5768323757621011,0.9422760009765624,-0.0594581142067909,0.329515129327774,0,0,0,-1,-1,2730.102895416667,unknown,2,2022-06-02T10:46:25.825+02:00,2022-06-02T10:17:13.754+02:00,448,1.423373,0,0,345.1212,0,0,2022-06-02T10:46:25.824+02:00,675852385.8243657,0,7.03125,101.2995,1,0.81
248,2022-06-02T10:46:28.232+02:00,1654159587.999705,53.22907182575999,10.39855804915555,36.85503,0.07379882,0.995001,42.00067394238977,55.83030142130843,2.400000095367432,7.999579855010837,-9999,2732.509828125,0.5556488037109375,0.78399658203125,3.15264892578125,2732.499834125,0.1100583050532983,1.967162501488854,0.0889566834000835,-3.300313711166382,6.283187866210938,1.856887221336365,-0.2082664370536804,0.7392910718917847,2.109903335571289,XArbitraryZVertical,-0.0211450776649659,0.8317595583243457,0.0674024929023745,0.5506229244275825,0.9188222289085388,-0.088839404284954,0.3845421671867371,0,0,0,-1,-1,2730.102895416667,unknown,2,2022-06-02T10:46:25.825+02:00,2022-06-02T10:17:13.754+02:00,448,1.423373,0,0,345.1212,0,0,2022-06-02T10:46:25.824+02:00,675852385.8243657,0,7.03125,101.2995,1,0.81
249,2022-06-02T10:46:28.242+02:00,1654159587.999705,53.22907182575999,10.39855804915555,36.85503,0.07379882,0.995001,42.00067394238977,55.83030142130843,2.400000095367432,7.999579855010837,-9999,2732.519823041667,0.383026123046875,0.8344879150390625,3.542800903320312,2732.509828125,0.1373583803957165,2.028959775442603,0.1198717821715471,-4.219689846038818,6.69368839263916,1.510688066482544,-0.2472571134567261,0.840745747089386,2.49937915802002,XArbitraryZVertical,-0.0266159635063326,0.8478534574338218,0.0869208042547459,0.5223800798368,0.8904304504394531,-0.1195849105715752,0.4391278028488159,0,0,0,-1,-1,2730.102895416667,unknown,2,2022-06-02T10:46:25.825+02:00,2022-06-02T10:17:13.754+02:00,448,1.423373,0,0,345.1212,0,0,2022-06-02T10:46:25.824+02:00,675852385.8243657,0,7.03125,101.2995,1,0.81
250,2022-06-02T10:46:28.252+02:00,1654159587.999705,53.22907182575999,10.39855804915555,36.85503,0.07379882,0.995001,42.00067394238977,55.83030142130843,2.400000095367432,7.999579855010837,-9999,2732.529817041667,0.289215087890625,0.923553466796875,3.918197631835938,2732.519823041667,0.1715213101646628,2.094449260352817,0.152341640759928,-4.713717460632324,7.343759059906006,1.014139294624329,-0.3944056034088135,0.975910782814026,2.861609935760498,XArbitraryZVertical,-0.0360589968900472,0.8636130260013802,0.1083625240673391,0.4910495351183516,0.8559684157371521,-0.1517530679702759,0.4942554235458374,0,0,0,-1,-1,2730.102895416667,unknown,2,2022-06-02T10:46:25.825+02:00,2022-06-02T10:17:13.754+02:00,448,1.423373,0,0,345.1212,0,0,2022-06-02T10:46:25.824+02:00,675852385.8243657,0,7.03125,101.2995,1,0.81
251,2022-06-02T10:46:28.262+02:00,1654159587.999705,53.22907182575999,10.39855804915555,36.85503,0.07379882,0.995001,42.00067394238977,55.83030142130843,2.400000095367432,7.999579855010837,-9999,2732.539812041667,0.1808319091796875,1.03118896484375,4.329254150390625,2732.529817041667,0.2088758291077111,2.164627665445015,0.1835286045605115,-4.877318382263184,7.910018920898438,0.3736741244792938,-0.4876440167427063,1.032704472541809,3.171627521514893,XArbitraryZVertical,-0.0488995949437104,0.8790225222671512,0.1291939369051079,0.456330094353069,0.8148839473724365,-0.1825000494718552,0.5501435399055481,0,0,0,-1,-1,2730.102895416667,unknown,2,2022-06-02T10:46:25.825+02:00,2022-06-02T10:17:13.754+02:00,448,1.423373,0,0,345.1212,0,0,2022-06-02T10:46:25.824+02:00,675852385.8243657,0,7.03125,101.2995,1,0.81
252,2022-06-02T10:46:28.272+02:00,1654159587.999705,53.22907182575999,10.39855804915555,36.85503,0.07379882,0.995001,42.00067394238977,55.83030142130843,2.400000095367432,7.999579855010837,-9999,2732.549806041667,0.038726806640625,1.020767211914062,4.640274047851562,2732.539812041667,0.249836980022447,2.238403636278674,0.2132311500952891,-5.075828075408936,8.498985290527344,-0.3492004573345184,-0.5186794996261597,1.222208499908447,3.530013799667358,XArbitraryZVertical,-0.0653899277724616,0.8934583647609865,0.1490640401322912,0.4186123009395462,0.7675198912620544,-0.2116189748048782,0.605087399482727,0,0,0,-1,-1,2730.102895416667,unknown,2,2022-06-02T10:46:25.825+02:00,2022-06-02T10:17:13.754+02:00,448,1.423373,0,0,345.1212,0,0,2022-06-02T10:46:25.824+02:00,675852385.8243657,0,7.03125,101.2995,1,0.81
253,2022-06-02T10:46:28.282+02:00,1654159587.999705,53.22907182575999,10.39855804915555,36.85503,0.07379882,0.995001,42.00067394238977,55.83030142130843,2.400000095367432,7.999579855010837,-9999,2732.559801041667,0.0961151123046875,1.28558349609375,5.2191162109375,2732.549806041667,0.2947310570793228,2.317506765621872,0.2382690349542063,-4.829153537750244,9.34726333618164,-1.572182655334473,-0.6189234852790833,1.24079692363739,3.823832750320435,XArbitraryZVertical,-0.0865072793711583,0.906937579850821,0.1661121429259939,0.3773426420018021,0.7131922841072083,-0.2360209226608276,0.6600385904312134,0,0,0,-1,-1,2730.102895416667,unknown,2,2022-06-02T10:46:25.825+02:00,2022-06-02T10:17:13.754+02:00,448,1.423373,0,0,345.1212,0,0,2022-06-02T10:46:25.824+02:00,675852385.8243657,0,7.03125,101.2995,1,0.81
254,2022-06-02T10:46:28.292+02:00,1654159587.999705,53.22907182575999,10.39855804915555,36.85503,0.07379882,0.995001,42.00067394238977,55.83030142130843,2.400000095367432,7.999579855010837,-9999,2732.569795041667,0.1760711669921875,1.564071655273438,6.388824462890625,2732.559801041667,0.3467145419913849,2.401920554567545,0.2573669465044335,-5.004274845123291,10.01483631134033,-2.933949708938599,-0.604008674621582,1.397555708885193,4.162471294403076,XArbitraryZVertical,-0.1138071358969406,0.9188186763829176,0.1796917077983715,0.332461960663795,0.6518449187278748,-0.2545351088047028,0.7143596410751343,0,0,0,-1,-1,2730.102895416667,unknown,2,2022-06-02T10:46:25.825+02:00,2022-06-02T10:17:13.754+02:00,448,1.423373,0,0,345.1212,0,0,2022-06-02T10:46:25.824+02:00,675852385.8243657,0,7.03125,101.2995,1,0.81
255,2022-06-02T10:46:28.302+02:00,1654159587.999705,53.22907182575999,10.39855804915555,36.85503,0.07379882,0.995001,42.00067394238977,55.83030142130843,2.400000095367432,7.999579855010837,-9999,2732.579790041667,0.4257049560546875,2.510955810546875,8.259017944335938,2732.569795041667,0.4110777870272127,2.486310826154933,0.2707274359036345,-5.065581321716309,10.19722843170166,-4.976698398590088,-0.4455089569091797,1.651679277420044,4.94056224822998,XArbitraryZVertical,-0.148955672444777,0.9272597338430164,0.1901614242247334,0.2860771067700412,0.5871868133544922,-0.2674324512481689,0.7639968395233154,0,0,0,-1,-1,2730.102895416667,unknown,2,2022-06-02T10:46:25.825+02:00,2022-06-02T10:17:13.754+02:00,448,1.423373,0,0,345.1212,0,0,2022-06-02T10:46:25.824+02:00,675852385.8243657,0,7.03125,101.2995,1,0.81
256,2022-06-02T10:46:28.312+02:00,1654159587.999705,53.22907182575999,10.39855804915555,36.85503,0.07379882,0.995001,42.00067394238977,55.83030142130843,2.400000095367432,7.999579855010837,-9999,2732.589784041667,0.93096923828125,3.149612426757812,9.62554931640625,2732.579790041667,0.4962738775262381,2.563977458103009,0.2793507585040705,-5.904177665710449,9.824706077575684,-7.456441402435303,-0.2699320316314697,2.246358394622803,6.463004112243652,XArbitraryZVertical,-0.1946967846854189,0.929913221809338,0.1986356742774191,0.240620939182454,0.5248606204986572,-0.27573162317276,0.8052908778190613,0,0,0,-1,-1,2730.102895416667,unknown,2,2022-06-02T10:46:25.825+02:00,2022-06-02T10:17:13.754+02:00,448,1.423373,0,0,345.1212,0,0,2022-06-02T10:46:25.824+02:00,675852385.8243657,0,7.03125,101.2995,1,0.81
257,2022-06-02T10:46:28.322+02:00,1654159587.999705,53.22907182575999,10.39855804915555,36.85503,0.07379882,0.995001,42.00067394238977,55.83030142130843,2.400000095367432,7.999579855010837,-9999,2732.599779041667,1.251129150390625,3.189865112304688,10.03791809082031,2732.589784041667,0.6079723921719912,2.623217842572575,0.2865781373446754,-6.403139591217041,8.088297843933105,-10.19607925415039,0.1928438544273376,3.21374773979187,8.293111801147461,XArbitraryZVertical,-0.2514422430707134,0.9237839467890864,0.207630620701011,0.2007222192518421,0.4752621352672577,-0.2826715707778931,0.8331999778747559,0,0,0,-1,-1,2730.102895416667,unknown,2,2022-06-02T10:46:25.825+02:00,2022-06-02T10:17:13.754+02:00,448,1.423373,0,0,345.1212,0,0,2022-06-02T10:46:25.824+02:00,675852385.8243657,0,7.03125,101.2995,1,0.81
258,2022-06-02T10:46:28.332+02:00,1654159587.999705,53.22907182575999,10.39855804915555,36.85503,0.07379882,0.995001,42.00067394238977,55.83030142130843,2.400000095367432,7.999579855010837,-9999,2732.609773041667,0.8551483154296875,3.165328979492188,11.03636169433594,2732.599779041667,0.7501181031005327,2.651881200389096,0.2887650625379933,-7.047245502471924,5.68019437789917,-13.56948280334473,0.7010661363601685,3.516458034515381,8.987381935119629,XArbitraryZVertical,-0.3192481853483787,0.906115993596592,0.2177660823091892,0.1720824565833814,0.4508961737155914,-0.2847686409950256,0.8459311723709106,0,0,0,-1,-1,2730.102895416667,unknown,2,2022-06-02T10:46:25.825+02:00,2022-06-02T10:17:13.754+02:00,448,1.423373,0,0,345.1212,0,0,2022-06-02T10:46:25.824+02:00,675852385.8243657,0,7.03125,101.2995,1,0.81
259,2022-06-02T10:46:28.342+02:00,1654159587.999705,53.22907182575999,10.39855804915555,36.85503,0.07379882,0.995001,42.00067394238977,55.83030142130843,2.400000095367432,7.999579855010837,-9999,2732.619768041667,-0.7134246826171875,4.7989501953125,12.59297180175781,2732.609773041667,0.9265014728661232,2.638535450127555,0.2759340575362728,-6.806166172027588,1.072721600532532,-17.53837203979492,0.7144150733947754,3.342514038085938,9.551743507385254,XArbitraryZVertical,-0.3980632458182463,0.8735164297480486,0.2293226978945396,0.1610152546357342,0.4638688266277313,-0.2724457681179047,0.842970609664917,0,0,0,-1,-1,2730.102895416667,unknown,2,2022-06-02T10:46:25.825+02:00,2022-06-02T10:17:13.754+02:00,448,1.423373,0,0,345.1212,0,0,2022-06-02T10:46:25.824+02:00,675852385.8243657,0,7.03125,101.2995,1,0.81
260,2022-06-02T10:46:28.352+02:00,1654159587.999705,53.22907182575999,10.39855804915555,36.85503,0.07379882,0.995001,42.00067394238977,55.83030142130843,2.400000095367432,7.999579855010837,-9999,2732.629762041667,-3.179534912109375,6.737548828125,12.58294677734375,2732.619768041667,1.136540417388958,2.562921948598683,0.2410098342482031,-8.272979736328125,-5.42302417755127,-20.6464958190918,-0.3302071094512939,3.984960317611694,11.10477733612061,XArbitraryZVertical,-0.4831563344553856,0.8204002220469621,0.2495443910589673,0.176722460287734,0.5311042070388794,-0.2386834025382996,0.8129931092262268,0,0,0,-1,-1,2730.102895416667,unknown,2,2022-06-02T10:46:25.825+02:00,2022-06-02T10:17:13.754+02:00,448,1.423373,0,0,345.1212,0,0,2022-06-02T10:46:25.824+02:00,675852385.8243657,0,7.03125,101.2995,1,0.81
261,2022-06-02T10:46:28.362+02:00,1654159587.999705,53.22907182575999,10.39855804915555,36.85503,0.07379882,0.995001,42.00067394238977,55.83030142130843,2.400000095367432,7.999579855010837,-9999,2732.639757041667,-8.020767211914062,7.265396118164062,12.31871032714844,2732.629762041667,1.367465153518153,2.436012068321493,0.1906935584954525,-10.5018482208252,-9.675883293151855,-21.49694061279297,-2.438112497329712,6.156550407409668,11.96641540527344,XArbitraryZVertical,-0.5645939344756719,0.7449508785760096,0.2865264609762408,0.2102009393888687,0.6367209553718567,-0.1895399242639542,0.7474362254142761,0,0,0,-1,-1,2730.102895416667,unknown,2,2022-06-02T10:46:25.825+02:00,2022-06-02T10:17:13.754+02:00,448,1.423373,0,0,345.1212,0,0,2022-06-02T10:46:25.824+02:00,675852385.8243657,0,7.03125,101.2995,1,0.81
262,2022-06-02T10:46:28.372+02:00,1654159587.999705,53.22907182575999,10.39855804915555,36.85503,0.07379882,0.995001,42.00067394238977,55.83030142130843,2.400000095367432,7.999579855010837,-9999,2732.649751041667,-14.39337158203125,7.797393798828125,12.97854614257812,2732.639757041667,1.606977818087423,2.28586398294806,0.1109176625151172,-11.27474212646484,-13.33449554443359,-23.85894203186035,-5.874539375305176,7.182696342468262,11.8213062286377,XArbitraryZVertical,-0.6379237160040079,0.6472039789062274,0.3332101225821395,0.2512992192568381,0.7504090070724487,-0.1106903702020645,0.6516393423080444,0,0,0,-1,-1,2730.102895416667,unknown,2,2022-06-02T10:46:25.825+02:00,2022-06-02T10:17:13.754+02:00,448,1.423373,0,0,345.1212,0,0,2022-06-02T10:46:25.824+02:00,675852385.8243657,0,7.03125,101.2995,1,0.81
263,2022-06-02T10:46:28.382+02:00,1654159587.999705,53.22907182575999,10.39855804915555,36.85503,0.07379882,0.995001,42.00067394238977,55.83030142130843,2.400000095367432,7.999579855010837,-9999,2732.659746041667,-19.00025939941406,8.8673095703125,12.97210693359375,2732.649751041667,1.835129869514214,2.097657904902958,-0.0335947382672332,-8.167457580566406,-22.59510231018066,-25.19694519042969,-12.56228065490723,7.357402801513672,11.99024295806885,XArbitraryZVertical,-0.6933710329778764,0.5201021039473397,0.3870347343374039,0.3145383625296188,0.8639014959335327,0.033588420599699,0.5025391578674316,0,0,0,-1,-1,2730.102895416667,unknown,2,2022-06-02T10:46:25.825+02:00,2022-06-02T10:17:13.754+02:00,448,1.423373,0,0,345.1212,0,0,2022-06-02T10:46:25.824+02:00,675852385.8243657,0,7.03125,101.2995,1,0.81
264,2022-06-02T10:46:28.394+02:00,1654159587.999705,53.22907182575999,10.39855804915555,36.85503,0.07379882,0.995001,42.00067394238977,55.83030142130843,2.400000095367432,7.999579855010837,-9999,2732.669740041667,-28.97900390625,10.89883422851562,12.81832885742188,2732.659746041667,1.967205024987039,1.844843183279468,-0.2363292537107878,1.670034646987915,-32.34529876708984,-23.73994064331055,-16.80681991577148,8.27808666229248,13.06700134277344,XArbitraryZVertical,-0.6983721585259637,0.3792490270073026,0.4471735192218609,0.4104657773504072,0.9359245896339417,0.2341354936361313,0.2631070017814636,0,0,0,-1,-1,2730.102895416667,unknown,2,2022-06-02T10:46:25.825+02:00,2022-06-02T10:17:13.754+02:00,448,1.423373,0,0,345.1212,0,0,2022-06-02T10:46:28.384+02:00,675852385.8243657,0,7.03125,101.2995,1,0.81
265,2022-06-02T10:46:28.405+02:00,1654159587.999705,53.22907182575999,10.39855804915555,36.85503,0.07379882,0.995001,42.00067394238977,55.83030142130843,2.400000095367432,7.999579855010837,-9999,2732.679735041667,-32.15179443359375,15.80000305175781,27.99496459960938,2732.669740041667,1.855899135403914,1.45767825745536,-0.4618630229563464,24.12424087524414,-35.14987182617188,-20.20619201660156,-24.91326141357422,8.659333229064941,12.04691219329834,XArbitraryZVertical,-0.6212658528563045,0.2519993120340487,0.4898186756895049,0.5573174811878177,0.8895024657249451,0.4456166923046112,-0.1010501757264137,0,0,0,-1,-1,2732.662742041667,unknown,2,2022-06-02T10:46:28.384+02:00,2022-06-02T10:17:13.754+02:00,448,1.423373,0,0,345.1212,0,0,2022-06-02T10:46:28.384+02:00,675852388.3841774,0,7.332031,101.2946,1,0.81
266,2022-06-02T10:46:28.412+02:00,1654159587.999705,53.22907182575999,10.39855804915555,36.85503,0.07379882,0.995001,42.00067394238977,55.83030142130843,2.400000095367432,7.999579855010837,-9999,2732.689730041667,-32.04826354980469,20.83082580566406,29.20579528808594,2732.679735041667,1.486393108713886,0.935394280292843,-0.4439112059306661,35.22507095336914,-35.12753295898438,-1.279794335365295,-32.77718353271484,12.69344997406006,19.42168998718262,XArbitraryZVertical,-0.4422523267598442,0.1908500083245186,0.5160879135578934,0.7082671989482983,0.7268277406692505,0.4294748604297638,-0.5359783172607422,0,0,0,-1,-1,2732.662742041667,unknown,2,2022-06-02T10:46:28.384+02:00,2022-06-02T10:17:13.754+02:00,448,1.423373,0,0,345.1212,0,0,2022-06-02T10:46:28.384+02:00,675852388.3841774,0,7.332031,101.2946,1,0.81
267,2022-06-02T10:46:28.422+02:00,1654159587.999705,53.22907182575999,10.39855804915555,36.85503,0.07379882,0.995001,42.00067394238977,55.83030142130843,2.400000095367432,7.999579855010837,-9999,2732.699724041667,-32.13259887695312,23.77198791503906,30.52348327636719,2732.689730041667,1.260749357911949,0.529642363547289,-0.1662641198226124,35.20755004882812,-28.01344108581543,0.11240104585886,-32.66633224487305,19.00774955749512,32.31051254272461,XArbitraryZVertical,-0.2184861733421407,0.163463190671433,0.5493776524951515,0.7897643888835683,0.4982576668262482,0.1654991507530212,-0.8510871529579163,0,0,0,-1,-1,2732.662742041667,unknown,2,2022-06-02T10:46:28.384+02:00,2022-06-02T10:17:13.754+02:00,448,1.423373,0,0,345.1212,0,0,2022-06-02T10:46:28.384+02:00,675852388.3841774,0,7.332031,101.2946,1,0.81
268,2022-06-02T10:46:28.432+02:00,1654159587.999705,53.22907182575999,10.39855804915555,36.85503,0.07379882,0.995001,42.00067394238977,55.83030142130843,2.400000095367432,7.999579855010837,-9999,2732.709719041667,-17.22761535644531,-29.14122009277344,25.94917297363281,2732.699724041667,1.070102368334699,0.4658332898462261,0.1314654404951736,35.00696563720703,20.87004089355469,-7.669881820678711,-32.50992965698242,26.69585990905762,28.73900985717773,XArbitraryZVertical,-0.0624561159670437,0.2307169077373033,0.5080877729354794,0.8274754217800342,0.4452915191650391,-0.1310870796442032,-0.8857378959655762,0,0,0,-1,-1,2732.662742041667,unknown,2,2022-06-02T10:46:28.384+02:00,2022-06-02T10:17:13.754+02:00,448,1.423373,0,0,345.1212,0,0,2022-06-02T10:46:28.384+02:00,675852388.3841774,0,7.332031,101.2946,1,0.81
269,2022-06-02T10:46:28.442+02:00,1654159587.999705,53.22907182575999,10.39855804915555,36.85503,0.07379882,0.995001,42.00067394238977,55.83030142130843,2.400000095367432,7.999579855010837,-9999,2732.719713041667,13.44618225097656,-30.19107055664062,4.792083740234375,2732.709719041667,0.8765741370961522,0.814458615395573,0.4278727198145676,33.93013000488281,28.74472236633301,11.07159805297852,-30.26996803283691,-1.998164892196655,32.05443572998047,XArbitraryZVertical,0.0122651244669946,0.4331876829590302,0.4569397771650483,0.7767906974658113,0.6617834568023682,-0.4149362444877625,-0.6243959665298462,0,0,0,-1,-1,2732.662742041667,unknown,2,2022-06-02T10:46:28.384+02:00,2022-06-02T10:17:13.754+02:00,448,1.423373,0,0,345.1212,0,0,2022-06-02T10:46:28.384+02:00,675852388.3841774,0,7.332031,101.2946,1,0.81
270,2022-06-02T10:46:28.452+02:00,1654159587.999705,53.22907182575999,10.39855804915555,36.85503,0.07379882,0.995001,42.00067394238977,55.83030142130843,2.400000095367432,7.999579855010837,-9999,2732.729708041667,0.1583709716796875,6.368896484375,3.24017333984375,2732.719713041667,1.08980405121336,0.8598926177285364,0.5292361570571665,-34.16927719116211,16.47196578979492,16.7846851348877,0.0684149861335754,-31.5269718170166,12.84555244445801,XArbitraryZVertical,-0.0052251272285377,0.4672770978295169,0.5479878527129429,0.6937823623323606,0.6541038155555725,-0.5048741698265076,-0.5632496476173401,0,0,0,-1,-1,2732.662742041667,unknown,2,2022-06-02T10:46:28.384+02:00,2022-06-02T10:17:13.754+02:00,448,1.423373,0,0,345.1212,0,0,2022-06-02T10:46:28.384+02:00,675852388.3841774,0,7.332031,101.2946,1,0.81
271,2022-06-02T10:46:28.462+02:00,1654159587.999705,53.22907182575999,10.39855804915555,36.85503,0.07379882,0.995001,42.00067394238977,55.83030142130843,2.400000095367432,7.999579855010837,-9999,2732.739702041667,-3.801071166992188,3.093612670898438,14.39900207519531,2732.729708041667,1.397532172979537,0.9160104092395815,0.3166978777250357,-35.02481079101562,12.60884475708008,-9.932338714599608,7.773092269897461,-10.77786445617676,2.861494779586792,XArbitraryZVertical,-0.1725825502456782,0.4252803755980832,0.6231394586483452,0.6332842047460222,0.7537326812744141,-0.3114303648471832,-0.5787037014961243,0,0,0,-1,-1,2732.662742041667,unknown,2,2022-06-02T10:46:28.384+02:00,2022-06-02T10:17:13.754+02:00,448,1.423373,0,0,345.1212,0,0,2022-06-02T10:46:28.384+02:00,675852388.3841774,0,7.332031,101.2946,1,0.81
272,2022-06-02T10:46:28.472+02:00,1654159587.999705,53.22907182575999,10.39855804915555,36.85503,0.07379882,0.995001,42.00067394238977,55.83030142130843,2.400000095367432,7.999579855010837,-9999,2732.749697041667,-25.61801147460938,-2.443801879882812,10.09896850585938,2732.739702041667,1.530860536672157,0.8382058276547858,0.0676056661347316,-4.072445392608643,-27.17798614501953,-8.14606761932373,-3.179703950881958,9.445026397705078,7.258822441101074,XArbitraryZVertical,-0.2595261051961668,0.3146604760151669,0.6424400481029393,0.6487725068117965,0.7417460680007935,-0.0675541758537292,-0.6672699451446533,0,0,0,-1,-1,2732.662742041667,unknown,2,2022-06-02T10:46:28.384+02:00,2022-06-02T10:17:13.754+02:00,448,1.423373,0,0,345.1212,0,0,2022-06-02T10:46:28.384+02:00,675852388.3841774,0,7.332031,101.2946,1,0.81
273,2022-06-02T10:46:28.482+02:00,1654159587.999705,53.22907182575999,10.39855804915555,36.85503,0.07379882,0.995001,42.00067394238977,55.83030142130843,2.400000095367432,7.999579855010837,-9999,2732.759691041667,-5.094589233398438,8.399887084960938,0.624664306640625,2732.749697041667,1.694616248718247,0.821124713668894,0.0445128454935566,-21.06203269958496,4.225101947784424,20.37544250488281,-10.83079719543457,-1.987377405166626,11.94178581237793,XArbitraryZVertical,-0.2855622641974013,0.2794502459227196,0.6929248997060532,0.600180701129727,0.7311877012252808,-0.0444981455802917,-0.6807234883308411,0,0,0,-1,-1,2732.662742041667,unknown,2,2022-06-02T10:46:28.384+02:00,2022-06-02T10:17:13.754+02:00,448,1.423373,0,0,345.1212,0,0,2022-06-02T10:46:28.384+02:00,675852388.3841774,0,7.332031,101.2946,1,0.81
274,2022-06-02T10:46:28.492+02:00,1654159587.999705,53.22907182575999,10.39855804915555,36.85503,0.07379882,0.995001,42.00067394238977,55.83030142130843,2.400000095367432,7.999579855010837,-9999,2732.769686041667,-4.461807250976562,7.493484497070312,8.49395751953125,2732.759691041667,1.860636872128358,0.7802433051006035,0.119333842883794,6.654624938964844,-5.601717948913574,13.00179576873779,-22.41507911682129,1.087510943412781,9.613295555114746,XArbitraryZVertical,-0.2714294885254795,0.2710759359412988,0.7537967111793482,0.5335114569168732,0.6984495520591736,-0.1190508157014847,-0.7056877613067627,0,0,0,-1,-1,2732.662742041667,unknown,2,2022-06-02T10:46:28.384+02:00,2022-06-02T10:17:13.754+02:00,448,1.423373,0,0,345.1212,0,0,2022-06-02T10:46:28.384+02:00,675852388.3841774,0,7.332031,101.2946,1,0.81
275,2022-06-02T10:46:28.502+02:00,1654159587.999705,53.22907182575999,10.39855804915555,36.85503,0.07379882,0.995001,42.00067394238977,55.83030142130843,2.400000095367432,7.999579855010837,-9999,2732.779680041667,-20.92631530761719,-6.773880004882812,7.454025268554688,2732.769686041667,1.814873684845634,0.7132027377345931,0.2831721423569096,17.20429039001465,-2.182047843933105,5.018778800964355,-0.5998061895370483,11.78558254241943,2.628647327423096,XArbitraryZVertical,-0.1908799946488676,0.3170004389619164,0.7613036179444873,0.5324400412263193,0.6282027363777161,-0.2794028520584106,-0.7261511087417603,0,0,0,-1,-1,2732.662742041667,unknown,2,2022-06-02T10:46:28.384+02:00,2022-06-02T10:17:13.754+02:00,448,1.423373,0,0,345.1212,0,0,2022-06-02T10:46:28.384+02:00,675852388.3841774,0,7.332031,101.2946,1,0.81
276,2022-06-02T10:46:28.512+02:00,1654159587.999705,53.22907182575999,10.39855804915555,36.85503,0.07379882,0.995001,42.00067394238977,55.83030142130843,2.400000095367432,7.999579855010837,-9999,2732.789675041667,-9.871429443359377,-10.83268737792969,3.448928833007812,2732.779680041667,1.754030848651612,0.7701375735696631,0.4570653488377394,15.71477794647217,8.358379364013672,9.63743782043457,-14.17061901092529,1.09434700012207,10.06278800964355,XArbitraryZVertical,-0.1470249178670666,0.3953701224173919,0.7484232047686413,0.5117899496355464,0.6247666478157043,-0.4413166046142578,-0.6441322565078735,0,0,0,-1,-1,2732.662742041667,unknown,2,2022-06-02T10:46:28.384+02:00,2022-06-02T10:17:13.754+02:00,448,1.423373,0,0,345.1212,0,0,2022-06-02T10:46:28.384+02:00,675852388.3841774,0,7.332031,101.2946,1,0.81
277,2022-06-02T10:46:28.522+02:00,1654159587.999705,53.22907182575999,10.39855804915555,36.85503,0.07379882,0.995001,42.00067394238977,55.83030142130843,2.400000095367432,7.999579855010837,-9999,2732.799669041667,-2.764877319335938,-9.287353515625,2.613189697265625,2732.789675041667,1.76745956615398,0.8358021909234988,0.6061551962008187,4.287033081054688,5.774226188659668,11.51677703857422,-18.15901947021484,-9.467443466186523,5.864103317260742,XArbitraryZVertical,-0.1264476567660468,0.4565671650883011,0.7512019571461854,0.4596227842143494,0.6096727848052979,-0.5697118639945984,-0.5511148571968079,0,0,0,-1,-1,2732.662742041667,unknown,2,2022-06-02T10:46:28.384+02:00,2022-06-02T10:17:13.754+02:00,448,1.423373,0,0,345.1212,0,0,2022-06-02T10:46:28.384+02:00,675852388.3841774,0,7.332031,101.2946,1,0.81
278,2022-06-02T10:46:28.532+02:00,1654159587.999705,53.22907182575999,10.39855804915555,36.85503,0.07379882,0.995001,42.00067394238977,55.83030142130843,2.400000095367432,7.999579855010837,-9999,2732.809664041667,-2.274765014648438,-6.388153076171875,2.8897705078125,2732.799669041667,1.850304869759231,0.8297248347093453,0.6853519786883636,-2.813086271286011,2.031031847000122,9.113965034484863,-5.340675830841064,-9.939151763916016,2.905456066131592,XArbitraryZVertical,-0.118184673494648,0.474036541097377,0.769952131722098,0.4104819029178061,0.5711598992347717,-0.6329455375671387,-0.522643506526947,0,0,0,-1,-1,2732.662742041667,unknown,2,2022-06-02T10:46:28.384+02:00,2022-06-02T10:17:13.754+02:00,448,1.423373,0,0,345.1212,0,0,2022-06-02T10:46:28.384+02:00,675852388.3841774,0,7.332031,101.2946,1,0.81
279,2022-06-02T10:46:28.542+02:00,1654159587.999705,53.22907182575999,10.39855804915555,36.85503,0.07379882,0.995001,42.00067394238977,55.83030142130843,2.400000095367432,7.999579855010837,-9999,2732.819658041667,-3.523971557617188,-4.321487426757812,2.743011474609375,2732.809664041667,1.955642070239557,0.7547218663651376,0.7315726141070503,-1.419576525688171,-2.523479223251343,8.516117095947266,-2.77925968170166,-7.221775531768799,3.570356369018555,XArbitraryZVertical,-0.0995279646599279,0.4680393640955282,0.7935820081217587,0.3758469062341583,0.5097895264625549,-0.6680406928062439,-0.5420666933059692,0,0,0,-1,-1,2732.662742041667,unknown,2,2022-06-02T10:46:28.384+02:00,2022-06-02T10:17:13.754+02:00,448,1.423373,0,0,345.1212,0,0,2022-06-02T10:46:28.384+02:00,675852388.3841774,0,7.332031,101.2946,1,0.81
280,2022-06-02T10:46:28.552+02:00,1654159587.999705,53.22907182575999,10.39855804915555,36.85503,0.07379882,0.995001,42.00067394238977,55.83030142130843,2.400000095367432,7.999579855010837,-9999,2732.829653041667,-4.074615478515625,-5.001205444335938,1.64080810546875,2732.819658041667,2.021666171923984,0.6882842194826271,0.7840599150484004,2.930972337722778,-0.9111534357070924,5.403863906860352,-3.207820653915405,-4.262513637542725,3.345622062683105,XArbitraryZVertical,-0.0731378608333154,0.4703438360743404,0.8055539955074666,0.352859985451814,0.4497640430927277,-0.7061598896980286,-0.5468550324440002,0,0,0,-1,-1,2732.662742041667,unknown,2,2022-06-02T10:46:28.384+02:00,2022-06-02T10:17:13.754+02:00,448,1.423373,0,0,345.1212,0,0,2022-06-02T10:46:28.384+02:00,675852388.3841774,0,7.332031,101.2946,1,0.81
281,2022-06-02T10:46:28.562+02:00,1654159587.999705,53.22907182575999,10.39855804915555,36.85503,0.07379882,0.995001,42.00067394238977,55.83030142130843,2.400000095367432,7.999579855010837,-9999,2732.839647041667,-3.146102905273438,-5.412948608398438,0.9972991943359376,2732.829653041667,2.041941691911473,0.6749975475432732,0.8417601086274883,3.910166501998901,0.9397128820419312,4.571056365966797,-4.47296142578125,-3.680269718170166,2.835743427276611,XArbitraryZVertical,-0.0562399758858266,0.4866232411989827,0.8049983805385277,0.3346824798998642,0.4162747263908386,-0.7458167672157288,-0.5200697779655457,0,0,0,-1,-1,2732.662742041667,unknown,2,2022-06-02T10:46:28.384+02:00,2022-06-02T10:17:13.754+02:00,448,1.423373,0,0,345.1212,0,0,2022-06-02T10:46:28.384+02:00,675852388.3841774,0,7.332031,101.2946,1,0.81
282,2022-06-02T10:46:28.572+02:00,1654159587.999705,53.22907182575999,10.39855804915555,36.85503,0.07379882,0.995001,42.00067394238977,55.83030142130843,2.400000095367432,7.999579855010837,-9999,2732.849642041667,-3.198776245117188,-4.200180053710938,0.62750244140625,2732.839647041667,2.066792278325138,0.6593677123096394,0.90095072037811,3.477755069732666,-0.2570151090621948,4.935196876525879,-4.000240802764893,-4.769732475280762,1.677303433418274,XArbitraryZVertical,-0.0394890809800026,0.5030716934512679,0.8038518311562417,0.3149309956078299,0.3803524672985077,-0.7839175462722778,-0.4907189607620239,0,0,0,-1,-1,2732.662742041667,unknown,2,2022-06-02T10:46:28.384+02:00,2022-06-02T10:17:13.754+02:00,448,1.423373,0,0,345.1212,0,0,2022-06-02T10:46:28.384+02:00,675852388.3841774,0,7.332031,101.2946,1,0.81
283,2022-06-02T10:46:28.582+02:00,1654159587.999705,53.22907182575999,10.39855804915555,36.85503,0.07379882,0.995001,42.00067394238977,55.83030142130843,2.400000095367432,7.999579855010837,-9999,2732.859636041667,-3.589126586914062,-4.624893188476562,0.6667938232421875,2732.849642041667,2.091623169492845,0.6378649261509006,0.9528660885602874,2.796217441558838,0.230164960026741,3.636853694915771,-3.35701584815979,-3.856780290603638,1.266716003417969,XArbitraryZVertical,-0.022846478899548,0.5164904797984163,0.8022589269870319,0.298489746113114,0.3449918031692505,-0.8150793313980103,-0.4654312431812286,0,0,0,-1,-1,2732.662742041667,unknown,2,2022-06-02T10:46:28.384+02:00,2022-06-02T10:17:13.754+02:00,448,1.423373,0,0,345.1212,0,0,2022-06-02T10:46:28.384+02:00,675852388.3841774,0,7.332031,101.2946,1,0.81
284,2022-06-02T10:46:28.592+02:00,1654159587.999705,53.22907182575999,10.39855804915555,36.85503,0.07379882,0.995001,42.00067394238977,55.83030142130843,2.400000095367432,7.999579855010837,-9999,2732.869631041667,-3.34033203125,-4.181961059570312,0.538665771484375,2732.859636041667,2.11929009688136,0.6207530030774547,0.989507151816564,1.212329149246216,0.8554319143295288,3.333386182785034,-3.783388614654541,-3.547468900680542,1.064505338668823,XArbitraryZVertical,-0.0132641287483238,0.5258261601013478,0.8018576190123068,0.2834701537451114,0.3193839192390442,-0.835755467414856,-0.4466618299484253,0,0,0,-1,-1,2732.662742041667,unknown,2,2022-06-02T10:46:28.384+02:00,2022-06-02T10:17:13.754+02:00,448,1.423373,0,0,345.1212,0,0,2022-06-02T10:46:28.384+02:00,675852388.3841774,0,7.332031,101.2946,1,0.81
285,2022-06-02T10:46:28.602+02:00,1654159587.999705,53.22907182575999,10.39855804915555,36.85503,0.07379882,0.995001,42.00067394238977,55.83030142130843,2.400000095367432,7.999579855010837,-9999,2732.879625041667,-2.80828857421875,-3.624237060546875,0.231719970703125,2732.869631041667,2.159204891201345,0.5981124870254659,1.01334822916998,0.5689786672592163,1.481030702590942,2.80324649810791,-3.824708700180054,-3.631311416625977,1.074558734893799,XArbitraryZVertical,-0.0084141252886706,0.5304123444393312,0.8042032295325343,0.2680465583386019,0.2978837490081787,-0.8486078977584839,-0.4371838867664337,0,0,0,-1,-1,2732.662742041667,unknown,2,2022-06-02T10:46:28.384+02:00,2022-06-02T10:17:13.754+02:00,448,1.423373,0,0,345.1212,0,0,2022-06-02T10:46:28.384+02:00,675852388.3841774,0,7.332031,101.2946,1,0.81
286,2022-06-02T10:46:28.612+02:00,1654159587.999705,53.22907182575999,10.39855804915555,36.85503,0.07379882,0.995001,42.00067394238977,55.83030142130843,2.400000095367432,7.999579855010837,-9999,2732.889620041667,-2.35333251953125,-3.232803344726562,-0.1530303955078125,2732.879625041667,2.187444436056543,0.5922648784240665,1.033187988822077,1.099087357521057,2.103668212890625,1.808343768119812,-3.363426446914673,-3.036190509796143,0.8070816397666931,XArbitraryZVertical,-0.0084821752742574,0.5361864471584645,0.8049831217293423,0.2538389818801892,0.2858660519123077,-0.8589358925819397,-0.4248642921447754,0,0,0,-1,-1,2732.662742041667,unknown,2,2022-06-02T10:46:28.384+02:00,2022-06-02T10:17:13.754+02:00,448,1.423373,0,0,345.1212,0,0,2022-06-02T10:46:28.384+02:00,675852388.3841774,0,7.332031,101.2946,1,0.81
287,2022-06-02T10:46:28.622+02:00,1654159587.999705,53.22907182575999,10.39855804915555,36.85503,0.07379882,0.995001,42.00067394238977,55.83030142130843,2.400000095367432,7.999579855010837,-9999,2732.899614041667,-2.005264282226562,-2.554061889648438,-0.4279937744140625,2732.889620041667,2.191375517481967,0.6104904152460333,1.051615041397884,1.645797371864319,2.210347414016724,0.6217736601829529,-2.842300176620483,-2.56010365486145,0.4709063172340393,XArbitraryZVertical,-0.0121636721538177,0.5445912350547398,0.8025676958403352,0.2432231607544286,0.2844387292861938,-0.8682256937026978,-0.4065448641777039,0,0,0,-1,-1,2732.662742041667,unknown,2,2022-06-02T10:46:28.384+02:00,2022-06-02T10:17:13.754+02:00,448,1.423373,0,0,345.1212,0,0,2022-06-02T10:46:28.384+02:00,675852388.3841774,0,7.332031,101.2946,1,0.81
288,2022-06-02T10:46:28.632+02:00,1654159587.999705,53.22907182575999,10.39855804915555,36.85503,0.07379882,0.995001,42.00067394238977,55.83030142130843,2.400000095367432,7.999579855010837,-9999,2732.909609041667,-1.754913330078125,-1.77813720703125,-0.38238525390625,2732.899614041667,2.176421481797616,0.6445378372109677,1.065240302768557,1.356640815734863,1.987148404121399,-0.1510146707296371,-2.455604791641235,-2.046313285827637,0.0465267896652221,XArbitraryZVertical,-0.0181675919772281,0.5532659356468421,0.798447410090415,0.2367450852666773,0.2909777164459229,-0.8749053478240967,-0.3871334791183472,0,0,0,-1,-1,2732.662742041667,unknown,2,2022-06-02T10:46:28.384+02:00,2022-06-02T10:17:13.754+02:00,448,1.423373,0,0,345.1212,0,0,2022-06-02T10:46:28.384+02:00,675852388.3841774,0,7.332031,101.2946,1,0.81
289,2022-06-02T10:46:28.642+02:00,1654159587.999705,53.22907182575999,10.39855804915555,36.85503,0.07379882,0.995001,42.00067394238977,55.83030142130843,2.400000095367432,7.999579855010837,-9999,2732.919603041667,-1.676712036132812,-0.8777313232421875,-0.327423095703125,2732.919603041667,2.135048981683264,0.7114322117535437,1.076883017658285,0.7338805198669434,1.058875203132629,-0.5217234492301941,-1.997643113136292,-0.4045953750610352,-0.0127641260623931,XArbitraryZVertical,-0.0300774386803405,0.5652934140882254,0.7911126694002646,0.2316879615628057,0.309532642364502,-0.880484402179718,-0.3590773940086365,0,0,0,-1,-1,2732.662742041667,unknown,2,2022-06-02T10:46:28.384+02:00,2022-06-02T10:17:13.754+02:00,448,1.423373,0,0,345.1212,0,0,2022-06-02T10:46:28.384+02:00,675852388.3841774,0,7.332031,101.2946,1,0.81
290,2022-06-02T10:46:28.652+02:00,1654159587.999705,53.22907182575999,10.39855804915555,36.85503,0.07379882,0.995001,42.00067394238977,55.83030142130843,2.400000095367432,7.999579855010837,-9999,2732.929598041667,-1.719863891601562,-0.83819580078125,-0.0901641845703125,2732.919603041667,2.135048981683264,0.7114322117535437,1.076883017658285,0.7338805198669434,1.058875203132629,-0.5217234492301941,-1.997643113136292,-0.4045953750610352,-0.0127641260623931,XArbitraryZVertical,-0.0300774386803405,0.5652934140882254,0.7911126694002646,0.2316879615628057,0.309532642364502,-0.880484402179718,-0.3590773940086365,0,0,0,-1,-1,2732.662742041667,unknown,2,2022-06-02T10:46:28.384+02:00,2022-06-02T10:17:13.754+02:00,448,1.423373,0,0,345.1212,0,0,2022-06-02T10:46:28.384+02:00,675852388.3841774,0,7.332031,101.2946,1,0.81
291,2022-06-02T10:46:28.662+02:00,1654159587.999705,53.22907182575999,10.39855804915555,36.85503,0.07379882,0.995001,42.00067394238977,55.83030142130843,2.400000095367432,7.999579855010837,-9999,2732.939592041667,-1.745162963867188,-1.018142700195312,0.1152801513671875,2732.929598041667,2.119204368568381,0.7342295404345128,1.076980126073088,0.2037085592746735,0.751937210559845,-0.5905238389968872,-2.007185935974121,0.1289894580841064,0.1289031803607941,XArbitraryZVertical,-0.0345658799551935,0.5682190290880206,0.7888963358829987,0.2314621359065905,0.3175801634788513,-0.8805304169654846,-0.3518646657466888,0,0,0,-1,-1,2732.662742041667,unknown,2,2022-06-02T10:46:28.384+02:00,2022-06-02T10:17:13.754+02:00,448,1.423373,0,0,345.1212,0,0,2022-06-02T10:46:28.384+02:00,675852388.3841774,0,7.332031,101.2946,1,0.81
292,2022-06-02T10:46:28.672+02:00,1654159587.999705,53.22907182575999,10.39855804915555,36.85503,0.07379882,0.995001,42.00067394238977,55.83030142130843,2.400000095367432,7.999579855010837,-9999,2732.949587041667,-1.709991455078125,-0.980560302734375,0.1187286376953125,2732.939592041667,2.114982309900134,0.7452907986115601,1.070340285515228,-0.9038241505622864,0.7366915941238403,-0.6029561161994934,-2.06334114074707,-0.071091890335083,0.3936807513237,XArbitraryZVertical,-0.0395693234633471,0.5675601689099388,0.7890769185954133,0.2316621057986668,0.3254108428955078,-0.8773638606071472,-0.3526194393634796,0,0,0,-1,-1,2732.662742041667,unknown,2,2022-06-02T10:46:28.384+02:00,2022-06-02T10:17:13.754+02:00,448,1.423373,0,0,345.1212,0,0,2022-06-02T10:46:28.384+02:00,675852388.3841774,0,7.332031,101.2946,1,0.81
293,2022-06-02T10:46:28.682+02:00,1654159587.999705,53.22907182575999,10.39855804915555,36.85503,0.07379882,0.995001,42.00067394238977,55.83030142130843,2.400000095367432,7.999579855010837,-9999,2732.959581041667,-1.61248779296875,-0.7078399658203125,0.05902099609375,2732.949587041667,2.122002055672328,0.7467713008865483,1.05728640643544,-1.392693400382996,0.8113967180252075,-0.6880704760551453,-2.06751012802124,-0.1695778965950012,0.4870227575302124,XArbitraryZVertical,-0.045755738673473,0.5636047282949727,0.7915431587317846,0.2317661394033056,0.3336842656135559,-0.8710256814956665,-0.3605122566223145,0,0,0,-1,-1,2732.662742041667,unknown,2,2022-06-02T10:46:28.384+02:00,2022-06-02T10:17:13.754+02:00,448,1.423373,0,0,345.1212,0,0,2022-06-02T10:46:28.384+02:00,675852388.3841774,0,7.332031,101.2946,1,0.81
294,2022-06-02T10:46:28.692+02:00,1654159587.999705,53.22907182575999,10.39855804915555,36.85503,0.07379882,0.995001,42.00067394238977,55.83030142130843,2.400000095367432,7.999579855010837,-9999,2732.969576041667,-1.4715576171875,-0.3184814453125,-0.1348724365234375,2732.959581041667,2.127390543935594,0.7512793537896472,1.043117579901478,-0.9608746767044068,1.044110059738159,-0.8440457582473755,-2.011664867401123,0.0057324171066284,0.4639344811439514,XArbitraryZVertical,-0.0529678262850126,0.5596434199937251,0.7938520239300547,0.2319323748042026,0.3436960875988007,-0.8639782071113586,-0.3679873049259186,0,0,0,-1,-1,2732.662742041667,unknown,2,2022-06-02T10:46:28.384+02:00,2022-06-02T10:17:13.754+02:00,448,1.423373,0,0,345.1212,0,0,2022-06-02T10:46:28.384+02:00,675852388.3841774,0,7.332031,101.2946,1,0.81
295,2022-06-02T10:46:28.702+02:00,1654159587.999705,53.22907182575999,10.39855804915555,36.85503,0.07379882,0.995001,42.00067394238977,55.83030142130843,2.400000095367432,7.999579855010837,-9999,2732.979570041667,-1.329925537109375,0.0469970703125,-0.35906982421875,2732.969576041667,2.121673011483921,0.7681287430974344,1.033185007268979,-0.0895051136612892,1.331769108772278,-0.9265494346618652,-1.896411180496216,0.3290272355079651,0.3585476577281952,XArbitraryZVertical,-0.0608054823997716,0.5587071106886168,0.7939296290170142,0.2320014353654875,0.3557922542095184,-0.8589343428611755,-0.3682981133460999,0,0,0,-1,-1,2732.662742041667,unknown,2,2022-06-02T10:46:28.384+02:00,2022-06-02T10:17:13.754+02:00,448,1.423373,0,0,345.1212,0,0,2022-06-02T10:46:28.384+02:00,675852388.3841774,0,7.332031,101.2946,1,0.81
296,2022-06-02T10:46:28.712+02:00,1654159587.999705,53.22907182575999,10.39855804915555,36.85503,0.07379882,0.995001,42.00067394238977,55.83030142130843,2.400000095367432,7.999579855010837,-9999,2732.989565041667,-1.221771240234375,0.042816162109375,-0.5311737060546875,2732.979570041667,2.10512522663888,0.7961443617819898,1.0286068457384,0.6156735420227051,1.391504526138306,-0.9304469227790833,-1.769059896469116,0.7515699863433838,0.1044337153434753,XArbitraryZVertical,-0.0685581637354747,0.5610995936439857,0.7916394482702634,0.2318922236632726,0.3687759637832642,-0.856580913066864,-0.3609340488910675,0,0,0,-1,-1,2732.662742041667,unknown,2,2022-06-02T10:46:28.384+02:00,2022-06-02T10:17:13.754+02:00,448,1.423373,0,0,345.1212,0,0,2022-06-02T10:46:28.384+02:00,675852388.3841774,0,7.332031,101.2946,1,0.81
297,2022-06-02T10:46:28.722+02:00,1654159587.999705,53.22907182575999,10.39855804915555,36.85503,0.07379882,0.995001,42.00067394238977,55.83030142130843,2.400000095367432,7.999579855010837,-9999,2732.999559041667,-1.14422607421875,-0.05206298828125,-0.419830322265625,2732.989565041667,2.078996489352781,0.8316782336317136,1.027793058646442,1.203275084495544,1.23122227191925,-1.040100812911987,-1.651335954666138,0.9450127482414246,-0.1111694574356079,XArbitraryZVertical,-0.0754555699589045,0.5659233616723186,0.7874156338384837,0.2324088052898474,0.3818809390068054,-0.8561607003211975,-0.3480744063854218,0,0,0,-1,-1,2732.662742041667,unknown,2,2022-06-02T10:46:28.384+02:00,2022-06-02T10:17:13.754+02:00,448,1.423373,0,0,345.1212,0,0,2022-06-02T10:46:28.384+02:00,675852388.3841774,0,7.332031,101.2946,1,0.81
298,2022-06-02T10:46:28.732+02:00,1654159587.999705,53.22907182575999,10.39855804915555,36.85503,0.07379882,0.995001,42.00067394238977,55.83030142130843,2.400000095367432,7.999579855010837,-9999,2733.009554041667,-1.139892578125,-0.243896484375,-0.2986602783203125,2732.999559041667,2.047674717313225,0.8697082121065316,1.027801901913862,1.128900051116943,1.023811221122742,-1.097027063369751,-1.571835041046143,0.8441261649131775,-0.1815179586410522,XArbitraryZVertical,-0.0814699577711829,0.5715885272718919,0.7822709545939488,0.2338832010323193,0.3948330581188202,-0.8561652898788452,-0.3332984149456024,0,0,0,-1,-1,2732.662742041667,unknown,2,2022-06-02T10:46:28.384+02:00,2022-06-02T10:17:13.754+02:00,448,1.423373,0,0,345.1212,0,0,2022-06-02T10:46:28.384+02:00,675852388.3841774,0,7.332031,101.2946,1,0.81
299,2022-06-02T10:46:28.741+02:00,1654159587.999705,53.22907182575999,10.39855804915555,36.85503,0.07379882,0.995001,42.00067394238977,55.83030142130843,2.400000095367432,7.999579855010837,-9999,2733.019548041667,-1.12078857421875,-0.4041290283203125,-0.16033935546875,2733.009554041667,2.019094667110799,0.90384304691759,1.024447704033966,0.6538023352622986,0.8907005190849304,-1.309070587158203,-1.542219519615173,0.7192345857620239,-0.0042492151260375,XArbitraryZVertical,-0.0875794810719718,0.575871389704333,0.7777720264627728,0.2361623526870438,0.4082320332527161,-0.8544273376464844,-0.3214039504528046,0,0,0,-1,-1,2732.662742041667,unknown,2,2022-06-02T10:46:28.384+02:00,2022-06-02T10:17:13.754+02:00,448,1.423373,0,0,345.1212,0,0,2022-06-02T10:46:28.384+02:00,675852388.3841774,0,7.332031,101.2946,1,0.81
300,2022-06-02T10:46:28.751+02:00,1654159587.999705,53.22907182575999,10.39855804915555,36.85503,0.07379882,0.995001,42.00067394238977,55.83030142130843,2.400000095367432,7.999579855010837,-9999,2733.029543041667,-1.135696411132812,-0.471435546875,-0.065704345703125,2733.019548041667,2.000705601802357,0.9281150783051874,1.015090433318525,-0.3186451196670532,0.8255545496940613,-1.288000464439392,-1.559867024421692,0.5074415802955627,0.0831320881843566,XArbitraryZVertical,-0.0945192013923487,0.5770409736437087,0.7752438188157289,0.2389283482082066,0.4222937524318695,-0.8495282530784607,-0.3161796629428864,0,0,0,-1,-1,2732.662742041667,unknown,2,2022-06-02T10:46:28.384+02:00,2022-06-02T10:17:13.754+02:00,448,1.423373,0,0,345.1212,0,0,2022-06-02T10:46:28.384+02:00,675852388.3841774,0,7.332031,101.2946,1,0.81
301,2022-06-02T10:46:28.762+02:00,1654159587.999705,53.22907182575999,10.39855804915555,36.85503,0.07379882,0.995001,42.00067394238977,55.83030142130843,2.400000095367432,7.999579855010837,-9999,2733.039537041667,-1.099380493164062,-0.18603515625,0.066436767578125,2733.029543041667,1.999403455749965,0.9373282984668396,1.000153695071291,-1.30921196937561,0.8243873119354248,-1.198993682861328,-1.553959608078003,0.3970503211021423,0.2033271789550781,XArbitraryZVertical,-0.1022373422109438,0.5741703786906809,0.7757555029165522,0.2409963132158608,0.4353682398796082,-0.8415540456771851,-0.3197517991065979,0,0,0,-1,-1,2732.662742041667,unknown,2,2022-06-02T10:46:28.384+02:00,2022-06-02T10:17:13.754+02:00,448,1.423373,0,0,345.1212,0,0,2022-06-02T10:46:28.384+02:00,675852388.3841774,0,7.332031,101.2946,1,0.81
302,2022-06-02T10:46:28.771+02:00,1654159587.999705,53.22907182575999,10.39855804915555,36.85503,0.07379882,0.995001,42.00067394238977,55.83030142130843,2.400000095367432,7.999579855010837,-9999,2733.049532041667,-1.070465087890625,0.3888397216796875,-0.0793304443359375,2733.039537041667,2.009663641276668,0.937370806767966,0.982683108783922,-1.468016982078552,0.8838192820549011,-0.9406015872955322,-1.580664277076721,0.4429051280021667,0.3346883654594421,XArbitraryZVertical,-0.1104582161561299,0.5688635082995066,0.7782471025854956,0.2419187303494446,0.4471650421619415,-0.8319889307022095,-0.3283865749835968,0,0,0,-1,-1,2732.662742041667,unknown,2,2022-06-02T10:46:28.384+02:00,2022-06-02T10:17:13.754+02:00,448,1.423373,0,0,345.1212,0,0,2022-06-02T10:46:28.384+02:00,675852388.3841774,0,7.332031,101.2946,1,0.81
