,loggingTime(txt),locationTimestamp_since1970(s),locationLatitude(WGS84),locationLongitude(WGS84),locationAltitude(m),locationSpeed(m/s),locationSpeedAccuracy(m/s),locationCourse(°),locationCourseAccuracy(°),locationVerticalAccuracy(m),locationHorizontalAccuracy(m),locationFloor(Z),accelerometerTimestamp_sinceReboot(s),accelerometerAccelerationX(G),accelerometerAccelerationY(G),accelerometerAccelerationZ(G),motionTimestamp_sinceReboot(s),motionYaw(rad),motionRoll(rad),motionPitch(rad),motionRotationRateX(rad/s),motionRotationRateY(rad/s),motionRotationRateZ(rad/s),motionUserAccelerationX(G),motionUserAccelerationY(G),motionUserAccelerationZ(G),motionAttitudeReferenceFrame(txt),motionQuaternionX(R),motionQuaternionY(R),motionQuaternionZ(R),motionQuaternionW(R),motionGravityX(G),motionGravityY(G),motionGravityZ(G),motionMagneticFieldX(µT),motionMagneticFieldY(µT),motionMagneticFieldZ(µT),motionHeading(°),motionMagneticFieldCalibrationAccuracy(Z),activityTimestamp_sinceReboot(s),activity(txt),activityActivityConfidence(Z),activityActivityStartDate(txt),pedometerStartDate(txt),pedometerNumberofSteps(N),pedometerAverageActivePace(s/m),pedometerCurrentPace(s/m),pedometerCurrentCadence(steps/s),pedometerDistance(m),pedometerFloorAscended(N),pedometerFloorDescended(N),pedometerEndDate(txt),altimeterTimestamp_sinceReboot(s),altimeterReset(bool),altimeterRelativeAltitude(m),altimeterPressure(kPa),batteryState(N),batteryLevel(R)
254,2022-05-12T10:41:55.838+02:00,1652344911.999883,53.22899248921613,10.39847172797695,38.44656,0.0,0.78,223.9453125,99.47924639313452,4,5,-9999,3367.144027666667,0.3432769775390625,0.03546142578125,1.668991088867188,3367.134032666667,2.59585375129618,2.226606008667373,0.1294667849091015,-1.611792206764221,5.806039333343506,-0.5991256237030029,-0.3007686734199524,0.1148227602243423,0.7373742461204529,XArbitraryZVertical,-0.8544591257483883,0.2687908787804476,0.4401079877176342,0.062898630176669,0.7859217524528503,-0.1291054040193558,0.6046978831291199,0,0,0,-1,-1,3362.922261416667,walking,2,2022-05-12T10:41:51.615+02:00,2022-05-11T22:15:20.957+02:00,965,0.8971741,0.7273178,1.766518,725.3952,0,0,2022-05-12T10:41:54.174+02:00,674037714.1741115,0,-2.93,100.9442,1,0.93
255,2022-05-12T10:41:55.848+02:00,1652344911.999883,53.22899248921613,10.39847172797695,38.44656,0.0,0.78,223.9453125,99.47924639313452,4,5,-9999,3367.154022666667,0.2639923095703125,0.061279296875,1.858078002929688,3367.144027666667,2.613609703757766,2.283500093980697,0.1347828630425383,-1.807777523994446,6.050315856933594,-0.807989776134491,-0.3307136297225952,0.1426755040884018,0.846525251865387,XArbitraryZVertical,-0.8685565974856174,0.2637901270083235,0.4166591129563917,0.0491884894797112,0.7497349381446838,-0.1343751400709152,0.647951602935791,0,0,0,-1,-1,3362.922261416667,walking,2,2022-05-12T10:41:51.615+02:00,2022-05-11T22:15:20.957+02:00,965,0.8971741,0.7273178,1.766518,725.3952,0,0,2022-05-12T10:41:54.174+02:00,674037714.1741115,0,-2.93,100.9442,1,0.93
256,2022-05-12T10:41:55.858+02:00,1652344911.999883,53.22899248921613,10.39847172797695,38.44656,0.0,0.78,223.9453125,99.47924639313452,4,5,-9999,3367.164017666667,0.1779022216796875,0.1395111083984375,2.089767456054688,3367.154022666667,2.634196286788999,2.342374319648179,0.1408190041827402,-2.004808664321899,6.295958518981934,-1.065505027770996,-0.3664392828941345,0.1758150458335876,0.9786261320114136,XArbitraryZVertical,-0.8826467860152929,0.2571329322656796,0.3919378536504549,0.0346719669317895,0.7097159624099731,-0.1403540521860123,0.6903653740882874,0,0,0,-1,-1,3362.922261416667,walking,2,2022-05-12T10:41:51.615+02:00,2022-05-11T22:15:20.957+02:00,965,0.8971741,0.7273178,1.766518,725.3952,0,0,2022-05-12T10:41:54.174+02:00,674037714.1741115,0,-2.93,100.9442,1,0.93
257,2022-05-12T10:41:55.868+02:00,1652344911.999883,53.22899248921613,10.39847172797695,38.44656,0.0,0.78,223.9453125,99.47924639313452,4,5,-9999,3367.174012666667,0.12237548828125,0.0789794921875,2.404586791992188,3367.164017666667,2.657502728677722,2.403365657706759,0.1472184796732111,-2.200148582458496,6.543065071105957,-1.420146584510803,-0.4017060399055481,0.2079661190509796,1.126416325569153,XArbitraryZVertical,-0.8966491008153314,0.2486995372692243,0.3657634120982349,0.0196526777128683,0.6656981110572815,-0.1466872692108154,0.7316621541976929,0,0,0,-1,-1,3362.922261416667,walking,2,2022-05-12T10:41:51.615+02:00,2022-05-11T22:15:20.957+02:00,965,0.8971741,0.7273178,1.766518,725.3952,0,0,2022-05-12T10:41:54.174+02:00,674037714.1741115,0,-2.93,100.9442,1,0.93
258,2022-05-12T10:41:55.878+02:00,1652344911.999883,53.22899248921613,10.39847172797695,38.44656,0.0,0.78,223.9453125,99.47924639313452,4,5,-9999,3367.184007666667,-0.050994873046875,0.2289581298828125,2.742584228515625,3367.174012666667,2.685697646550105,2.465631320731834,0.1549532559443219,-2.597367525100708,6.754044532775879,-1.842075943946838,-0.4402497410774231,0.2938445806503296,1.319008469581604,XArbitraryZVertical,-0.910465452214196,0.2375549580601796,0.3385375299807625,0.0035743377194767,0.6181516647338867,-0.1543339192867279,0.7707594037055969,0,0,0,-1,-1,3362.922261416667,walking,2,2022-05-12T10:41:51.615+02:00,2022-05-11T22:15:20.957+02:00,965,0.8971741,0.7273178,1.766518,725.3952,0,0,2022-05-12T10:41:54.174+02:00,674037714.1741115,0,-2.93,100.9442,1,0.93
259,2022-05-12T10:41:55.888+02:00,1652344911.999883,53.22899248921613,10.39847172797695,38.44656,0.0,0.78,223.9453125,99.47924639313452,4,5,-9999,3367.194002666667,-0.226837158203125,0.3036956787109375,3.119338989257812,3367.184007666667,2.719596593105188,2.528792206676062,0.1645684233379327,-2.970202922821045,6.96003532409668,-2.356008052825928,-0.4450147151947021,0.242805615067482,1.597598910331726,XArbitraryZVertical,-0.923934411524628,0.2232474430335186,0.3103533650636122,-0.0136673176559852,0.5673899054527283,-0.1638265997171402,0.8069884181022644,0,0,0,-1,-1,3362.922261416667,walking,2,2022-05-12T10:41:51.615+02:00,2022-05-11T22:15:20.957+02:00,965,0.8971741,0.7273178,1.766518,725.3952,0,0,2022-05-12T10:41:54.174+02:00,674037714.1741115,0,-2.93,100.9442,1,0.93
260,2022-05-12T10:41:55.898+02:00,1652344911.999883,53.22899248921613,10.39847172797695,38.44656,0.0,0.78,223.9453125,99.47924639313452,4,5,-9999,3367.203997666667,-0.45782470703125,0.4339447021484375,3.541549682617188,3367.194002666667,2.759723984834576,2.592423660471996,0.1764601053942846,-3.362881422042847,7.137861251831055,-2.968206405639648,-0.5648682713508606,0.4045034348964691,1.902871131896973,XArbitraryZVertical,-0.9368359029396164,0.2054145010253174,0.2812798526449457,-0.0320161912430732,0.5138729214668274,-0.1755457520484924,0.8397132754325867,0,0,0,-1,-1,3362.922261416667,walking,2,2022-05-12T10:41:51.615+02:00,2022-05-11T22:15:20.957+02:00,965,0.8971741,0.7273178,1.766518,725.3952,0,0,2022-05-12T10:41:54.174+02:00,674037714.1741115,0,-2.93,100.9442,1,0.93
261,2022-05-12T10:41:55.908+02:00,1652344911.999883,53.22899248921613,10.39847172797695,38.44656,0.0,0.78,223.9453125,99.47924639313452,4,5,-9999,3367.213992666667,-0.7386016845703125,0.5568389892578125,3.988906860351562,3367.203997666667,2.806509155788603,2.655822193589905,0.1913098712305686,-3.750995397567749,7.259227752685547,-3.57073974609375,-0.6852095127105713,0.4938401579856873,2.25115704536438,XArbitraryZVertical,-0.948851208342685,0.1837731279235337,0.2515120783217789,-0.0514847365632912,0.4583720564842224,-0.1901450306177139,0.868182361125946,0,0,0,-1,-1,3362.922261416667,walking,2,2022-05-12T10:41:51.615+02:00,2022-05-11T22:15:20.957+02:00,965,0.8971741,0.7273178,1.766518,725.3952,0,0,2022-05-12T10:41:54.174+02:00,674037714.1741115,0,-2.93,100.9442,1,0.93
262,2022-05-12T10:41:55.918+02:00,1652344911.999883,53.22899248921613,10.39847172797695,38.44656,0.0,0.78,223.9453125,99.47924639313452,4,5,-9999,3367.223987666667,-0.9111480712890624,0.583404541015625,4.457672119140625,3367.213992666667,2.859799914403304,2.718821785905657,0.2093925454779662,-4.109071731567383,7.342515468597412,-4.256328582763672,-0.8591523170471191,0.6418099403381348,2.649513721466064,XArbitraryZVertical,-0.9596724671810668,0.1582624804688997,0.2209471883662086,-0.0718632953793444,0.4013273417949677,-0.2078657448291779,0.892036497592926,0,0,0,-1,-1,3362.922261416667,walking,2,2022-05-12T10:41:51.615+02:00,2022-05-11T22:15:20.957+02:00,965,0.8971741,0.7273178,1.766518,725.3952,0,0,2022-05-12T10:41:54.174+02:00,674037714.1741115,0,-2.93,100.9442,1,0.93
263,2022-05-12T10:41:55.928+02:00,1652344911.999883,53.22899248921613,10.39847172797695,38.44656,0.0,0.78,223.9453125,99.47924639313452,4,5,-9999,3367.233983666667,-1.196762084960938,0.4307861328125,4.944625854492188,3367.223987666667,2.919278701648646,2.778883962613021,0.2314947461816937,-4.375743865966797,7.245473861694336,-4.789939403533936,-1.083945393562317,0.7862710356712341,3.078907489776611,XArbitraryZVertical,-0.968678547991038,0.1290802642865554,0.1906503234434722,-0.0930206746805625,0.3453435003757477,-0.2294326573610306,0.909999668598175,0,0,0,-1,-1,3362.922261416667,walking,2,2022-05-12T10:41:51.615+02:00,2022-05-11T22:15:20.957+02:00,965,0.8971741,0.7273178,1.766518,725.3952,0,0,2022-05-12T10:41:54.174+02:00,674037714.1741115,0,-2.93,100.9442,1,0.93
264,2022-05-12T10:41:55.938+02:00,1652344911.999883,53.22899248921613,10.39847172797695,38.44656,0.0,0.78,223.9453125,99.47924639313452,4,5,-9999,3367.243978666667,-1.455230712890625,0.0489959716796875,5.429290771484375,3367.233983666667,2.983946687337473,2.8341235404682,0.2567542777168053,-4.501161575317383,6.886445045471191,-5.403421401977539,-1.203874826431274,0.8373464941978455,3.535812854766846,XArbitraryZVertical,-0.975487465773706,0.0967159468410683,0.1613600486899384,-0.1141636350088726,0.2927265167236328,-0.2539425790309906,0.9218595623970032,0,0,0,-1,-1,3362.922261416667,walking,2,2022-05-12T10:41:51.615+02:00,2022-05-11T22:15:20.957+02:00,965,0.8971741,0.7273178,1.766518,725.3952,0,0,2022-05-12T10:41:54.174+02:00,674037714.1741115,0,-2.93,100.9442,1,0.93
265,2022-05-12T10:41:55.948+02:00,1652344911.999883,53.22899248921613,10.39847172797695,38.44656,0.0,0.78,223.9453125,99.47924639313452,4,5,-9999,3367.253973666667,-1.673751831054688,-0.504852294921875,5.852951049804688,3367.243978666667,3.054014891882991,2.880860531870336,0.2837285987894114,-4.425280570983887,6.164027214050293,-6.057203769683838,-1.444243669509888,0.7107226848602295,4.017054557800293,XArbitraryZVertical,-0.9798082974991784,0.0613299445063954,0.1347045916244353,-0.1344213249730687,0.2474812418222427,-0.2799371182918549,0.9275712966918944,0,0,0,-1,-1,3362.922261416667,walking,2,2022-05-12T10:41:51.615+02:00,2022-05-11T22:15:20.957+02:00,965,0.8971741,0.7273178,1.766518,725.3952,0,0,2022-05-12T10:41:54.174+02:00,674037714.1741115,0,-2.93,100.9442,1,0.93
266,2022-05-12T10:41:55.958+02:00,1652344911.999883,53.22899248921613,10.39847172797695,38.44656,0.0,0.78,223.9453125,99.47924639313452,4,5,-9999,3367.263968666667,-2.051254272460938,-0.9253082275390624,6.29736328125,3367.253973666667,3.130334283365106,2.91506287736428,0.309370448830225,-3.974878787994385,5.083052158355713,-6.888989925384521,-1.66916561126709,0.3534544408321381,4.501100540161133,XArbitraryZVertical,-0.98161541447302,0.0229393597431643,0.1125333406237107,-0.152450818995541,0.2139346748590469,-0.3044590353965759,0.928190052509308,0,0,0,-1,-1,3362.922261416667,walking,2,2022-05-12T10:41:51.615+02:00,2022-05-11T22:15:20.957+02:00,965,0.8971741,0.7273178,1.766518,725.3952,0,0,2022-05-12T10:41:54.174+02:00,674037714.1741115,0,-2.93,100.9442,1,0.93
267,2022-05-12T10:41:55.968+02:00,1652344911.999883,53.22899248921613,10.39847172797695,38.44656,0.0,0.78,223.9453125,99.47924639313452,4,5,-9999,3367.273963666667,-2.716171264648438,-0.7996368408203125,6.72796630859375,3367.263968666667,-3.068165086214264,2.931269951247558,0.3276951719053639,-3.005307674407959,3.397697448730469,-8.110026359558105,-1.871417880058289,-0.1829912066459656,4.927027702331543,XArbitraryZVertical,-0.9811239713205124,-0.0189035810743405,0.0975378661503162,-0.1659063197389571,0.1976659297943115,-0.3218617141246796,0.9259231686592102,0,0,0,-1,-1,3362.922261416667,walking,2,2022-05-12T10:41:51.615+02:00,2022-05-11T22:15:20.957+02:00,965,0.8971741,0.7273178,1.766518,725.3952,0,0,2022-05-12T10:41:54.174+02:00,674037714.1741115,0,-2.93,100.9442,1,0.93
268,2022-05-12T10:41:55.978+02:00,1652344911.999883,53.22899248921613,10.39847172797695,38.44656,0.0,0.78,223.9453125,99.47924639313452,4,5,-9999,3367.283958666667,-3.483978271484375,0.2627716064453125,7.0787353515625,3367.273963666667,-2.969133132417015,2.920135267345789,0.332122190519074,-1.863845825195312,0.6594319939613342,-10.10659027099609,-2.258902549743652,-0.5992588400840759,5.375097751617432,XArbitraryZVertical,-0.9781348032331334,-0.0662199314550832,0.0944286711656281,-0.1730620863453733,0.2076482623815536,-0.3260499835014343,0.9222655296325684,0,0,0,-1,-1,3362.922261416667,walking,2,2022-05-12T10:41:51.615+02:00,2022-05-11T22:15:20.957+02:00,965,0.8971741,0.7273178,1.766518,725.3952,0,0,2022-05-12T10:41:54.174+02:00,674037714.1741115,0,-2.93,100.9442,1,0.93
269,2022-05-12T10:41:55.988+02:00,1652344911.999883,53.22899248921613,10.39847172797695,38.44656,0.0,0.78,223.9453125,99.47924639313452,4,5,-9999,3367.293953666667,-4.335891723632812,1.514694213867188,7.006484985351562,3367.283958666667,-2.849185997867253,2.868249479929808,0.3191808929319825,-1.234369158744812,-3.53484058380127,-12.63438987731934,-2.972488880157471,-0.4858485460281372,5.813724517822266,XArbitraryZVertical,-0.970805323635052,-0.1210700687644483,0.1101448909134976,-0.1753489708394486,0.256317526102066,-0.3137889206409454,0.9142418503761292,0,0,0,-1,-1,3362.922261416667,walking,2,2022-05-12T10:41:51.615+02:00,2022-05-11T22:15:20.957+02:00,965,0.8971741,0.7273178,1.766518,725.3952,0,0,2022-05-12T10:41:54.174+02:00,674037714.1741115,0,-2.93,100.9442,1,0.93
270,2022-05-12T10:41:55.998+02:00,1652344911.999883,53.22899248921613,10.39847172797695,38.44656,0.0,0.78,223.9453125,99.47924639313452,4,5,-9999,3367.303948666667,-4.784942626953125,2.273086547851562,6.3255615234375,3367.293953666667,-2.704831568034183,2.764176755328826,0.2888466171780183,-1.887046575546265,-8.697184562683105,-15.32362079620361,-3.837231159210205,0.5476179122924805,6.187626361846924,XArbitraryZVertical,-0.9547845378253568,-0.184230295302929,0.150601026202776,-0.1782273082052267,0.3532527983188629,-0.2848468124866486,0.8911086320877075,0,0,0,-1,-1,3362.922261416667,walking,2,2022-05-12T10:41:51.615+02:00,2022-05-11T22:15:20.957+02:00,965,0.8971741,0.7273178,1.766518,725.3952,0,0,2022-05-12T10:41:54.174+02:00,674037714.1741115,0,-2.93,100.9442,1,0.93
271,2022-05-12T10:41:56.008+02:00,1652344911.999883,53.22899248921613,10.39847172797695,38.44656,0.0,0.78,223.9453125,99.47924639313452,4,5,-9999,3367.313943666667,-5.406219482421875,2.508285522460938,5.005172729492188,3367.303948666667,-2.54389580660426,2.607636687941672,0.2386258775757463,-2.566909074783325,-14.19482612609863,-16.92370986938477,-4.830412864685059,1.751061201095581,6.170076370239258,XArbitraryZVertical,-0.924511013433866,-0.2519600844997182,0.2165286677434833,-0.1868451662340018,0.4945213198661804,-0.2363676577806473,0.8364089727401733,0,0,0,-1,-1,3362.922261416667,walking,2,2022-05-12T10:41:51.615+02:00,2022-05-11T22:15:20.957+02:00,965,0.8971741,0.7273178,1.766518,725.3952,0,0,2022-05-12T10:41:54.174+02:00,674037714.1741115,0,-2.93,100.9442,1,0.93
272,2022-05-12T10:41:56.018+02:00,1652344911.999883,53.22899248921613,10.39847172797695,38.44656,0.0,0.78,223.9453125,99.47924639313452,4,5,-9999,3367.323939666667,-6.530471801757812,2.426345825195312,4.034957885742188,3367.313943666667,-2.387012056248038,2.409404771042921,0.1544152442341905,-1.842237234115601,-19.11363220214844,-17.79033088684082,-5.445486545562744,2.426888465881348,5.590696334838867,XArbitraryZVertical,-0.8756457105546245,-0.3172962297752164,0.3052698923238849,-0.1984388749342717,0.6605443358421326,-0.1538023203611374,0.7348645925521851,0,0,0,-1,-1,3362.922261416667,walking,2,2022-05-12T10:41:51.615+02:00,2022-05-11T22:15:20.957+02:00,965,0.8971741,0.7273178,1.766518,725.3952,0,0,2022-05-12T10:41:54.174+02:00,674037714.1741115,0,-2.93,100.9442,1,0.93
273,2022-05-12T10:41:56.028+02:00,1652344911.999883,53.22899248921613,10.39847172797695,38.44656,0.0,0.78,223.9453125,99.47924639313452,4,5,-9999,3367.333934666667,-7.69580078125,3.30224609375,3.377243041992188,3367.323939666667,-2.263882979917476,2.182996752673286,0.027551306460365,0.7957070469856262,-23.84083557128906,-17.41841888427734,-6.224294185638428,2.53583288192749,4.430720806121826,XArbitraryZVertical,-0.8058585324609654,-0.3712382572262521,0.4122234753372602,-0.2069929501989941,0.8180750012397766,-0.0275478214025497,0.5744516253471375,0,0,0,-1,-1,3362.922261416667,walking,2,2022-05-12T10:41:51.615+02:00,2022-05-11T22:15:20.957+02:00,965,0.8971741,0.7273178,1.766518,725.3952,0,0,2022-05-12T10:41:54.174+02:00,674037714.1741115,0,-2.93,100.9442,1,0.93
274,2022-05-12T10:41:56.045+02:00,1652344911.999883,53.22899248921613,10.39847172797695,38.44656,0.0,0.78,223.9453125,99.47924639313452,4,5,-9999,3367.343929666667,-9.79205322265625,5.175048828125,3.708648681640625,3367.333934666667,-2.220151030108143,1.919028724409117,-0.1320761297712223,7.137129306793213,-29.34778594970703,-15.22013378143311,-7.462262153625488,2.294652938842773,3.696692705154419,XArbitraryZVertical,-0.715089808649556,-0.3972141058273245,0.5369821044924054,-0.2061987574629859,0.9317909479141236,0.1316924691200256,0.3382649719715118,0,0,0,-1,-1,3362.922261416667,walking,2,2022-05-12T10:41:51.615+02:00,2022-05-11T22:15:20.957+02:00,965,0.8971741,0.7273178,1.766518,725.3952,0,0,2022-05-12T10:41:54.174+02:00,674037714.1741115,0,-2.93,100.9442,1,0.93
275,2022-05-12T10:41:56.053+02:00,1652344911.999883,53.22899248921613,10.39847172797695,38.44656,0.0,0.78,223.9453125,99.47924639313452,4,5,-9999,3367.353924666667,-16.84428405761719,5.389480590820312,6.125106811523438,3367.343929666667,-2.305081496971022,1.579454059443933,-0.2795778533505586,14.46841144561768,-34.1905517578125,-10.77202224731445,-8.656936645507812,3.02629566192627,3.368921518325806,XArbitraryZVertical,-0.602770570879693,-0.3752710664460351,0.6772648451953178,-0.1927481989440895,0.961136281490326,0.2759499251842499,0.0083214687183499,0,0,0,-1,-1,3362.922261416667,walking,2,2022-05-12T10:41:51.615+02:00,2022-05-11T22:15:20.957+02:00,965,0.8971741,0.7273178,1.766518,725.3952,0,0,2022-05-12T10:41:54.174+02:00,674037714.1741115,0,-2.93,100.9442,1,0.93
276,2022-05-12T10:41:56.058+02:00,1652344911.999883,53.22899248921613,10.39847172797695,38.44656,0.0,0.78,223.9453125,99.47924639313452,4,5,-9999,3367.363919666667,-21.929443359375,3.57769775390625,7.48370361328125,3367.353924666667,-2.491386988156036,1.172683445822902,-0.3373846019012401,18.32430267333984,-35.13170623779297,-7.780169010162354,-10.66188049316406,4.844027996063232,4.074471950531006,XArbitraryZVertical,-0.4722216601026291,-0.3067489318379324,0.8078055883612737,-0.1742473302407796,0.8698269724845886,0.3310202658176422,-0.3658235967159271,0,0,0,-1,-1,3362.922261416667,walking,2,2022-05-12T10:41:51.615+02:00,2022-05-11T22:15:20.957+02:00,965,0.8971741,0.7273178,1.766518,725.3952,0,0,2022-05-12T10:41:54.174+02:00,674037714.1741115,0,-2.93,100.9442,1,0.93
277,2022-05-12T10:41:56.068+02:00,1652344911.999883,53.22899248921613,10.39847172797695,38.44656,0.0,0.78,223.9453125,99.47924639313452,4,5,-9999,3367.373914666667,-30.70266723632812,2.678909301757812,7.9368896484375,3367.363919666667,-2.700229413871346,0.7578626557251457,-0.2562020292605427,24.64360237121582,-35.12573623657227,-1.7148357629776,-17.50921821594238,5.136071681976318,6.827706336975098,XArbitraryZVertical,-0.3320186499192936,-0.196121759651471,0.9094462381069016,-0.1555876565343214,0.6649344563484192,0.2534083724021912,-0.7025997638702393,0,0,0,-1,-1,3362.922261416667,walking,2,2022-05-12T10:41:51.615+02:00,2022-05-11T22:15:20.957+02:00,965,0.8971741,0.7273178,1.766518,725.3952,0,0,2022-05-12T10:41:54.174+02:00,674037714.1741115,0,-2.93,100.9442,1,0.93
278,2022-05-12T10:41:56.078+02:00,1652344911.999883,53.22899248921613,10.39847172797695,38.44656,0.0,0.78,223.9453125,99.47924639313452,4,5,-9999,3367.383909666667,-27.44287109375,4.137191772460938,2.61004638671875,3367.373914666667,-2.844806297609473,0.4152401560252345,-0.0004661521646109,34.25291061401367,-26.67959213256836,4.491635322570801,-22.33285331726074,3.577230930328369,8.398722648620605,XArbitraryZVertical,-0.2038325251456971,-0.0307019616969236,0.967777387195223,-0.1446265171757088,0.4034096598625183,0.0004661521525122,-0.915019392967224,0,0,0,-1,-1,3362.922261416667,walking,2,2022-05-12T10:41:51.615+02:00,2022-05-11T22:15:20.957+02:00,965,0.8971741,0.7273178,1.766518,725.3952,0,0,2022-05-12T10:41:54.174+02:00,674037714.1741115,0,-2.93,100.9442,1,0.93
279,2022-05-12T10:41:56.088+02:00,1652344911.999883,53.22899248921613,10.39847172797695,38.44656,0.0,0.78,223.9453125,99.47924639313452,4,5,-9999,3367.393904666667,-18.27503967285156,-3.850753784179688,6.2777099609375,3367.383909666667,-2.8974447438604,0.2218897699926322,0.3480171051985609,35.07432174682617,-13.57184886932373,6.460192203521729,-30.90954780578613,3.019943237304688,8.853893280029297,XArbitraryZVertical,-0.1291867497905138,0.157508237162942,0.9692250510891878,-0.1382208273207172,0.2068802267313004,-0.341034471988678,-0.917003870010376,0,0,0,-1,-1,3362.922261416667,walking,2,2022-05-12T10:41:51.615+02:00,2022-05-11T22:15:20.957+02:00,965,0.8971741,0.7273178,1.766518,725.3952,0,0,2022-05-12T10:41:54.174+02:00,674037714.1741115,0,-2.93,100.9442,1,0.93
280,2022-05-12T10:41:56.098+02:00,1652344911.999883,53.22899248921613,10.39847172797695,38.44656,0.0,0.78,223.9453125,99.47924639313452,4,5,-9999,3367.403899666667,-10.68974304199219,-13.54542541503906,3.438949584960938,3367.393904666667,-2.893316262255538,0.1507098475283959,0.7032832740566684,34.57215118408203,-0.0708713829517364,7.527759552001953,-27.55738639831543,4.783916473388672,3.364124298095703,XArbitraryZVertical,-0.1126603632672205,0.3320677586804041,0.925729793150914,-0.1416441457601431,0.1145152002573013,-0.6467254161834717,-0.7540773153305054,0,0,0,-1,-1,3362.922261416667,walking,2,2022-05-12T10:41:51.615+02:00,2022-05-11T22:15:20.957+02:00,965,0.8971741,0.7273178,1.766518,725.3952,0,0,2022-05-12T10:41:54.174+02:00,674037714.1741115,0,-2.93,100.9442,1,0.93
281,2022-05-12T10:41:56.108+02:00,1652344911.999883,53.22899248921613,10.39847172797695,38.44656,0.0,0.78,223.9453125,99.47924639313452,4,5,-9999,3367.413894666667,-1.793304443359375,-14.27964782714844,-0.2849273681640625,3367.403899666667,-2.79380572183982,0.1099312672703223,1.00638974377605,22.51401519775391,5.103796005249023,13.06085681915283,-18.33372497558594,-3.005847930908203,6.809396266937256,XArbitraryZVertical,-0.1307104781550537,0.4659097457971151,0.8569477384113738,-0.177436312907103,0.0586854815483093,-0.8449061512947083,-0.5316857695579529,0,0,0,-1,-1,3362.922261416667,walking,2,2022-05-12T10:41:51.615+02:00,2022-05-11T22:15:20.957+02:00,965,0.8971741,0.7273178,1.766518,725.3952,0,0,2022-05-12T10:41:54.174+02:00,674037714.1741115,0,-2.93,100.9442,1,0.93
282,2022-05-12T10:41:56.118+02:00,1652344911.999883,53.22899248921613,10.39847172797695,38.44656,0.0,0.78,223.9453125,99.47924639313452,4,5,-9999,3367.423890666667,1.126312255859375,-9.512832641601562,-2.095428466796875,3367.413894666667,-2.516226707505318,-0.0768561341674276,1.169310846701169,10.38492202758789,7.95589017868042,11.59755420684814,-10.65973854064941,-12.62494468688965,3.828583240509033,XArbitraryZVertical,-0.1391659074950948,0.5346179762600828,0.7994047317831594,-0.236154192272554,-0.0300047826021909,-0.920481503009796,-0.3896329402923584,0,0,0,-1,-1,3362.922261416667,walking,2,2022-05-12T10:41:51.615+02:00,2022-05-11T22:15:20.957+02:00,965,0.8971741,0.7273178,1.766518,725.3952,0,0,2022-05-12T10:41:54.174+02:00,674037714.1741115,0,-2.93,100.9442,1,0.93
283,2022-05-12T10:41:56.128+02:00,1652344911.999883,53.22899248921613,10.39847172797695,38.44656,0.0,0.78,223.9453125,99.47924639313452,4,5,-9999,3367.433885666667,0.024627685546875,-6.92120361328125,-2.006393432617188,3367.423890666667,-2.239842237293096,-0.2570796490930862,1.214010260510955,1.845805406570435,5.804256439208984,7.631951332092285,-1.704501509666443,-13.34262371063232,0.0528600811958313,XArbitraryZVertical,-0.1517424620361112,0.5550502655263782,0.7650411582827635,-0.2891464158810769,-0.0888031348586082,-0.937024176120758,-0.337786853313446,0,0,0,-1,-1,3362.922261416667,walking,2,2022-05-12T10:41:51.615+02:00,2022-05-11T22:15:20.957+02:00,965,0.8971741,0.7273178,1.766518,725.3952,0,0,2022-05-12T10:41:54.174+02:00,674037714.1741115,0,-2.93,100.9442,1,0.93
284,2022-05-12T10:41:56.138+02:00,1652344911.999883,53.22899248921613,10.39847172797695,38.44656,0.0,0.78,223.9453125,99.47924639313452,4,5,-9999,3367.443880666667,-3.578323364257812,-5.607803344726562,-0.9980926513671876,3367.433885666667,-2.094161928249738,-0.3574755409999938,1.174961378628657,-5.803246974945068,2.265191555023193,4.858680248260498,1.261230230331421,-8.590158462524414,-1.73422372341156,XArbitraryZVertical,-0.1446275639097298,0.5463339867879694,0.7585768490989967,-0.3242892182454264,-0.1349181979894638,-0.9226749539375304,-0.3612040877342224,0,0,0,-1,-1,3362.922261416667,walking,2,2022-05-12T10:41:51.615+02:00,2022-05-11T22:15:20.957+02:00,965,0.8971741,0.7273178,1.766518,725.3952,0,0,2022-05-12T10:41:54.174+02:00,674037714.1741115,0,-2.93,100.9442,1,0.93
285,2022-05-12T10:41:56.148+02:00,1652344911.999883,53.22899248921613,10.39847172797695,38.44656,0.0,0.78,223.9453125,99.47924639313452,4,5,-9999,3367.453875666667,-4.4486083984375,-2.356048583984375,0.23321533203125,3367.443880666667,-2.061699949763629,-0.3554963760881193,1.089806633328437,-8.401394844055176,4.214447498321533,3.97995924949646,0.1856578290462494,-6.034666538238525,-1.572664022445679,XArbitraryZVertical,-0.1325768849039277,0.5153241157760602,0.7690754229450918,-0.3541011093212022,-0.1610304415225983,-0.886537492275238,-0.4337288439273834,0,0,0,-1,-1,3362.922261416667,walking,2,2022-05-12T10:41:51.615+02:00,2022-05-11T22:15:20.957+02:00,965,0.8971741,0.7273178,1.766518,725.3952,0,0,2022-05-12T10:41:54.174+02:00,674037714.1741115,0,-2.93,100.9442,1,0.93
286,2022-05-12T10:41:56.158+02:00,1652344911.999883,53.22899248921613,10.39847172797695,38.44656,0.0,0.78,223.9453125,99.47924639313452,4,5,-9999,3367.463870666667,-3.332199096679688,-0.8476409912109375,0.014801025390625,3367.453875666667,-2.036544219017342,-0.3226101686174905,1.005379839241818,-6.459927558898926,6.704548835754395,4.100599765777588,-3.408462285995483,-4.76343822479248,-0.4899640083312988,XArbitraryZVertical,-0.129779762603001,0.4786367749361923,0.7768278934166518,-0.3880756751421784,-0.1698614954948425,-0.8443655371665955,-0.5081281065940857,0,0,0,-1,-1,3362.922261416667,walking,2,2022-05-12T10:41:51.615+02:00,2022-05-11T22:15:20.957+02:00,965,0.8971741,0.7273178,1.766518,725.3952,0,0,2022-05-12T10:41:54.174+02:00,674037714.1741115,0,-2.93,100.9442,1,0.93
287,2022-05-12T10:41:56.168+02:00,1652344911.999883,53.22899248921613,10.39847172797695,38.44656,0.0,0.78,223.9453125,99.47924639313452,4,5,-9999,3367.473865666667,-2.093154907226562,-1.435821533203125,0.4425506591796875,3367.463870666667,-1.989445491802384,-0.2899557528652095,0.9462676305742156,-2.994938373565674,7.368349552154541,4.532433986663818,-4.28143310546875,-1.544810056686401,0.793522834777832,XArbitraryZVertical,-0.1377751902775225,0.4481790870723534,0.7745121926691867,-0.4245991345505491,-0.1671757698059082,-0.8112387657165527,-0.5603070259094238,0,0,0,-1,-1,3362.922261416667,walking,2,2022-05-12T10:41:51.615+02:00,2022-05-11T22:15:20.957+02:00,965,0.8971741,0.7273178,1.766518,725.3952,0,0,2022-05-12T10:41:54.174+02:00,674037714.1741115,0,-2.93,100.9442,1,0.93
288,2022-05-12T10:41:56.178+02:00,1652344911.999883,53.22899248921613,10.39847172797695,38.44656,0.0,0.78,223.9453125,99.47924639313452,4,5,-9999,3367.483860666667,-1.601776123046875,-1.7515869140625,0.3599090576171875,3367.473865666667,-1.925031191674309,-0.2715445656341721,0.9184888737220877,-0.4676905572414398,6.557506084442139,4.426002502441406,-3.169384241104126,-0.0529560446739196,0.599580705165863,XArbitraryZVertical,-0.1514112061701254,0.4297500292409486,0.7631214430889236,-0.4582960528288402,-0.1628152132034302,-0.7946852445602417,-0.5847791433334351,0,0,0,-1,-1,3362.922261416667,walking,2,2022-05-12T10:41:51.615+02:00,2022-05-11T22:15:20.957+02:00,965,0.8971741,0.7273178,1.766518,725.3952,0,0,2022-05-12T10:41:54.174+02:00,674037714.1741115,0,-2.93,100.9442,1,0.93
289,2022-05-12T10:41:56.188+02:00,1652344911.999883,53.22899248921613,10.39847172797695,38.44656,0.0,0.78,223.9453125,99.47924639313452,4,5,-9999,3367.493855666667,-1.662368774414062,-1.43035888671875,0.151123046875,3367.483860666667,-1.856274323902632,-0.2675058145619406,0.9076061333231764,0.4410572350025177,5.086687564849854,4.233899593353271,-1.930426836013794,-0.6477895379066467,1.036288976669312,XArbitraryZVertical,-0.1644438273628884,0.4196299729988848,0.748093885694349,-0.4870569540132509,-0.1627285480499268,-0.7880322337150574,-0.5937378406524658,0,0,0,-1,-1,3362.922261416667,walking,2,2022-05-12T10:41:51.615+02:00,2022-05-11T22:15:20.957+02:00,965,0.8971741,0.7273178,1.766518,725.3952,0,0,2022-05-12T10:41:54.174+02:00,674037714.1741115,0,-2.93,100.9442,1,0.93
290,2022-05-12T10:41:56.198+02:00,1652344911.999883,53.22899248921613,10.39847172797695,38.44656,0.0,0.78,223.9453125,99.47924639313452,4,5,-9999,3367.503850666667,-1.69268798828125,-1.259109497070312,0.202392578125,3367.493855666667,-1.790239327969171,-0.2752335068574251,0.9022036801060612,0.7520427703857422,3.839499473571777,3.98551607131958,-1.433310151100159,-0.9668923616409302,0.9564605355262756,XArbitraryZVertical,-0.1737472307060701,0.4141694899729012,0.7329950721972118,-0.510875611977744,-0.1684664487838745,-0.7846948504447937,-0.5965510606765747,0,0,0,-1,-1,3362.922261416667,walking,2,2022-05-12T10:41:51.615+02:00,2022-05-11T22:15:20.957+02:00,965,0.8971741,0.7273178,1.766518,725.3952,0,0,2022-05-12T10:41:54.174+02:00,674037714.1741115,0,-2.93,100.9442,1,0.93
291,2022-05-12T10:41:56.208+02:00,1652344911.999883,53.22899248921613,10.39847172797695,38.44656,0.0,0.78,223.9453125,99.47924639313452,4,5,-9999,3367.513845666667,-1.611038208007812,-1.283721923828125,0.2849884033203125,3367.503850666667,-1.722620668937003,-0.2934980366668015,0.901289165713452,1.446139574050903,3.160441398620605,4.126294612884521,-1.482828259468079,-0.6462315320968628,0.7451850175857544,XArbitraryZVertical,-0.1808206500294416,0.4126416374789294,0.7171012558203899,-0.5317864520127892,-0.1795410364866257,-0.7841275930404663,-0.594061553478241,0,0,0,-1,-1,3362.922261416667,walking,2,2022-05-12T10:41:51.615+02:00,2022-05-11T22:15:20.957+02:00,965,0.8971741,0.7273178,1.766518,725.3952,0,0,2022-05-12T10:41:54.174+02:00,674037714.1741115,0,-2.93,100.9442,1,0.93
292,2022-05-12T10:41:56.218+02:00,1652344911.999883,53.22899248921613,10.39847172797695,38.44656,0.0,0.78,223.9453125,99.47924639313452,4,5,-9999,3367.523841666667,-1.501876831054688,-1.253646850585938,0.18707275390625,3367.513845666667,-1.650204166070218,-0.32145698444491,0.9055882523413418,2.060232400894165,2.621541261672974,4.154426574707031,-1.497677326202393,-0.4723213315010071,0.7879993915557861,XArbitraryZVertical,-0.1872776054051628,0.4148782018004221,0.6995766759783277,-0.5508137150290351,-0.1950111240148544,-0.7867883443832397,-0.5856063365936279,0,0,0,-1,-1,3362.922261416667,walking,2,2022-05-12T10:41:51.615+02:00,2022-05-11T22:15:20.957+02:00,965,0.8971741,0.7273178,1.766518,725.3952,0,0,2022-05-12T10:41:54.174+02:00,674037714.1741115,0,-2.93,100.9442,1,0.93
293,2022-05-12T10:41:56.228+02:00,1652344911.999883,53.22899248921613,10.39847172797695,38.44656,0.0,0.78,223.9453125,99.47924639313452,4,5,-9999,3367.533836666667,-1.461441040039062,-1.339385986328125,0.0735321044921875,3367.523841666667,-1.573837216997272,-0.3581976682163771,0.9137091711539094,2.566546201705933,2.086938381195068,4.153311252593994,-1.39689564704895,-0.4919473528862,0.8570338487625122,XArbitraryZVertical,-0.1932485904780861,0.4202766341000984,0.680869803343657,-0.5678371380795599,-0.2141430974006653,-0.7917748093605042,-0.572045087814331,0,0,0,-1,-1,3362.922261416667,walking,2,2022-05-12T10:41:51.615+02:00,2022-05-11T22:15:20.957+02:00,965,0.8971741,0.7273178,1.766518,725.3952,0,0,2022-05-12T10:41:54.174+02:00,674037714.1741115,0,-2.93,100.9442,1,0.93
294,2022-05-12T10:41:56.238+02:00,1652344911.999883,53.22899248921613,10.39847172797695,38.44656,0.0,0.78,223.9453125,99.47924639313452,4,5,-9999,3367.543831666667,-1.518386840820312,-1.442535400390625,-0.0455169677734375,3367.533836666667,-1.494315780016282,-0.4027660550905111,0.9233315762254176,2.765817165374756,1.664185285568237,4.088179588317871,-1.265457510948181,-0.4560315012931824,0.7419742941856384,XArbitraryZVertical,-0.1984832583144734,0.4279647504044023,0.6614844105690405,-0.5830000918497483,-0.2364198118448257,-0.7976155281066895,-0.554901123046875,0,0,0,-1,-1,3362.922261416667,walking,2,2022-05-12T10:41:51.615+02:00,2022-05-11T22:15:20.957+02:00,965,0.8971741,0.7273178,1.766518,725.3952,0,0,2022-05-12T10:41:54.174+02:00,674037714.1741115,0,-2.93,100.9442,1,0.93
295,2022-05-12T10:41:56.248+02:00,1652344911.999883,53.22899248921613,10.39847172797695,38.44656,0.0,0.78,223.9453125,99.47924639313452,4,5,-9999,3367.553826666667,-1.567672729492188,-1.463760375976562,-0.19757080078125,3367.543831666667,-1.414354409445152,-0.4511920577837844,0.9317138516443384,2.725199222564697,1.474485158920288,3.950115442276001,-1.201362371444702,-0.5367427468299866,0.6103029251098633,XArbitraryZVertical,-0.2029790828476019,0.4363648458301355,0.6421323394618222,-0.5967004082884431,-0.2600792944431305,-0.802643358707428,-0.5367704033851624,0,0,0,-1,-1,3362.922261416667,walking,2,2022-05-12T10:41:51.615+02:00,2022-05-11T22:15:20.957+02:00,965,0.8971741,0.7273178,1.766518,725.3952,0,0,2022-05-12T10:41:54.174+02:00,674037714.1741115,0,-2.93,100.9442,1,0.93
296,2022-05-12T10:41:56.258+02:00,1652344912.999888,53.22899248921613,10.39847172797695,38.39322,0.0,0.79,208.125,99.89496585696736,4,5,-9999,3367.563821666667,-1.5784912109375,-1.432815551757812,-0.3819122314453125,3367.553826666667,-1.335877753296063,-0.4998330999608858,0.9379209247495728,2.642466068267822,1.445824265480042,3.768133163452148,-1.234910130500793,-0.6362054347991943,0.4735908508300781,XArbitraryZVertical,-0.2071633255876704,0.4444430298392765,0.6230950258896714,-0.609349312099577,-0.283477246761322,-0.806330144405365,-0.5191075205802917,0,0,0,-1,-1,3362.922261416667,walking,2,2022-05-12T10:41:51.615+02:00,2022-05-11T22:15:20.957+02:00,965,0.8971741,0.7273178,1.766518,725.3952,0,0,2022-05-12T10:41:54.174+02:00,674037714.1741115,0,-2.93,100.9442,1,0.93
297,2022-05-12T10:41:56.268+02:00,1652344912.999888,53.22899248921613,10.39847172797695,38.39322,0.0,0.79,208.125,99.89496585696736,4,5,-9999,3367.573816666667,-1.5679931640625,-1.34625244140625,-0.4968109130859375,3367.563821666667,-1.260361467216308,-0.5461216397191406,0.9420278687415726,2.512048721313477,1.481467723846436,3.539174795150757,-1.262202143669128,-0.6550079584121704,0.3050297498703003,XArbitraryZVertical,-0.2114280280138753,0.4516614730291577,0.6045381620024339,-0.6211552479765516,-0.3054711520671844,-0.8087524771690369,-0.5026001930236816,0,0,0,-1,-1,3362.922261416667,walking,2,2022-05-12T10:41:51.615+02:00,2022-05-11T22:15:20.957+02:00,965,0.8971741,0.7273178,1.766518,725.3952,0,0,2022-05-12T10:41:54.174+02:00,674037714.1741115,0,-2.93,100.9442,1,0.93
298,2022-05-12T10:41:56.278+02:00,1652344912.999888,53.22899248921613,10.39847172797695,38.39322,0.0,0.79,208.125,99.89496585696736,4,5,-9999,3367.583811666667,-1.572555541992188,-1.326416015625,-0.499481201171875,3367.573816666667,-1.189011342591712,-0.5891449836744428,0.9440080229962592,2.322192430496216,1.477781057357788,3.321650981903076,-1.252576947212219,-0.6229000091552734,0.1057524085044861,XArbitraryZVertical,-0.2156040573137685,0.4579113148061933,0.5867263921230883,-0.6321267506373225,-0.3259148001670837,-0.8099154829978943,-0.4876642227172852,0,0,0,-1,-1,3362.922261416667,walking,2,2022-05-12T10:41:51.615+02:00,2022-05-11T22:15:20.957+02:00,965,0.8971741,0.7273178,1.766518,725.3952,0,0,2022-05-12T10:41:54.174+02:00,674037714.1741115,0,-2.93,100.9442,1,0.93
299,2022-05-12T10:41:56.288+02:00,1652344912.999888,53.22899248921613,10.39847172797695,38.39322,0.0,0.79,208.125,99.89496585696736,4,5,-9999,3367.593806666667,-1.5635986328125,-1.323944091796875,-0.4692230224609375,3367.583811666667,-1.122641705370979,-0.6279367554256691,0.9436856625318394,2.066323757171631,1.518738150596619,3.102032423019409,-1.223258018493652,-0.536526083946228,-0.0219414234161377,XArbitraryZVertical,-0.2195409481069539,0.462998071683796,0.5697972751175362,-0.6424685082882653,-0.3447356820106506,-0.809726357460022,-0.4748691022396088,0,0,0,-1,-1,3362.922261416667,walking,2,2022-05-12T10:41:51.615+02:00,2022-05-11T22:15:20.957+02:00,965,0.8971741,0.7273178,1.766518,725.3952,0,0,2022-05-12T10:41:54.174+02:00,674037714.1741115,0,-2.93,100.9442,1,0.93
300,2022-05-12T10:41:56.298+02:00,1652344912.999888,53.22899248921613,10.39847172797695,38.39322,0.0,0.79,208.125,99.89496585696736,4,5,-9999,3367.603801666667,-1.4908447265625,-1.327728271484375,-0.43792724609375,3367.593806666667,-1.06259166106074,-0.6607889055136527,0.9410311258652496,1.750329971313477,1.645219922065735,2.859303951263428,-1.211090922355652,-0.5182501673698425,-0.0344959199428558,XArbitraryZVertical,-0.2232083315862347,0.466567902047522,0.5539697301179467,-0.6523878948675927,-0.361465185880661,-0.8081657886505127,-0.4649848639965057,0,0,0,-1,-1,3362.922261416667,walking,2,2022-05-12T10:41:51.615+02:00,2022-05-11T22:15:20.957+02:00,965,0.8971741,0.7273178,1.766518,725.3952,0,0,2022-05-12T10:41:54.174+02:00,674037714.1741115,0,-2.93,100.9442,1,0.93
301,2022-05-12T10:41:56.308+02:00,1652344912.999888,53.22899248921613,10.39847172797695,38.39322,0.0,0.79,208.125,99.89496585696736,4,5,-9999,3367.613796666667,-1.3720703125,-1.347702026367188,-0.3756103515625,3367.603801666667,-1.010011980981758,-0.6860306664913979,0.936062592428762,1.329901337623596,1.787315011024475,2.625942468643188,-1.187974333763123,-0.5187143683433533,-0.0104075670242309,XArbitraryZVertical,-0.2265955072283616,0.4682381445876461,0.5394168976143384,-0.6621456881335465,-0.3756248354911804,-0.8052296042442322,-0.4588150382041931,0,0,0,-1,-1,3362.922261416667,walking,2,2022-05-12T10:41:51.615+02:00,2022-05-11T22:15:20.957+02:00,965,0.8971741,0.7273178,1.766518,725.3952,0,0,2022-05-12T10:41:54.174+02:00,674037714.1741115,0,-2.93,100.9442,1,0.93
302,2022-05-12T10:41:56.318+02:00,1652344912.999888,53.22899248921613,10.39847172797695,38.39322,0.0,0.79,208.125,99.89496585696736,4,5,-9999,3367.623792666667,-1.2752685546875,-1.268630981445312,-0.3392333984375,3367.613796666667,-0.9660989492553071,-0.7029076332835507,0.9282513424245618,0.8332260251045227,1.891111731529236,2.397783517837524,-1.103476643562317,-0.5271548628807068,0.0192688405513763,XArbitraryZVertical,-0.2292028613680135,0.4678335234561893,0.5264310119587826,-0.6719138598355244,-0.3873686790466309,-0.8005732893943787,-0.4571956992149353,0,0,0,-1,-1,3362.922261416667,walking,2,2022-05-12T10:41:51.615+02:00,2022-05-11T22:15:20.957+02:00,965,0.8971741,0.7273178,1.766518,725.3952,0,0,2022-05-12T10:41:54.174+02:00,674037714.1741115,0,-2.93,100.9442,1,0.93
303,2022-05-12T10:41:56.328+02:00,1652344912.999888,53.22899248921613,10.39847172797695,38.39322,0.0,0.79,208.125,99.89496585696736,4,5,-9999,3367.633787666667,-1.199966430664062,-1.185714721679688,-0.311920166015625,3367.623792666667,-0.930448691071552,-0.7118804633751677,0.9185265641883296,0.5077059864997864,1.999532103538513,2.130905151367188,-0.9755481481552124,-0.552993893623352,0.0839647054672241,XArbitraryZVertical,-0.231209798301395,0.4655691739592526,0.5149863874704048,-0.6815985911936588,-0.3965227901935577,-0.7947081327438354,-0.4595747590065002,0,0,0,-1,-1,3362.922261416667,walking,2,2022-05-12T10:41:51.615+02:00,2022-05-11T22:15:20.957+02:00,965,0.8971741,0.7273178,1.766518,725.3952,0,0,2022-05-12T10:41:54.174+02:00,674037714.1741115,0,-2.93,100.9442,1,0.93
304,2022-05-12T10:41:56.338+02:00,1652344912.999888,53.22899248921613,10.39847172797695,38.39322,0.0,0.79,208.125,99.89496585696736,4,5,-9999,3367.643782666667,-1.129791259765625,-1.153656005859375,-0.272247314453125,3367.633787666667,-0.9010306297450738,-0.7147969431761224,0.9087583550793852,0.3942797780036926,2.083812475204468,1.870447754859924,-0.8723385334014893,-0.4798898696899414,0.1250240206718445,XArbitraryZVertical,-0.2332713228933571,0.4620129215047657,0.5047503231635962,-0.6909094743041453,-0.4029306471347809,-0.7887410521507263,-0.4642570912837982,0,0,0,-1,-1,3362.922261416667,walking,2,2022-05-12T10:41:51.615+02:00,2022-05-11T22:15:20.957+02:00,965,0.8971741,0.7273178,1.766518,725.3952,0,0,2022-05-12T10:41:54.174+02:00,674037714.1741115,0,-2.93,100.9442,1,0.93
305,2022-05-12T10:41:56.348+02:00,1652344912.999888,53.22899248921613,10.39847172797695,38.39322,0.0,0.79,208.125,99.89496585696736,4,5,-9999,3367.653777666667,-1.052291870117188,-1.121597290039062,-0.2262725830078125,3367.643782666667,-0.8755707961095297,-0.7135895007979279,0.9001086034554755,0.3743930757045746,2.167893409729004,1.642428040504456,-0.7931467294692993,-0.4023202657699585,0.1579638123512268,XArbitraryZVertical,-0.2358517904216891,0.4576375302094233,0.4952901236483058,-0.6997354473355981,-0.4068202674388885,-0.7833943963050842,-0.4698836505413055,0,0,0,-1,-1,3362.922261416667,walking,2,2022-05-12T10:41:51.615+02:00,2022-05-11T22:15:20.957+02:00,965,0.8971741,0.7273178,1.766518,725.3952,0,0,2022-05-12T10:41:54.174+02:00,674037714.1741115,0,-2.93,100.9442,1,0.93
306,2022-05-12T10:41:56.358+02:00,1652344912.999888,53.22899248921613,10.39847172797695,38.39322,0.0,0.79,208.125,99.89496585696736,4,5,-9999,3367.663772666667,-0.9847259521484376,-1.086807250976562,-0.2160186767578125,3367.653777666667,-0.8531197058860639,-0.7091810345663148,0.8927498038323356,0.3319169878959656,2.220116853713989,1.44891345500946,-0.7213038206100464,-0.3748563528060913,0.203787624835968,XArbitraryZVertical,-0.2389877461949907,0.452622944899959,0.4864423225449738,-0.7080899739567266,-0.4084880352020264,-0.7787995934486389,-0.4760346412658691,0,0,0,-1,-1,3362.922261416667,walking,2,2022-05-12T10:41:51.615+02:00,2022-05-11T22:15:20.957+02:00,965,0.8971741,0.7273178,1.766518,725.3952,0,0,2022-05-12T10:41:54.174+02:00,674037714.1741115,0,-2.93,100.9442,1,0.93
307,2022-05-12T10:41:56.368+02:00,1652344912.999888,53.22899248921613,10.39847172797695,38.39322,0.0,0.79,208.125,99.89496585696736,4,5,-9999,3367.673767666667,-0.945098876953125,-0.967529296875,-0.2261505126953125,3367.663772666667,-0.8335835997083976,-0.7022855965648211,0.886044241147302,0.2476144582033157,2.180579662322998,1.301949858665466,-0.6437323093414307,-0.3470213413238525,0.2565434575080872,XArbitraryZVertical,-0.2422497149136405,0.4471098210898967,0.4782568369245566,-0.7160157330850341,-0.4085601568222046,-0.7745758891105652,-0.4828157722949982,0,0,0,-1,-1,3362.922261416667,walking,2,2022-05-12T10:41:51.615+02:00,2022-05-11T22:15:20.957+02:00,965,0.8971741,0.7273178,1.766518,725.3952,0,0,2022-05-12T10:41:54.174+02:00,674037714.1741115,0,-2.93,100.9442,1,0.93
308,2022-05-12T10:41:56.378+02:00,1652344912.999888,53.22899248921613,10.39847172797695,38.39322,0.0,0.79,208.125,99.89496585696736,4,5,-9999,3367.683762666667,-0.920867919921875,-0.847869873046875,-0.2146148681640625,3367.673767666667,-0.8161320216797253,-0.6944522620134236,0.8798349667179594,0.2365421056747437,2.076630830764771,1.195475339889526,-0.5768908858299255,-0.3161735534667969,0.2736691236495972,XArbitraryZVertical,-0.2453867046008633,0.4415218690967503,0.4706414621274101,-0.7234228964659961,-0.4078357517719269,-0.7706336975097656,-0.4896876215934753,0,0,0,-1,-1,3362.922261416667,walking,2,2022-05-12T10:41:51.615+02:00,2022-05-11T22:15:20.957+02:00,965,0.8971741,0.7273178,1.766518,725.3952,0,0,2022-05-12T10:41:54.174+02:00,674037714.1741115,0,-2.93,100.9442,1,0.93
309,2022-05-12T10:41:56.388+02:00,1652344912.999888,53.22899248921613,10.39847172797695,38.39322,0.0,0.79,208.125,99.89496585696736,4,5,-9999,3367.693757666667,-0.920257568359375,-0.7925872802734375,-0.1859893798828125,3367.683762666667,-0.7995960584600241,-0.6871530867504854,0.8746889946440687,0.3295470774173737,1.932011008262634,1.099544405937195,-0.5383387804031372,-0.2001850605010986,0.2695601582527161,XArbitraryZVertical,-0.2485592645869888,0.4363061764654654,0.4634100003409775,-0.7301414040973295,-0.4067607223987579,-0.7673441171646118,-0.4957104325294495,0,0,0,-1,-1,3362.922261416667,walking,2,2022-05-12T10:41:51.615+02:00,2022-05-11T22:15:20.957+02:00,965,0.8971741,0.7273178,1.766518,725.3952,0,0,2022-05-12T10:41:54.174+02:00,674037714.1741115,0,-2.93,100.9442,1,0.93
310,2022-05-12T10:41:56.398+02:00,1652344912.999888,53.22899248921613,10.39847172797695,38.39322,0.0,0.79,208.125,99.89496585696736,4,5,-9999,3367.703752666667,-0.915496826171875,-0.7664337158203125,-0.18939208984375,3367.693757666667,-0.7828721984673745,-0.6811249215162772,0.8711265960047055,0.486238420009613,1.837106347084045,1.012990951538086,-0.5153847336769104,-0.082814872264862,0.2856592535972595,XArbitraryZVertical,-0.2520736664365782,0.4316502462708851,0.456298641874441,-0.7361579529580258,-0.4054837822914124,-0.7650548815727234,-0.5002738833427429,0,0,0,-1,-1,3362.922261416667,walking,2,2022-05-12T10:41:51.615+02:00,2022-05-11T22:15:20.957+02:00,965,0.8971741,0.7273178,1.766518,725.3952,0,0,2022-05-12T10:41:54.174+02:00,674037714.1741115,0,-2.93,100.9442,1,0.93
311,2022-05-12T10:41:56.408+02:00,1652344912.999888,53.22899248921613,10.39847172797695,38.39322,0.0,0.79,208.125,99.89496585696736,4,5,-9999,3367.713747666667,-0.9143829345703124,-0.766265869140625,-0.1895599365234375,3367.703752666667,-0.7655926750970848,-0.676505501100227,0.8694123310113985,0.641152560710907,1.734618186950684,0.932694375514984,-0.5162691473960876,-0.0286372900009155,0.3171744346618652,XArbitraryZVertical,-0.2561071458018156,0.4275831281895724,0.4492174729733965,-0.7414752810748791,-0.4039890170097351,-0.7639498710632324,-0.5031635761260986,0,0,0,-1,-1,3362.922261416667,walking,2,2022-05-12T10:41:51.615+02:00,2022-05-11T22:15:20.957+02:00,965,0.8971741,0.7273178,1.766518,725.3952,0,0,2022-05-12T10:41:54.174+02:00,674037714.1741115,0,-2.93,100.9442,1,0.93
312,2022-05-12T10:41:56.418+02:00,1652344912.999888,53.22899248921613,10.39847172797695,38.39322,0.0,0.79,208.125,99.89496585696736,4,5,-9999,3367.723742666667,-0.9085235595703124,-0.81121826171875,-0.176666259765625,3367.713747666667,-0.7480595572830442,-0.6731249861696805,0.8689761701207506,0.6841434240341187,1.635395526885986,0.8822482824325562,-0.513003945350647,-0.0027652382850646,0.3153950572013855,XArbitraryZVertical,-0.2604087188062446,0.42402102882606,0.4422311002647289,-0.746207295621371,-0.4024935066699982,-0.7636683583259583,-0.5047869086265564,0,0,0,-1,-1,3362.922261416667,walking,2,2022-05-12T10:41:51.615+02:00,2022-05-11T22:15:20.957+02:00,965,0.8971741,0.7273178,1.766518,725.3952,0,0,2022-05-12T10:41:54.174+02:00,674037714.1741115,0,-2.93,100.9442,1,0.93
313,2022-05-12T10:41:56.428+02:00,1652344912.999888,53.22899248921613,10.39847172797695,38.39322,0.0,0.79,208.125,99.89496585696736,4,5,-9999,3367.733737666667,-0.887420654296875,-0.8117523193359375,-0.1881103515625,3367.723742666667,-0.7313635977305921,-0.6699160485584172,0.868688804153706,0.6032556295394897,1.565717697143555,0.8478549718856812,-0.5133757591247559,-0.0027828812599182,0.3166881203651428,XArbitraryZVertical,-0.2645164339777281,0.4206033300534392,0.435542883724736,-0.7506172789045307,-0.401007741689682,-0.7634828090667725,-0.5062478184700012,0,0,0,-1,-1,3362.922261416667,walking,2,2022-05-12T10:41:51.615+02:00,2022-05-11T22:15:20.957+02:00,965,0.8971741,0.7273178,1.766518,725.3952,0,0,2022-05-12T10:41:54.174+02:00,674037714.1741115,0,-2.93,100.9442,1,0.93
