,loggingTime(txt),locationTimestamp_since1970(s),locationLatitude(WGS84),locationLongitude(WGS84),locationAltitude(m),locationSpeed(m/s),locationSpeedAccuracy(m/s),locationCourse(°),locationCourseAccuracy(°),locationVerticalAccuracy(m),locationHorizontalAccuracy(m),locationFloor(Z),accelerometerTimestamp_sinceReboot(s),accelerometerAccelerationX(G),accelerometerAccelerationY(G),accelerometerAccelerationZ(G),motionTimestamp_sinceReboot(s),motionYaw(rad),motionRoll(rad),motionPitch(rad),motionRotationRateX(rad/s),motionRotationRateY(rad/s),motionRotationRateZ(rad/s),motionUserAccelerationX(G),motionUserAccelerationY(G),motionUserAccelerationZ(G),motionAttitudeReferenceFrame(txt),motionQuaternionX(R),motionQuaternionY(R),motionQuaternionZ(R),motionQuaternionW(R),motionGravityX(G),motionGravityY(G),motionGravityZ(G),motionMagneticFieldX(µT),motionMagneticFieldY(µT),motionMagneticFieldZ(µT),motionHeading(°),motionMagneticFieldCalibrationAccuracy(Z),activityTimestamp_sinceReboot(s),activity(txt),activityActivityConfidence(Z),activityActivityStartDate(txt),pedometerStartDate(txt),pedometerNumberofSteps(N),pedometerAverageActivePace(s/m),pedometerCurrentPace(s/m),pedometerCurrentCadence(steps/s),pedometerDistance(m),pedometerFloorAscended(N),pedometerFloorDescended(N),pedometerEndDate(txt),altimeterTimestamp_sinceReboot(s),altimeterReset(bool),altimeterRelativeAltitude(m),altimeterPressure(kPa),batteryState(N),batteryLevel(R)
205,2022-06-02T10:48:36.540+02:00,1654159715.999812,53.22909297865075,10.39851939461402,36.7967,0,20,-1,-1,2.400000095367432,7.999579855010837,-9999,2860.817423041667,1.050003051757812,0.588897705078125,1.798660278320312,2860.807429041667,-2.073905301112966,1.665958575385375,-0.2424622395452586,-1.761964440345764,3.390965700149536,3.776780605316162,-0.0157960653305053,0.2360264956951141,1.46343994140625,XArbitraryZVertical,0.5909124177773614,0.4437817013412741,-0.6203602173885807,0.2627423674464892,0.96635764837265,0.2400935739278793,0.0922393649816513,0,0,0,-1,-1,2860.589569916667,unknown,2,2022-06-02T10:48:36.311+02:00,2022-06-02T10:17:13.754+02:00,467,1.474645,0,0,361.8512,0,0,2022-06-02T10:48:36.311+02:00,675852516.3110143,0,6.632812,101.302,1,0.8
206,2022-06-02T10:48:36.550+02:00,1654159715.999812,53.22909297865075,10.39851939461402,36.7967,0,20,-1,-1,2.400000095367432,7.999579855010837,-9999,2860.827417041667,1.065948486328125,0.725921630859375,1.91119384765625,2860.817423041667,-2.058127126607914,1.704812695511703,-0.2038682993704015,-2.175525903701782,3.688377618789673,3.528045177459717,0.0583142042160034,0.3054451048374176,1.563273787498474,XArbitraryZVertical,0.6071865930955866,0.443563617167258,-0.6005083085070249,0.271966025622522,0.9705096483230592,0.2024590224027634,0.1308484822511673,0,0,0,-1,-1,2860.589569916667,unknown,2,2022-06-02T10:48:36.311+02:00,2022-06-02T10:17:13.754+02:00,467,1.474645,0,0,361.8512,0,0,2022-06-02T10:48:36.311+02:00,675852516.3110143,0,6.632812,101.302,1,0.8
207,2022-06-02T10:48:36.560+02:00,1654159715.999812,53.22909297865075,10.39851939461402,36.7967,0,20,-1,-1,2.400000095367432,7.999579855010837,-9999,2860.837412041667,1.104965209960938,0.7076873779296875,1.918289184570312,2860.827417041667,-2.039729014588821,1.746864962172951,-0.1669132311849975,-2.515439033508301,4.05884313583374,3.218170404434204,0.0873246788978576,0.5093826055526733,1.707156658172607,XArbitraryZVertical,0.6228216452830083,0.445484232509509,-0.5787227023560373,0.2805653952921907,0.9708569645881652,0.1661392748355865,0.1727260053157806,0,0,0,-1,-1,2860.589569916667,unknown,2,2022-06-02T10:48:36.311+02:00,2022-06-02T10:17:13.754+02:00,467,1.474645,0,0,361.8512,0,0,2022-06-02T10:48:36.311+02:00,675852516.3110143,0,6.632812,101.302,1,0.8
208,2022-06-02T10:48:36.569+02:00,1654159715.999812,53.22909297865075,10.39851939461402,36.7967,0,20,-1,-1,2.400000095367432,7.999579855010837,-9999,2860.847406041667,1.17169189453125,0.82891845703125,1.975677490234375,2860.837412041667,-2.019978173412533,1.792912115260735,-0.1320886577277095,-2.687168836593628,4.56548547744751,2.825518846511841,0.1128974556922913,0.5939115881919861,1.692132234573364,XArbitraryZVertical,0.6381131160518434,0.4494431314473453,-0.5550087588333585,0.2877114167559334,0.9669365882873536,0.1317048966884613,0.218374952673912,0,0,0,-1,-1,2860.589569916667,unknown,2,2022-06-02T10:48:36.311+02:00,2022-06-02T10:17:13.754+02:00,467,1.474645,0,0,361.8512,0,0,2022-06-02T10:48:36.311+02:00,675852516.3110143,0,6.632812,101.302,1,0.8
209,2022-06-02T10:48:36.580+02:00,1654159715.999812,53.22909297865075,10.39851939461402,36.7967,0,20,-1,-1,2.400000095367432,7.999579855010837,-9999,2860.857400041667,1.19659423828125,1.116409301757812,2.102325439453125,2860.847406041667,-1.998618246923191,1.843354388117297,-0.0996977796204716,-3.057539463043213,5.026977062225342,2.442036628723145,0.1779884696006775,0.6301273703575134,1.672127962112427,XArbitraryZVertical,0.6529082859410928,0.4556756864938876,-0.5292689311086398,0.2931631239280037,0.9583027362823486,0.099532701075077,0.2678591310977936,0,0,0,-1,-1,2860.589569916667,unknown,2,2022-06-02T10:48:36.311+02:00,2022-06-02T10:17:13.754+02:00,467,1.474645,0,0,361.8512,0,0,2022-06-02T10:48:36.311+02:00,675852516.3110143,0,6.632812,101.302,1,0.8
210,2022-06-02T10:48:36.590+02:00,1654159715.999812,53.22909297865075,10.39851939461402,36.7967,0,20,-1,-1,2.400000095367432,7.999579855010837,-9999,2860.867394041667,1.196044921875,1.330718994140625,2.320068359375,2860.867394041667,-1.94323804225464,1.95993928559164,-0.0349764963670606,-4.235747814178467,6.299320220947266,1.828408718109131,0.2663103342056274,1.185535430908203,1.808458566665649,XArbitraryZVertical,0.6802120659648978,0.4763331492833446,-0.4681299315707817,0.3021133146311936,0.9246684312820436,0.0349693670868873,0.3791634440422058,0,0,0,-1,-1,2860.589569916667,unknown,2,2022-06-02T10:48:36.311+02:00,2022-06-02T10:17:13.754+02:00,467,1.474645,0,0,361.8512,0,0,2022-06-02T10:48:36.311+02:00,675852516.3110143,0,6.632812,101.302,1,0.8
211,2022-06-02T10:48:36.599+02:00,1654159715.999812,53.22909297865075,10.39851939461402,36.7967,0,20,-1,-1,2.400000095367432,7.999579855010837,-9999,2860.877389041667,1.214248657226562,1.562149047851562,2.691986083984375,2860.867394041667,-1.94323804225464,1.95993928559164,-0.0349764963670606,-4.235747814178467,6.299320220947266,1.828408718109131,0.2663103342056274,1.185535430908203,1.808458566665649,XArbitraryZVertical,0.6802120659648978,0.4763331492833446,-0.4681299315707817,0.3021133146311936,0.9246684312820436,0.0349693670868873,0.3791634440422058,0,0,0,-1,-1,2860.589569916667,unknown,2,2022-06-02T10:48:36.311+02:00,2022-06-02T10:17:13.754+02:00,467,1.474645,0,0,361.8512,0,0,2022-06-02T10:48:36.311+02:00,675852516.3110143,0,6.632812,101.302,1,0.8
212,2022-06-02T10:48:36.609+02:00,1654159715.999812,53.22909297865075,10.39851939461402,36.7967,0,20,-1,-1,2.400000095367432,7.999579855010837,-9999,2860.887383041667,1.201202392578125,1.593414306640625,3.122406005859375,2860.877389041667,-1.908522801264458,2.026828275907582,-0.0010972053512372,-4.858016490936279,6.970110416412354,1.504274249076843,0.3131920099258423,1.462342739105225,2.058970212936401,XArbitraryZVertical,0.6922286069103617,0.4909316965344199,-0.4318458928821591,0.305474567444302,0.8978064656257629,0.0010972050949931,0.4403887391090393,0,0,0,-1,-1,2860.589569916667,unknown,2,2022-06-02T10:48:36.311+02:00,2022-06-02T10:17:13.754+02:00,467,1.474645,0,0,361.8512,0,0,2022-06-02T10:48:36.311+02:00,675852516.3110143,0,6.632812,101.302,1,0.8
213,2022-06-02T10:48:36.619+02:00,1654159715.999812,53.22909297865075,10.39851939461402,36.7967,0,20,-1,-1,2.400000095367432,7.999579855010837,-9999,2860.897377041667,1.16326904296875,1.5538330078125,3.7047119140625,2860.887383041667,-1.869574091741078,2.099553716640666,0.0342870318815174,-5.370214462280273,7.709505081176758,1.028936743736267,0.3432496786117554,1.632455348968506,2.374940395355225,XArbitraryZVertical,0.7026948754906736,0.5082342963166966,-0.3915476895929554,0.3075845992105253,0.8629271984100342,-0.034280315041542,0.5041643977165222,0,0,0,-1,-1,2860.589569916667,unknown,2,2022-06-02T10:48:36.311+02:00,2022-06-02T10:17:13.754+02:00,467,1.474645,0,0,361.8512,0,0,2022-06-02T10:48:36.311+02:00,675852516.3110143,0,6.632812,101.302,1,0.8
214,2022-06-02T10:48:36.630+02:00,1654159715.999812,53.22909297865075,10.39851939461402,36.7967,0,20,-1,-1,2.400000095367432,7.999579855010837,-9999,2860.907372041667,1.036453247070312,1.56671142578125,4.345413208007812,2860.897377041667,-1.82671466048582,2.178253813333856,0.0703521621755539,-5.672269344329834,8.48707389831543,0.4410767257213593,0.3735867738723755,1.648403882980347,2.844494342803955,XArbitraryZVertical,0.7110204890970336,0.5283319603488519,-0.3474244178779112,0.3075895821371695,0.81907057762146,-0.0702941417694091,0.5693696141242981,0,0,0,-1,-1,2860.589569916667,unknown,2,2022-06-02T10:48:36.311+02:00,2022-06-02T10:17:13.754+02:00,467,1.474645,0,0,361.8512,0,0,2022-06-02T10:48:36.311+02:00,675852516.3110143,0,6.632812,101.302,1,0.8
215,2022-06-02T10:48:36.640+02:00,1654159715.999812,53.22909297865075,10.39851939461402,36.7967,0,20,-1,-1,2.400000095367432,7.999579855010837,-9999,2860.917366041667,0.965301513671875,1.656478881835938,5.067428588867188,2860.917366041667,-1.732084376236088,2.354333910885397,0.1377665871576417,-5.663228034973145,10.11802196502686,-1.575656890869141,0.2831389904022217,1.724611520767212,4.026254177093506,XArbitraryZVertical,0.7189469816312803,0.5767725420815023,-0.250298404228405,0.2963095415849131,0.701708972454071,-0.1373312026262283,0.6991026401519775,0,0,0,-1,-1,2860.589569916667,unknown,2,2022-06-02T10:48:36.311+02:00,2022-06-02T10:17:13.754+02:00,467,1.474645,0,0,361.8512,0,0,2022-06-02T10:48:36.311+02:00,675852516.3110143,0,6.632812,101.302,1,0.8
216,2022-06-02T10:48:36.649+02:00,1654159715.999812,53.22909297865075,10.39851939461402,36.7967,0,20,-1,-1,2.400000095367432,7.999579855010837,-9999,2860.927360041667,1.047088623046875,2.059066772460938,5.951431274414062,2860.917366041667,-1.732084376236088,2.354333910885397,0.1377665871576417,-5.663228034973145,10.11802196502686,-1.575656890869141,0.2831389904022217,1.724611520767212,4.026254177093506,XArbitraryZVertical,0.7189469816312803,0.5767725420815023,-0.250298404228405,0.2963095415849131,0.701708972454071,-0.1373312026262283,0.6991026401519775,0,0,0,-1,-1,2860.589569916667,unknown,2,2022-06-02T10:48:36.311+02:00,2022-06-02T10:17:13.754+02:00,467,1.474645,0,0,361.8512,0,0,2022-06-02T10:48:36.311+02:00,675852516.3110143,0,6.632812,101.302,1,0.8
217,2022-06-02T10:48:36.660+02:00,1654159715.999812,53.22909297865075,10.39851939461402,36.7967,0,20,-1,-1,2.400000095367432,7.999579855010837,-9999,2860.937355041667,1.080291748046875,2.84393310546875,7.571548461914062,2860.927360041667,-1.676267759362069,2.450074114961311,0.164283252556967,-5.805031299591064,10.63976860046387,-3.034535646438599,0.3668044805526733,1.985810995101929,4.659663677215576,XArbitraryZVertical,0.7156417155879903,0.6064738585839154,-0.1994647797480726,0.283302116439854,0.6291213035583496,-0.1635452806949615,0.7599071860313416,0,0,0,-1,-1,2860.589569916667,unknown,2,2022-06-02T10:48:36.311+02:00,2022-06-02T10:17:13.754+02:00,467,1.474645,0,0,361.8512,0,0,2022-06-02T10:48:36.311+02:00,675852516.3110143,0,6.632812,101.302,1,0.8
218,2022-06-02T10:48:36.670+02:00,1654159715.999812,53.22909297865075,10.39851939461402,36.7967,0,20,-1,-1,2.400000095367432,7.999579855010837,-9999,2860.947349041667,1.189056396484375,3.59393310546875,8.974822998046875,2860.937355041667,-1.60613226216474,2.542567267828686,0.1927725105794429,-7.188119411468506,10.26204109191895,-4.580437183380127,0.5202146768569946,2.57816219329834,5.909322261810303,XArbitraryZVertical,0.7039872436088246,0.640074715839263,-0.147441688760679,0.2701243383908509,0.5533936619758606,-0.1915807873010635,0.8105873465538025,0,0,0,-1,-1,2860.589569916667,unknown,2,2022-06-02T10:48:36.311+02:00,2022-06-02T10:17:13.754+02:00,467,1.474645,0,0,361.8512,0,0,2022-06-02T10:48:36.311+02:00,675852516.3110143,0,6.632812,101.302,1,0.8
219,2022-06-02T10:48:36.679+02:00,1654159715.999812,53.22909297865075,10.39851939461402,36.7967,0,20,-1,-1,2.400000095367432,7.999579855010837,-9999,2860.957343041667,1.679122924804688,3.9390869140625,10.44657897949219,2860.947349041667,-1.514462033066887,2.623140168777355,0.2331226494573946,-9.149245262145996,9.712751388549805,-6.537544250488281,0.6243283152580261,3.533293485641479,7.470887184143066,XArbitraryZVertical,0.681120482253224,0.6772153950937165,-0.0931888542375995,0.2622404469744983,0.4821321964263916,-0.2310168296098709,0.8450915813446045,0,0,0,-1,-1,2860.589569916667,unknown,2,2022-06-02T10:48:36.311+02:00,2022-06-02T10:17:13.754+02:00,467,1.474645,0,0,361.8512,0,0,2022-06-02T10:48:36.311+02:00,675852516.3110143,0,6.632812,101.302,1,0.8
220,2022-06-02T10:48:36.689+02:00,1654159715.999812,53.22909297865075,10.39851939461402,36.7967,0,20,-1,-1,2.400000095367432,7.999579855010837,-9999,2860.967337041667,2.00042724609375,4.225784301757812,11.21563720703125,2860.957343041667,-1.392656364932086,2.68119447193249,0.2848886095804088,-10.91141414642334,7.870551109313965,-9.473906517028809,0.9537917375564576,4.037123680114746,8.847036361694336,XArbitraryZVertical,0.6430116974189246,0.7186228006008278,-0.0388266343308709,0.2619345520390522,0.4263962507247925,-0.2810505628585815,0.8597655296325684,0,0,0,-1,-1,2860.589569916667,unknown,2,2022-06-02T10:48:36.311+02:00,2022-06-02T10:17:13.754+02:00,467,1.474645,0,0,361.8512,0,0,2022-06-02T10:48:36.311+02:00,675852516.3110143,0,6.632812,101.302,1,0.8
221,2022-06-02T10:48:36.699+02:00,1654159715.999812,53.22909297865075,10.39851939461402,36.7967,0,20,-1,-1,2.400000095367432,7.999579855010837,-9999,2860.977332041667,0.988189697265625,3.821823120117188,11.54806518554688,2860.967337041667,-1.237521753481637,2.697032114099633,0.3373750294126927,-11.07575225830078,4.817111015319824,-12.71857738494873,1.553075551986694,4.503450870513916,10.11486053466797,XArbitraryZVertical,0.58787535017693,0.7618107926479943,0.0073426644563387,0.2720166788915153,0.4058173298835754,-0.3310112357139587,0.8519062399864197,0,0,0,-1,-1,2860.589569916667,unknown,2,2022-06-02T10:48:36.311+02:00,2022-06-02T10:17:13.754+02:00,467,1.474645,0,0,361.8512,0,0,2022-06-02T10:48:36.311+02:00,675852516.3110143,0,6.632812,101.302,1,0.8
222,2022-06-02T10:48:36.709+02:00,1654159715.999812,53.22909297865075,10.39851939461402,36.7967,0,20,-1,-1,2.400000095367432,7.999579855010837,-9999,2860.987326041667,-0.8675079345703125,4.890731811523438,12.08110046386719,2860.977332041667,-1.046073952091455,2.658744959080694,0.3648479967011909,-9.823720932006836,0.4997287392616272,-17.01492500305176,1.22465968132019,4.328288555145264,10.5190258026123,XArbitraryZVertical,0.514553312560941,0.8055584745969339,0.0351574034340773,0.2916749387972984,0.4337417185306549,-0.3568072915077209,0.8273791074752808,0,0,0,-1,-1,2860.589569916667,unknown,2,2022-06-02T10:48:36.311+02:00,2022-06-02T10:17:13.754+02:00,467,1.474645,0,0,361.8512,0,0,2022-06-02T10:48:36.311+02:00,675852516.3110143,0,6.632812,101.302,1,0.8
223,2022-06-02T10:48:36.719+02:00,1654159715.999812,53.22909297865075,10.39851939461402,36.7967,0,20,-1,-1,2.400000095367432,7.999579855010837,-9999,2860.997320041667,-3.603378295898438,6.24078369140625,12.21597290039062,2860.997320041667,-0.5817507648690802,2.383562152692188,0.2970406172818496,-9.86981964111328,-12.62471103668213,-22.36154747009277,-2.653494119644165,5.992566585540771,11.48680877685547,XArbitraryZVertical,0.3159556977229182,0.8645036466308131,0.0267521318707057,0.3899867625103752,0.657384991645813,-0.292691707611084,0.6943891048431396,0,0,0,-1,-1,2860.589569916667,unknown,2,2022-06-02T10:48:36.311+02:00,2022-06-02T10:17:13.754+02:00,467,1.474645,0,0,361.8512,0,0,2022-06-02T10:48:36.311+02:00,675852516.3110143,0,6.632812,101.302,1,0.8
224,2022-06-02T10:48:36.729+02:00,1654159715.999812,53.22909297865075,10.39851939461402,36.7967,0,20,-1,-1,2.400000095367432,7.999579855010837,-9999,2861.007315041667,-11.01759338378906,6.295669555664062,12.63534545898438,2860.997320041667,-0.5817507648690802,2.383562152692188,0.2970406172818496,-9.86981964111328,-12.62471103668213,-22.36154747009277,-2.653494119644165,5.992566585540771,11.48680877685547,XArbitraryZVertical,0.3159556977229182,0.8645036466308131,0.0267521318707057,0.3899867625103752,0.657384991645813,-0.292691707611084,0.6943891048431396,0,0,0,-1,-1,2860.589569916667,unknown,2,2022-06-02T10:48:36.311+02:00,2022-06-02T10:17:13.754+02:00,467,1.474645,0,0,361.8512,0,0,2022-06-02T10:48:36.311+02:00,675852516.3110143,0,6.632812,101.302,1,0.8
225,2022-06-02T10:48:36.740+02:00,1654159715.999812,53.22909297865075,10.39851939461402,36.7967,0,20,-1,-1,2.400000095367432,7.999579855010837,-9999,2861.017309041667,-18.15446472167969,6.602325439453125,13.59049987792969,2861.007315041667,-0.347982012309028,2.174948339580507,0.1774911940489535,-9.052095413208008,-17.16498184204102,-25.38646125793457,-7.154003143310547,6.573960781097412,11.65251445770264,XArbitraryZVertical,0.1932481707396121,0.8615248951378308,-0.0028414053326969,0.4694911777339246,0.8100548386573792,-0.1765607446432114,0.5591400265693665,0,0,0,-1,-1,2860.589569916667,unknown,2,2022-06-02T10:48:36.311+02:00,2022-06-02T10:17:13.754+02:00,467,1.474645,0,0,361.8512,0,0,2022-06-02T10:48:36.311+02:00,675852516.3110143,0,6.632812,101.302,1,0.8
226,2022-06-02T10:48:36.749+02:00,1654159715.999812,53.22909297865075,10.39851939461402,36.7967,0,20,-1,-1,2.400000095367432,7.999579855010837,-9999,2861.027303041667,-23.614501953125,7.863235473632812,14.01039123535156,2861.017309041667,-0.1626781341064624,1.953410200853331,-0.0123064854092287,-4.609311103820801,-24.78837394714355,-24.94324111938477,-17.07254981994629,6.223152160644531,13.18388652801514,XArbitraryZVertical,0.0638937570378606,0.8261820257886221,-0.0505610158839372,0.5574803672868791,0.927621603012085,0.0123061751946806,0.3733183145523071,0,0,0,-1,-1,2860.589569916667,unknown,2,2022-06-02T10:48:36.311+02:00,2022-06-02T10:17:13.754+02:00,467,1.474645,0,0,361.8512,0,0,2022-06-02T10:48:36.311+02:00,675852516.3110143,0,6.632812,101.302,1,0.8
227,2022-06-02T10:48:36.760+02:00,1654159715.999812,53.22909297865075,10.39851939461402,36.7967,0,20,-1,-1,2.400000095367432,7.999579855010837,-9999,2861.037298041667,-32.07638549804688,8.5931396484375,16.28678894042969,2861.027303041667,-0.1024433302696277,1.662871796788305,-0.2429378023226648,4.73188304901123,-33.77511978149414,-23.57584953308105,-19.71702766418457,7.238036632537842,13.1818265914917,XArbitraryZVertical,-0.0439870415747899,0.7366735240715346,-0.1236600220917267,0.663389317651727,0.966523826122284,0.2405551970005035,0.0892454832792282,0,0,0,-1,-1,2860.589569916667,unknown,2,2022-06-02T10:48:36.311+02:00,2022-06-02T10:17:13.754+02:00,467,1.474645,0,0,361.8512,0,0,2022-06-02T10:48:36.311+02:00,675852516.3110143,0,6.632812,101.302,1,0.8
228,2022-06-02T10:48:36.769+02:00,1654159715.999812,53.22909297865075,10.39851939461402,36.7967,0,20,-1,-1,2.400000095367432,7.999579855010837,-9999,2861.047292041667,-31.94805908203125,15.32803344726562,22.10780334472656,2861.037298041667,-0.3074788037663395,1.240628890146733,-0.4321597478307736,31.11977767944336,-35.15439224243164,-18.81232643127441,-31.42967987060547,7.098485946655273,15.39876556396484,XArbitraryZVertical,-0.0854548872986524,0.5877922670633519,-0.2448674186628186,0.7663143636893411,0.8590170741081238,0.4188329577445984,-0.2943954169750214,0,0,0,-1,-1,2860.589569916667,unknown,2,2022-06-02T10:48:36.311+02:00,2022-06-02T10:17:13.754+02:00,467,1.474645,0,0,361.8512,0,0,2022-06-02T10:48:36.311+02:00,675852516.3110143,0,6.632812,101.302,1,0.8
229,2022-06-02T10:48:36.779+02:00,1654159715.999812,53.22909297865075,10.39851939461402,36.7967,0,20,-1,-1,2.400000095367432,7.999579855010837,-9999,2861.057286041667,-32.03498840332031,28.56733703613281,23.3489990234375,2861.047292041667,-0.6715307534026557,0.7442062465457482,-0.3338285541886858,35.24889755249023,-35.12826156616211,-1.421598434448242,-32.73166656494141,11.09200000762939,20.16104888916016,XArbitraryZVertical,-0.0279975439239632,0.3894976729192501,-0.3597086646575678,0.84741796540931,0.6399927139282227,0.3276626169681549,-0.6950154304504395,0,0,0,-1,-1,2860.589569916667,unknown,2,2022-06-02T10:48:36.311+02:00,2022-06-02T10:17:13.754+02:00,467,1.474645,0,0,361.8512,0,0,2022-06-02T10:48:36.311+02:00,675852516.3110143,0,6.632812,101.302,1,0.8
230,2022-06-02T10:48:36.789+02:00,1654159715.999812,53.22909297865075,10.39851939461402,36.7967,0,20,-1,-1,2.400000095367432,7.999579855010837,-9999,2861.067281041667,-31.36956787109375,6.5167236328125,31.43348693847656,2861.057286041667,-0.8837846048264939,0.4528463596837949,-0.0498785159013319,35.12250137329102,-7.253162860870361,-3.169950485229492,-32.37042236328125,21.04560089111328,20.8853759765625,XArbitraryZVertical,0.0740089606980019,0.2132584093056562,-0.4216660563885873,0.8782033083174726,0.4369826018810272,0.0498578362166881,-0.8980870246887207,0,0,0,-1,-1,2860.589569916667,unknown,2,2022-06-02T10:48:36.311+02:00,2022-06-02T10:17:13.754+02:00,467,1.474645,0,0,361.8512,0,0,2022-06-02T10:48:36.311+02:00,675852516.3110143,0,6.632812,101.302,1,0.8
231,2022-06-02T10:48:36.799+02:00,1654159715.999812,53.22909297865075,10.39851939461402,36.7967,0,20,-1,-1,2.400000095367432,7.999579855010837,-9999,2861.077275041667,-6.432510375976562,-32.01068115234375,20.87628173828125,2861.067281041667,-1.148063774504692,0.6138549916762391,0.2044113167726676,34.98337936401367,33.65143585205078,-13.19092464447021,-32.67966079711914,26.93344497680664,31.19291687011719,XArbitraryZVertical,0.2448785076601112,0.1995669791441858,-0.4890584326308099,0.8130370438388622,0.5640304684638977,-0.2029907703399658,-0.8004150986671448,0,0,0,-1,-1,2860.589569916667,unknown,2,2022-06-02T10:48:36.311+02:00,2022-06-02T10:17:13.754+02:00,467,1.474645,0,0,361.8512,0,0,2022-06-02T10:48:36.311+02:00,675852516.3110143,0,6.632812,101.302,1,0.8
232,2022-06-02T10:48:36.809+02:00,1654159715.999812,53.22909297865075,10.39851939461402,36.7967,0,20,-1,-1,2.400000095367432,7.999579855010837,-9999,2861.087269041667,11.91554260253906,-19.57894897460938,1.313385009765625,2861.077275041667,-1.36718032674492,0.9532188268456,0.3590042613758105,-3.108385562896729,8.670995712280273,18.99349975585938,-22.63362312316895,-18.51847076416016,31.64222717285156,XArbitraryZVertical,0.4080913173278309,0.2497779111686425,-0.4886730118382799,0.7295690611066421,0.7633069157600403,-0.3513421416282654,-0.5421449542045593,0,0,0,-1,-1,2860.589569916667,unknown,2,2022-06-02T10:48:36.311+02:00,2022-06-02T10:17:13.754+02:00,467,1.474645,0,0,361.8512,0,0,2022-06-02T10:48:36.311+02:00,675852516.3110143,0,6.632812,101.302,1,0.8
233,2022-06-02T10:48:36.819+02:00,1654159715.999812,53.22909297865075,10.39851939461402,36.7967,0,20,-1,-1,2.400000095367432,7.999579855010837,-9999,2861.097264041667,-3.515182495117188,7.883499145507812,9.43084716796875,2861.087269041667,-1.033675975435098,0.9528901456422516,0.3480868887177755,-35.07701110839844,19.52348518371582,5.542239665985107,10.96256542205811,-31.74213600158691,7.428267955780029,XArbitraryZVertical,0.3569792435148076,0.3166591765006513,-0.3634238275503356,0.800134807272827,0.766209602355957,-0.3411000669002533,-0.5445855855941772,0,0,0,-1,-1,2860.589569916667,unknown,2,2022-06-02T10:48:36.311+02:00,2022-06-02T10:17:13.754+02:00,467,1.474645,0,0,361.8512,0,0,2022-06-02T10:48:36.311+02:00,675852516.3110143,0,6.632812,101.302,1,0.8
234,2022-06-02T10:48:36.829+02:00,1654159715.999812,53.22909297865075,10.39851939461402,36.7967,0,20,-1,-1,2.400000095367432,7.999579855010837,-9999,2861.107258041667,-16.48721313476562,10.86044311523438,14.75422668457031,2861.097264041667,-0.7470116583089199,1.000841811878855,0.1320404891424639,-34.98830795288086,-1.989927053451538,-4.894713878631592,1.241208791732788,-2.014705181121826,3.384902954101562,XArbitraryZVertical,0.2285790274257466,0.4246212938731597,-0.2899719858599474,0.8266587414505715,0.8345968127250671,-0.131657138466835,-0.5348967909812927,0,0,0,-1,-1,2860.589569916667,unknown,2,2022-06-02T10:48:36.311+02:00,2022-06-02T10:17:13.754+02:00,467,1.474645,0,0,361.8512,0,0,2022-06-02T10:48:36.311+02:00,675852516.3110143,0,6.632812,101.302,1,0.8
235,2022-06-02T10:48:36.839+02:00,1654159715.999812,53.22909297865075,10.39851939461402,36.7967,0,20,-1,-1,2.400000095367432,7.999579855010837,-9999,2861.117252041667,-21.11793518066406,1.086639404296875,5.1214599609375,2861.107258041667,-0.5542282489052945,0.8443094628862041,-0.0111046949619533,-12.53833675384521,3.64663028717041,9.29364776611328,-7.800429821014404,12.64632034301758,17.21350860595703,XArbitraryZVertical,0.1072201408056287,0.3954750283376731,-0.2517471394810692,0.8767706612405082,0.747466504573822,0.0111044663935899,-0.6642066836357117,0,0,0,-1,-1,2860.589569916667,unknown,2,2022-06-02T10:48:36.311+02:00,2022-06-02T10:17:13.754+02:00,467,1.474645,0,0,361.8512,0,0,2022-06-02T10:48:36.311+02:00,675852516.3110143,0,6.632812,101.302,1,0.8
236,2022-06-02T10:48:36.849+02:00,1654159715.999812,53.22909297865075,10.39851939461402,36.7967,0,20,-1,-1,2.400000095367432,7.999579855010837,-9999,2861.127247041667,-4.352813720703125,6.878585815429688,5.990386962890625,2861.117252041667,-0.4780993949902521,0.9124734329082174,0.1120270280905104,11.93396091461182,10.11294841766357,16.77815628051758,-28.52698135375977,2.866935014724731,7.82525634765625,XArbitraryZVertical,0.1529838124415741,0.415473105391151,-0.1882637960077174,0.8766611790396474,0.7860609292984009,-0.1117928475141525,-0.6079561114311218,0,0,0,-1,-1,2860.589569916667,unknown,2,2022-06-02T10:48:36.311+02:00,2022-06-02T10:17:13.754+02:00,467,1.474645,0,0,361.8512,0,0,2022-06-02T10:48:36.311+02:00,675852516.3110143,0,6.632812,101.302,1,0.8
237,2022-06-02T10:48:36.860+02:00,1654159715.999812,53.22909297865075,10.39851939461402,36.7967,0,20,-1,-1,2.400000095367432,7.999579855010837,-9999,2861.137241041667,-14.54203796386719,-1.079757690429688,6.408889770507812,2861.127247041667,-0.5005507159341642,0.9556440978711505,0.3035233398534631,17.11277961730957,-4.610653400421143,11.125319480896,-9.135707855224608,6.872492790222168,6.010985374450684,XArbitraryZVertical,0.2426462970529527,0.4071495653288502,-0.1500499082601808,0.8676618096126897,0.7793543934822083,-0.2988843321800232,-0.5507040023803711,0,0,0,-1,-1,2860.589569916667,unknown,2,2022-06-02T10:48:36.311+02:00,2022-06-02T10:17:13.754+02:00,467,1.474645,0,0,361.8512,0,0,2022-06-02T10:48:36.311+02:00,675852516.3110143,0,6.632812,101.302,1,0.8
238,2022-06-02T10:48:36.869+02:00,1654159715.999812,53.22909297865075,10.39851939461402,36.7967,0,20,-1,-1,2.400000095367432,7.999579855010837,-9999,2861.147235041667,-20.46842956542969,-6.57177734375,8.387191772460938,2861.137241041667,-0.5572399649487285,0.950120856436632,0.4738832790000952,7.173095226287842,5.870029449462891,9.831184387207031,-7.024470806121826,3.518051624298096,7.211862087249756,XArbitraryZVertical,0.3229696299289156,0.3700577389008379,-0.1345168417575803,0.8606119824558492,0.7238419651985168,-0.4563450813293457,-0.5174957513809204,0,0,0,-1,-1,2860.589569916667,unknown,2,2022-06-02T10:48:36.311+02:00,2022-06-02T10:17:13.754+02:00,467,1.474645,0,0,361.8512,0,0,2022-06-02T10:48:36.311+02:00,675852516.3110143,0,6.632812,101.302,1,0.8
239,2022-06-02T10:48:36.879+02:00,1654159715.999812,53.22909297865075,10.39851939461402,36.7967,0,20,-1,-1,2.400000095367432,7.999579855010837,-9999,2861.157230041667,-6.327743530273438,-6.987136840820312,5.1756591796875,2861.147235041667,-0.5515900227206606,1.020347855953031,0.6305095765340282,8.30668830871582,8.517681121826172,16.07249641418457,-25.23217964172363,-5.179883003234863,8.225323677062988,XArbitraryZVertical,0.3867747590542699,0.3730369500485906,-0.0802356441611484,0.8395301632977544,0.6884177923202515,-0.5895564556121826,-0.4224974513053894,0,0,0,-1,-1,2860.589569916667,unknown,2,2022-06-02T10:48:36.311+02:00,2022-06-02T10:17:13.754+02:00,467,1.474645,0,0,361.8512,0,0,2022-06-02T10:48:36.311+02:00,675852516.3110143,0,6.632812,101.302,1,0.8
240,2022-06-02T10:48:36.889+02:00,1654159715.999812,53.22909297865075,10.39851939461402,36.7967,0,20,-1,-1,2.400000095367432,7.999579855010837,-9999,2861.167224041667,-6.686477661132812,-6.204132080078125,4.133331298828125,2861.157230041667,-0.5316750957212081,1.092382558665614,0.7770492586561463,3.378437042236328,7.789646148681641,11.07893180847168,-11.38928413391113,-5.175042152404785,7.56168270111084,XArbitraryZVertical,0.4386312464075716,0.3787920929302168,-0.0179001504968328,0.8147384795202133,0.6329361200332642,-0.7011786103248596,-0.3282383680343628,0,0,0,-1,-1,2860.589569916667,unknown,2,2022-06-02T10:48:36.311+02:00,2022-06-02T10:17:13.754+02:00,467,1.474645,0,0,361.8512,0,0,2022-06-02T10:48:36.311+02:00,675852516.3110143,0,6.632812,101.302,1,0.8
241,2022-06-02T10:48:36.899+02:00,1654159715.999812,53.22909297865075,10.39851939461402,36.7967,0,20,-1,-1,2.400000095367432,7.999579855010837,-9999,2861.177218041667,-6.285568237304688,-5.025192260742188,5.48675537109375,2861.167224041667,-0.4684750437048291,1.086985733146111,0.8813570461414592,0.1860093474388123,1.406882524490356,11.33724117279053,-6.916094779968262,-6.419422149658203,4.177876472473145,XArbitraryZVertical,0.4636794507808012,0.3702127710951761,0.0348810562821143,0.8041934855893862,0.563098132610321,-0.7716028094291687,-0.2958877384662628,0,0,0,-1,-1,2860.589569916667,unknown,2,2022-06-02T10:48:36.311+02:00,2022-06-02T10:17:13.754+02:00,467,1.474645,0,0,361.8512,0,0,2022-06-02T10:48:36.311+02:00,675852516.3110143,0,6.632812,101.302,1,0.8
242,2022-06-02T10:48:36.910+02:00,1654159715.999812,53.22909297865075,10.39851939461402,36.7967,0,20,-1,-1,2.400000095367432,7.999579855010837,-9999,2861.187213041667,-5.845001220703125,-4.65966796875,3.654464721679688,2861.187213041667,-0.3939241831157771,1.065388357054449,1.081664108199092,4.776882648468018,3.095086097717285,7.408145904541016,-6.584975242614746,-3.657343864440918,5.011501312255859,XArbitraryZVertical,0.52013697465019,0.3401659002513904,0.1118968245818139,0.775386098189979,0.4111164808273315,-0.8827409148216248,-0.2274893820285797,0,0,0,-1,-1,2860.589569916667,unknown,2,2022-06-02T10:48:36.311+02:00,2022-06-02T10:17:13.754+02:00,467,1.474645,0,0,361.8512,0,0,2022-06-02T10:48:36.311+02:00,675852516.3110143,0,6.632812,101.302,1,0.8
243,2022-06-02T10:48:36.919+02:00,1654159715.999812,53.22909297865075,10.39851939461402,36.7967,0,20,-1,-1,2.400000095367432,7.999579855010837,-9999,2861.197207041667,-5.363449096679688,-5.501419067382812,2.764678955078125,2861.187213041667,-0.3939241831157771,1.065388357054449,1.081664108199092,4.776882648468018,3.095086097717285,7.408145904541016,-6.584975242614746,-3.657343864440918,5.011501312255859,XArbitraryZVertical,0.52013697465019,0.3401659002513904,0.1118968245818139,0.775386098189979,0.4111164808273315,-0.8827409148216248,-0.2274893820285797,0,0,0,-1,-1,2860.589569916667,unknown,2,2022-06-02T10:48:36.311+02:00,2022-06-02T10:17:13.754+02:00,467,1.474645,0,0,361.8512,0,0,2022-06-02T10:48:36.311+02:00,675852516.3110143,0,6.632812,101.302,1,0.8
244,2022-06-02T10:48:36.929+02:00,1654159715.999812,53.22909297865075,10.39851939461402,36.7967,0,20,-1,-1,2.400000095367432,7.999579855010837,-9999,2861.207201041667,-5.497756958007812,-5.542572021484375,3.01971435546875,2861.197207041667,-0.4175800012000899,1.112398932873154,1.166602017990247,4.627522945404053,2.294884920120239,6.616843223571777,-5.872131824493408,-4.23745584487915,3.096164226531982,XArbitraryZVertical,0.5489420406311075,0.3341372362135262,0.1375512295763962,0.7537203562847712,0.3526767790317535,-0.919419527053833,-0.1740298867225647,0,0,0,-1,-1,2860.589569916667,unknown,2,2022-06-02T10:48:36.311+02:00,2022-06-02T10:17:13.754+02:00,467,1.474645,0,0,361.8512,0,0,2022-06-02T10:48:36.311+02:00,675852516.3110143,0,6.632812,101.302,1,0.8
245,2022-06-02T10:48:36.939+02:00,1654159715.999812,53.22909297865075,10.39851939461402,36.7967,0,20,-1,-1,2.400000095367432,7.999579855010837,-9999,2861.217195041667,-5.216644287109375,-5.664077758789062,2.158981323242188,2861.207201041667,-0.438644277808151,1.157368180681511,1.241920498063487,2.962548017501831,2.981070041656494,6.323207378387451,-5.765143394470215,-4.606938362121582,3.052959680557251,XArbitraryZVertical,0.5721981545524809,0.3281930656193132,0.162444470428313,0.7338189763121056,0.29576775431633,-0.9464060068130492,-0.1297571659088135,0,0,0,-1,-1,2860.589569916667,unknown,2,2022-06-02T10:48:36.311+02:00,2022-06-02T10:17:13.754+02:00,467,1.474645,0,0,361.8512,0,0,2022-06-02T10:48:36.311+02:00,675852516.3110143,0,6.632812,101.302,1,0.8
246,2022-06-02T10:48:36.949+02:00,1654159715.999812,53.22909297865075,10.39851939461402,36.7967,0,20,-1,-1,2.400000095367432,7.999579855010837,-9999,2861.227190041667,-4.70404052734375,-5.022537231445312,2.12017822265625,2861.217195041667,-0.4168666066548197,1.16841519900419,1.307614396505135,1.097108840942383,3.372053384780884,6.226948738098145,-5.687175750732422,-4.708825588226318,2.790737152099609,XArbitraryZVertical,0.5869518628975119,0.3233388043085421,0.1911804588629387,0.7172095415296492,0.2393759042024612,-0.9655670523643494,-0.1018790528178215,0,0,0,-1,-1,2860.589569916667,unknown,2,2022-06-02T10:48:36.311+02:00,2022-06-02T10:17:13.754+02:00,467,1.474645,0,0,361.8512,0,0,2022-06-02T10:48:36.311+02:00,675852516.3110143,0,6.632812,101.302,1,0.8
247,2022-06-02T10:48:36.959+02:00,1654159715.999812,53.22909297865075,10.39851939461402,36.7967,0,20,-1,-1,2.400000095367432,7.999579855010837,-9999,2861.237184041667,-4.106948852539062,-4.82098388671875,1.906280517578125,2861.227190041667,-0.3371543289028875,1.127144150048895,1.366396328218161,0.6597200036048889,4.131335735321045,5.844866275787354,-5.163614749908447,-4.349552154541016,1.986937880516052,XArbitraryZVertical,0.595599230992415,0.3189011752903738,0.2224535990291655,0.7029068179914723,0.183329239487648,-0.9791829586029052,-0.0871271938085556,0,0,0,-1,-1,2860.589569916667,unknown,2,2022-06-02T10:48:36.311+02:00,2022-06-02T10:17:13.754+02:00,467,1.474645,0,0,361.8512,0,0,2022-06-02T10:48:36.311+02:00,675852516.3110143,0,6.632812,101.302,1,0.8
248,2022-06-02T10:48:36.969+02:00,1654159715.999812,53.22909297865075,10.39851939461402,36.7967,0,20,-1,-1,2.400000095367432,7.999579855010837,-9999,2861.247178041667,-3.166900634765625,-4.591537475585938,1.357589721679688,2861.237184041667,-0.2456317088391247,1.083496138840465,1.417269783341012,0.8944821953773499,4.98993968963623,4.607800960540771,-4.581870555877686,-3.904614925384521,2.286144018173218,XArbitraryZVertical,0.6013702410197326,0.3202359094629443,0.2533511013007018,0.6867430690112964,0.1351239532232285,-0.9882379174232484,-0.0716055929660797,0,0,0,-1,-1,2860.589569916667,unknown,2,2022-06-02T10:48:36.311+02:00,2022-06-02T10:17:13.754+02:00,467,1.474645,0,0,361.8512,0,0,2022-06-02T10:48:36.311+02:00,675852516.3110143,0,6.632812,101.302,1,0.8
249,2022-06-02T10:48:36.979+02:00,1654159715.999812,53.22909297865075,10.39851939461402,36.7967,0,20,-1,-1,2.400000095367432,7.999579855010837,-9999,2861.257173041667,-2.131576538085938,-4.088592529296875,1.42352294921875,2861.247178041667,-0.1544640881124025,1.040439417295596,1.45710824614337,0.900373637676239,4.410402297973633,3.573584318161011,-3.80339503288269,-3.740265846252441,1.589625954627991,XArbitraryZVertical,0.6046074826400353,0.325204077940995,0.2800063490564714,0.6710354055838731,0.0978590324521064,-0.9935444593429564,-0.0573842003941535,0,0,0,-1,-1,2860.589569916667,unknown,2,2022-06-02T10:48:36.311+02:00,2022-06-02T10:17:13.754+02:00,467,1.474645,0,0,361.8512,0,0,2022-06-02T10:48:36.311+02:00,675852516.3110143,0,6.632812,101.302,1,0.8
250,2022-06-02T10:48:36.989+02:00,1654159715.999812,53.22909297865075,10.39851939461402,36.7967,0,20,-1,-1,2.400000095367432,7.999579855010837,-9999,2861.267167041667,-1.568801879882812,-3.547592163085938,1.330841064453125,2861.257173041667,-0.0998822049623449,1.023224061824554,1.489554634530615,1.479539036750793,2.962607622146606,2.469559669494629,-2.686535835266113,-3.390261173248291,1.441083431243896,XArbitraryZVertical,0.6082515935154561,0.3300081323953349,0.2994261360365095,0.6568627168987534,0.0692872256040573,-0.996701717376709,-0.0422492623329162,0,0,0,-1,-1,2860.589569916667,unknown,2,2022-06-02T10:48:36.311+02:00,2022-06-02T10:17:13.754+02:00,467,1.474645,0,0,361.8512,0,0,2022-06-02T10:48:36.311+02:00,675852516.3110143,0,6.632812,101.302,1,0.8
251,2022-06-02T10:48:36.999+02:00,1654159715.999812,53.22909297865075,10.39851939461402,36.7967,0,20,-1,-1,2.400000095367432,7.999579855010837,-9999,2861.277161041667,-1.42474365234375,-3.767501831054688,1.397811889648438,2861.267167041667,-0.1124329480067262,1.058109240750166,1.511733595319724,0.7258784770965576,1.585800886154175,1.201040863990784,-1.836123585700989,-2.729832172393799,1.36875331401825,XArbitraryZVertical,0.611844045251852,0.3334204296034347,0.3103519170488528,0.6466525015456103,0.0514403656125068,-0.9982563257217408,-0.0289553627371788,0,0,0,-1,-1,2860.589569916667,unknown,2,2022-06-02T10:48:36.311+02:00,2022-06-02T10:17:13.754+02:00,467,1.474645,0,0,361.8512,0,0,2022-06-02T10:48:36.311+02:00,675852516.3110143,0,6.632812,101.302,1,0.8
252,2022-06-02T10:48:37.009+02:00,1654159715.999812,53.22909297865075,10.39851939461402,36.7967,0,20,-1,-1,2.400000095367432,7.999579855010837,-9999,2861.287156041667,-1.389373779296875,-2.878036499023438,0.740081787109375,2861.277161041667,-0.1191962417464954,1.076809595498572,1.518488546158453,0.0134534575045108,0.8850429058074951,0.0292018931359052,-1.518110513687134,-2.688120126724243,1.46489953994751,XArbitraryZVertical,0.612092052693667,0.3360776279749258,0.3152561376716779,0.6426575762362958,0.0460341162979602,-0.9986322522163392,-0.0247902944684028,0,0,0,-1,-1,2860.589569916667,unknown,2,2022-06-02T10:48:36.311+02:00,2022-06-02T10:17:13.754+02:00,467,1.474645,0,0,361.8512,0,0,2022-06-02T10:48:36.311+02:00,675852516.3110143,0,6.632812,101.302,1,0.8
253,2022-06-02T10:48:37.020+02:00,1654159715.999812,53.22909297865075,10.39851939461402,36.7967,0,20,-1,-1,2.400000095367432,7.999579855010837,-9999,2861.297150041667,-1.406051635742188,-1.624603271484375,0.4672698974609375,2861.287156041667,-0.1298506254120228,1.093433914383746,1.514694376504622,-0.1407015025615692,0.341814786195755,-0.8037286400794983,-1.448285579681396,-2.463395595550537,1.107685327529907,XArbitraryZVertical,0.6101310110036252,0.338909604551541,0.3161343948061551,0.6426035709598649,0.0498022474348545,-0.9984266757965088,-0.0257608592510223,0,0,0,-1,-1,2860.589569916667,unknown,2,2022-06-02T10:48:36.311+02:00,2022-06-02T10:17:13.754+02:00,467,1.474645,0,0,361.8512,0,0,2022-06-02T10:48:36.311+02:00,675852516.3110143,0,6.632812,101.302,1,0.8
254,2022-06-02T10:48:37.029+02:00,1654159715.999812,53.22909297865075,10.39851939461402,36.7967,0,20,-1,-1,2.400000095367432,7.999579855010837,-9999,2861.307144041667,-1.359420776367188,-0.7977752685546875,0.11468505859375,2861.297150041667,-0.2724540313142241,1.237012576773595,1.503975357065669,1.030005574226379,-0.0670750364661216,-1.80819308757782,-1.464558124542236,-1.240589141845703,0.5891661643981934,XArbitraryZVertical,0.608898584255969,0.3439550112783175,0.3115916189748897,0.6433101769238593,0.0630841255187988,-0.9977682828903198,-0.0218749288469553,0,0,0,-1,-1,2860.589569916667,unknown,2,2022-06-02T10:48:36.311+02:00,2022-06-02T10:17:13.754+02:00,467,1.474645,0,0,361.8512,0,0,2022-06-02T10:48:36.311+02:00,675852516.3110143,0,6.632812,101.302,1,0.8
255,2022-06-02T10:48:37.040+02:00,1654159715.999812,53.22909297865075,10.39851939461402,36.7967,0,20,-1,-1,2.400000095367432,7.999579855010837,-9999,2861.317139041667,-1.488067626953125,-0.73370361328125,-0.49200439453125,2861.307144041667,-0.5568542443244725,1.517321937618128,1.486823450103638,2.464075803756714,-0.5853539109230042,-2.334672927856445,-1.463177084922791,-0.0997758507728576,0.3494229912757874,XArbitraryZVertical,0.6114721476953918,0.351938037733902,0.3008345195164551,0.641669560326048,0.0837519913911819,-0.9964763522148132,-0.0044828602112829,0,0,0,-1,-1,2860.589569916667,unknown,2,2022-06-02T10:48:36.311+02:00,2022-06-02T10:17:13.754+02:00,467,1.474645,0,0,361.8512,0,0,2022-06-02T10:48:36.311+02:00,675852516.3110143,0,6.632812,101.302,1,0.8
256,2022-06-02T10:48:37.049+02:00,1654159715.999812,53.22909297865075,10.39851939461402,36.7967,0,20,-1,-1,2.400000095367432,7.999579855010837,-9999,2861.327133041667,-1.885650634765625,-0.6014862060546875,-0.881561279296875,2861.317139041667,-0.8185102029444911,1.770078011707654,1.459855405966182,2.788174867630005,-0.8841497302055359,-2.56830906867981,-1.49789559841156,0.2592485547065735,-0.2267665863037109,XArbitraryZVertical,0.616902218834072,0.3610959814668573,0.2856676969922056,0.6383065471400666,0.1085217893123627,-0.9938523769378662,0.0219173114746809,0,0,0,-1,-1,2860.589569916667,unknown,2,2022-06-02T10:48:36.311+02:00,2022-06-02T10:17:13.754+02:00,467,1.474645,0,0,361.8512,0,0,2022-06-02T10:48:36.311+02:00,675852516.3110143,0,6.632812,101.302,1,0.8
257,2022-06-02T10:48:37.060+02:00,1654159715.999812,53.22909297865075,10.39851939461402,36.7967,0,20,-1,-1,2.400000095367432,7.999579855010837,-9999,2861.337127041667,-2.262161254882812,-0.478729248046875,-1.003616333007812,2861.327133041667,-0.9529839036223422,1.895372089974741,1.429176336935767,1.949174761772156,-0.6728214621543884,-2.452495574951172,-1.794085741043091,0.3020309209823608,-0.7572166919708252,XArbitraryZVertical,0.6211634347384447,0.369678640291842,0.2706956504912857,0.6357810153905112,0.133776843547821,-0.9899886250495912,0.0450126193463802,0,0,0,-1,-1,2860.589569916667,unknown,2,2022-06-02T10:48:36.311+02:00,2022-06-02T10:17:13.754+02:00,467,1.474645,0,0,361.8512,0,0,2022-06-02T10:48:36.311+02:00,675852516.3110143,0,6.632812,101.302,1,0.8
258,2022-06-02T10:48:37.069+02:00,1654159715.999812,53.22909297865075,10.39851939461402,36.7967,0,20,-1,-1,2.400000095367432,7.999579855010837,-9999,2861.347121041667,-2.180419921875,-0.499481201171875,-0.80023193359375,2861.337127041667,-0.9771137507407414,1.915893246209223,1.40247207495048,0.5372079610824585,0.0684694051742553,-2.38599157333374,-2.260055065155029,0.4842190146446228,-1.036592960357666,XArbitraryZVertical,0.6210280254468776,0.377704857510433,0.2597392295193481,0.6357662780527749,0.157653346657753,-0.985866904258728,0.0566735342144966,0,0,0,-1,-1,2860.589569916667,unknown,2,2022-06-02T10:48:36.311+02:00,2022-06-02T10:17:13.754+02:00,467,1.474645,0,0,361.8512,0,0,2022-06-02T10:48:36.311+02:00,675852516.3110143,0,6.632812,101.302,1,0.8
259,2022-06-02T10:48:37.094+02:00,1654159715.999812,53.22909297865075,10.39851939461402,36.7967,0,20,-1,-1,2.400000095367432,7.999579855010837,-9999,2861.357116041667,-1.595672607421875,-0.133514404296875,-0.6388092041015625,2861.347121041667,-0.9343384773137768,1.878368095350323,1.379920003011235,-0.490423321723938,0.791158139705658,-2.366926193237305,-2.483947277069092,0.4603692889213562,-0.9979426860809326,XArbitraryZVertical,0.6158907484903919,0.3865189472424074,0.253571870148105,0.6379521805299706,0.1808160692453384,-0.9818383455276488,0.0574366226792335,0,0,0,-1,-1,2860.589569916667,unknown,2,2022-06-02T10:48:36.311+02:00,2022-06-02T10:17:13.754+02:00,467,1.474645,0,0,361.8512,0,0,2022-06-02T10:48:36.311+02:00,675852516.3110143,0,6.632812,101.302,1,0.8
260,2022-06-02T10:48:37.107+02:00,1654159715.999812,53.22909297865075,10.39851939461402,36.7967,0,20,-1,-1,2.400000095367432,7.999579855010837,-9999,2861.367110041667,-1.12127685546875,0.353302001953125,-0.5151214599609375,2861.357116041667,-0.8663476252879887,1.821004297006613,1.359457657808784,-0.8876544237136841,0.9955700635910034,-2.333827495574951,-2.117146492004395,0.6236098408699036,-0.7410420179367065,XArbitraryZVertical,0.6077735244134945,0.3957035034552723,0.2503733364373456,0.6413604209104407,0.2032365649938583,-0.9777509570121764,0.0519398376345634,0,0,0,-1,-1,2860.589569916667,unknown,2,2022-06-02T10:48:36.311+02:00,2022-06-02T10:17:13.754+02:00,467,1.474645,0,0,361.8512,0,0,2022-06-02T10:48:36.311+02:00,675852516.3110143,0,6.632812,101.302,1,0.8
261,2022-06-02T10:48:37.110+02:00,1654159716.999813,53.22910347968263,10.39852317520431,36.71672,0,20,-1,-1,2.400000095367432,7.999579855010837,-9999,2861.377104041667,-0.9457855224609376,0.9096527099609376,-0.6031036376953125,2861.367110041667,-0.8153264713195331,1.780607610003703,1.337243634535842,-0.1353476643562317,0.8661380410194397,-2.53050684928894,-1.541667342185974,1.076716899871826,-0.6227109432220459,XArbitraryZVertical,0.599870566319861,0.4052855813080232,0.246608623255877,0.6442693832989023,0.2263596802949905,-0.9728503227233888,0.0482021979987621,0,0,0,-1,-1,2860.589569916667,unknown,2,2022-06-02T10:48:36.311+02:00,2022-06-02T10:17:13.754+02:00,467,1.474645,0,0,361.8512,0,0,2022-06-02T10:48:36.311+02:00,675852516.3110143,0,6.632812,101.302,1,0.8
262,2022-06-02T10:48:37.113+02:00,1654159716.999813,53.22910347968263,10.39852317520431,36.71672,0,20,-1,-1,2.400000095367432,7.999579855010837,-9999,2861.387099041667,-0.960052490234375,1.1220703125,-0.7484893798828125,2861.377104041667,-0.8182060086365021,1.790425054222627,1.310655518944373,1.446857690811157,0.5344788432121277,-2.601764917373657,-1.254700183868408,1.599883317947388,-0.5943235158920288,XArbitraryZVertical,0.5957603958927963,0.4160398089466079,0.2390849497148705,0.6440643430499186,0.251038134098053,-0.9663537740707396,0.0560391433537006,0,0,0,-1,-1,2860.589569916667,unknown,2,2022-06-02T10:48:36.311+02:00,2022-06-02T10:17:13.754+02:00,467,1.474645,0,0,361.8512,0,0,2022-06-02T10:48:36.311+02:00,675852516.3110143,0,6.632812,101.302,1,0.8
263,2022-06-02T10:48:37.119+02:00,1654159716.999813,53.22910347968263,10.39852317520431,36.71672,0,20,-1,-1,2.400000095367432,7.999579855010837,-9999,2861.397093041667,-1.069412231445312,0.6923675537109375,-0.9099273681640624,2861.387099041667,-0.8755450854703015,1.8494108026539,1.280195481469772,3.016214847564697,0.2677228152751923,-2.533814191818237,-1.208752155303955,2.056368827819824,-0.7512874603271484,XArbitraryZVertical,0.5971620799618131,0.4275493690351811,0.2272127485028629,0.6395102607868752,0.2754787504673004,-0.9580718874931335,0.0788020268082618,0,0,0,-1,-1,2860.589569916667,unknown,2,2022-06-02T10:48:36.311+02:00,2022-06-02T10:17:13.754+02:00,467,1.474645,0,0,361.8512,0,0,2022-06-02T10:48:36.311+02:00,675852516.3110143,0,6.632812,101.302,1,0.8
264,2022-06-02T10:48:37.129+02:00,1654159716.999813,53.22910347968263,10.39852317520431,36.71672,0,20,-1,-1,2.400000095367432,7.999579855010837,-9999,2861.407087041667,-1.200180053710938,-0.0793304443359375,-0.907073974609375,2861.397093041667,-0.9559953282084266,1.928910059486766,1.245938618579344,3.575834512710571,0.3307976126670837,-2.439871549606323,-1.309240341186523,1.925220012664795,-0.9424242973327636,XArbitraryZVertical,0.602215055384575,0.4396288833552996,0.2128096164411173,0.6314867396214532,0.2989253103733063,-0.9476961493492126,0.1118730530142784,0,0,0,-1,-1,2860.589569916667,unknown,2,2022-06-02T10:48:36.311+02:00,2022-06-02T10:17:13.754+02:00,467,1.474645,0,0,361.8512,0,0,2022-06-02T10:48:36.311+02:00,675852516.3110143,0,6.632812,101.302,1,0.8
