,loggingTime(txt),locationTimestamp_since1970(s),locationLatitude(WGS84),locationLongitude(WGS84),locationAltitude(m),locationSpeed(m/s),locationSpeedAccuracy(m/s),locationCourse(°),locationCourseAccuracy(°),locationVerticalAccuracy(m),locationHorizontalAccuracy(m),locationFloor(Z),accelerometerTimestamp_sinceReboot(s),accelerometerAccelerationX(G),accelerometerAccelerationY(G),accelerometerAccelerationZ(G),motionTimestamp_sinceReboot(s),motionYaw(rad),motionRoll(rad),motionPitch(rad),motionRotationRateX(rad/s),motionRotationRateY(rad/s),motionRotationRateZ(rad/s),motionUserAccelerationX(G),motionUserAccelerationY(G),motionUserAccelerationZ(G),motionAttitudeReferenceFrame(txt),motionQuaternionX(R),motionQuaternionY(R),motionQuaternionZ(R),motionQuaternionW(R),motionGravityX(G),motionGravityY(G),motionGravityZ(G),motionMagneticFieldX(µT),motionMagneticFieldY(µT),motionMagneticFieldZ(µT),motionHeading(°),motionMagneticFieldCalibrationAccuracy(Z),activityTimestamp_sinceReboot(s),activity(txt),activityActivityConfidence(Z),activityActivityStartDate(txt),pedometerStartDate(txt),pedometerNumberofSteps(N),pedometerAverageActivePace(s/m),pedometerCurrentPace(s/m),pedometerCurrentCadence(steps/s),pedometerDistance(m),pedometerFloorAscended(N),pedometerFloorDescended(N),pedometerEndDate(txt),altimeterTimestamp_sinceReboot(s),altimeterReset(bool),altimeterRelativeAltitude(m),altimeterPressure(kPa),batteryState(N),batteryLevel(R)
240,2022-06-02T10:51:18.600+02:00,1654159852.491319,53.22880421162223,10.39819542043123,42.81302,-1,-1,-1,-1,42.47970962524414,45.752,-9999,3022.877752625,1.305938720703125,-0.2332000732421875,-1.676895141601562,3022.872755625,-2.324799829540553,0.2466694638049608,0.5442981896447665,4.170707225799561,6.542784690856934,-5.940940380096436,0.9547758102416992,0.2255358099937439,-0.9384703636169434,XArbitraryZVertical,0.2146900371252825,-0.197762885487149,-0.8641334621947876,0.4099649294247935,0.2088899910449982,-0.5178178548812866,-0.8295960426330566,0,0,0,-1,-1,3021.677298375,unknown,2,2022-06-02T10:51:17.399+02:00,2022-06-02T10:17:13.754+02:00,512,1.445976,0,0,397.4887,0,0,2022-06-02T10:51:17.399+02:00,675852677.3987417,0,5.589844,101.3136,1,0.79
241,2022-06-02T10:51:18.610+02:00,1654159852.491319,53.22880421162223,10.39819542043123,42.81302,-1,-1,-1,-1,42.47970962524414,45.752,-9999,3022.887746625,1.209686279296875,0.0644378662109375,-1.313232421875,3022.882749625,-2.408524744362775,0.3622996181494769,0.56633531024599,4.242445468902588,7.753045558929443,-6.332167625427246,1.006848573684692,0.3033431172370911,-0.8878029584884644,XArbitraryZVertical,0.2599881919175824,-0.1945765268462746,-0.8636883520648393,0.3854716728235233,0.2990900576114655,-0.5365431308746338,-0.7890922427177429,0,0,0,-1,-1,3021.677298375,unknown,2,2022-06-02T10:51:17.399+02:00,2022-06-02T10:17:13.754+02:00,512,1.445976,0,0,397.4887,0,0,2022-06-02T10:51:17.399+02:00,675852677.3987417,0,5.589844,101.3136,1,0.79
242,2022-06-02T10:51:18.620+02:00,1654159852.491319,53.22880421162223,10.39819542043123,42.81302,-1,-1,-1,-1,42.47970962524414,45.752,-9999,3022.897740625,0.9236297607421876,0.3621063232421875,-0.7777252197265625,3022.892743625,-2.498958144650916,0.4945805343836364,0.5762337434287643,3.795814514160156,8.910384178161621,-6.699794292449951,0.8116719722747803,0.6093077063560486,-0.575193464756012,XArbitraryZVertical,0.3096852499892216,-0.1872847145064586,-0.8600703907222825,0.3595806538443969,0.3980143070220947,-0.5448697209358215,-0.738038957118988,0,0,0,-1,-1,3021.677298375,unknown,2,2022-06-02T10:51:17.399+02:00,2022-06-02T10:17:13.754+02:00,512,1.445976,0,0,397.4887,0,0,2022-06-02T10:51:17.399+02:00,675852677.3987417,0,5.589844,101.3136,1,0.79
243,2022-06-02T10:51:18.630+02:00,1654159852.491319,53.22880421162223,10.39819542043123,42.81302,-1,-1,-1,-1,42.47970962524414,45.752,-9999,3022.907734625,0.6134796142578125,0.6380462646484375,-0.1061859130859375,3022.902737625,-2.588708223470023,0.6379082125506838,0.5672407066706567,2.721289396286011,10.02237510681152,-7.027873992919922,0.4213791489601135,0.8994134068489075,-0.1001962423324585,XArbitraryZVertical,0.3621400536468911,-0.1734649952271137,-0.853065673569914,0.3332314076021705,0.5022505521774292,-0.5373069643974304,-0.677528977394104,0,0,0,-1,-1,3021.677298375,unknown,2,2022-06-02T10:51:17.399+02:00,2022-06-02T10:17:13.754+02:00,512,1.445976,0,0,397.4887,0,0,2022-06-02T10:51:17.399+02:00,675852677.3987417,0,5.589844,101.3136,1,0.79
244,2022-06-02T10:51:18.640+02:00,1654159852.491319,53.22880421162223,10.39819542043123,42.81302,-1,-1,-1,-1,42.47970962524414,45.752,-9999,3022.917728625,0.5058135986328125,0.8332366943359375,0.49945068359375,3022.912731625,-2.667134734989043,0.7847905534916311,0.535565904648432,1.154539704322815,11.13830280303955,-7.240582466125488,0.0057514905929565,1.148374080657959,0.5022810697555542,XArbitraryZVertical,0.4159017312364869,-0.1509709162680377,-0.8423296990946828,0.3077568516916622,0.6077280640602112,-0.5103278160095215,-0.6084670424461365,0,0,0,-1,-1,3021.677298375,unknown,2,2022-06-02T10:51:17.399+02:00,2022-06-02T10:17:13.754+02:00,512,1.445976,0,0,397.4887,0,0,2022-06-02T10:51:17.399+02:00,675852677.3987417,0,5.589844,101.3136,1,0.79
245,2022-06-02T10:51:18.650+02:00,1654159852.491319,53.22880421162223,10.39819542043123,42.81302,-1,-1,-1,-1,42.47970962524414,45.752,-9999,3022.927723625,0.60333251953125,0.99127197265625,1.159439086914062,3022.922725625,-2.723285359043016,0.9297213903222988,0.4821945991459052,-0.7948005795478821,12.38018703460693,-7.269562721252441,-0.2042575478553772,1.296961426734924,1.029317140579224,XArbitraryZVertical,0.4701599455328535,-0.1183910417078381,-0.826887919060178,0.2849375181501376,0.7100710868835449,-0.463724672794342,-0.5298663973808289,0,0,0,-1,-1,3021.677298375,unknown,2,2022-06-02T10:51:17.399+02:00,2022-06-02T10:17:13.754+02:00,512,1.445976,0,0,397.4887,0,0,2022-06-02T10:51:17.399+02:00,675852677.3987417,0,5.589844,101.3136,1,0.79
246,2022-06-02T10:51:18.661+02:00,1654159852.491319,53.22880421162223,10.39819542043123,42.81302,-1,-1,-1,-1,42.47970962524414,45.752,-9999,3022.937717625,0.860015869140625,1.177734375,1.874099731445312,3022.932720625,-2.747131427587857,1.071337362302119,0.4108417868836382,-3.382265090942383,13.88236808776855,-7.070775985717773,-0.2014596462249756,1.390653252601624,1.598533749580383,XArbitraryZVertical,0.5243692643532062,-0.0740913277337425,-0.8051250386354082,0.2670595511365539,0.804792046546936,-0.3993812203407288,-0.4390946924686432,0,0,0,-1,-1,3021.677298375,unknown,2,2022-06-02T10:51:17.399+02:00,2022-06-02T10:17:13.754+02:00,512,1.445976,0,0,397.4887,0,0,2022-06-02T10:51:17.399+02:00,675852677.3987417,0,5.589844,101.3136,1,0.79
247,2022-06-02T10:51:18.670+02:00,1654159852.491319,53.22880421162223,10.39819542043123,42.81302,-1,-1,-1,-1,42.47970962524414,45.752,-9999,3022.947711625,1.019821166992188,1.485504150390625,2.59002685546875,3022.942714625,-2.731417255812037,1.212459905305434,0.3293278875275416,-6.026174068450928,15.43970680236816,-6.528273582458496,-0.0261390805244445,1.501141548156738,2.205968856811523,XArbitraryZVertical,0.5777212848941996,-0.0174208539721124,-0.7746756581936773,0.2565390034169908,0.8861549496650696,-0.3234071135520935,-0.3318692743778229,0,0,0,-1,-1,3021.677298375,unknown,2,2022-06-02T10:51:17.399+02:00,2022-06-02T10:17:13.754+02:00,512,1.445976,0,0,397.4887,0,0,2022-06-02T10:51:17.399+02:00,675852677.3987417,0,5.589844,101.3136,1,0.79
248,2022-06-02T10:51:18.680+02:00,1654159852.491319,53.22880421162223,10.39819542043123,42.81302,-1,-1,-1,-1,42.47970962524414,45.752,-9999,3022.957705625,1.140777587890625,1.897384643554688,3.613067626953125,3022.952708625,-2.676546384094001,1.360848461036602,0.2507430397387412,-8.593634605407715,17.37655448913574,-5.614562511444092,0.0723643898963928,1.733628034591675,2.791918516159058,XArbitraryZVertical,0.6297844458650047,0.0492519431643063,-0.7323227021463198,0.2542619666418709,0.9474566578865052,-0.248123824596405,-0.2018916010856628,0,0,0,-1,-1,3021.677298375,unknown,2,2022-06-02T10:51:17.399+02:00,2022-06-02T10:17:13.754+02:00,512,1.445976,0,0,397.4887,0,0,2022-06-02T10:51:17.399+02:00,675852677.3987417,0,5.589844,101.3136,1,0.79
249,2022-06-02T10:51:18.690+02:00,1654159852.491319,53.22880421162223,10.39819542043123,42.81302,-1,-1,-1,-1,42.47970962524414,45.752,-9999,3022.967699625,1.10357666015625,1.7620849609375,4.67816162109375,3022.962702625,-2.580218439595178,1.523769929583835,0.1880391645910171,-11.87937450408936,19.33040428161621,-4.4517502784729,0.1594910025596619,2.084317684173584,3.659247875213623,XArbitraryZVertical,0.6791596729627005,0.1251076797020159,-0.674198190273146,0.2618145195535987,0.9812864661216736,-0.1869329810142517,-0.0461804158985614,0,0,0,-1,-1,3021.677298375,unknown,2,2022-06-02T10:51:17.399+02:00,2022-06-02T10:17:13.754+02:00,512,1.445976,0,0,397.4887,0,0,2022-06-02T10:51:17.399+02:00,675852677.3987417,0,5.589844,101.3136,1,0.79
250,2022-06-02T10:51:18.700+02:00,1654159852.491319,53.22880421162223,10.39819542043123,42.81302,-1,-1,-1,-1,42.47970962524414,45.752,-9999,3022.977693625,0.83416748046875,1.39422607421875,5.83489990234375,3022.972696625,-2.441909265641406,1.701291894432307,0.1567974539944467,-14.96693897247314,20.70951843261719,-2.861738920211792,0.12424236536026,1.918240785598755,4.54963207244873,XArbitraryZVertical,0.7217076227621001,0.2083331138334854,-0.5974683201773391,0.2806542515008636,0.9793340563774108,-0.1561557501554489,0.1285291612148285,0,0,0,-1,-1,3021.677298375,unknown,2,2022-06-02T10:51:17.399+02:00,2022-06-02T10:17:13.754+02:00,512,1.445976,0,0,397.4887,0,0,2022-06-02T10:51:17.399+02:00,675852677.3987417,0,5.589844,101.3136,1,0.79
251,2022-06-02T10:51:18.709+02:00,1654159852.491319,53.22880421162223,10.39819542043123,42.81302,-1,-1,-1,-1,42.47970962524414,45.752,-9999,3022.987688625,0.366424560546875,1.0740966796875,7.243728637695312,3022.982690625,-2.283248568146566,1.888006556010762,0.1739084210300978,-16.43726348876953,21.74072265625,-0.8208786249160767,-0.1016103029251099,1.567259192466736,5.527687549591064,XArbitraryZVertical,0.7548762961563128,0.2894268677329686,-0.5020731341374237,0.3071099455835991,0.9357779622077942,-0.173033133149147,0.3072122633457184,0,0,0,-1,-1,3021.677298375,unknown,2,2022-06-02T10:51:17.399+02:00,2022-06-02T10:17:13.754+02:00,512,1.445976,0,0,397.4887,0,0,2022-06-02T10:51:17.399+02:00,675852677.3987417,0,5.589844,101.3136,1,0.79
252,2022-06-02T10:51:18.720+02:00,1654159852.491319,53.22880421162223,10.39819542043123,42.81302,-1,-1,-1,-1,42.47970962524414,45.752,-9999,3022.997682625,-0.1001739501953125,-0.8334503173828125,8.718002319335938,3022.992685625,-2.123525029229032,2.073527904605449,0.2388218849992482,-17.4737491607666,21.50909423828125,0.1944286674261093,-0.4849742650985718,1.310654878616333,6.775583267211914,XArbitraryZVertical,0.7758285635741441,0.3635419615845759,-0.3913376214207539,0.3358302538890185,0.8513985872268677,-0.2365581095218658,0.4681454300880432,0,0,0,-1,-1,3021.677298375,unknown,2,2022-06-02T10:51:17.399+02:00,2022-06-02T10:17:13.754+02:00,512,1.445976,0,0,397.4887,0,0,2022-06-02T10:51:17.399+02:00,675852677.3987417,0,5.589844,101.3136,1,0.79
253,2022-06-02T10:51:18.730+02:00,1654159852.491319,53.22880421162223,10.39819542043123,42.81302,-1,-1,-1,-1,42.47970962524414,45.752,-9999,3023.007676625,-0.6699981689453125,-2.7225341796875,11.04899597167969,3023.002679625,-1.979798434509414,2.238711660339049,0.3361573000377818,-16.00224494934082,19.34942054748535,0.4712625443935394,-0.841344952583313,-0.5035883188247681,8.133316993713379,XArbitraryZVertical,0.7816728835620944,0.4258285557465251,-0.2769563185417176,0.3618737106694155,0.7411708235740662,-0.3298619091510773,0.5846849083900452,0,0,0,-1,-1,3021.677298375,unknown,2,2022-06-02T10:51:17.399+02:00,2022-06-02T10:17:13.754+02:00,512,1.445976,0,0,397.4887,0,0,2022-06-02T10:51:17.399+02:00,675852677.3987417,0,5.589844,101.3136,1,0.79
254,2022-06-02T10:51:18.740+02:00,1654159852.491319,53.22880421162223,10.39819542043123,42.81302,-1,-1,-1,-1,42.47970962524414,45.752,-9999,3023.017670625,-0.61395263671875,-4.539093017578125,13.59123229980469,3023.012673625,-1.861283229201547,2.36863646099977,0.423617936456662,-11.67702770233154,15.31487560272217,-2.539607286453247,-1.306532263755798,-2.31147289276123,10.39642143249512,XArbitraryZVertical,0.7735807337136291,0.4773465594206199,-0.1792305361886857,0.376283566247095,0.6365339159965515,-0.4110612869262695,0.6525737643241882,0,0,0,-1,-1,3021.677298375,unknown,2,2022-06-02T10:51:17.399+02:00,2022-06-02T10:17:13.754+02:00,512,1.445976,0,0,397.4887,0,0,2022-06-02T10:51:17.399+02:00,675852677.3987417,0,5.589844,101.3136,1,0.79
255,2022-06-02T10:51:18.749+02:00,1654159852.491319,53.22880421162223,10.39819542043123,42.81302,-1,-1,-1,-1,42.47970962524414,45.752,-9999,3023.027664625,-0.748687744140625,-4.6839599609375,15.64448547363281,3023.022667625,-1.748860808521971,2.450719979852769,0.4588946918455365,-7.433697700500488,10.77255058288574,-8.191428184509277,-1.185238599777222,-4.09613561630249,12.90027523040771,XArbitraryZVertical,0.7523395526022036,0.5286430567506819,-0.1156946189277484,0.3756812558184362,0.5712858438491821,-0.4429574310779572,0.6909565925598145,0,0,0,-1,-1,3021.677298375,unknown,2,2022-06-02T10:51:17.399+02:00,2022-06-02T10:17:13.754+02:00,512,1.445976,0,0,397.4887,0,0,2022-06-02T10:51:17.399+02:00,675852677.3987417,0,5.589844,101.3136,1,0.79
256,2022-06-02T10:51:18.759+02:00,1654159852.491319,53.22880421162223,10.39819542043123,42.81302,-1,-1,-1,-1,42.47970962524414,45.752,-9999,3023.037658625,-1.90838623046875,-1.877853393554688,17.91514587402344,3023.032661625,-1.601409929207617,2.468108196583285,0.4413030418072779,-7.136998176574707,5.395357608795166,-14.7508602142334,-1.312646865844727,-4.256841659545898,14.93771743774414,XArbitraryZVertical,0.7114498919750818,0.5892561262146918,-0.0876198339917262,0.3727452110593137,0.5639590620994568,-0.4271180331707001,0.7067674398422241,0,0,0,-1,-1,3021.677298375,unknown,2,2022-06-02T10:51:17.399+02:00,2022-06-02T10:17:13.754+02:00,512,1.445976,0,0,397.4887,0,0,2022-06-02T10:51:17.399+02:00,675852677.3987417,0,5.589844,101.3136,1,0.79
257,2022-06-02T10:51:18.769+02:00,1654159852.491319,53.22880421162223,10.39819542043123,42.81302,-1,-1,-1,-1,42.47970962524414,45.752,-9999,3023.047653625,-4.397232055664062,1.700546264648438,20.04048156738281,3023.042656625,-1.378838217438491,2.395244925958412,0.3988997815968519,-13.42857646942139,-2.164982080459595,-21.6277027130127,-2.534042119979858,-1.489448547363281,17.23861312866211,XArbitraryZVertical,0.6363040705687274,0.6583186388088283,-0.0849450823591038,0.3930876947735154,0.6256557106971741,-0.3884047269821167,0.6765326261520386,0,0,0,-1,-1,3021.677298375,unknown,2,2022-06-02T10:51:17.399+02:00,2022-06-02T10:17:13.754+02:00,512,1.445976,0,0,397.4887,0,0,2022-06-02T10:51:17.399+02:00,675852677.3987417,0,5.589844,101.3136,1,0.79
258,2022-06-02T10:51:18.780+02:00,1654159852.491319,53.22880421162223,10.39819542043123,42.81302,-1,-1,-1,-1,42.47970962524414,45.752,-9999,3023.057647625,-9.690536499023438,4.138702392578125,17.47061157226562,3023.052650625,-1.061827968756054,2.223294058670577,0.3403392987384494,-22.16628646850586,-8.490889549255371,-26.65155982971191,-5.146226406097412,2.034353256225586,19.46813583374023,XArbitraryZVertical,0.5120478764691448,0.7238647052079421,-0.0902408379341902,0.4535232786314687,0.7489942312240601,-0.333806961774826,0.5723462700843811,0,0,0,-1,-1,3021.677298375,unknown,2,2022-06-02T10:51:17.399+02:00,2022-06-02T10:17:13.754+02:00,512,1.445976,0,0,397.4887,0,0,2022-06-02T10:51:17.399+02:00,675852677.3987417,0,5.589844,101.3136,1,0.79
259,2022-06-02T10:51:18.789+02:00,1654159852.491319,53.22880421162223,10.39819542043123,42.81302,-1,-1,-1,-1,42.47970962524414,45.752,-9999,3023.067641625,-18.60926818847656,4.09796142578125,14.95018005371094,3023.062644625,-0.6785739714844584,2.01472417658206,0.2134983081228977,-27.27824211120605,-11.65582847595215,-33.74300765991211,-10.57310485839844,4.350582599639893,17.05087280273438,XArbitraryZVertical,0.3334302775712434,0.7737529064223401,-0.0918000542185625,0.5307574208319984,0.8825680017471313,-0.2118800729513168,0.4197386205196381,0,0,0,-1,-1,3021.677298375,unknown,2,2022-06-02T10:51:17.399+02:00,2022-06-02T10:17:13.754+02:00,512,1.445976,0,0,397.4887,0,0,2022-06-02T10:51:17.399+02:00,675852677.3987417,0,5.589844,101.3136,1,0.79
260,2022-06-02T10:51:18.799+02:00,1654159852.491319,53.22880421162223,10.39819542043123,42.81302,-1,-1,-1,-1,42.47970962524414,45.752,-9999,3023.077635625,-29.92396545410156,3.620819091796875,16.26652526855469,3023.072638625,-0.2810858876592716,1.831780579831595,-0.0126157019750323,-32.16761016845703,-16.46626853942871,-35.10231399536133,-19.57532691955566,4.085346221923828,14.69216918945312,XArbitraryZVertical,0.1072924417310205,0.7858077638346976,-0.0902727607121644,0.6023663132355168,0.9660594463348388,0.012615367770195,0.2580110132694244,0,0,0,-1,-1,3021.677298375,unknown,2,2022-06-02T10:51:17.399+02:00,2022-06-02T10:17:13.754+02:00,512,1.445976,0,0,397.4887,0,0,2022-06-02T10:51:17.399+02:00,675852677.3987417,0,5.589844,101.3136,1,0.79
261,2022-06-02T10:51:18.809+02:00,1654159852.491319,53.22880421162223,10.39819542043123,42.81302,-1,-1,-1,-1,42.47970962524414,45.752,-9999,3023.087629625,-32.20195007324219,-0.8159637451171875,23.68742370605469,3023.082632625,0.1225243794510863,1.712407933240459,-0.2923503329431815,-33.74831390380859,-18.52867126464844,-35.12940216064453,-30.8719482421875,3.332615375518799,16.13137435913086,XArbitraryZVertical,-0.1410230642124548,0.7400591585888331,-0.0701230349925949,0.6538406956754675,0.9479836821556092,0.288203626871109,0.1351501196622849,0,0,0,-1,-1,3021.677298375,unknown,2,2022-06-02T10:51:17.399+02:00,2022-06-02T10:17:13.754+02:00,512,1.445976,0,0,397.4887,0,0,2022-06-02T10:51:17.399+02:00,675852677.3987417,0,5.589844,101.3136,1,0.79
262,2022-06-02T10:51:18.820+02:00,1654159852.491319,53.22880421162223,10.39819542043123,42.81302,-1,-1,-1,-1,42.47970962524414,45.752,-9999,3023.097624625,-32.04345703125,12.41224670410156,25.65280151367188,3023.092626625,0.34956023966696,1.584286985695341,-0.6219300399852024,5.118217468261719,-24.90068817138672,-34.81110382080078,-33.01463317871094,-1.398568868637085,23.67645835876465,XArbitraryZVertical,-0.3294700950026351,0.6300250729971991,-0.0982245258076654,0.6963258186531932,0.8126813769340515,0.5826048851013184,0.0109642725437879,0,0,0,-1,-1,3021.677298375,unknown,2,2022-06-02T10:51:17.399+02:00,2022-06-02T10:17:13.754+02:00,512,1.445976,0,0,397.4887,0,0,2022-06-02T10:51:17.399+02:00,675852677.3987417,0,5.589844,101.3136,1,0.79
263,2022-06-02T10:51:18.830+02:00,1654159852.491319,53.22880421162223,10.39819542043123,42.81302,-1,-1,-1,-1,42.47970962524414,45.752,-9999,3023.107618625,-25.67823791503906,28.63272094726562,27.90231323242188,3023.102621625,-0.1167939357024614,0.9939177923893135,-0.8843497952249856,35.29977416992188,-28.77730369567871,-34.55900192260742,-32.57468414306641,11.63874340057373,25.99847793579102,XArbitraryZVertical,-0.3503549307205223,0.4521205133416538,-0.2500281459049601,0.7812325449938475,0.531225323677063,0.7735030651092529,-0.3456769287586212,0,0,0,-1,-1,3021.677298375,unknown,2,2022-06-02T10:51:17.399+02:00,2022-06-02T10:17:13.754+02:00,512,1.445976,0,0,397.4887,0,0,2022-06-02T10:51:17.399+02:00,675852677.3987417,0,5.589844,101.3136,1,0.79
264,2022-06-02T10:51:18.839+02:00,1654159852.491319,53.22880421162223,10.39819542043123,42.81302,-1,-1,-1,-1,42.47970962524414,45.752,-9999,3023.117612625,-15.02763366699219,3.73944091796875,31.62297058105469,3023.112615625,-0.8142705046383328,0.1387341201459946,-0.7611731762072403,35.49336624145508,-35.02689361572266,-29.81833267211914,-25.77836418151855,27.94294929504395,28.619384765625,XArbitraryZVertical,-0.3147987702566601,0.205830999120323,-0.3904048339732676,0.8403090276909289,0.1001253724098206,0.6897713541984558,-0.7170706391334534,0,0,0,-1,-1,3021.677298375,unknown,2,2022-06-02T10:51:17.399+02:00,2022-06-02T10:17:13.754+02:00,512,1.445976,0,0,397.4887,0,0,2022-06-02T10:51:17.399+02:00,675852677.3987417,0,5.589844,101.3136,1,0.79
265,2022-06-02T10:51:18.849+02:00,1654159852.491319,53.22880421162223,10.39819542043123,42.81302,-1,-1,-1,-1,42.47970962524414,45.752,-9999,3023.127606625,-28.7469482421875,-17.71710205078125,24.64811706542969,3023.122609625,-0.9370418673701084,-0.2642449459754035,-0.4083921938010888,35.17871475219727,-28.56481170654297,3.945720911026001,-14.78793239593506,3.342306613922119,32.50887680053711,XArbitraryZVertical,-0.2376038236149953,-0.0243291650753479,-0.4144964829482188,0.8781486788168272,-0.2397011518478394,0.3971342742443085,-0.8859050273895264,0,0,0,-1,-1,3021.677298375,unknown,2,2022-06-02T10:51:17.399+02:00,2022-06-02T10:17:13.754+02:00,512,1.445976,0,0,397.4887,0,0,2022-06-02T10:51:17.399+02:00,675852677.3987417,0,5.589844,101.3136,1,0.79
266,2022-06-02T10:51:18.860+02:00,1654159852.491319,53.22880421162223,10.39819542043123,42.81302,-1,-1,-1,-1,42.47970962524414,45.752,-9999,3023.137600625,-18.72613525390625,-11.16390991210938,4.848922729492188,3023.132603625,-0.7427357737621381,-0.4510970661347024,-0.1818894166931115,17.11839866638184,-21.50132751464844,13.78767204284668,-28.31818580627441,-17.89799118041992,25.53323936462402,XArbitraryZVertical,-0.1633067139000879,-0.1754118907187226,-0.3333108972419926,0.9118471791827312,-0.4287614822387695,0.1808881461620331,-0.8851231932640076,0,0,0,-1,-1,3021.677298375,unknown,2,2022-06-02T10:51:17.399+02:00,2022-06-02T10:17:13.754+02:00,512,1.445976,0,0,397.4887,0,0,2022-06-02T10:51:17.399+02:00,675852677.3987417,0,5.589844,101.3136,1,0.79
267,2022-06-02T10:51:18.869+02:00,1654159852.491319,53.22880421162223,10.39819542043123,42.81302,-1,-1,-1,-1,42.47970962524414,45.752,-9999,3023.147595625,-14.96949768066406,-1.333877563476562,1.082229614257812,3023.142598625,-0.5741223682142294,-0.6078412606670399,-0.1626529869464525,5.510032176971436,-14.30750942230225,12.47817611694336,-18.16257667541504,-11.32584667205811,5.658970832824707,XArbitraryZVertical,-0.1587938439544354,-0.2641221025608682,-0.2459496319022192,0.9189846549035138,-0.5635588765144348,0.1619367450475693,-0.8100480437278748,0,0,0,-1,-1,3021.677298375,unknown,2,2022-06-02T10:51:17.399+02:00,2022-06-02T10:17:13.754+02:00,512,1.445976,0,0,397.4887,0,0,2022-06-02T10:51:17.399+02:00,675852677.3987417,0,5.589844,101.3136,1,0.79
268,2022-06-02T10:51:18.879+02:00,1654159852.491319,53.22880421162223,10.39819542043123,42.81302,-1,-1,-1,-1,42.47970962524414,45.752,-9999,3023.157589625,-13.39251708984375,2.696792602539062,1.950454711914062,3023.152592625,-0.425255668025649,-0.7000439056951578,-0.184948667634613,9.752155303955078,-9.823902130126951,14.09047603607178,-14.33623313903809,-1.517773747444153,1.834000110626221,XArbitraryZVertical,-0.1568465869164376,-0.3154582412887753,-0.1664337198421564,0.920969527063955,-0.6332640051841736,0.183896079659462,-0.7517704963684082,0,0,0,-1,-1,3021.677298375,unknown,2,2022-06-02T10:51:17.399+02:00,2022-06-02T10:17:13.754+02:00,512,1.445976,0,0,397.4887,0,0,2022-06-02T10:51:17.399+02:00,675852677.3987417,0,5.589844,101.3136,1,0.79
269,2022-06-02T10:51:18.890+02:00,1654159852.491319,53.22880421162223,10.39819542043123,42.81302,-1,-1,-1,-1,42.47970962524414,45.752,-9999,3023.167583625,-14.10208129882812,-1.18524169921875,3.52520751953125,3023.162586625,-0.2432331934133355,-0.7271440891469816,-0.1946189732651487,11.46148014068604,-1.539861798286438,13.68601131439209,-12.74032783508301,2.503399848937988,2.683426856994629,XArbitraryZVertical,-0.1330725091828734,-0.3403022770013495,-0.07855548142409,0.927531672133076,-0.6521894335746765,0.1933927088975906,-0.7329721450805664,0,0,0,-1,-1,3021.677298375,unknown,2,2022-06-02T10:51:17.399+02:00,2022-06-02T10:17:13.754+02:00,512,1.445976,0,0,397.4887,0,0,2022-06-02T10:51:17.399+02:00,675852677.3987417,0,5.589844,101.3136,1,0.79
270,2022-06-02T10:51:18.899+02:00,1654159852.491319,53.22880421162223,10.39819542043123,42.81302,-1,-1,-1,-1,42.47970962524414,45.752,-9999,3023.177577625,-9.605117797851562,-1.083419799804688,3.591079711914062,3023.172580625,-0.0671475289615162,-0.6597192222874272,-0.1976633343120516,10.53395557403564,7.107651233673096,13.27726078033447,-13.50112056732178,-1.381620407104492,4.299985885620117,XArbitraryZVertical,-0.1041184760617913,-0.3190143737352175,0.000339701012913,0.9420132284630304,-0.6009607911109924,0.1963787078857422,-0.7747783660888672,0,0,0,-1,-1,3021.677298375,unknown,2,2022-06-02T10:51:17.399+02:00,2022-06-02T10:17:13.754+02:00,512,1.445976,0,0,397.4887,0,0,2022-06-02T10:51:17.399+02:00,675852677.3987417,0,5.589844,101.3136,1,0.79
271,2022-06-02T10:51:18.909+02:00,1654159852.491319,53.22880421162223,10.39819542043123,42.81302,-1,-1,-1,-1,42.47970962524414,45.752,-9999,3023.187571625,-5.555130004882812,1.533035278320312,3.93682861328125,3023.182574625,0.1068875359579637,-0.5580165772065935,-0.1819457507654613,11.69331645965576,5.453870296478271,12.99310398101807,-9.084353446960447,-1.264363408088684,4.425384044647217,XArbitraryZVertical,-0.0725588908726451,-0.2785372639970697,0.0761241303919059,0.9546503003630784,-0.5207644104957581,0.1809435486793518,-0.8343043923377991,0,0,0,-1,-1,3021.677298375,unknown,2,2022-06-02T10:51:17.399+02:00,2022-06-02T10:17:13.754+02:00,512,1.445976,0,0,397.4887,0,0,2022-06-02T10:51:17.399+02:00,675852677.3987417,0,5.589844,101.3136,1,0.79
272,2022-06-02T10:51:18.919+02:00,1654159852.491319,53.22880421162223,10.39819542043123,42.81302,-1,-1,-1,-1,42.47970962524414,45.752,-9999,3023.197566625,-7.021087646484375,1.765289306640625,3.475662231445312,3023.192568625,0.2775808435815681,-0.496327940660262,-0.1343221367142017,13.30824089050293,2.055187225341797,11.30835247039795,-5.083219528198242,1.399116635322571,4.808244705200195,XArbitraryZVertical,-0.0305247058586953,-0.2517142600856623,0.1501302300088597,0.9555988065569908,-0.4719103276729584,0.1339185833930969,-0.8714163303375244,0,0,0,-1,-1,3021.677298375,unknown,2,2022-06-02T10:51:17.399+02:00,2022-06-02T10:17:13.754+02:00,512,1.445976,0,0,397.4887,0,0,2022-06-02T10:51:17.399+02:00,675852677.3987417,0,5.589844,101.3136,1,0.79
273,2022-06-02T10:51:18.930+02:00,1654159852.491319,53.22880421162223,10.39819542043123,42.81302,-1,-1,-1,-1,42.47970962524414,45.752,-9999,3023.207560625,-7.732467651367188,0.3533477783203125,3.18707275390625,3023.202563625,0.4341161767953178,-0.4602586323799601,-0.064574343408185,13.05310726165771,2.093159198760986,10.19037818908691,-6.577833652496338,1.700759768486023,4.36973237991333,XArbitraryZVertical,0.0184052169607475,-0.2294037569402595,0.2167616609643769,0.9487093684274256,-0.4432540833950043,0.0645294785499572,-0.8940703272819519,0,0,0,-1,-1,3021.677298375,unknown,2,2022-06-02T10:51:17.399+02:00,2022-06-02T10:17:13.754+02:00,512,1.445976,0,0,397.4887,0,0,2022-06-02T10:51:17.399+02:00,675852677.3987417,0,5.589844,101.3136,1,0.79
274,2022-06-02T10:51:18.939+02:00,1654159852.491319,53.22880421162223,10.39819542043123,42.81302,-1,-1,-1,-1,42.47970962524414,45.752,-9999,3023.217554625,-6.390716552734375,0.095794677734375,2.855804443359375,3023.212557625,0.5766922246466815,-0.4352877069371044,-0.0027849696450516,10.2598180770874,1.885980606079102,10.24534320831299,-7.310798168182373,0.3505627512931824,4.093818187713623,XArbitraryZVertical,0.0600997237827325,-0.2074015607259179,0.277946495857921,0.9360118562292032,-0.4216696619987488,0.0027849660255014,-0.9067452549934388,0,0,0,-1,-1,3021.677298375,unknown,2,2022-06-02T10:51:17.399+02:00,2022-06-02T10:17:13.754+02:00,512,1.445976,0,0,397.4887,0,0,2022-06-02T10:51:17.399+02:00,675852677.3987417,0,5.589844,101.3136,1,0.79
275,2022-06-02T10:51:18.949+02:00,1654159852.491319,53.22880421162223,10.39819542043123,42.81302,-1,-1,-1,-1,42.47970962524414,45.752,-9999,3023.227548625,-5.057159423828125,1.142074584960938,2.2962646484375,3023.222551625,0.7076249017252351,-0.4244725786723611,0.0341984430449278,7.491930484771729,0.5852335095405579,10.444993019104,-5.979116916656494,0.1299864202737808,3.766527652740479,XArbitraryZVertical,0.0886528595192393,-0.1917786575681689,0.3352743680444917,0.9181244390829328,-0.4115993976593018,-0.0341917760670185,-0.9107232093811036,0,0,0,-1,-1,3021.677298375,unknown,2,2022-06-02T10:51:17.399+02:00,2022-06-02T10:17:13.754+02:00,512,1.445976,0,0,397.4887,0,0,2022-06-02T10:51:17.399+02:00,675852677.3987417,0,5.589844,101.3136,1,0.79
276,2022-06-02T10:51:18.959+02:00,1654159852.491319,53.22880421162223,10.39819542043123,42.81302,-1,-1,-1,-1,42.47970962524414,45.752,-9999,3023.237542625,-4.95074462890625,1.768051147460938,1.982315063476562,3023.232545625,0.8301830674691737,-0.4322787175822427,0.051292841695921,5.922147274017334,-0.9687801003456116,10.43842029571533,-4.638769149780273,1.193344831466675,3.203083992004395,XArbitraryZVertical,0.1093777504212958,-0.1860829975031029,0.3887285465981896,0.8957118733022178,-0.4183900058269501,-0.0512703545391559,-0.906819224357605,0,0,0,-1,-1,3021.677298375,unknown,2,2022-06-02T10:51:17.399+02:00,2022-06-02T10:17:13.754+02:00,512,1.445976,0,0,397.4887,0,0,2022-06-02T10:51:17.399+02:00,675852677.3987417,0,5.589844,101.3136,1,0.79
277,2022-06-02T10:51:18.969+02:00,1654159852.491319,53.22880421162223,10.39819542043123,42.81302,-1,-1,-1,-1,42.47970962524414,45.752,-9999,3023.247537625,-5.11627197265625,1.770050048828125,1.612350463867188,3023.242539625,0.9484722507147808,-0.4512887228196459,0.0560863534108077,5.101306438446045,-1.427624821662903,10.53743457794189,-4.515304565429688,1.824108123779297,2.880785942077637,XArbitraryZVertical,0.1264429326881722,-0.1864853494329792,0.4393266867478009,0.8696133892280775,-0.4354398250579834,-0.0560569539666175,-0.8984708189964294,0,0,0,-1,-1,3021.677298375,unknown,2,2022-06-02T10:51:17.399+02:00,2022-06-02T10:17:13.754+02:00,512,1.445976,0,0,397.4887,0,0,2022-06-02T10:51:17.399+02:00,675852677.3987417,0,5.589844,101.3136,1,0.79
278,2022-06-02T10:51:18.980+02:00,1654159852.491319,53.22880421162223,10.39819542043123,42.81302,-1,-1,-1,-1,42.47970962524414,45.752,-9999,3023.257531625,-4.799774169921875,1.648880004882812,1.263656616210938,3023.252534625,1.064789919080048,-0.4715622566149506,0.0521142003867564,4.567103862762451,-1.340303778648376,10.61548709869385,-4.662610054016113,1.822140693664551,2.50200080871582,XArbitraryZVertical,0.1403630468495926,-0.1883430893351615,0.4881426704496387,0.8405603065007271,-0.4536618292331696,-0.0520906150341033,-0.8896501660346985,0,0,0,-1,-1,3021.677298375,unknown,2,2022-06-02T10:51:17.399+02:00,2022-06-02T10:17:13.754+02:00,512,1.445976,0,0,397.4887,0,0,2022-06-02T10:51:17.399+02:00,675852677.3987417,0,5.589844,101.3136,1,0.79
279,2022-06-02T10:51:18.989+02:00,1654159852.491319,53.22880421162223,10.39819542043123,42.81302,-1,-1,-1,-1,42.47970962524414,45.752,-9999,3023.267525625,-4.326187133789062,1.435897827148438,1.003753662109375,3023.262528625,1.179267995025737,-0.490474546198049,0.0422184077695905,4.303478717803955,-1.394969582557678,10.56717586517334,-4.32914924621582,1.691085815429688,2.144979953765869,XArbitraryZVertical,0.1519916312275857,-0.1903597830331859,0.5350400055197257,0.8089460715423537,-0.4706248044967651,-0.0422058664262294,-0.8813233971595764,0,0,0,-1,-1,3021.677298375,unknown,2,2022-06-02T10:51:17.399+02:00,2022-06-02T10:17:13.754+02:00,512,1.445976,0,0,397.4887,0,0,2022-06-02T10:51:17.399+02:00,675852677.3987417,0,5.589844,101.3136,1,0.79
280,2022-06-02T10:51:18.999+02:00,1654159852.491319,53.22880421162223,10.39819542043123,42.81302,-1,-1,-1,-1,42.47970962524414,45.752,-9999,3023.277519625,-3.981170654296875,1.123123168945312,0.84185791015625,3023.272522625,1.29134540147452,-0.5096416943288911,0.0295123153277045,4.217454433441162,-1.633314967155457,10.28542518615723,-3.838535070419312,1.465405821800232,1.876292943954468,XArbitraryZVertical,0.1630689839060682,-0.192714533612117,0.579270767249182,0.7750579443754941,-0.487652063369751,-0.0295080319046974,-0.872539222240448,0,0,0,-1,-1,3021.677298375,unknown,2,2022-06-02T10:51:17.399+02:00,2022-06-02T10:17:13.754+02:00,512,1.445976,0,0,397.4887,0,0,2022-06-02T10:51:17.399+02:00,675852677.3987417,0,5.589844,101.3136,1,0.79
281,2022-06-02T10:51:19.009+02:00,1654159852.491319,53.22880421162223,10.39819542043123,42.81302,-1,-1,-1,-1,42.47970962524414,45.752,-9999,3023.287513625,-3.737091064453125,0.8116912841796875,0.7180023193359375,3023.282516625,1.399048502879611,-0.5290975611932213,0.0154706974486833,4.020543575286865,-1.754143238067627,9.800886154174805,-3.476476430892944,1.138593196868896,1.705017566680908,XArbitraryZVertical,0.174058596326959,-0.1952531830523022,0.6198882868430412,0.7398094895746026,-0.5046941041946411,-0.0154700800776481,-0.8631595969200134,0,0,0,-1,-1,3021.677298375,unknown,2,2022-06-02T10:51:17.399+02:00,2022-06-02T10:17:13.754+02:00,512,1.445976,0,0,397.4887,0,0,2022-06-02T10:51:17.399+02:00,675852677.3987417,0,5.589844,101.3136,1,0.79
282,2022-06-02T10:51:19.020+02:00,1654159852.491319,53.22880421162223,10.39819542043123,42.81302,-1,-1,-1,-1,42.47970962524414,45.752,-9999,3023.297507625,-3.532928466796875,0.7657012939453125,0.6038055419921875,3023.292510625,1.500553667101034,-0.5476367894162072,0.0001817591113639,3.758334159851074,-1.78079080581665,9.195644378662108,-3.21641993522644,0.8118730783462524,1.571759700775146,XArbitraryZVertical,0.1844404162959069,-0.1977449583354924,0.65642157389885,0.7042650355328369,-0.5206710696220398,-0.0001817591110011,-0.8537573218345642,0,0,0,-1,-1,3021.677298375,unknown,2,2022-06-02T10:51:17.399+02:00,2022-06-02T10:17:13.754+02:00,512,1.445976,0,0,397.4887,0,0,2022-06-02T10:51:17.399+02:00,675852677.3987417,0,5.589844,101.3136,1,0.79
283,2022-06-02T10:51:19.030+02:00,1654159852.491319,53.22880421162223,10.39819542043123,42.81302,-1,-1,-1,-1,42.47970962524414,45.752,-9999,3023.307502625,-3.419647216796875,0.7613067626953125,0.454193115234375,3023.302505625,1.594541081011442,-0.5639928712457519,-0.015868327764024,3.443782806396484,-1.590213060379028,8.467988967895508,-2.998430728912354,0.7498335838317871,1.448826551437378,XArbitraryZVertical,0.1937609221557913,-0.1998654691304546,0.6887136353305972,0.6694654498333765,-0.5344976186752319,0.0158676616847515,-0.8450210094451904,0,0,0,-1,-1,3021.677298375,unknown,2,2022-06-02T10:51:17.399+02:00,2022-06-02T10:17:13.754+02:00,512,1.445976,0,0,397.4887,0,0,2022-06-02T10:51:17.399+02:00,675852677.3987417,0,5.589844,101.3136,1,0.79
284,2022-06-02T10:51:19.039+02:00,1654159852.491319,53.22880421162223,10.39819542043123,42.81302,-1,-1,-1,-1,42.47970962524414,45.752,-9999,3023.317496625,-3.252105712890625,0.558563232421875,0.298919677734375,3023.312499625,1.680241833813019,-0.5755140550951788,-0.0321757832558005,3.053798913955688,-1.083081722259521,7.73944091796875,-2.875662803649902,0.7291365265846252,1.29267156124115,XArbitraryZVertical,0.2010321950186168,-0.2008652624800857,0.7170574292378252,0.6364493650807724,-0.5439844131469727,0.0321702323853969,-0.8384783864021301,0,0,0,-1,-1,3021.677298375,unknown,2,2022-06-02T10:51:17.399+02:00,2022-06-02T10:17:13.754+02:00,512,1.445976,0,0,397.4887,0,0,2022-06-02T10:51:17.399+02:00,675852677.3987417,0,5.589844,101.3136,1,0.79
285,2022-06-02T10:51:19.050+02:00,1654159852.491319,53.22880421162223,10.39819542043123,42.81302,-1,-1,-1,-1,42.47970962524414,45.752,-9999,3023.327490625,-2.92230224609375,0.3111114501953125,0.21490478515625,3023.322493625,1.757216326465734,-0.5802409225494053,-0.0495938571714431,2.434099912643433,-0.5013972520828247,7.068861961364746,-2.704554319381714,0.508989691734314,1.134222030639648,XArbitraryZVertical,0.2049988264369823,-0.2008091972683697,0.7419788333723828,0.6059030245513504,-0.5475513935089111,0.0495735295116901,-0.8353022933006287,0,0,0,-1,-1,3021.677298375,unknown,2,2022-06-02T10:51:17.399+02:00,2022-06-02T10:17:13.754+02:00,512,1.445976,0,0,397.4887,0,0,2022-06-02T10:51:17.399+02:00,675852677.3987417,0,5.589844,101.3136,1,0.79
286,2022-06-02T10:51:19.061+02:00,1654159852.491319,53.22880421162223,10.39819542043123,42.81302,-1,-1,-1,-1,42.47970962524414,45.752,-9999,3023.337484625,-2.549209594726562,0.294281005859375,0.20721435546875,3023.332487625,1.825294039764743,-0.5791391930765609,-0.0687525446598628,1.831111073493958,-0.0867390856146812,6.388457298278809,-2.376291513442993,0.2424130588769913,1.049861550331116,XArbitraryZVertical,0.2056173443846775,-0.2006068513420193,0.7637432630592645,0.578078348074301,-0.5460106730461121,0.0686983913183212,-0.8349568247795105,0,0,0,-1,-1,3021.677298375,unknown,2,2022-06-02T10:51:17.399+02:00,2022-06-02T10:17:13.754+02:00,512,1.445976,0,0,397.4887,0,0,2022-06-02T10:51:17.399+02:00,675852677.3987417,0,5.589844,101.3136,1,0.79
287,2022-06-02T10:51:19.069+02:00,1654159852.491319,53.22880421162223,10.39819542043123,42.81302,-1,-1,-1,-1,42.47970962524414,45.752,-9999,3023.347478625,-2.250076293945312,0.3748016357421875,0.182159423828125,3023.342481625,1.884265169208691,-0.573756947872699,-0.0882970150317504,1.336154341697693,0.2264188826084137,5.601236820220947,-2.008533000946045,0.206098660826683,1.043810129165649,XArbitraryZVertical,0.2037456916835551,-0.2004738794642673,0.7823472363863022,0.5533811343843748,-0.5406767129898071,0.0881823301315307,-0.8365958333015442,0,0,0,-1,-1,3021.677298375,unknown,2,2022-06-02T10:51:17.399+02:00,2022-06-02T10:17:13.754+02:00,512,1.445976,0,0,397.4887,0,0,2022-06-02T10:51:17.399+02:00,675852677.3987417,0,5.589844,101.3136,1,0.79
288,2022-06-02T10:51:19.079+02:00,1654159852.491319,53.22880421162223,10.39819542043123,42.81302,-1,-1,-1,-1,42.47970962524414,45.752,-9999,3023.357473625,-1.996337890625,0.356719970703125,0.1524658203125,3023.352475625,1.935561246148348,-0.5653355547823463,-0.1060634879862769,1.201751351356506,0.4534927904605865,4.94734525680542,-1.717387437820435,0.2689368724822998,1.021823167800903,XArbitraryZVertical,0.2005337216803315,-0.199885814235191,0.7982159914886989,0.5316795717650341,-0.5326888561248779,0.1058647409081459,-0.8396638035774231,0,0,0,-1,-1,3021.677298375,unknown,2,2022-06-02T10:51:17.399+02:00,2022-06-02T10:17:13.754+02:00,512,1.445976,0,0,397.4887,0,0,2022-06-02T10:51:17.399+02:00,675852677.3987417,0,5.589844,101.3136,1,0.79
289,2022-06-02T10:51:19.089+02:00,1654159852.491319,53.22880421162223,10.39819542043123,42.81302,-1,-1,-1,-1,42.47970962524414,45.752,-9999,3023.367467625,-1.774948120117188,0.2535247802734375,0.1187896728515625,3023.362470625,1.981453904239068,-0.554548606794167,-0.1211928480032945,1.089219212532043,0.6621785163879395,4.394638061523438,-1.473640441894531,0.2358235865831375,0.996368408203125,XArbitraryZVertical,0.1966147931474995,-0.198472527854845,0.8120866290082505,0.5123149111243653,-0.522697389125824,0.1208963915705681,-0.8439025282859802,0,0,0,-1,-1,3021.677298375,unknown,2,2022-06-02T10:51:17.399+02:00,2022-06-02T10:17:13.754+02:00,512,1.445976,0,0,397.4887,0,0,2022-06-02T10:51:17.399+02:00,675852677.3987417,0,5.589844,101.3136,1,0.79
290,2022-06-02T10:51:19.099+02:00,1654159852.491319,53.22880421162223,10.39819542043123,42.81302,-1,-1,-1,-1,42.47970962524414,45.752,-9999,3023.377461625,-1.539077758789062,0.1933135986328125,0.04156494140625,3023.372464625,2.022676384681564,-0.5420949779614824,-0.1340414321087368,0.9749048352241516,0.759655237197876,3.938502550125122,-1.263644337654114,0.1198843717575073,0.9677352905273438,XArbitraryZVertical,0.1921669499219812,-0.1964664217067468,0.8242828507050641,0.4950055180216058,-0.5113037824630737,0.1336404085159302,-0.8489456176757812,0,0,0,-1,-1,3021.677298375,unknown,2,2022-06-02T10:51:17.399+02:00,2022-06-02T10:17:13.754+02:00,512,1.445976,0,0,397.4887,0,0,2022-06-02T10:51:17.399+02:00,675852677.3987417,0,5.589844,101.3136,1,0.79
291,2022-06-02T10:51:19.109+02:00,1654159852.491319,53.22880421162223,10.39819542043123,42.81302,-1,-1,-1,-1,42.47970962524414,45.752,-9999,3023.387455625,-1.336593627929688,0.22503662109375,-0.0457305908203125,3023.382458625,2.059671748557503,-0.5297483106948373,-0.1451335535519034,0.861208975315094,0.6524453163146973,3.498563289642334,-1.039074182510376,0.0486890077590942,0.895426869392395,XArbitraryZVertical,0.1877836473101114,-0.1944385718715227,0.834916280543291,0.4794221450364759,-0.5000035762786865,0.1446245759725571,-0.8538618683815002,0,0,0,-1,-1,3021.677298375,unknown,2,2022-06-02T10:51:17.399+02:00,2022-06-02T10:17:13.754+02:00,512,1.445976,0,0,397.4887,0,0,2022-06-02T10:51:17.399+02:00,675852677.3987417,0,5.589844,101.3136,1,0.79
292,2022-06-02T10:51:19.119+02:00,1654159852.491319,53.22880421162223,10.39819542043123,42.81302,-1,-1,-1,-1,42.47970962524414,45.752,-9999,3023.397449625,-1.195770263671875,0.2725372314453125,-0.1541595458984375,3023.392452625,2.092424455808929,-0.5195352872680565,-0.1545617584102007,0.7630200386047363,0.4167648553848267,3.057324886322021,-0.8460353016853333,0.0710895359516143,0.8119714856147766,XArbitraryZVertical,0.1842830932593335,-0.1928437660531095,0.8439288411413559,0.4654407852689819,-0.4905583560466766,0.1539471000432968,-0.8577020764350891,0,0,0,-1,-1,3021.677298375,unknown,2,2022-06-02T10:51:17.399+02:00,2022-06-02T10:17:13.754+02:00,512,1.445976,0,0,397.4887,0,0,2022-06-02T10:51:17.399+02:00,675852677.3987417,0,5.589844,101.3136,1,0.79
293,2022-06-02T10:51:19.129+02:00,1654159852.491319,53.22880421162223,10.39819542043123,42.81302,-1,-1,-1,-1,42.47970962524414,45.752,-9999,3023.407443625,-1.085556030273438,0.366455078125,-0.248565673828125,3023.402446625,2.121383119498383,-0.5120645280446702,-0.1618057580035581,0.800044596195221,0.1583316475152969,2.645608901977539,-0.7121923565864563,0.11143659055233,0.7061886191368103,XArbitraryZVertical,0.1821086431285531,-0.1914741645033568,0.8514770569158364,0.4529468613760769,-0.4835779070854187,0.1611006408929825,-0.8603481650352478,0,0,0,-1,-1,3021.677298375,unknown,2,2022-06-02T10:51:17.399+02:00,2022-06-02T10:17:13.754+02:00,512,1.445976,0,0,397.4887,0,0,2022-06-02T10:51:17.399+02:00,675852677.3987417,0,5.589844,101.3136,1,0.79
294,2022-06-02T10:51:19.139+02:00,1654159852.491319,53.22880421162223,10.39819542043123,42.81302,-1,-1,-1,-1,42.47970962524414,45.752,-9999,3023.417438625,-1.016510009765625,0.3954620361328125,-0.3310546875,3023.412441625,2.147099333353394,-0.5071956667308624,-0.1667448747245628,0.8221837282180786,-0.0090155322104692,2.266075849533081,-0.6065650582313538,0.2004818022251129,0.6134207248687744,XArbitraryZVertical,0.1812869391460227,-0.1901100843817132,0.8577994802969805,0.4417841886054016,-0.4789909422397614,0.1659732609987259,-0.8619863986968994,0,0,0,-1,-1,3021.677298375,unknown,2,2022-06-02T10:51:17.399+02:00,2022-06-02T10:17:13.754+02:00,512,1.445976,0,0,397.4887,0,0,2022-06-02T10:51:17.399+02:00,675852677.3987417,0,5.589844,101.3136,1,0.79
295,2022-06-02T10:51:19.149+02:00,1654159852.491319,53.22880421162223,10.39819542043123,42.81302,-1,-1,-1,-1,42.47970962524414,45.752,-9999,3023.427432625,-0.93878173828125,0.3028717041015625,-0.4130096435546875,3023.422435625,2.169800556443492,-0.5038743862814341,-0.1691099229136292,0.9351081848144532,-0.0754289105534553,1.880672097206116,-0.5405754446983337,0.2271569967269897,0.5321716666221619,XArbitraryZVertical,0.1814453349539208,-0.188320010309006,0.8631142763267667,0.4320263817264204,-0.4759345352649689,0.1683050394058228,-0.8632263541221619,0,0,0,-1,-1,3021.677298375,unknown,2,2022-06-02T10:51:17.399+02:00,2022-06-02T10:17:13.754+02:00,512,1.445976,0,0,397.4887,0,0,2022-06-02T10:51:17.399+02:00,675852677.3987417,0,5.589844,101.3136,1,0.79
296,2022-06-02T10:51:19.159+02:00,1654159852.491319,53.22880421162223,10.39819542043123,42.81302,-1,-1,-1,-1,42.47970962524414,45.752,-9999,3023.437426625,-0.8243560791015625,0.2184906005859375,-0.4538116455078125,3023.432429625,2.189383444214662,-0.501357684414055,-0.1691970132778389,0.8782563209533691,-0.0733359307050705,1.517711520195007,-0.4650282263755798,0.134480819106102,0.4513989090919495,XArbitraryZVertical,0.1821689303069497,-0.1860382117339495,0.8675347255870371,0.4237779036830399,-0.4737535119056702,0.1683908849954605,-0.864408552646637,0,0,0,-1,-1,3021.677298375,unknown,2,2022-06-02T10:51:17.399+02:00,2022-06-02T10:17:13.754+02:00,512,1.445976,0,0,397.4887,0,0,2022-06-02T10:51:17.399+02:00,675852677.3987417,0,5.589844,101.3136,1,0.79
297,2022-06-02T10:51:19.169+02:00,1654159852.491319,53.22880421162223,10.39819542043123,42.81302,-1,-1,-1,-1,42.47970962524414,45.752,-9999,3023.447420625,-0.6876373291015625,0.17449951171875,-0.485809326171875,3023.442423625,2.205030396051425,-0.4995499894592529,-0.1689360093134744,0.6215642690658569,-0.0936826840043067,1.158615589141846,-0.3521448969841003,0.0503569990396499,0.4114904403686523,XArbitraryZVertical,0.1828909442895262,-0.184119172274762,0.8709841783462414,0.4171780403545906,-0.4722111821174622,0.1681336015462875,-0.8653020858764648,0,0,0,-1,-1,3021.677298375,unknown,2,2022-06-02T10:51:17.399+02:00,2022-06-02T10:17:13.754+02:00,512,1.445976,0,0,397.4887,0,0,2022-06-02T10:51:17.399+02:00,675852677.3987417,0,5.589844,101.3136,1,0.79
298,2022-06-02T10:51:19.179+02:00,1654159852.491319,53.22880421162223,10.39819542043123,42.81302,-1,-1,-1,-1,42.47970962524414,45.752,-9999,3023.457414625,-0.5440673828125,0.180694580078125,-0.522491455078125,3023.452417625,2.215856716090931,-0.4989265045886562,-0.1695327862121491,0.3144107460975647,-0.1596369296312332,0.7725951671600342,-0.2160138487815857,0.0057776719331741,0.3796987533569336,XArbitraryZVertical,0.1834784818485443,-0.183252892971758,0.8732978352793498,0.4124376224687416,-0.4716235101222992,0.1687218546867371,-0.8655080199241638,0,0,0,-1,-1,3021.677298375,unknown,2,2022-06-02T10:51:17.399+02:00,2022-06-02T10:17:13.754+02:00,512,1.445976,0,0,397.4887,0,0,2022-06-02T10:51:17.399+02:00,675852677.3987417,0,5.589844,101.3136,1,0.79
299,2022-06-02T10:51:19.189+02:00,1654159852.491319,53.22880421162223,10.39819542043123,42.81302,-1,-1,-1,-1,42.47970962524414,45.752,-9999,3023.467409625,-0.440032958984375,0.3113555908203125,-0.5655975341796875,3023.462411625,2.222431968084436,-0.5001705099285235,-0.1698727895766694,0.2728511393070221,-0.3231287002563477,0.3972298502922058,-0.0713950991630554,0.0116376131772995,0.3423788547515869,XArbitraryZVertical,0.1845479661941568,-0.1830489197930588,0.8745404575760258,0.4094068447962415,-0.4726722836494446,0.1690569669008255,-0.8648703098297119,0,0,0,-1,-1,3021.677298375,unknown,2,2022-06-02T10:51:17.399+02:00,2022-06-02T10:17:13.754+02:00,512,1.445976,0,0,397.4887,0,0,2022-06-02T10:51:17.399+02:00,675852677.3987417,0,5.589844,101.3136,1,0.79
