,loggingTime(txt),locationTimestamp_since1970(s),locationLatitude(WGS84),locationLongitude(WGS84),locationAltitude(m),locationSpeed(m/s),locationSpeedAccuracy(m/s),locationCourse(°),locationCourseAccuracy(°),locationVerticalAccuracy(m),locationHorizontalAccuracy(m),locationFloor(Z),accelerometerTimestamp_sinceReboot(s),accelerometerAccelerationX(G),accelerometerAccelerationY(G),accelerometerAccelerationZ(G),motionTimestamp_sinceReboot(s),motionYaw(rad),motionRoll(rad),motionPitch(rad),motionRotationRateX(rad/s),motionRotationRateY(rad/s),motionRotationRateZ(rad/s),motionUserAccelerationX(G),motionUserAccelerationY(G),motionUserAccelerationZ(G),motionAttitudeReferenceFrame(txt),motionQuaternionX(R),motionQuaternionY(R),motionQuaternionZ(R),motionQuaternionW(R),motionGravityX(G),motionGravityY(G),motionGravityZ(G),motionMagneticFieldX(µT),motionMagneticFieldY(µT),motionMagneticFieldZ(µT),motionHeading(°),motionMagneticFieldCalibrationAccuracy(Z),activityTimestamp_sinceReboot(s),activity(txt),activityActivityConfidence(Z),activityActivityStartDate(txt),pedometerStartDate(txt),pedometerNumberofSteps(N),pedometerAverageActivePace(s/m),pedometerCurrentPace(s/m),pedometerCurrentCadence(steps/s),pedometerDistance(m),pedometerFloorAscended(N),pedometerFloorDescended(N),pedometerEndDate(txt),altimeterTimestamp_sinceReboot(s),altimeterReset(bool),altimeterRelativeAltitude(m),altimeterPressure(kPa),batteryState(N),batteryLevel(R)
220,2022-06-02T10:52:28.673+02:00,1654159945.813378,53.22890393440913,10.39865269326642,39.63852,0,0.21,226.7578125,65.06141773144168,4,5,-9999,3092.950938125,1.131134033203125,0.666717529296875,-2.129302978515625,3092.940944125,-2.511730805409278,-0.0038233089541365,0.419926320447349,3.261138916015625,8.395200729370117,-5.96471643447876,0.8341948986053467,0.9009183645248412,-1.476154685020447,XArbitraryZVertical,0.0627816232297618,-0.1987518965958525,-0.9300581771544684,0.3025688147730511,-0.003491127397865,-0.4076931774616241,-0.9131122827529908,0,0,0,-1,-1,3090.75523875,unknown,2,2022-06-02T10:52:26.477+02:00,2022-06-02T10:17:13.754+02:00,516,1.472617,0,0,401.0887,0,0,2022-06-02T10:52:26.477+02:00,675852746.4766881,0,4.8125,101.3242,1,0.79
221,2022-06-02T10:52:28.683+02:00,1654159945.813378,53.22890393440913,10.39865269326642,39.63852,0,0.21,226.7578125,65.06141773144168,4,5,-9999,3092.960932125,0.995452880859375,0.8756866455078125,-1.85943603515625,3092.950938125,-2.578765263598466,0.114642340611337,0.4534155948026317,4.041470527648926,9.63405990600586,-5.804079055786133,0.9703025221824646,1.004338026046753,-1.347331762313843,XArbitraryZVertical,0.1159474119469651,-0.2000714605920443,-0.9309684108897744,0.2825338349351677,0.1028328388929367,-0.438038557767868,-0.8930552005767822,0,0,0,-1,-1,3090.75523875,unknown,2,2022-06-02T10:52:26.477+02:00,2022-06-02T10:17:13.754+02:00,516,1.472617,0,0,401.0887,0,0,2022-06-02T10:52:26.477+02:00,675852746.4766881,0,4.8125,101.3242,1,0.79
222,2022-06-02T10:52:28.693+02:00,1654159945.813378,53.22890393440913,10.39865269326642,39.63852,0,0.21,226.7578125,65.06141773144168,4,5,-9999,3092.970927125,0.583465576171875,1.16925048828125,-1.339248657226562,3092.960932125,-2.650398404005129,0.2497048014946472,0.4844703257654541,4.306943893432617,10.91916942596436,-5.667496681213379,0.8891843557357788,1.242106914520264,-1.15238094329834,XArbitraryZVertical,0.1751326050862513,-0.2014706969573467,-0.9270799620932676,0.2631743309704044,0.2186800241470337,-0.4657396972179413,-0.8574762344360352,0,0,0,-1,-1,3090.75523875,unknown,2,2022-06-02T10:52:26.477+02:00,2022-06-02T10:17:13.754+02:00,516,1.472617,0,0,401.0887,0,0,2022-06-02T10:52:26.477+02:00,675852746.4766881,0,4.8125,101.3242,1,0.79
223,2022-06-02T10:52:28.703+02:00,1654159945.813378,53.22890393440913,10.39865269326642,39.63852,0,0.21,226.7578125,65.06141773144168,4,5,-9999,3092.980921125,0.0033111572265625,1.354171752929688,-0.6900482177734375,3092.970927125,-2.726289843537133,0.4017095152822739,0.505936207502877,3.932094573974609,12.26387214660645,-5.63716983795166,0.4756481945514679,1.487541079521179,-0.8288994431495667,XArbitraryZVertical,0.2395687356840679,-0.2001569876600082,-0.9180354303163402,0.244447924641997,0.3420092463493347,-0.4846265614032745,-0.8050879836082458,0,0,0,-1,-1,3090.75523875,unknown,2,2022-06-02T10:52:26.477+02:00,2022-06-02T10:17:13.754+02:00,516,1.472617,0,0,401.0887,0,0,2022-06-02T10:52:26.477+02:00,675852746.4766881,0,4.8125,101.3242,1,0.79
224,2022-06-02T10:52:28.713+02:00,1654159945.813378,53.22890393440913,10.39865269326642,39.63852,0,0.21,226.7578125,65.06141773144168,4,5,-9999,3092.990915125,-0.4504241943359375,1.402923583984375,0.0437469482421875,3092.980921125,-2.801288588722246,0.5676083647642568,0.5101542058449685,2.833905458450317,13.61563014984131,-5.609028816223145,-0.1676939725875854,1.78808605670929,-0.2831872701644897,XArbitraryZVertical,0.3080535979394842,-0.1928480188260159,-0.9035570002806044,0.2269304262578469,0.4691618084907532,-0.4883118271827698,-0.73582524061203,0,0,0,-1,-1,3090.75523875,unknown,2,2022-06-02T10:52:26.477+02:00,2022-06-02T10:17:13.754+02:00,516,1.472617,0,0,401.0887,0,0,2022-06-02T10:52:26.477+02:00,675852746.4766881,0,4.8125,101.3242,1,0.79
225,2022-06-02T10:52:28.723+02:00,1654159945.813378,53.22890393440913,10.39865269326642,39.63852,0,0.21,226.7578125,65.06141773144168,4,5,-9999,3093.000909125,-0.626068115234375,1.445632934570312,0.74237060546875,3092.990915125,-2.866007854083798,0.7417682394910252,0.4926828294808016,1.263841509819031,14.99570178985596,-5.554301261901855,-0.854458749294281,1.849654674530029,0.3138496279716492,XArbitraryZVertical,0.3793843473781034,-0.1768421187912341,-0.8831635619556837,0.2116986511098445,0.5952423810958862,-0.4729913473129272,-0.6495887637138367,0,0,0,-1,-1,3090.75523875,unknown,2,2022-06-02T10:52:26.477+02:00,2022-06-02T10:17:13.754+02:00,516,1.472617,0,0,401.0887,0,0,2022-06-02T10:52:26.477+02:00,675852746.4766881,0,4.8125,101.3242,1,0.79
226,2022-06-02T10:52:28.733+02:00,1654159945.813378,53.22890393440913,10.39865269326642,39.63852,0,0.21,226.7578125,65.06141773144168,4,5,-9999,3093.010904125,-0.6301116943359375,1.350723266601562,1.381805419921875,3093.000909125,-2.910451435083379,0.9190870895076738,0.4555335651431509,-0.4586058259010315,16.42588996887207,-5.2830810546875,-1.278351187705994,1.868820428848267,0.963456690311432,XArbitraryZVertical,0.4525382017294352,-0.1512015435553244,-0.8557342933047771,0.2001652449090381,0.7139743566513062,-0.4399415254592896,-0.5446945428848267,0,0,0,-1,-1,3090.75523875,unknown,2,2022-06-02T10:52:26.477+02:00,2022-06-02T10:17:13.754+02:00,516,1.472617,0,0,401.0887,0,0,2022-06-02T10:52:26.477+02:00,675852746.4766881,0,4.8125,101.3242,1,0.79
227,2022-06-02T10:52:28.743+02:00,1654159945.813378,53.22890393440913,10.39865269326642,39.63852,0,0.21,226.7578125,65.06141773144168,4,5,-9999,3093.020898125,-0.5383453369140625,1.1536865234375,2.0750732421875,3093.010904125,-2.926705825551696,1.098086240287994,0.4052302878125015,-2.485612630844116,18.01263427734375,-4.8439621925354,-1.469368934631348,1.822956681251526,1.467727780342102,XArbitraryZVertical,0.5266556621992642,-0.1158466680940775,-0.8194943983606302,0.1940157787390525,0.8182305693626404,-0.3942303955554962,-0.4184267222881317,0,0,0,-1,-1,3090.75523875,unknown,2,2022-06-02T10:52:26.477+02:00,2022-06-02T10:17:13.754+02:00,516,1.472617,0,0,401.0887,0,0,2022-06-02T10:52:26.477+02:00,675852746.4766881,0,4.8125,101.3242,1,0.79
228,2022-06-02T10:52:28.753+02:00,1654159945.813378,53.22890393440913,10.39865269326642,39.63852,0,0.21,226.7578125,65.06141773144168,4,5,-9999,3093.030892125,-0.803863525390625,1.228652954101562,3.020294189453125,3093.020898125,-2.908930421821189,1.279507484128156,0.3502618609625271,-4.759020805358887,19.58903312683105,-4.134130954742432,-1.467036962509155,1.575092673301697,2.003743410110474,XArbitraryZVertical,0.600116933086,-0.0706027049334372,-0.7725588065496362,0.1950072435135748,0.8997151851654053,-0.3431437909603119,-0.2697498500347137,0,0,0,-1,-1,3090.75523875,unknown,2,2022-06-02T10:52:26.477+02:00,2022-06-02T10:17:13.754+02:00,516,1.472617,0,0,401.0887,0,0,2022-06-02T10:52:26.477+02:00,675852746.4766881,0,4.8125,101.3242,1,0.79
229,2022-06-02T10:52:28.763+02:00,1654159945.813378,53.22890393440913,10.39865269326642,39.63852,0,0.21,226.7578125,65.06141773144168,4,5,-9999,3093.040886125,-1.274017333984375,1.1256103515625,4.32763671875,3093.030892125,-2.853175871975821,1.465953452403604,0.302857636173217,-7.608069896697998,21.23442268371582,-3.135510206222534,-1.570813894271851,1.472428202629089,2.572559595108032,XArbitraryZVertical,0.6706738303496597,-0.0158932308764498,-0.7125504920038248,0.2054646603172539,0.9492469429969788,-0.2982490062713623,-0.0998880341649055,0,0,0,-1,-1,3090.75523875,unknown,2,2022-06-02T10:52:26.477+02:00,2022-06-02T10:17:13.754+02:00,516,1.472617,0,0,401.0887,0,0,2022-06-02T10:52:26.477+02:00,675852746.4766881,0,4.8125,101.3242,1,0.79
230,2022-06-02T10:52:28.773+02:00,1654159945.813378,53.22890393440913,10.39865269326642,39.63852,0,0.21,226.7578125,65.06141773144168,4,5,-9999,3093.050881125,-1.931732177734375,0.855377197265625,5.914688110351562,3093.040886125,-2.759529361421805,1.660432981431042,0.2768651395113855,-10.46293163299561,22.96828651428223,-1.96845555305481,-1.974199056625366,1.486888408660889,3.585553646087646,XArbitraryZVertical,0.7353965796181658,0.0473885412510291,-0.6367668153622643,0.2268792316279441,0.9580551981925964,-0.2733415067195892,0.0861076042056083,0,0,0,-1,-1,3090.75523875,unknown,2,2022-06-02T10:52:26.477+02:00,2022-06-02T10:17:13.754+02:00,516,1.472617,0,0,401.0887,0,0,2022-06-02T10:52:26.477+02:00,675852746.4766881,0,4.8125,101.3242,1,0.79
231,2022-06-02T10:52:28.783+02:00,1654159945.813378,53.22890393440913,10.39865269326642,39.63852,0,0.21,226.7578125,65.06141773144168,4,5,-9999,3093.060875125,-2.471649169921875,0.0317230224609375,7.856201171875,3093.050881125,-2.636479024713645,1.862101994919158,0.2861481703376339,-13.0496711730957,24.05618858337402,-0.708431601524353,-2.515585422515869,1.305559277534485,4.797869682312012,XArbitraryZVertical,0.7901313616935224,0.1159953180179957,-0.5435625820840367,0.2584130751629081,0.9189211130142212,-0.2822591066360474,0.2755249738693237,0,0,0,-1,-1,3090.75523875,unknown,2,2022-06-02T10:52:26.477+02:00,2022-06-02T10:17:13.754+02:00,516,1.472617,0,0,401.0887,0,0,2022-06-02T10:52:26.477+02:00,675852746.4766881,0,4.8125,101.3242,1,0.79
232,2022-06-02T10:52:28.793+02:00,1654159945.813378,53.22890393440913,10.39865269326642,39.63852,0,0.21,226.7578125,65.06141773144168,4,5,-9999,3093.070869125,-2.889144897460938,-2.24639892578125,10.07252502441406,3093.060875125,-2.501015955255142,2.064292423185985,0.3383058896072701,-14.71207714080811,24.40737533569336,0.3255388140678406,-3.043867826461792,0.8863176107406616,6.402828216552734,XArbitraryZVertical,0.8303084492283781,0.1844355930756838,-0.4344435905154265,0.2963616755190317,0.8307636380195618,-0.3318894803524017,0.446857213973999,0,0,0,-1,-1,3090.75523875,unknown,2,2022-06-02T10:52:26.477+02:00,2022-06-02T10:17:13.754+02:00,516,1.472617,0,0,401.0887,0,0,2022-06-02T10:52:26.477+02:00,675852746.4766881,0,4.8125,101.3242,1,0.79
233,2022-06-02T10:52:28.803+02:00,1654159945.813378,53.22890393440913,10.39865269326642,39.63852,0,0.21,226.7578125,65.06141773144168,4,5,-9999,3093.080863125,-2.683822631835938,-6.292160034179688,12.14155578613281,3093.070869125,-2.372313763839339,2.255157718212437,0.4255891134654558,-14.54198932647705,23.00863647460938,0.7412622570991516,-3.394853353500366,-0.4403681755065918,8.367497444152832,XArbitraryZVertical,0.8524668438433521,0.2473718890489753,-0.3169600585984261,0.3341311373926028,0.7057051658630371,-0.4128574132919312,0.5757851600646973,0,0,0,-1,-1,3090.75523875,unknown,2,2022-06-02T10:52:26.477+02:00,2022-06-02T10:17:13.754+02:00,516,1.472617,0,0,401.0887,0,0,2022-06-02T10:52:26.477+02:00,675852746.4766881,0,4.8125,101.3242,1,0.79
234,2022-06-02T10:52:28.813+02:00,1654159945.813378,53.22890393440913,10.39865269326642,39.63852,0,0.21,226.7578125,65.06141773144168,4,5,-9999,3093.090858125,-2.303421020507812,-8.603164672851562,13.575927734375,3093.080863125,-2.268620381417704,2.4205781972724,0.5162911791578468,-11.05420303344727,19.38895225524902,-0.7940101027488708,-3.54642128944397,-3.69895339012146,10.48309135437012,XArbitraryZVertical,0.85796003388422,0.300864804408615,-0.2080962813469468,0.3606670541251359,0.5741006135940552,-0.4936581552028656,0.6532300710678101,0,0,0,-1,-1,3090.75523875,unknown,2,2022-06-02T10:52:26.477+02:00,2022-06-02T10:17:13.754+02:00,516,1.472617,0,0,401.0887,0,0,2022-06-02T10:52:26.477+02:00,675852746.4766881,0,4.8125,101.3242,1,0.79
235,2022-06-02T10:52:28.823+02:00,1654159945.813378,53.22890393440913,10.39865269326642,39.63852,0,0.21,226.7578125,65.06141773144168,4,5,-9999,3093.100852125,-3.300033569335938,-4.732437133789062,15.9425048828125,3093.090858125,-2.176996505145848,2.544014836751114,0.5540390827009042,-4.649421691894531,14.58505821228027,-7.504134654998779,-2.770069599151611,-7.544079303741455,12.21426582336426,XArbitraryZVertical,0.8517389194464994,0.3550444669524412,-0.1296139579435338,0.3628833883925031,0.4784739911556244,-0.5261263847351074,0.7030315399169922,0,0,0,-1,-1,3090.75523875,unknown,2,2022-06-02T10:52:26.477+02:00,2022-06-02T10:17:13.754+02:00,516,1.472617,0,0,401.0887,0,0,2022-06-02T10:52:26.477+02:00,675852746.4766881,0,4.8125,101.3242,1,0.79
236,2022-06-02T10:52:28.833+02:00,1654159945.813378,53.22890393440913,10.39865269326642,39.63852,0,0.21,226.7578125,65.06141773144168,4,5,-9999,3093.110846125,-4.720932006835938,-1.28759765625,19.66058349609375,3093.100852125,-2.038201718096302,2.588767619826616,0.5160410369963133,-2.925811529159546,8.278253555297852,-16.66946029663086,-3.169133186340332,-6.577924728393555,13.83007621765137,XArbitraryZVertical,0.828686652730786,0.4282391590159637,-0.0960587071494092,0.3473645840283605,0.4567153751850128,-0.4934405982494354,0.7402206659317017,0,0,0,-1,-1,3090.75523875,unknown,2,2022-06-02T10:52:26.477+02:00,2022-06-02T10:17:13.754+02:00,516,1.472617,0,0,401.0887,0,0,2022-06-02T10:52:26.477+02:00,675852746.4766881,0,4.8125,101.3242,1,0.79
237,2022-06-02T10:52:28.843+02:00,1654159945.813378,53.22890393440913,10.39865269326642,39.63852,0,0.21,226.7578125,65.06141773144168,4,5,-9999,3093.120840125,-8.013107299804688,2.365554809570312,19.4246826171875,3093.110846125,-1.80562075968836,2.523920068715502,0.4558572907090959,-10.43329238891602,0.2965401113033295,-24.22560501098633,-4.391688823699951,-2.402205467224121,17.16126823425293,XArbitraryZVertical,0.7711246540106563,0.5209193997229367,-0.0991115015846307,0.3524011507413183,0.5199998617172241,-0.4402322173118591,0.7319805026054382,0,0,0,-1,-1,3090.75523875,unknown,2,2022-06-02T10:52:26.477+02:00,2022-06-02T10:17:13.754+02:00,516,1.472617,0,0,401.0887,0,0,2022-06-02T10:52:26.477+02:00,675852746.4766881,0,4.8125,101.3242,1,0.79
238,2022-06-02T10:52:28.853+02:00,1654159945.813378,53.22890393440913,10.39865269326642,39.63852,0,0.21,226.7578125,65.06141773144168,4,5,-9999,3093.130834125,-15.34010314941406,3.13629150390625,14.27799987792969,3093.120840125,-1.466975762991861,2.345495647109552,0.3978595535269459,-20.64505004882812,-7.423666000366211,-29.80405616760254,-6.768600463867188,0.8262125253677368,19.6944751739502,XArbitraryZVertical,0.6618578697793301,0.6199810600610104,-0.1190562732174485,0.4042191408307995,0.6588130593299866,-0.3874459564685822,0.6448647379875183,0,0,0,-1,-1,3090.75523875,unknown,2,2022-06-02T10:52:26.477+02:00,2022-06-02T10:17:13.754+02:00,516,1.472617,0,0,401.0887,0,0,2022-06-02T10:52:26.477+02:00,675852746.4766881,0,4.8125,101.3242,1,0.79
239,2022-06-02T10:52:28.863+02:00,1654159945.813378,53.22890393440913,10.39865269326642,39.63852,0,0.21,226.7578125,65.06141773144168,4,5,-9999,3093.140829125,-23.92329406738281,0.8828277587890625,9.990676879882812,3093.130834125,-1.060155179952472,2.117962562006372,0.2812662133972497,-24.40452194213867,-10.48453807830811,-34.90599822998047,-11.7729434967041,3.876876592636108,16.80248260498047,XArbitraryZVertical,0.4956880188855644,0.7100745968195167,-0.1397410661053739,0.4801664274521781,0.8204439282417297,-0.2775723338127136,0.4998250901699066,0,0,0,-1,-1,3090.75523875,unknown,2,2022-06-02T10:52:26.477+02:00,2022-06-02T10:17:13.754+02:00,516,1.472617,0,0,401.0887,0,0,2022-06-02T10:52:26.477+02:00,675852746.4766881,0,4.8125,101.3242,1,0.79
240,2022-06-02T10:52:28.873+02:00,1654159945.813378,53.22890393440913,10.39865269326642,39.63852,0,0.21,226.7578125,65.06141773144168,4,5,-9999,3093.150823125,-29.9456787109375,3.29779052734375,8.16064453125,3093.140829125,-0.7256255166559951,1.925190790589332,0.0531099050621162,-13.08404064178467,-16.17929649353027,-34.93270492553711,-20.93406295776367,1.814361095428467,11.32157325744629,XArbitraryZVertical,0.3053439203427523,0.7615981101457271,-0.1823465407446414,0.5417407727357212,0.9365342855453492,-0.0530849397182464,0.3465331792831421,0,0,0,-1,-1,3090.75523875,unknown,2,2022-06-02T10:52:26.477+02:00,2022-06-02T10:17:13.754+02:00,516,1.472617,0,0,401.0887,0,0,2022-06-02T10:52:26.477+02:00,675852746.4766881,0,4.8125,101.3242,1,0.79
241,2022-06-02T10:52:28.883+02:00,1654159945.813378,53.22890393440913,10.39865269326642,39.63852,0,0.21,226.7578125,65.06141773144168,4,5,-9999,3093.160817125,-32.06962585449219,17.30256652832031,21.775146484375,3093.150823125,-0.6519712105896501,1.683246459812874,-0.2818752327354813,17.23676681518555,-33.17628479003906,-34.74258041381836,-28.8873462677002,0.7139537930488586,8.819537162780762,XArbitraryZVertical,0.14778450398881,0.7294190585472514,-0.3104835632788026,0.5913606903980373,0.954468846321106,0.2781573534011841,0.1077848449349403,0,0,0,-1,-1,3090.75523875,unknown,2,2022-06-02T10:52:26.477+02:00,2022-06-02T10:17:13.754+02:00,516,1.472617,0,0,401.0887,0,0,2022-06-02T10:52:26.477+02:00,675852746.4766881,0,4.8125,101.3242,1,0.79
242,2022-06-02T10:52:28.893+02:00,1654159945.813378,53.22890393440913,10.39865269326642,39.63852,0,0.21,226.7578125,65.06141773144168,4,5,-9999,3093.170812125,-32.22700500488281,8.553421020507812,31.42909240722656,3093.160817125,-1.015389334729522,1.172185236121217,-0.5825271040955384,33.91878128051758,-35.18264389038086,-34.60209274291992,-31.94372367858887,9.058064460754396,11.42870903015137,XArbitraryZVertical,0.0485144140889219,0.579296018634792,-0.5267668709498302,0.6201444507674436,0.7696059942245483,0.5501360297203064,-0.3241249620914459,0,0,0,-1,-1,3090.75523875,unknown,2,2022-06-02T10:52:26.477+02:00,2022-06-02T10:17:13.754+02:00,516,1.472617,0,0,401.0887,0,0,2022-06-02T10:52:26.477+02:00,675852746.4766881,0,4.8125,101.3242,1,0.79
243,2022-06-02T10:52:28.903+02:00,1654159945.813378,53.22890393440913,10.39865269326642,39.63852,0,0.21,226.7578125,65.06141773144168,4,5,-9999,3093.180806125,-32.12324523925781,18.17179870605469,28.11256408691406,3093.170812125,-1.585920805571134,0.4904509525753437,-0.5877381151777801,35.45882034301758,-35.1719856262207,-26.30062675476074,-32.56997680664062,16.05896949768066,31.83157157897949,XArbitraryZVertical,-0.0316365695133905,0.3632493943867957,-0.7108390528985076,0.6014621503170282,0.3919844925403595,0.5544801354408264,-0.7340980172157288,0,0,0,-1,-1,3090.75523875,unknown,2,2022-06-02T10:52:26.477+02:00,2022-06-02T10:17:13.754+02:00,516,1.472617,0,0,401.0887,0,0,2022-06-02T10:52:26.477+02:00,675852746.4766881,0,4.8125,101.3242,1,0.79
244,2022-06-02T10:52:28.913+02:00,1654159945.813378,53.22890393440913,10.39865269326642,39.63852,0,0.21,226.7578125,65.06141773144168,4,5,-9999,3093.190800125,-31.94871520996094,-12.26052856445312,29.76065063476562,3093.180806125,-1.885695328757945,0.0018786673553961,-0.2931949126254664,35.375732421875,-35.15262222290039,-15.45769882202148,-32.16933822631836,8.995335578918457,29.43249702453613,XArbitraryZVertical,-0.085063778126987,0.1187531070235336,-0.8006346130260661,0.581073238996739,0.0017984949517995,0.2890122532844543,-0.9573237299919128,0,0,0,-1,-1,3090.75523875,unknown,2,2022-06-02T10:52:26.477+02:00,2022-06-02T10:17:13.754+02:00,516,1.472617,0,0,401.0887,0,0,2022-06-02T10:52:26.477+02:00,675852746.4766881,0,4.8125,101.3242,1,0.79
245,2022-06-02T10:52:28.923+02:00,1654159945.813378,53.22890393440913,10.39865269326642,39.63852,0,0.21,226.7578125,65.06141773144168,4,5,-9999,3093.200794125,-18.68960571289062,-27.97885131835938,4.976028442382812,3093.190800125,-1.872061311071019,-0.242320266411628,0.0551217485678464,34.98595428466797,-8.92080020904541,11.39260482788086,-31.6580982208252,12.43506813049316,31.72551918029785,XArbitraryZVertical,-0.0810625284796786,-0.093670566883817,-0.800979249564958,0.5857362423178848,-0.2395913004875183,-0.055093839764595,-0.969309389591217,0,0,0,-1,-1,3090.75523875,unknown,2,2022-06-02T10:52:26.477+02:00,2022-06-02T10:17:13.754+02:00,516,1.472617,0,0,401.0887,0,0,2022-06-02T10:52:26.477+02:00,675852746.4766881,0,4.8125,101.3242,1,0.79
246,2022-06-02T10:52:28.933+02:00,1654159945.813378,53.22890393440913,10.39865269326642,39.63852,0,0.21,226.7578125,65.06141773144168,4,5,-9999,3093.210789125,-7.983734130859375,-9.039321899414062,-0.86480712890625,3093.200794125,-1.652721964753741,-0.3018770073337066,0.2251110048027116,10.84529781341553,2.408727645874023,17.26399612426758,-27.79293632507324,-30.16010093688965,19.35747909545898,XArbitraryZVertical,-0.0346534560166498,-0.1829042040757969,-0.7339508085295884,0.6531932821294316,-0.2898114621639252,-0.2232145667076111,-0.9306904077529908,0,0,0,-1,-1,3090.75523875,unknown,2,2022-06-02T10:52:26.477+02:00,2022-06-02T10:17:13.754+02:00,516,1.472617,0,0,401.0887,0,0,2022-06-02T10:52:26.477+02:00,675852746.4766881,0,4.8125,101.3242,1,0.79
247,2022-06-02T10:52:28.943+02:00,1654159945.813378,53.22890393440913,10.39865269326642,39.63852,0,0.21,226.7578125,65.06141773144168,4,5,-9999,3093.220783125,-10.02938842773438,-2.963302612304688,-1.804641723632812,3093.210789125,-1.483373254873075,-0.3309179371938755,0.209941439195847,-1.633444786071777,-0.4937954545021057,16.25755882263184,-10.19354438781738,-17.43571662902832,-0.2697843313217163,XArbitraryZVertical,-0.0344502465268249,-0.1905878616639224,-0.6753634950389381,0.7115993129493962,-0.3177772462368011,-0.208402618765831,-0.9249789118766784,0,0,0,-1,-1,3090.75523875,unknown,2,2022-06-02T10:52:26.477+02:00,2022-06-02T10:17:13.754+02:00,516,1.472617,0,0,401.0887,0,0,2022-06-02T10:52:26.477+02:00,675852746.4766881,0,4.8125,101.3242,1,0.79
248,2022-06-02T10:52:28.953+02:00,1654159945.813378,53.22890393440913,10.39865269326642,39.63852,0,0.21,226.7578125,65.06141773144168,4,5,-9999,3093.230777125,-11.27810668945312,-4.358810424804688,-0.87469482421875,3093.220783125,-1.329530895065197,-0.3542092054436644,0.1560260687332631,2.316391944885254,1.131701707839966,16.54959106445312,-8.728104591369629,-4.44316291809082,0.1805408000946045,XArbitraryZVertical,-0.0479712097093702,-0.1855663706635085,-0.6161851702421134,0.763923885336144,-0.342635452747345,-0.1553937792778015,-0.9265277981758118,0,0,0,-1,-1,3090.75523875,unknown,2,2022-06-02T10:52:26.477+02:00,2022-06-02T10:17:13.754+02:00,516,1.472617,0,0,401.0887,0,0,2022-06-02T10:52:26.477+02:00,675852746.4766881,0,4.8125,101.3242,1,0.79
249,2022-06-02T10:52:28.963+02:00,1654159945.813378,53.22890393440913,10.39865269326642,39.63852,0,0.21,226.7578125,65.06141773144168,4,5,-9999,3093.240771125,-7.90899658203125,-3.392135620117188,1.126510620117188,3093.230777125,-1.171900621029714,-0.3336933625259315,0.125979996594778,1.934322357177734,7.610228061676025,14.47648906707764,-10.30265426635742,-2.911736965179443,-1.019451141357422,XArbitraryZVertical,-0.0399357401314416,-0.1724224799701243,-0.5529409300732223,0.8142063846813615,-0.3249391913414001,-0.1256470233201981,-0.9373512268066406,0,0,0,-1,-1,3090.75523875,unknown,2,2022-06-02T10:52:26.477+02:00,2022-06-02T10:17:13.754+02:00,516,1.472617,0,0,401.0887,0,0,2022-06-02T10:52:26.477+02:00,675852746.4766881,0,4.8125,101.3242,1,0.79
250,2022-06-02T10:52:28.973+02:00,1654159945.813378,53.22890393440913,10.39865269326642,39.63852,0,0.21,226.7578125,65.06141773144168,4,5,-9999,3093.250766125,-4.333267211914062,-1.658355712890625,1.218399047851562,3093.240771125,-1.042738296842537,-0.2517489156818349,0.1020884254115205,1.295614838600159,11.07456016540527,11.35919952392578,-10.00235176086426,-4.488832950592041,1.309276342391968,XArbitraryZVertical,-0.0185540465286906,-0.1339321339940212,-0.4990380961296377,0.855966510104497,-0.247801199555397,-0.101911187171936,-0.9634358882904052,0,0,0,-1,-1,3090.75523875,unknown,2,2022-06-02T10:52:26.477+02:00,2022-06-02T10:17:13.754+02:00,516,1.472617,0,0,401.0887,0,0,2022-06-02T10:52:26.477+02:00,675852746.4766881,0,4.8125,101.3242,1,0.79
251,2022-06-02T10:52:28.983+02:00,1654159945.813378,53.22890393440913,10.39865269326642,39.63852,0,0.21,226.7578125,65.06141773144168,4,5,-9999,3093.260760125,-3.972518920898438,0.43597412109375,1.120391845703125,3093.250766125,-0.9324600909813991,-0.1632555939559566,0.1022089694053941,3.1730055809021,7.875928401947021,10.36038398742676,-5.559416770935059,-2.326985120773315,2.338457107543945,XArbitraryZVertical,0.0088733677316649,-0.0956257007434506,-0.4511607760070633,0.8872603287055839,-0.1616831570863724,-0.1020311042666435,-0.9815539717674256,0,0,0,-1,-1,3090.75523875,unknown,2,2022-06-02T10:52:26.477+02:00,2022-06-02T10:17:13.754+02:00,516,1.472617,0,0,401.0887,0,0,2022-06-02T10:52:26.477+02:00,675852746.4766881,0,4.8125,101.3242,1,0.79
252,2022-06-02T10:52:28.993+02:00,1654159945.813378,53.22890393440913,10.39865269326642,39.63852,0,0.21,226.7578125,65.06141773144168,4,5,-9999,3093.270754125,-5.147659301757812,0.916351318359375,1.053924560546875,3093.260760125,-0.8291947611439783,-0.125340515774067,0.1305206195895953,5.42652416229248,2.301586389541626,9.041681289672852,-3.675107717514038,-0.4607157409191132,2.192334175109863,XArbitraryZVertical,0.0343970977551375,-0.0834192059938652,-0.4049131325125184,0.9098919914471076,-0.123949259519577,-0.1301503479480743,-0.9837161302566528,0,0,0,-1,-1,3090.75523875,unknown,2,2022-06-02T10:52:26.477+02:00,2022-06-02T10:17:13.754+02:00,516,1.472617,0,0,401.0887,0,0,2022-06-02T10:52:26.477+02:00,675852746.4766881,0,4.8125,101.3242,1,0.79
253,2022-06-02T10:52:29.003+02:00,1654159945.813378,53.22890393440913,10.39865269326642,39.63852,0,0.21,226.7578125,65.06141773144168,4,5,-9999,3093.280748125,-5.867202758789062,-0.7873992919921875,1.183135986328125,3093.270754125,-0.7400979434737172,-0.1348132288282413,0.1837143737551449,7.076653003692627,-1.042456388473511,7.17989444732666,-4.351132869720459,1.21751856803894,1.95703911781311,XArbitraryZVertical,0.0610675530665318,-0.0956306501078796,-0.3650786881835257,0.9240362759641244,-0.1321434527635574,-0.1826826930046082,-0.9742510914802552,0,0,0,-1,-1,3090.75523875,unknown,2,2022-06-02T10:52:26.477+02:00,2022-06-02T10:17:13.754+02:00,516,1.472617,0,0,401.0887,0,0,2022-06-02T10:52:26.477+02:00,675852746.4766881,0,4.8125,101.3242,1,0.79
254,2022-06-02T10:52:29.013+02:00,1654159945.813378,53.22890393440913,10.39865269326642,39.63852,0,0.21,226.7578125,65.06141773144168,4,5,-9999,3093.290743125,-5.403106689453125,-0.8322906494140625,0.8849945068359375,3093.280748125,-0.6585961778875759,-0.1707874832203197,0.2420887801717584,6.658524036407471,-2.603863954544067,7.0832200050354,-5.533545017242432,0.3648683428764343,2.177570581436157,XArbitraryZVertical,0.0864655979490835,-0.1190222120359945,-0.3295884019497469,0.9325925015713022,-0.1650023311376572,-0.2397310137748718,-0.9567148089408876,0,0,0,-1,-1,3090.75523875,unknown,2,2022-06-02T10:52:26.477+02:00,2022-06-02T10:17:13.754+02:00,516,1.472617,0,0,401.0887,0,0,2022-06-02T10:52:26.477+02:00,675852746.4766881,0,4.8125,101.3242,1,0.79
255,2022-06-02T10:52:29.023+02:00,1654159945.813378,53.22890393440913,10.39865269326642,39.63852,0,0.21,226.7578125,65.06141773144168,4,5,-9999,3093.300737125,-4.989364624023438,0.022552490234375,0.8055419921875,3093.290743125,-0.5721890489683261,-0.2252249807078525,0.2853655230467432,5.126603603363037,-3.687870025634766,7.46528959274292,-5.456604480743408,-0.8309643268585205,1.953237891197205,XArbitraryZVertical,0.1041644006810328,-0.1465869615998588,-0.2929006034385968,0.9390799095446378,-0.2142941057682037,-0.281508207321167,-0.9353240728378296,0,0,0,-1,-1,3090.75523875,unknown,2,2022-06-02T10:52:26.477+02:00,2022-06-02T10:17:13.754+02:00,516,1.472617,0,0,401.0887,0,0,2022-06-02T10:52:26.477+02:00,675852746.4766881,0,4.8125,101.3242,1,0.79
256,2022-06-02T10:52:29.033+02:00,1654159945.813378,53.22890393440913,10.39865269326642,39.63852,0,0.21,226.7578125,65.06141773144168,4,5,-9999,3093.310731125,-4.733993530273438,0.2536468505859375,0.8677978515625,3093.300737125,-0.4851898485230709,-0.2918743626565894,0.3117700664224425,4.372718334197998,-4.482355117797852,7.298223972320557,-4.899097442626953,-0.043536901473999,1.726554870605469,XArbitraryZVertical,0.1145967748474898,-0.176349012937308,-0.2567029313000588,0.9433303621561214,-0.2738761007785797,-0.306743860244751,-0.911537230014801,0,0,0,-1,-1,3090.75523875,unknown,2,2022-06-02T10:52:26.477+02:00,2022-06-02T10:17:13.754+02:00,516,1.472617,0,0,401.0887,0,0,2022-06-02T10:52:26.477+02:00,675852746.4766881,0,4.8125,101.3242,1,0.79
257,2022-06-02T10:52:29.043+02:00,1654159945.813378,53.22890393440913,10.39865269326642,39.63852,0,0.21,226.7578125,65.06141773144168,4,5,-9999,3093.320725125,-4.53900146484375,0.25439453125,0.8461456298828125,3093.310731125,-0.3976314190717847,-0.3668622295675334,0.3302658556369196,4.575768947601318,-4.932968139648438,7.243303775787354,-4.499975681304932,0.5253137946128845,1.721297144889832,XArbitraryZVertical,0.122905563699129,-0.2083010514438666,-0.2209468906534103,0.9448212976182472,-0.3393033444881439,-0.3242945373058319,-0.8830097913742065,0,0,0,-1,-1,3090.75523875,unknown,2,2022-06-02T10:52:26.477+02:00,2022-06-02T10:17:13.754+02:00,516,1.472617,0,0,401.0887,0,0,2022-06-02T10:52:29.032+02:00,675852746.4766881,0,4.8125,101.3242,1,0.79
258,2022-06-02T10:52:29.053+02:00,1654159945.813378,53.22890393440913,10.39865269326642,39.63852,0,0.21,226.7578125,65.06141773144168,4,5,-9999,3093.330720125,-4.438888549804688,-0.0854339599609375,0.7952880859375,3093.320725125,-0.3075740811541505,-0.4470500014076096,0.3465087361972611,5.154268264770508,-5.096272945404053,7.067261219024658,-4.227939128875732,0.6112530827522278,1.715364694595337,XArbitraryZVertical,0.1326691805970578,-0.241522626074518,-0.1848966885572821,0.9433338538792008,-0.406612753868103,-0.3396161198616028,-0.8481314182281494,0,0,0,-1,-1,3093.310636125,running,2,2022-06-02T10:52:29.032+02:00,2022-06-02T10:17:13.754+02:00,516,1.472617,0,0,401.0887,0,0,2022-06-02T10:52:29.032+02:00,675852749.0320195,0,5.0,101.3243,1,0.79
259,2022-06-02T10:52:29.063+02:00,1654159945.813378,53.22890393440913,10.39865269326642,39.63852,0,0.21,226.7578125,65.06141773144168,4,5,-9999,3093.340714125,-4.415725708007812,-0.73095703125,0.6939697265625,3093.330720125,-0.2156520359932605,-0.529279466975617,0.3617198722321082,5.565087795257568,-4.928033351898193,6.759855270385742,-3.990819931030273,0.5008407831192017,1.631396293640137,XArbitraryZVertical,0.1449158316164234,-0.2744848843911349,-0.1489518150263346,0.9388666784860424,-0.4722384810447693,-0.3538833260536194,-0.8073148727416992,0,0,0,-1,-1,3093.310636125,running,2,2022-06-02T10:52:29.032+02:00,2022-06-02T10:17:13.754+02:00,516,1.472617,0,0,401.0887,0,0,2022-06-02T10:52:29.032+02:00,675852749.0320195,0,5.0,101.3243,1,0.79
260,2022-06-02T10:52:29.073+02:00,1654159945.813378,53.22890393440913,10.39865269326642,39.63852,0,0.21,226.7578125,65.06141773144168,4,5,-9999,3093.350708125,-4.258010864257812,-1.161376953125,0.4636993408203125,3093.340714125,-0.1232061815451485,-0.6085045099913462,0.3715962206765672,5.33218240737915,-4.186341762542725,6.745728969573975,-3.896573305130005,-0.0358226001262664,1.523872375488281,XArbitraryZVertical,0.1577862412880535,-0.3047158237189067,-0.1129623760682716,0.9324650916578427,-0.5326259136199951,-0.3631031811237335,-0.764503538608551,0,0,0,-1,-1,3093.310636125,running,2,2022-06-02T10:52:29.032+02:00,2022-06-02T10:17:13.754+02:00,516,1.472617,0,0,401.0887,0,0,2022-06-02T10:52:29.032+02:00,675852749.0320195,0,5.0,101.3243,1,0.79
261,2022-06-02T10:52:29.083+02:00,1654159945.813378,53.22890393440913,10.39865269326642,39.63852,0,0.21,226.7578125,65.06141773144168,4,5,-9999,3093.360702125,-3.851028442382812,-1.290496826171875,0.1233978271484375,3093.350708125,-0.0334386252302502,-0.6766233032162076,0.3710861010750124,4.58878231048584,-2.858832359313965,6.694806575775146,-3.781690835952759,-0.6377230882644653,1.319303035736084,XArbitraryZVertical,0.1685454037778104,-0.3290621846331703,-0.0767197032236236,0.9259721918367204,-0.5835433602333069,-0.3626278340816498,-0.7266210317611694,0,0,0,-1,-1,3093.310636125,running,2,2022-06-02T10:52:29.032+02:00,2022-06-02T10:17:13.754+02:00,516,1.472617,0,0,401.0887,0,0,2022-06-02T10:52:29.032+02:00,675852749.0320195,0,5.0,101.3243,1,0.79
262,2022-06-02T10:52:29.093+02:00,1654159945.813378,53.22890393440913,10.39865269326642,39.63852,0,0.21,226.7578125,65.06141773144168,4,5,-9999,3093.370697125,-3.2733154296875,-1.3704833984375,-0.2079010009765625,3093.360702125,0.047450859097672,-0.7270298978345466,0.359215439324108,3.342936277389526,-1.491923213005066,6.390147686004639,-3.465110778808594,-0.8876721858978271,1.000778555870056,XArbitraryZVertical,0.1752221448653566,-0.3457825468407917,-0.0416846677706569,0.9208658990086852,-0.6222305297851562,-0.3515398502349854,-0.6994632482528687,0,0,0,-1,-1,3093.310636125,running,2,2022-06-02T10:52:29.032+02:00,2022-06-02T10:17:13.754+02:00,516,1.472617,0,0,401.0887,0,0,2022-06-02T10:52:29.032+02:00,675852749.0320195,0,5.0,101.3243,1,0.79
263,2022-06-02T10:52:29.103+02:00,1654159945.813378,53.22890393440913,10.39865269326642,39.63852,0,0.21,226.7578125,65.06141773144168,4,5,-9999,3093.380691125,-2.668670654296875,-1.242782592773438,-0.3732452392578125,3093.370697125,0.1151997161557998,-0.7600039407655712,0.3372284141571136,2.046658515930176,-0.5503321886062622,5.935843467712402,-2.919916868209839,-1.007872223854065,0.6313492059707642,XArbitraryZVertical,0.1766369919806593,-0.3560838849410671,-0.0094404473244117,0.9175589529074544,-0.6501208543777466,-0.3308728933334351,-0.6840072870254517,0,0,0,-1,-1,3093.310636125,running,2,2022-06-02T10:52:29.032+02:00,2022-06-02T10:17:13.754+02:00,516,1.472617,0,0,401.0887,0,0,2022-06-02T10:52:29.032+02:00,675852749.0320195,0,5.0,101.3243,1,0.79
264,2022-06-02T10:52:29.113+02:00,1654159945.813378,53.22890393440913,10.39865269326642,39.63852,0,0.21,226.7578125,65.06141773144168,4,5,-9999,3093.390685125,-2.241500854492188,-0.9624481201171876,-0.3990020751953125,3093.380691125,0.1685351598311905,-0.7810038492617638,0.3083698565349364,0.897381603717804,-0.3047483265399933,5.308918952941895,-2.290793180465698,-1.037085652351379,0.3631078004837036,XArbitraryZVertical,0.1731680887424697,-0.3628492919135372,0.0186570570570912,0.915426143598884,-0.6707850694656372,-0.3035057783126831,-0.6767064332962036,0,0,0,-1,-1,3093.310636125,running,2,2022-06-02T10:52:29.032+02:00,2022-06-02T10:17:13.754+02:00,516,1.472617,0,0,401.0887,0,0,2022-06-02T10:52:29.032+02:00,675852749.0320195,0,5.0,101.3243,1,0.79
265,2022-06-02T10:52:29.123+02:00,1654159945.813378,53.22890393440913,10.39865269326642,39.63852,0,0.21,226.7578125,65.06141773144168,4,5,-9999,3093.400679125,-2.019973754882812,-0.6456298828125,-0.3871002197265625,3093.390685125,0.2080152503019779,-0.7954490774133386,0.2773956320938374,0.1810307055711746,-0.3185434937477112,4.405661582946777,-1.738798022270203,-0.8339210748672485,0.2769045233726501,XArbitraryZVertical,0.1665989800676066,-0.3682959019868178,0.0415381115085586,0.9137162922532632,-0.6868763566017151,-0.2738517820835114,-0.6732057929039001,0,0,0,-1,-1,3093.310636125,running,2,2022-06-02T10:52:29.032+02:00,2022-06-02T10:17:13.754+02:00,516,1.472617,0,0,401.0887,0,0,2022-06-02T10:52:29.032+02:00,675852749.0320195,0,5.0,101.3243,1,0.79
266,2022-06-02T10:52:29.133+02:00,1654159945.813378,53.22890393440913,10.39865269326642,39.63852,0,0.21,226.7578125,65.06141773144168,4,5,-9999,3093.410674125,-1.929351806640625,-0.3306884765625,-0.3137054443359375,3093.400679125,0.2375886296712612,-0.8062533153525819,0.2499971071745299,0.1755877435207367,-0.277350515127182,3.520028591156006,-1.409791111946106,-0.5649462938308716,0.2721748948097229,XArbitraryZVertical,0.160001412372965,-0.3729010545130474,0.0596000822977361,0.9120263974746312,-0.6992633938789368,-0.247401162981987,-0.6706886887550354,0,0,0,-1,-1,3093.310636125,running,2,2022-06-02T10:52:29.032+02:00,2022-06-02T10:17:13.754+02:00,516,1.472617,0,0,401.0887,0,0,2022-06-02T10:52:29.032+02:00,675852749.0320195,0,5.0,101.3243,1,0.79
267,2022-06-02T10:52:29.143+02:00,1654159945.813378,53.22890393440913,10.39865269326642,39.63852,0,0.21,226.7578125,65.06141773144168,4,5,-9999,3093.420668125,-1.813156127929688,-0.1782379150390625,-0.2050323486328125,3093.410674125,0.2626809641868981,-0.8133264035466347,0.2297773910176181,0.6028019189834595,0.1072722598910332,2.803756475448608,-1.258157014846802,-0.2481761574745178,0.3124440908432007,XArbitraryZVertical,0.1558408246416404,-0.3757662167169004,0.074536220148391,0.9104711764794344,-0.7074801921844482,-0.2277607768774033,-0.669026792049408,0,0,0,-1,-1,3093.310636125,running,2,2022-06-02T10:52:29.032+02:00,2022-06-02T10:17:13.754+02:00,516,1.472617,0,0,401.0887,0,0,2022-06-02T10:52:29.032+02:00,675852749.0320195,0,5.0,101.3243,1,0.79
268,2022-06-02T10:52:29.153+02:00,1654159945.813378,53.22890393440913,10.39865269326642,39.63852,0,0.21,226.7578125,65.06141773144168,4,5,-9999,3093.430662125,-1.575271606445312,-0.209259033203125,-0.1044158935546875,3093.420668125,0.2872932470385341,-0.8143607187061672,0.2173364098030285,1.181534171104431,0.8050606846809387,2.329564809799194,-1.173351764678955,-0.0140763819217681,0.4080568552017212,XArbitraryZVertical,0.1549190085314013,-0.3753748482209629,0.0881657550505024,0.9095716453706388,-0.7101777195930481,-0.2156294584274292,-0.6701876521110535,0,0,0,-1,-1,3093.310636125,running,2,2022-06-02T10:52:29.032+02:00,2022-06-02T10:17:13.754+02:00,516,1.472617,0,0,401.0887,0,0,2022-06-02T10:52:29.032+02:00,675852749.0320195,0,5.0,101.3243,1,0.79
269,2022-06-02T10:52:29.163+02:00,1654159945.813378,53.22890393440913,10.39865269326642,39.63852,0,0.21,226.7578125,65.06141773144168,4,5,-9999,3093.440656125,-1.270782470703125,-0.2637481689453125,-0.060272216796875,3093.430662125,0.313206997513868,-0.808250352188559,0.2116681588073534,1.702735066413879,1.496546626091003,1.984663128852844,-1.001218557357788,0.0328755378723144,0.5285736322402954,XArbitraryZVertical,0.156922935305544,-0.3710811343938785,0.1015688502496985,0.9095919844702604,-0.7069418430328369,-0.2100911140441895,-0.6753479838371277,0,0,0,-1,-1,3093.310636125,running,2,2022-06-02T10:52:29.032+02:00,2022-06-02T10:17:13.754+02:00,516,1.472617,0,0,401.0887,0,0,2022-06-02T10:52:29.032+02:00,675852749.0320195,0,5.0,101.3243,1,0.79
270,2022-06-02T10:52:29.173+02:00,1654159945.813378,53.22890393440913,10.39865269326642,39.63852,0,0.21,226.7578125,65.06141773144168,4,5,-9999,3093.450650125,-0.9947509765625,-0.2386016845703125,-0.0744476318359375,3093.440656125,0.3396775767120596,-0.7965720003476502,0.2117036617679251,1.994403958320618,1.896245718002319,1.596445918083191,-0.7248265743255615,-0.0340911149978637,0.6093031764030457,XArbitraryZVertical,0.1611702361088524,-0.3636590779243917,0.1145342348727259,0.9103065986848656,-0.6990015506744385,-0.2101258337497711,-0.6835524439811707,0,0,0,-1,-1,3093.310636125,running,2,2022-06-02T10:52:29.032+02:00,2022-06-02T10:17:13.754+02:00,516,1.472617,0,0,401.0887,0,0,2022-06-02T10:52:29.032+02:00,675852749.0320195,0,5.0,101.3243,1,0.79
271,2022-06-02T10:52:29.183+02:00,1654159945.813378,53.22890393440913,10.39865269326642,39.63852,0,0.21,226.7578125,65.06141773144168,4,5,-9999,3093.460645125,-0.804107666015625,-0.185516357421875,-0.1236724853515625,3093.450650125,0.3643111405180846,-0.782468379891175,0.2160883430214636,2.016801595687866,1.925894498825073,1.168989896774292,-0.4354793429374695,-0.0469572246074676,0.6305487751960754,XArbitraryZVertical,0.1667118223915304,-0.3547758336350326,0.126045551897848,0.9112923556349464,-0.6886355876922607,-0.214410588145256,-0.6926825642585754,0,0,0,-1,-1,3093.310636125,running,2,2022-06-02T10:52:29.032+02:00,2022-06-02T10:17:13.754+02:00,516,1.472617,0,0,401.0887,0,0,2022-06-02T10:52:29.032+02:00,675852749.0320195,0,5.0,101.3243,1,0.79
272,2022-06-02T10:52:29.193+02:00,1654159945.813378,53.22890393440913,10.39865269326642,39.63852,0,0.21,226.7578125,65.06141773144168,4,5,-9999,3093.470639125,-0.72637939453125,-0.1648712158203125,-0.216583251953125,3093.460645125,0.3854303708413107,-0.7689052209887346,0.2233311867527017,1.903708577156067,1.69050669670105,0.7701462507247925,-0.2068687677383423,0.0133188664913177,0.6073487997055054,XArbitraryZVertical,0.1727713913869341,-0.3460317401063033,0.135418495120981,0.9121808170533172,-0.6780799031257629,-0.2214792966842651,-0.7008241415023804,0,0,0,-1,-1,3093.310636125,running,2,2022-06-02T10:52:29.032+02:00,2022-06-02T10:17:13.754+02:00,516,1.472617,0,0,401.0887,0,0,2022-06-02T10:52:29.032+02:00,675852749.0320195,0,5.0,101.3243,1,0.79
273,2022-06-02T10:52:29.203+02:00,1654159945.813378,53.22890393440913,10.39865269326642,39.63852,0,0.21,226.7578125,65.06141773144168,4,5,-9999,3093.480633125,-0.69775390625,-0.1060791015625,-0.2970733642578125,3093.470639125,0.402775188254408,-0.757375901195202,0.2324975614100466,1.743952035903931,1.397962689399719,0.4067734181880951,-0.0845043063163757,0.0560311377048492,0.5402354598045349,XArbitraryZVertical,0.179043466810247,-0.3382281985245298,0.1425886928238055,0.912805255651044,-0.6685320734977722,-0.2304086089134216,-0.7070902585983276,0,0,0,-1,-1,3093.310636125,running,2,2022-06-02T10:52:29.032+02:00,2022-06-02T10:17:13.754+02:00,516,1.472617,0,0,401.0887,0,0,2022-06-02T10:52:29.032+02:00,675852749.0320195,0,5.0,101.3243,1,0.79
274,2022-06-02T10:52:29.213+02:00,1654159945.813378,53.22890393440913,10.39865269326642,39.63852,0,0.21,226.7578125,65.06141773144168,4,5,-9999,3093.490627125,-0.6870880126953125,-0.0201873779296875,-0.3394317626953125,3093.480633125,0.4158080041029555,-0.7478369111173522,0.2424608748472724,1.429428339004517,1.13728129863739,0.0909213870763778,-0.0507287979125976,0.0954846739768981,0.4481973648071289,XArbitraryZVertical,0.1849943215347194,-0.3315400076429656,0.1475152849078477,0.9132893378063012,-0.6601628661155701,-0.2400922477245331,-0.7117166519165039,0,0,0,-1,-1,3093.310636125,running,2,2022-06-02T10:52:29.032+02:00,2022-06-02T10:17:13.754+02:00,516,1.472617,0,0,401.0887,0,0,2022-06-02T10:52:29.032+02:00,675852749.0320195,0,5.0,101.3243,1,0.79
275,2022-06-02T10:52:29.223+02:00,1654159945.813378,53.22890393440913,10.39865269326642,39.63852,0,0.21,226.7578125,65.06141773144168,4,5,-9999,3093.500622125,-0.6770477294921875,0.063262939453125,-0.3696136474609375,3093.490627125,0.4243294299143967,-0.7395501098608973,0.2522197083027498,1.142311811447144,0.9429236054420472,-0.1896721869707108,-0.0378584265708923,0.1886409521102905,0.395161509513855,XArbitraryZVertical,0.1901441100106076,-0.3258010959828816,0.150347328285524,0.9138350369905732,-0.6526322364807129,-0.2495540529489517,-0.7153977155685425,0,0,0,-1,-1,3093.310636125,running,2,2022-06-02T10:52:29.032+02:00,2022-06-02T10:17:13.754+02:00,516,1.472617,0,0,401.0887,0,0,2022-06-02T10:52:29.032+02:00,675852749.0320195,0,5.0,101.3243,1,0.79
276,2022-06-02T10:52:29.233+02:00,1654159945.813378,53.22890393440913,10.39865269326642,39.63852,0,0.21,226.7578125,65.06141773144168,4,5,-9999,3093.510616125,-0.6623687744140625,0.1095428466796875,-0.37445068359375,3093.500622125,0.4293193269055726,-0.7320534409547625,0.2615765124414193,0.8929340839385986,0.8178290724754333,-0.3419248461723328,-0.0357803702354431,0.2785622477531433,0.3608968257904053,XArbitraryZVertical,0.1945702981107124,-0.3207670028429093,0.1515997943342441,0.9144771437054589,-0.6456618309020996,-0.2586037516593933,-0.7185018658638,0,0,0,-1,-1,3093.310636125,running,2,2022-06-02T10:52:29.032+02:00,2022-06-02T10:17:13.754+02:00,516,1.472617,0,0,401.0887,0,0,2022-06-02T10:52:29.032+02:00,675852749.0320195,0,5.0,101.3243,1,0.79
277,2022-06-02T10:52:29.243+02:00,1654159945.813378,53.22890393440913,10.39865269326642,39.63852,0,0.21,226.7578125,65.06141773144168,4,5,-9999,3093.520610125,-0.6129302978515625,0.137939453125,-0.3744659423828125,3093.510616125,0.4317073820158622,-0.7248674831380136,0.2700287691298009,0.6818903088569641,0.7588582038879395,-0.4278290867805481,-0.0342230200767517,0.3610432147979736,0.3475899696350098,XArbitraryZVertical,0.1981866274010677,-0.3162145222691681,0.151828223537524,0.9152477806691214,-0.639009952545166,-0.2667591571807861,-0.7214608788490295,0,0,0,-1,-1,3093.310636125,running,2,2022-06-02T10:52:29.032+02:00,2022-06-02T10:17:13.754+02:00,516,1.472617,0,0,401.0887,0,0,2022-06-02T10:52:29.032+02:00,675852749.0320195,0,5.0,101.3243,1,0.79
278,2022-06-02T10:52:29.253+02:00,1654159945.813378,53.22890393440913,10.39865269326642,39.63852,0,0.21,226.7578125,65.06141773144168,4,5,-9999,3093.530604125,-0.5435943603515625,0.139617919921875,-0.395599365234375,3093.520610125,0.4321407232389658,-0.7174484113865022,0.2771575495183131,0.4421320557594299,0.7556919455528259,-0.444742888212204,-0.0087244510650634,0.3953421115875244,0.3502645492553711,XArbitraryZVertical,0.2008826734920139,-0.3118988443590607,0.1514524672967059,0.916202666935531,-0.6323734521865845,-0.2736227810382843,-0.7247305512428284,0,0,0,-1,-1,3093.310636125,running,2,2022-06-02T10:52:29.032+02:00,2022-06-02T10:17:13.754+02:00,516,1.472617,0,0,401.0887,0,0,2022-06-02T10:52:29.032+02:00,675852749.0320195,0,5.0,101.3243,1,0.79
279,2022-06-02T10:52:29.263+02:00,1654159945.813378,53.22890393440913,10.39865269326642,39.63852,0,0.21,226.7578125,65.06141773144168,4,5,-9999,3093.540599125,-0.4288787841796875,0.1241455078125,-0.454071044921875,3093.530604125,0.4309083310817203,-0.7093780267038696,0.2824193471722927,0.2000837177038193,0.7944806218147278,-0.4216253161430359,0.0441367626190185,0.4238215684890747,0.3490996956825256,XArbitraryZVertical,0.2024392547807991,-0.3076758444514463,0.1507390624381192,0.9174048316923634,-0.6255576014518738,-0.2786799669265747,-0.7287078499794006,0,0,0,-1,-1,3093.310636125,running,2,2022-06-02T10:52:29.032+02:00,2022-06-02T10:17:13.754+02:00,516,1.472617,0,0,401.0887,0,0,2022-06-02T10:52:29.032+02:00,675852749.0320195,0,5.0,101.3243,1,0.79
