,loggingTime(txt),locationTimestamp_since1970(s),locationLatitude(WGS84),locationLongitude(WGS84),locationAltitude(m),locationSpeed(m/s),locationSpeedAccuracy(m/s),locationCourse(°),locationCourseAccuracy(°),locationVerticalAccuracy(m),locationHorizontalAccuracy(m),locationFloor(Z),accelerometerTimestamp_sinceReboot(s),accelerometerAccelerationX(G),accelerometerAccelerationY(G),accelerometerAccelerationZ(G),motionTimestamp_sinceReboot(s),motionYaw(rad),motionRoll(rad),motionPitch(rad),motionRotationRateX(rad/s),motionRotationRateY(rad/s),motionRotationRateZ(rad/s),motionUserAccelerationX(G),motionUserAccelerationY(G),motionUserAccelerationZ(G),motionAttitudeReferenceFrame(txt),motionQuaternionX(R),motionQuaternionY(R),motionQuaternionZ(R),motionQuaternionW(R),motionGravityX(G),motionGravityY(G),motionGravityZ(G),motionMagneticFieldX(µT),motionMagneticFieldY(µT),motionMagneticFieldZ(µT),motionHeading(°),motionMagneticFieldCalibrationAccuracy(Z),activityTimestamp_sinceReboot(s),activity(txt),activityActivityConfidence(Z),activityActivityStartDate(txt),pedometerStartDate(txt),pedometerNumberofSteps(N),pedometerAverageActivePace(s/m),pedometerCurrentPace(s/m),pedometerCurrentCadence(steps/s),pedometerDistance(m),pedometerFloorAscended(N),pedometerFloorDescended(N),pedometerEndDate(txt),altimeterTimestamp_sinceReboot(s),altimeterReset(bool),altimeterRelativeAltitude(m),altimeterPressure(kPa),batteryState(N),batteryLevel(R)
580,2022-05-05T12:58:52.585+02:00,1651748331.999614,53.22896740681802,10.39806323921034,37.35279,0.0133253,0.7438746,14.30880234888068,180.0,2.400000095367432,5.999684891258127,-9999,4985.586670875,0.5293121337890625,0.7236480712890625,2.698013305664062,4985.581673875,-2.077655313051739,2.383027239257144,-0.1542446375412181,-4.82025146484375,7.023225784301758,-1.124776601791382,-0.0929375290870666,0.581061601638794,1.764025211334229,XArbitraryZVertical,0.7837125194719671,0.494366150180353,-0.3544430312645694,0.1255661484655339,0.6797142028808594,0.1536337435245514,0.7172064185142517,0,0,0,-1,-1,4983.991526791667,unknown,2,2022-05-05T12:58:50.990+02:00,2022-05-05T12:55:18.700+02:00,58,0.8036995,0,0,39.2015,0,0,2022-05-05T12:57:29.090+02:00,673441130.9893748,0,0.3000002,101.443,1,0.88
581,2022-05-05T12:58:52.595+02:00,1651748331.999614,53.22896740681802,10.39806323921034,37.35279,0.0133253,0.7438746,14.30880234888068,180.0,2.400000095367432,5.999684891258127,-9999,4985.596666875001,0.489166259765625,0.70050048828125,2.9063720703125,4985.591668875,-2.035130399649226,2.460387782014057,-0.1242911294450436,-5.22233247756958,7.272325038909912,-1.264535307884216,-0.0955594182014465,0.5996766090393066,1.927191257476807,XArbitraryZVertical,0.7895047902934241,0.5119503973819853,-0.3144337988004161,0.1253809074483585,0.6248716115951538,0.1239713653922081,0.7708220481872559,0,0,0,-1,-1,4983.991526791667,unknown,2,2022-05-05T12:58:50.990+02:00,2022-05-05T12:55:18.700+02:00,58,0.8036995,0,0,39.2015,0,0,2022-05-05T12:57:29.090+02:00,673441130.9893748,0,0.3000002,101.443,1,0.88
582,2022-05-05T12:58:52.605+02:00,1651748331.999614,53.22896740681802,10.39806323921034,37.35279,0.0133253,0.7438746,14.30880234888068,180.0,2.400000095367432,5.999684891258127,-9999,4985.606662875,0.4109649658203125,0.73516845703125,3.1322021484375,4985.601664875,-1.991763903938838,2.538545943200701,-0.0894156958811524,-5.53251314163208,7.413810729980469,-1.472836136817932,-0.0757223963737487,0.6112038493156433,2.086050748825073,XArbitraryZVertical,0.7933588147892382,0.529851343463281,-0.2721900645016389,0.1255068604460724,0.5648887157440186,0.0892965942621231,0.8203213214874268,0,0,0,-1,-1,4983.991526791667,unknown,2,2022-05-05T12:58:50.990+02:00,2022-05-05T12:55:18.700+02:00,58,0.8036995,0,0,39.2015,0,0,2022-05-05T12:57:29.090+02:00,673441130.9893748,0,0.3000002,101.443,1,0.88
583,2022-05-05T12:58:52.616+02:00,1651748331.999614,53.22896740681802,10.39806323921034,37.35279,0.0133253,0.7438746,14.30880234888068,180.0,2.400000095367432,5.999684891258127,-9999,4985.616657875,0.293060302734375,0.8444366455078125,3.34857177734375,4985.611659875,-1.947475526046348,2.615446536381005,-0.0500537644951404,-5.858043193817139,7.319174289703369,-1.811392903327942,-0.0906104445457458,0.685135543346405,2.26853609085083,XArbitraryZVertical,0.7946318474880749,0.5480813408013099,-0.2285763305890419,0.1261741381378764,0.5015754699707031,0.050032865256071,0.8636658787727356,0,0,0,-1,-1,4983.991526791667,unknown,2,2022-05-05T12:58:50.990+02:00,2022-05-05T12:55:18.700+02:00,58,0.8036995,0,0,39.2015,0,0,2022-05-05T12:57:29.090+02:00,673441130.9893748,0,0.3000002,101.443,1,0.88
584,2022-05-05T12:58:52.625+02:00,1651748331.999614,53.22896740681802,10.39806323921034,37.35279,0.0133253,0.7438746,14.30880234888068,180.0,2.400000095367432,5.999684891258127,-9999,4985.626653875001,0.1207275390625,0.927001953125,3.568252563476562,4985.621655875,-1.900976347878653,2.688227944656485,-0.0062203979628225,-6.23349142074585,6.925918579101562,-2.283455848693848,-0.144923985004425,0.838216245174408,2.449610710144043,XArbitraryZVertical,0.7924726505509083,0.5669811189020644,-0.1846364388013549,0.1281750173548054,0.4379842877388,0.0062203579582273,0.8989610075950623,0,0,0,-1,-1,4983.991526791667,unknown,2,2022-05-05T12:58:50.990+02:00,2022-05-05T12:55:18.700+02:00,58,0.8036995,0,0,39.2015,0,0,2022-05-05T12:57:29.090+02:00,673441130.9893748,0,0.3000002,101.443,1,0.88
585,2022-05-05T12:58:52.635+02:00,1651748331.999614,53.22896740681802,10.39806323921034,37.35279,0.0133253,0.7438746,14.30880234888068,180.0,2.400000095367432,5.999684891258127,-9999,4985.636648875,-0.0583343505859375,0.9755706787109376,3.777206420898438,4985.631650875001,-1.851678301305294,2.753844400295893,0.0410990235278432,-6.412746429443359,6.331358909606934,-2.885324001312256,-0.2570579946041107,0.9680893421173096,2.643271446228027,XArbitraryZVertical,0.7863684162827468,0.5866134804489558,-0.1418072056185532,0.1319098572798527,0.3777856230735779,-0.0410874560475349,0.9249812960624696,0,0,0,-1,-1,4983.991526791667,unknown,2,2022-05-05T12:58:50.990+02:00,2022-05-05T12:55:18.700+02:00,58,0.8036995,0,0,39.2015,0,0,2022-05-05T12:57:29.090+02:00,673441130.9893748,0,0.3000002,101.443,1,0.88
586,2022-05-05T12:58:52.646+02:00,1651748331.999614,53.22896740681802,10.39806323921034,37.35279,0.0133253,0.7438746,14.30880234888068,180.0,2.400000095367432,5.999684891258127,-9999,4985.646644875001,-0.2812957763671875,0.9248504638671876,4.014816284179688,4985.641646875,-1.798349603171136,2.809424841244653,0.0903614034166545,-6.573165893554688,5.466946601867676,-3.654173612594604,-0.3830970227718353,1.06580913066864,2.835725545883179,XArbitraryZVertical,0.7759003905464237,0.6072224412180091,-0.1015661351417395,0.1376368408207395,0.324762761592865,-0.090238481760025,0.9414809942245485,0,0,0,-1,-1,4983.991526791667,unknown,2,2022-05-05T12:58:50.990+02:00,2022-05-05T12:55:18.700+02:00,58,0.8036995,0,0,39.2015,0,0,2022-05-05T12:57:29.090+02:00,673441130.9893748,0,0.3000002,101.443,1,0.88
587,2022-05-05T12:58:52.655+02:00,1651748331.999614,53.22896740681802,10.39806323921034,37.35279,0.0133253,0.7438746,14.30880234888068,180.0,2.400000095367432,5.999684891258127,-9999,4985.656639875,-0.570220947265625,0.81719970703125,4.3016357421875,4985.651641875001,-1.738456102636087,2.851890564716511,0.1413871819389709,-6.763751029968262,4.402846336364746,-4.5703444480896,-0.5641119480133057,1.065767049789429,3.066050052642822,XArbitraryZVertical,0.7605243032183008,0.6292742829800932,-0.0648684618385014,0.1463179403806523,0.2828163206577301,-0.1409165859222412,0.9487666487693788,0,0,0,-1,-1,4983.991526791667,unknown,2,2022-05-05T12:58:50.990+02:00,2022-05-05T12:55:18.700+02:00,58,0.8036995,0,0,39.2015,0,0,2022-05-05T12:57:29.090+02:00,673441130.9893748,0,0.3000002,101.443,1,0.88
588,2022-05-05T12:58:52.665+02:00,1651748331.999614,53.22896740681802,10.39806323921034,37.35279,0.0133253,0.7438746,14.30880234888068,180.0,2.400000095367432,5.999684891258127,-9999,4985.666635875,-0.8196868896484375,0.6664581298828125,4.616165161132812,4985.661637875,-1.670345493741411,2.878119024188165,0.1927214777258043,-6.75621509552002,3.098595857620239,-5.580373764038086,-0.8258352279663086,1.008730292320251,3.354019165039062,XArbitraryZVertical,0.7400593271253444,0.6527791953506416,-0.0329338776887294,0.1584520231710361,0.2556144297122955,-0.1915306895971298,0.9476169943809508,0,0,0,-1,-1,4983.991526791667,unknown,2,2022-05-05T12:58:50.990+02:00,2022-05-05T12:55:18.700+02:00,58,0.8036995,0,0,39.2015,0,0,2022-05-05T12:57:29.090+02:00,673441130.9893748,0,0.3000002,101.443,1,0.88
589,2022-05-05T12:58:52.675+02:00,1651748331.999614,53.22896740681802,10.39806323921034,37.35279,0.0133253,0.7438746,14.30880234888068,180.0,2.400000095367432,5.999684891258127,-9999,4985.676630875,-1.101654052734375,0.2442474365234375,4.834609985351562,4985.671632875,-1.592163208686578,2.884916225040798,0.2413290982615297,-6.512772083282471,1.613041162490845,-6.710503101348877,-1.066197395324707,0.9054515361785888,3.676955461502075,XArbitraryZVertical,0.7143668196193602,0.6777056295272579,-0.0072873800806601,0.1741897928942474,0.2465105354785919,-0.2389934211969376,0.939209759235382,0,0,0,-1,-1,4983.991526791667,unknown,2,2022-05-05T12:58:50.990+02:00,2022-05-05T12:55:18.700+02:00,58,0.8036995,0,0,39.2015,0,0,2022-05-05T12:57:29.090+02:00,673441130.9893748,0,0.3000002,101.443,1,0.88
590,2022-05-05T12:58:52.685+02:00,1651748331.999614,53.22896740681802,10.39806323921034,37.35279,0.0133253,0.7438746,14.30880234888068,180.0,2.400000095367432,5.999684891258127,-9999,4985.686626875,-1.618972778320312,-0.29052734375,5.034194946289062,4985.681628875001,-1.501797562893403,2.868410959779931,0.2811324863074077,-5.640458583831787,-0.3037243187427521,-8.151507377624512,-1.360858798027039,0.5216912627220154,3.909494876861572,XArbitraryZVertical,0.6832213139627791,0.7041066821274234,0.0094829654913756,0.1932681322322965,0.2592048346996307,-0.2774438560009003,0.925115168094635,0,0,0,-1,-1,4983.991526791667,unknown,2,2022-05-05T12:58:50.990+02:00,2022-05-05T12:55:18.700+02:00,58,0.8036995,0,0,39.2015,0,0,2022-05-05T12:57:29.090+02:00,673441130.9893748,0,0.3000002,101.443,1,0.88
591,2022-05-05T12:58:52.695+02:00,1651748331.999614,53.22896740681802,10.39806323921034,37.35279,0.0133253,0.7438746,14.30880234888068,180.0,2.400000095367432,5.999684891258127,-9999,4985.696621875,-2.158157348632812,-0.596221923828125,5.3385009765625,4985.691624875,-1.396722664946484,2.821946889139123,0.3025865501019724,-4.282642841339111,-3.034790515899658,-9.892867088317873,-1.918927192687988,0.0074629187583923,4.127977848052979,XArbitraryZVertical,0.6458887362505759,0.7320766551793884,0.0128078176412265,0.216165429724257,0.2999544739723206,-0.2979902327060699,0.9062169790267944,0,0,0,-1,-1,4983.991526791667,unknown,2,2022-05-05T12:58:50.990+02:00,2022-05-05T12:55:18.700+02:00,58,0.8036995,0,0,39.2015,0,0,2022-05-05T12:57:29.090+02:00,673441130.9893748,0,0.3000002,101.443,1,0.88
592,2022-05-05T12:58:52.705+02:00,1651748331.999614,53.22896740681802,10.39806323921034,37.35279,0.0133253,0.7438746,14.30880234888068,180.0,2.400000095367432,5.999684891258127,-9999,4985.706617875,-2.930801391601562,-0.0341949462890625,5.381851196289062,4985.701619875001,-1.27740212447929,2.738500553320168,0.2989049890569833,-3.126844644546509,-6.705880165100098,-11.7303466796875,-2.533028602600098,-0.3017479777336121,4.459434986114502,XArbitraryZVertical,0.6015059430927393,0.7600812139018762,-0.0008851175653428,0.2458990236530147,0.3748712539672852,-0.2944739162921906,0.8790656924247742,0,0,0,-1,-1,4983.991526791667,unknown,2,2022-05-05T12:58:50.990+02:00,2022-05-05T12:55:18.700+02:00,58,0.8036995,0,0,39.2015,0,0,2022-05-05T12:57:29.090+02:00,673441130.9893748,0,0.3000002,101.443,1,0.88
593,2022-05-05T12:58:52.715+02:00,1651748331.999614,53.22896740681802,10.39806323921034,37.35279,0.0133253,0.7438746,14.30880234888068,180.0,2.400000095367432,5.999684891258127,-9999,4985.716612875,-3.660476684570312,0.8756866455078125,5.169906616210938,4985.711615875,-1.146602009260517,2.610706971990251,0.2679184111732617,-2.69133734703064,-11.6021614074707,-13.47457027435303,-3.419036149978638,0.2305297553539276,4.550257682800293,XArbitraryZVertical,0.5481572695977839,0.7844236401051292,-0.0327436919400896,0.2883246789825037,0.4882347881793976,-0.2647246718406677,0.8315936923027039,0,0,0,-1,-1,4983.991526791667,unknown,2,2022-05-05T12:58:50.990+02:00,2022-05-05T12:55:18.700+02:00,58,0.8036995,0,0,39.2015,0,0,2022-05-05T12:57:29.090+02:00,673441130.9893748,0,0.3000002,101.443,1,0.88
594,2022-05-05T12:58:52.725+02:00,1651748331.999614,53.22896740681802,10.39806323921034,37.35279,0.0133253,0.7438746,14.30880234888068,180.0,2.400000095367432,5.999684891258127,-9999,4985.726608875,-4.068618774414062,1.126083374023438,4.057418823242188,4985.721610875,-1.012181256982073,2.436643829611781,0.2091490187341726,-2.731959342956543,-16.93479537963867,-14.62020206451416,-4.294350624084473,1.083314180374146,4.424859523773193,XArbitraryZVertical,0.4839921076490152,0.7989212572999316,-0.0807496190362989,0.3477873993130204,0.6338738203048706,-0.207627534866333,0.7450470924377441,0,0,0,-1,-1,4983.991526791667,unknown,2,2022-05-05T12:58:50.990+02:00,2022-05-05T12:55:18.700+02:00,58,0.8036995,0,0,39.2015,0,0,2022-05-05T12:57:29.090+02:00,673441130.9893748,0,0.3000002,101.443,1,0.88
595,2022-05-05T12:58:52.735+02:00,1651748331.999614,53.22896740681802,10.39806323921034,37.35279,0.0133253,0.7438746,14.30880234888068,180.0,2.400000095367432,5.999684891258127,-9999,4985.736603875001,-4.735198974609375,1.220687866210938,2.488876342773438,4985.731606875001,-0.8918086428940906,2.221631281545954,0.1140766024520415,-1.132745862007141,-22.0851001739502,-15.63615322113037,-4.859025955200195,1.239912748336792,3.455505847930908,XArbitraryZVertical,0.4086521407182396,0.796216036802513,-0.1450571060631038,0.4219027568154458,0.7904072999954224,-0.1138293445110321,0.6019130945205688,0,0,0,-1,-1,4983.991526791667,unknown,2,2022-05-05T12:58:50.990+02:00,2022-05-05T12:55:18.700+02:00,58,0.8036995,0,0,39.2015,0,0,2022-05-05T12:57:29.090+02:00,673441130.9893748,0,0.3000002,101.443,1,0.88
596,2022-05-05T12:58:52.745+02:00,1651748331.999614,53.22896740681802,10.39806323921034,37.35279,0.0133253,0.7438746,14.30880234888068,180.0,2.400000095367432,5.999684891258127,-9999,4985.746599875,-5.99755859375,2.782135009765625,1.843536376953125,4985.741601875,-0.8212231877276307,1.976908862846305,-0.026351892072274,4.017621040344238,-25.99494552612305,-15.51608943939209,-5.653543472290039,1.194339036941528,2.093972444534302,XArbitraryZVertical,0.3267047898614551,0.7685804688906418,-0.2296063320994135,0.4998289780518148,0.9183445572853088,0.0263488423079252,0.3949039280414581,0,0,0,-1,-1,4983.991526791667,unknown,2,2022-05-05T12:58:50.990+02:00,2022-05-05T12:55:18.700+02:00,58,0.8036995,0,0,39.2015,0,0,2022-05-05T12:57:29.090+02:00,673441130.9893748,0,0.3000002,101.443,1,0.88
597,2022-05-05T12:58:52.755+02:00,1651748331.999614,53.22896740681802,10.39806323921034,37.35279,0.0133253,0.7438746,14.30880234888068,180.0,2.400000095367432,5.999684891258127,-9999,4985.756595875,-8.55426025390625,6.544509887695312,3.397048950195312,4985.751597875001,-0.8599919308823013,1.68956799709477,-0.1751019909959627,11.05683612823486,-30.35564994812012,-11.18162631988525,-6.975330352783203,2.607926368713379,1.726855635643005,XArbitraryZVertical,0.2577849461548013,0.7013467720137289,-0.3351319748469002,0.5738870558580199,0.9777716398239136,0.1742085665464401,0.1166807487607002,0,0,0,-1,-1,4983.991526791667,unknown,2,2022-05-05T12:58:50.990+02:00,2022-05-05T12:55:18.700+02:00,58,0.8036995,0,0,39.2015,0,0,2022-05-05T12:57:29.090+02:00,673441130.9893748,0,0.3000002,101.443,1,0.88
598,2022-05-05T12:58:52.765+02:00,1651748331.999614,53.22896740681802,10.39806323921034,37.35279,0.0133253,0.7438746,14.30880234888068,180.0,2.400000095367432,5.999684891258127,-9999,4985.766590875,-13.43190002441406,5.818191528320312,4.546951293945312,4985.761592875,-0.9948001493083424,1.347770168487536,-0.2614867326122227,13.83189678192139,-31.83591842651367,-8.122418403625488,-9.496341705322266,6.285992622375488,3.610712051391602,XArbitraryZVertical,0.2056799755113004,0.5923378779159787,-0.4411553517166573,0.6420387262790965,0.942081332206726,0.2585170269012451,-0.213663175702095,0,0,0,-1,-1,4983.991526791667,unknown,2,2022-05-05T12:58:50.990+02:00,2022-05-05T12:55:18.700+02:00,58,0.8036995,0,0,39.2015,0,0,2022-05-05T12:57:29.090+02:00,673441130.9893748,0,0.3000002,101.443,1,0.88
599,2022-05-05T12:58:52.775+02:00,1651748331.999614,53.22896740681802,10.39806323921034,37.35279,0.0133253,0.7438746,14.30880234888068,180.0,2.400000095367432,5.999684891258127,-9999,4985.776586875,-16.34600830078125,2.65838623046875,5.972869873046875,4985.771588875,-1.153404702127052,0.977782417355731,-0.2596421883573305,15.39647769927979,-32.68081283569336,-3.09215784072876,-14.23336505889893,5.561456680297852,5.087081909179688,XArbitraryZVertical,0.1581196202825126,0.4526949746573753,-0.5283021969660666,0.700687078178469,0.8014649152755737,0.2567347586154938,-0.5401309132575989,0,0,0,-1,-1,4983.991526791667,unknown,2,2022-05-05T12:58:50.990+02:00,2022-05-05T12:55:18.700+02:00,58,0.8036995,0,0,39.2015,0,0,2022-05-05T12:57:29.090+02:00,673441130.9893748,0,0.3000002,101.443,1,0.88
600,2022-05-05T12:58:52.786+02:00,1651748331.999614,53.22896740681802,10.39806323921034,37.35279,0.0133253,0.7438746,14.30880234888068,180.0,2.400000095367432,5.999684891258127,-9999,4985.786581875001,-20.49954223632812,2.856552124023438,4.278060913085938,4985.781583875,-1.276774214239877,0.6691830421096677,-0.1533894515220315,16.28977584838867,-22.44703102111816,1.640071034431458,-16.95907020568848,2.505597591400146,6.747989654541016,XArbitraryZVertical,0.1369909633276679,0.3060613670712399,-0.581405842560354,0.7413009944945692,0.6130619049072266,0.1527886539697647,-0.7751198410987854,0,0,0,-1,-1,4983.991526791667,unknown,2,2022-05-05T12:58:50.990+02:00,2022-05-05T12:55:18.700+02:00,58,0.8036995,0,0,39.2015,0,0,2022-05-05T12:57:29.090+02:00,673441130.9893748,0,0.3000002,101.443,1,0.88
601,2022-05-05T12:58:52.795+02:00,1651748331.999614,53.22896740681802,10.39806323921034,37.35279,0.0133253,0.7438746,14.30880234888068,180.0,2.400000095367432,5.999684891258127,-9999,4985.796577875,-15.23381042480469,1.865859985351562,0.8144378662109375,4985.791579875,-1.337775928587487,0.4917560564675919,0.0200037079214284,19.88230895996094,-12.7895040512085,6.778013706207275,-20.97162246704102,2.876554489135742,5.159389495849609,XArbitraryZVertical,0.15854362504803,0.1849312640886445,-0.5995234343095571,0.7623883549877615,0.4720801115036011,-0.0200023744255304,-0.8813287019729614,0,0,0,-1,-1,4983.991526791667,unknown,2,2022-05-05T12:58:50.990+02:00,2022-05-05T12:55:18.700+02:00,58,0.8036995,0,0,39.2015,0,0,2022-05-05T12:57:29.090+02:00,673441130.9893748,0,0.3000002,101.443,1,0.88
602,2022-05-05T12:58:52.805+02:00,1651748331.999614,53.22896740681802,10.39806323921034,37.35279,0.0133253,0.7438746,14.30880234888068,180.0,2.400000095367432,5.999684891258127,-9999,4985.806572875001,-12.59272766113281,-1.295455932617188,-0.0694427490234375,4985.801574875,-1.356856602434048,0.4075137157216733,0.2526720637996143,23.64324188232422,-4.717226028442383,9.751812934875488,-15.6175537109375,2.115852117538452,1.703395009040833,XArbitraryZVertical,0.222046065765169,0.0788477702002741,-0.5898393713093466,0.7723782585035301,0.3837436437606812,-0.2499920725822449,-0.888957142829895,0,0,0,-1,-1,4983.991526791667,unknown,2,2022-05-05T12:58:50.990+02:00,2022-05-05T12:55:18.700+02:00,58,0.8036995,0,0,39.2015,0,0,2022-05-05T12:57:29.090+02:00,673441130.9893748,0,0.3000002,101.443,1,0.88
603,2022-05-05T12:58:52.815+02:00,1651748331.999614,53.22896740681802,10.39806323921034,37.35279,0.0133253,0.7438746,14.30880234888068,180.0,2.400000095367432,5.999684891258127,-9999,4985.816568875,-8.6707763671875,-4.570358276367188,-1.410858154296875,4985.811570875,-1.342969057175645,0.3821584082590705,0.5127335603936053,22.84447860717773,0.2908375561237335,12.45851516723633,-12.91769599914551,-0.8048948049545288,0.7391024231910706,XArbitraryZVertical,0.3092008181024289,-0.0110580950005914,-0.5531602289535532,0.7734897437002288,0.324968546628952,-0.4905611276626587,-0.8085451722145081,0,0,0,-1,-1,4983.991526791667,unknown,2,2022-05-05T12:58:50.990+02:00,2022-05-05T12:55:18.700+02:00,58,0.8036995,0,0,39.2015,0,0,2022-05-05T12:57:29.090+02:00,673441130.9893748,0,0.3000002,101.443,1,0.88
604,2022-05-05T12:58:52.825+02:00,1651748331.999614,53.22896740681802,10.39806323921034,37.35279,0.0133253,0.7438746,14.30880234888068,180.0,2.400000095367432,5.999684891258127,-9999,4985.826563875,-5.82244873046875,-6.0721435546875,-2.565139770507812,4985.821566875,-1.279555578663024,0.3577879428748605,0.751120704684509,17.44783782958984,2.311130523681641,13.89716911315918,-8.926748275756836,-3.887899875640869,-0.7262203097343445,XArbitraryZVertical,0.3883862551213893,-0.0826872430305577,-0.4941830819495873,0.7733706559046837,0.2559720575809479,-0.6824583411216736,-0.6846378445625305,0,0,0,-1,-1,4983.991526791667,unknown,2,2022-05-05T12:58:50.990+02:00,2022-05-05T12:55:18.700+02:00,58,0.8036995,0,0,39.2015,0,0,2022-05-05T12:57:29.090+02:00,673441130.9893748,0,0.3000002,101.443,1,0.88
605,2022-05-05T12:58:52.835+02:00,1651748331.999614,53.22896740681802,10.39806323921034,37.35279,0.0133253,0.7438746,14.30880234888068,180.0,2.400000095367432,5.999684891258127,-9999,4985.836559875001,-3.91748046875,-7.713760375976562,-2.561370849609375,4985.831561875,-1.145346984512168,0.2880119277509708,0.9136776600655504,6.974000453948975,3.612146854400635,13.29484844207764,-5.995955467224121,-5.280387878417969,-1.979461789131165,XArbitraryZVertical,0.436688539270532,-0.1283126659023159,-0.4280741553776608,0.7807634163333153,0.1735064834356308,-0.7917555570602417,-0.585677981376648,0,0,0,-1,-1,4983.991526791667,unknown,2,2022-05-05T12:58:50.990+02:00,2022-05-05T12:55:18.700+02:00,58,0.8036995,0,0,39.2015,0,0,2022-05-05T12:57:29.090+02:00,673441130.9893748,0,0.3000002,101.443,1,0.88
606,2022-05-05T12:58:52.845+02:00,1651748331.999614,53.22896740681802,10.39806323921034,37.35279,0.0133253,0.7438746,14.30880234888068,180.0,2.400000095367432,5.999684891258127,-9999,4985.846554875,-1.845794677734375,-6.592025756835938,-2.0340576171875,4985.841557875,-0.9442529414384704,0.1606028053585767,0.9595687353541816,-2.561264038085938,3.053826808929443,11.84370422363281,-4.009250640869141,-6.894816398620605,-1.994882822036743,XArbitraryZVertical,0.4421284644457077,-0.1458711333230721,-0.3691580456990662,0.804342182676915,0.0917699486017227,-0.8189441561698914,-0.5664880871772766,0,0,0,-1,-1,4983.991526791667,unknown,2,2022-05-05T12:58:50.990+02:00,2022-05-05T12:55:18.700+02:00,58,0.8036995,0,0,39.2015,0,0,2022-05-05T12:57:29.090+02:00,673441130.9893748,0,0.3000002,101.443,1,0.88
607,2022-05-05T12:58:52.855+02:00,1651748331.999614,53.22896740681802,10.39806323921034,37.35279,0.0133253,0.7438746,14.30880234888068,180.0,2.400000095367432,5.999684891258127,-9999,4985.856550875001,-0.6670989990234375,-3.806594848632812,-1.676589965820312,4985.851552875,-0.7517942026779995,0.0174261226818442,0.9280349518279856,-4.940263748168945,-0.6142274737358093,10.04177379608154,-1.856239557266235,-5.791582107543945,-1.434740543365479,XArbitraryZVertical,0.4191408155282804,-0.1570428780510535,-0.3246502385753698,0.8332230837992674,0.0104448292404413,-0.8004436492919922,-0.5993170142173767,0,0,0,-1,-1,4983.991526791667,unknown,2,2022-05-05T12:58:50.990+02:00,2022-05-05T12:55:18.700+02:00,58,0.8036995,0,0,39.2015,0,0,2022-05-05T12:57:29.090+02:00,673441130.9893748,0,0.3000002,101.443,1,0.88
608,2022-05-05T12:58:52.865+02:00,1651748331.999614,53.22896740681802,10.39806323921034,37.35279,0.0133253,0.7438746,14.30880234888068,180.0,2.400000095367432,5.999684891258127,-9999,4985.866545875,-1.860763549804688,-2.464065551757812,-1.595596313476562,4985.861548875,-0.6036914640362204,-0.1195481389963898,0.8818862812575556,-3.057000637054443,-3.000490188598633,8.761415481567383,-0.5912836790084839,-3.034655570983887,-1.045430898666382,XArbitraryZVertical,0.3907086731267986,-0.1782335074707426,-0.2927108044066122,0.8543419336600853,-0.0758154168725013,-0.7719393372535706,-0.6311591267585754,0,0,0,-1,-1,4983.991526791667,unknown,2,2022-05-05T12:58:50.990+02:00,2022-05-05T12:55:18.700+02:00,58,0.8036995,0,0,39.2015,0,0,2022-05-05T12:57:29.090+02:00,673441130.9893748,0,0.3000002,101.443,1,0.88
609,2022-05-05T12:58:52.875+02:00,1651748331.999614,53.22896740681802,10.39806323921034,37.35279,0.0133253,0.7438746,14.30880234888068,180.0,2.400000095367432,5.999684891258127,-9999,4985.876541875,-2.9725341796875,-2.585098266601562,-1.6243896484375,4985.871543875,-0.4829151465202101,-0.2364383765627255,0.8505217216913482,-0.467912346124649,-1.623024225234985,7.728370189666748,-1.706259965896606,-1.712440967559814,-0.954356014728546,XArbitraryZVertical,0.3721036393285665,-0.2022837157709564,-0.2635470242107731,0.8666968279178461,-0.1545037031173706,-0.7516246438026428,-0.6412403583526611,0,0,0,-1,-1,4983.991526791667,unknown,2,2022-05-05T12:58:50.990+02:00,2022-05-05T12:55:18.700+02:00,58,0.8036995,0,0,39.2015,0,0,2022-05-05T12:57:29.090+02:00,673441130.9893748,0,0.3000002,101.443,1,0.88
610,2022-05-05T12:58:52.886+02:00,1651748331.999614,53.22896740681802,10.39806323921034,37.35279,0.0133253,0.7438746,14.30880234888068,180.0,2.400000095367432,5.999684891258127,-9999,4985.886537875001,-2.398330688476562,-3.022109985351562,-1.538528442382812,4985.881539875,-0.3781548541231615,-0.3212614552195382,0.8320621566446301,0.5610044598579407,0.0769813358783721,6.743033885955811,-2.759913921356201,-1.845776796340942,-0.985487163066864,XArbitraryZVertical,0.3643238573061586,-0.218670736423046,-0.2331927197748732,0.8746842134130043,-0.2126203328371048,-0.7393215298652649,-0.638902485370636,0,0,0,-1,-1,4983.991526791667,unknown,2,2022-05-05T12:58:50.990+02:00,2022-05-05T12:55:18.700+02:00,58,0.8036995,0,0,39.2015,0,0,2022-05-05T12:57:29.090+02:00,673441130.9893748,0,0.3000002,101.443,1,0.88
611,2022-05-05T12:58:52.895+02:00,1651748331.999614,53.22896740681802,10.39806323921034,37.35279,0.0133253,0.7438746,14.30880234888068,180.0,2.400000095367432,5.999684891258127,-9999,4985.896532875,-1.890457153320312,-2.978500366210938,-1.444107055664062,4985.891534875001,-0.2880263261984915,-0.3847894337197708,0.8148031768821129,0.3472264111042023,0.3699285089969635,5.973729133605957,-2.14082670211792,-2.294519424438477,-0.9026797413825988,XArbitraryZVertical,0.359692558885831,-0.2295580899268567,-0.2043162267839461,0.8810103080655542,-0.2575040459632874,-0.7275905609130859,-0.6358487010002136,0,0,0,-1,-1,4983.991526791667,unknown,2,2022-05-05T12:58:50.990+02:00,2022-05-05T12:55:18.700+02:00,58,0.8036995,0,0,39.2015,0,0,2022-05-05T12:57:29.090+02:00,673441130.9893748,0,0.3000002,101.443,1,0.88
612,2022-05-05T12:58:52.905+02:00,1651748331.999614,53.22896740681802,10.39806323921034,37.35279,0.0133253,0.7438746,14.30880234888068,180.0,2.400000095367432,5.999684891258127,-9999,4985.906528875001,-1.832778930664062,-2.779464721679688,-1.303939819335938,4985.901530875,-0.2127962768977964,-0.4349110959710134,0.7926003768266988,-0.2758359909057617,0.4587749540805817,5.398360729217529,-1.594685554504395,-2.266319274902344,-0.8074617981910706,XArbitraryZVertical,0.3536499255030833,-0.2379267193875986,-0.1784682048229384,0.8868323976673519,-0.2957717180252075,-0.7121811509132385,-0.6366451978683472,0,0,0,-1,-1,4983.991526791667,unknown,2,2022-05-05T12:58:50.990+02:00,2022-05-05T12:55:18.700+02:00,58,0.8036995,0,0,39.2015,0,0,2022-05-05T12:57:29.090+02:00,673441130.9893748,0,0.3000002,101.443,1,0.88
613,2022-05-05T12:58:52.915+02:00,1651748331.999614,53.22896740681802,10.39806323921034,37.35279,0.0133253,0.7438746,14.30880234888068,180.0,2.400000095367432,5.999684891258127,-9999,4985.916523875,-1.81195068359375,-2.362747192382812,-1.168487548828125,4985.911525875001,-0.1507505325212514,-0.4734740364235518,0.7650926286949907,-0.7342110276222229,0.5612920522689819,4.975332736968994,-1.50387167930603,-2.08686089515686,-0.6619740724563599,XArbitraryZVertical,0.3454575428233486,-0.244287185353713,-0.155210603396078,0.892688416030165,-0.3289073407649994,-0.6926038265228271,-0.6419656872749329,0,0,0,-1,-1,4983.991526791667,unknown,2,2022-05-05T12:58:50.990+02:00,2022-05-05T12:55:18.700+02:00,58,0.8036995,0,0,39.2015,0,0,2022-05-05T12:57:29.090+02:00,673441130.9893748,0,0.3000002,101.443,1,0.88
614,2022-05-05T12:58:52.925+02:00,1651748331.999614,53.22896740681802,10.39806323921034,37.35279,0.0133253,0.7438746,14.30880234888068,180.0,2.400000095367432,5.999684891258127,-9999,4985.926519875,-1.71502685546875,-2.011306762695312,-1.026947021484375,4985.921521875001,-0.097296827739221,-0.5039264805924762,0.7355521448589484,-0.7766502499580383,0.6290393471717834,4.726462841033936,-1.453923463821411,-1.691750526428223,-0.519195556640625,XArbitraryZVertical,0.3364637434950856,-0.2492913160832208,-0.1334741257157797,0.8982375994372376,-0.3580272495746613,-0.6709966659545898,-0.6492919921875,0,0,0,-1,-1,4983.991526791667,unknown,2,2022-05-05T12:58:50.990+02:00,2022-05-05T12:55:18.700+02:00,58,0.8036995,0,0,39.2015,0,0,2022-05-05T12:57:29.090+02:00,673441130.9893748,0,0.3000002,101.443,1,0.88
615,2022-05-05T12:58:52.935+02:00,1651748331.999614,53.22896740681802,10.39806323921034,37.35279,0.0133253,0.7438746,14.30880234888068,180.0,2.400000095367432,5.999684891258127,-9999,4985.936514875,-1.612594604492188,-1.7899169921875,-0.8298797607421875,4985.931516875,-0.0488484539054479,-0.5298071415167104,0.7061001319305649,-0.7750787138938904,0.5876474380493164,4.517755031585693,-1.330494165420532,-1.362435460090637,-0.3703644871711731,XArbitraryZVertical,0.3276012263917134,-0.2537443114412524,-0.1126150898732757,0.9031108339255708,-0.3845327794551849,-0.6488713026046753,-0.6565825343132019,0,0,0,-1,-1,4983.991526791667,unknown,2,2022-05-05T12:58:50.990+02:00,2022-05-05T12:55:18.700+02:00,58,0.8036995,0,0,39.2015,0,0,2022-05-05T12:57:29.090+02:00,673441130.9893748,0,0.3000002,101.443,1,0.88
616,2022-05-05T12:58:52.945+02:00,1651748331.999614,53.22896740681802,10.39806323921034,37.35279,0.0133253,0.7438746,14.30880234888068,180.0,2.400000095367432,5.999684891258127,-9999,4985.946510875,-1.582916259765625,-1.562713623046875,-0.7571868896484375,4985.941512875001,-0.0055305467455191,-0.5510982017203159,0.6764626887772233,-0.8524944186210632,0.7011379599571228,4.241791248321533,-1.204277515411377,-1.163878440856934,-0.1655358672142029,XArbitraryZVertical,0.3185906308049373,-0.2575423583342072,-0.0927896539830062,0.9075032198104296,-0.4083172082901001,-0.6260385513305664,-0.6643438935279846,0,0,0,-1,-1,4983.991526791667,unknown,2,2022-05-05T12:58:50.990+02:00,2022-05-05T12:55:18.700+02:00,58,0.8036995,0,0,39.2015,0,0,2022-05-05T12:57:29.090+02:00,673441130.9893748,0,0.3000002,101.443,1,0.88
617,2022-05-05T12:58:52.955+02:00,1651748331.999614,53.22896740681802,10.39806323921034,37.35279,0.0133253,0.7438746,14.30880234888068,180.0,2.400000095367432,5.999684891258127,-9999,4985.956505875,-1.50201416015625,-1.285858154296875,-0.6714630126953125,4985.951508875,0.033053306365722,-0.567347408406951,0.6482299143390224,-0.6547733545303345,0.7741109728813171,3.916500329971313,-1.154528260231018,-0.9589372873306274,-0.0849235653877258,XArbitraryZVertical,0.3100846071115037,-0.2602227329025741,-0.0740832091033717,0.9113965005621713,-0.4283880591392517,-0.6037763357162476,-0.6722633242607117,0,0,0,-1,-1,4983.991526791667,unknown,2,2022-05-05T12:58:50.990+02:00,2022-05-05T12:55:18.700+02:00,58,0.8036995,0,0,39.2015,0,0,2022-05-05T12:57:29.090+02:00,673441130.9893748,0,0.3000002,101.443,1,0.88
618,2022-05-05T12:58:52.965+02:00,1651748331.999614,53.22896740681802,10.39806323921034,37.35279,0.0133253,0.7438746,14.30880234888068,180.0,2.400000095367432,5.999684891258127,-9999,4985.966501875,-1.401153564453125,-1.111892700195312,-0.63189697265625,4985.961503875001,0.0697066748144299,-0.581503046870671,0.6245052803685015,-0.0926068723201751,0.740064799785614,3.614874839782715,-1.056409001350403,-0.7011621594429016,0.0064504146575927,XArbitraryZVertical,0.3036370854120513,-0.262388681419071,-0.0562437049704824,0.9142173428133326,-0.4456052184104919,-0.5846959948539734,-0.6779134273529053,0,0,0,-1,-1,4983.991526791667,unknown,2,2022-05-05T12:58:50.990+02:00,2022-05-05T12:55:18.700+02:00,58,0.8036995,0,0,39.2015,0,0,2022-05-05T12:57:29.090+02:00,673441130.9893748,0,0.3000002,101.443,1,0.88
619,2022-05-05T12:58:52.975+02:00,1651748331.999614,53.22896740681802,10.39806323921034,37.35279,0.0133253,0.7438746,14.30880234888068,180.0,2.400000095367432,5.999684891258127,-9999,4985.9764965,-1.309722900390625,-1.088455200195312,-0.6279296875,4985.9714995,0.106464809579452,-0.5954777908230393,0.6071259700149513,0.5218014121055603,0.707721471786499,3.31170916557312,-0.9404878616333008,-0.5413832664489746,0.0480339527130127,XArbitraryZVertical,0.3002606406539683,-0.2643446073637665,-0.039026856016441,0.9156650124870656,-0.460665762424469,-0.5705094337463379,-0.6799309253692627,0,0,0,-1,-1,4983.991526791667,unknown,2,2022-05-05T12:58:50.990+02:00,2022-05-05T12:55:18.700+02:00,58,0.8036995,0,0,39.2015,0,0,2022-05-05T12:57:29.090+02:00,673441130.9893748,0,0.3000002,101.443,1,0.88
620,2022-05-05T12:58:52.986+02:00,1651748331.999614,53.22896740681802,10.39806323921034,37.35279,0.0133253,0.7438746,14.30880234888068,180.0,2.400000095367432,5.999684891258127,-9999,4985.9864925,-1.200454711914062,-1.101119995117188,-0.648162841796875,4985.981494500001,0.1432227269053004,-0.6094778781717877,0.5952580695602722,0.9309918880462646,0.6505042314529419,3.03827428817749,-0.8357409238815308,-0.5277327299118042,0.0509896278381347,XArbitraryZVertical,0.2995500497423588,-0.2661016935349881,-0.0225109855050297,0.9159438188882036,-0.4739820659160614,-0.5607224702835083,-0.6789193153381348,0,0,0,-1,-1,4983.991526791667,unknown,2,2022-05-05T12:58:50.990+02:00,2022-05-05T12:55:18.700+02:00,58,0.8036995,0,0,39.2015,0,0,2022-05-05T12:57:29.090+02:00,673441130.9893748,0,0.3000002,101.443,1,0.88
621,2022-05-05T12:58:52.995+02:00,1651748331.999614,53.22896740681802,10.39806323921034,37.35279,0.0133253,0.7438746,14.30880234888068,180.0,2.400000095367432,5.999684891258127,-9999,4985.996487500001,-1.08843994140625,-1.144622802734375,-0.667327880859375,4985.991490500001,0.1788723496802816,-0.6231383646084176,0.586821583517759,1.075695514678955,0.5908390283584595,2.771238327026367,-0.7144994139671326,-0.5474028587341309,0.0280359387397766,XArbitraryZVertical,0.300403998352435,-0.2676901876558465,-0.0069231034563505,0.9154516098817252,-0.4859553575515747,-0.5537171363830566,-0.6761987805366516,0,0,0,-1,-1,4983.991526791667,unknown,2,2022-05-05T12:58:50.990+02:00,2022-05-05T12:55:18.700+02:00,58,0.8036995,0,0,39.2015,0,0,2022-05-05T12:57:29.090+02:00,673441130.9893748,0,0.3000002,101.443,1,0.88
622,2022-05-05T12:58:53.005+02:00,1651748331.999614,53.22896740681802,10.39806323921034,37.35279,0.0133253,0.7438746,14.30880234888068,180.0,2.400000095367432,5.999684891258127,-9999,4986.0064835,-0.99322509765625,-1.18682861328125,-0.6563873291015625,4986.0014855,0.2116479549996124,-0.6357484117691835,0.5796219812198271,0.9570088982582092,0.4945451617240906,2.504013299942017,-0.5916423201560974,-0.596915066242218,0.0058796405792236,XArbitraryZVertical,0.3015726054503911,-0.2691657224715303,0.0073332009469329,0.91463113980619,-0.4967976808547974,-0.5477076768875122,-0.6732075810432434,0,0,0,-1,-1,4983.991526791667,unknown,2,2022-05-05T12:58:50.990+02:00,2022-05-05T12:55:18.700+02:00,58,0.8036995,0,0,39.2015,0,0,2022-05-05T12:57:29.090+02:00,673441130.9893748,0,0.3000002,101.443,1,0.88
623,2022-05-05T12:58:53.015+02:00,1651748331.999614,53.22896740681802,10.39806323921034,37.35279,0.0133253,0.7438746,14.30880234888068,180.0,2.400000095367432,5.999684891258127,-9999,4986.016478500001,-0.9385528564453124,-1.197601318359375,-0.627349853515625,4986.011481500001,0.2404958289785992,-0.6469892997509519,0.5720063097401451,0.7089804410934448,0.4072528779506683,2.292271614074707,-0.4863919019699097,-0.6455085277557373,0.0145021677017211,XArbitraryZVertical,0.3021385634660028,-0.2706797832688033,0.0200828439095795,0.9138060845036708,-0.5068332552909851,-0.5413200855255127,-0.6708894968032837,0,0,0,-1,-1,4983.991526791667,unknown,2,2022-05-05T12:58:50.990+02:00,2022-05-05T12:55:18.700+02:00,58,0.8036995,0,0,39.2015,0,0,2022-05-05T12:57:29.090+02:00,673441130.9893748,0,0.3000002,101.443,1,0.88
624,2022-05-05T12:58:53.025+02:00,1651748331.999614,53.22896740681802,10.39806323921034,37.35279,0.0133253,0.7438746,14.30880234888068,180.0,2.400000095367432,5.999684891258127,-9999,4986.0264745,-0.87677001953125,-1.160903930664062,-0.5701904296875,4986.0214765,0.2652475808658182,-0.6566969129772727,0.563013101442205,0.3844729959964752,0.3073474168777466,2.124265432357788,-0.4222795963287354,-0.6638646125793457,0.0424166321754455,XArbitraryZVertical,0.3016174316122833,-0.2722933981978494,0.0314445458700153,0.9131782104738978,-0.5162732601165771,-0.5337366461753845,-0.6697664856910706,0,0,0,-1,-1,4983.991526791667,unknown,2,2022-05-05T12:58:50.990+02:00,2022-05-05T12:55:18.700+02:00,58,0.8036995,0,0,39.2015,0,0,2022-05-05T12:57:29.090+02:00,673441130.9893748,0,0.3000002,101.443,1,0.88
625,2022-05-05T12:58:53.035+02:00,1651748331.999614,53.22896740681802,10.39806323921034,37.35279,0.0133253,0.7438746,14.30880234888068,180.0,2.400000095367432,5.999684891258127,-9999,4986.0364705,-0.8517913818359375,-1.038528442382812,-0.5382843017578125,4986.031472500001,0.2857444846679553,-0.6648967948271169,0.5523000904353657,0.0732647851109504,0.24086694419384,1.936599969863892,-0.3515244126319885,-0.6362571716308594,0.0997818112373352,XArbitraryZVertical,0.2998072969769263,-0.2740975544399525,0.0414149853793099,0.9128367221601424,-0.5252456665039062,-0.5246466994285583,-0.6699722409248352,0,0,0,-1,-1,4983.991526791667,unknown,2,2022-05-05T12:58:50.990+02:00,2022-05-05T12:55:18.700+02:00,58,0.8036995,0,0,39.2015,0,0,2022-05-05T12:57:29.090+02:00,673441130.9893748,0,0.3000002,101.443,1,0.88
626,2022-05-05T12:58:53.045+02:00,1651748331.999614,53.22896740681802,10.39806323921034,37.35279,0.0133253,0.7438746,14.30880234888068,180.0,2.400000095367432,5.999684891258127,-9999,4986.046465500001,-0.8174896240234375,-0.8984375,-0.47576904296875,4986.0414675,0.302460860521683,-0.671156814040671,0.5409776850105121,-0.055330142378807,0.245711088180542,1.711734414100647,-0.3187018036842346,-0.5235540866851807,0.1329958438873291,XArbitraryZVertical,0.2972273123869114,-0.2757097268293221,0.0500893548444023,0.912760262579316,-0.5330896377563477,-0.5149742960929871,-0.6712801456451416,0,0,0,-1,-1,4983.991526791667,unknown,2,2022-05-05T12:58:50.990+02:00,2022-05-05T12:55:18.700+02:00,58,0.8036995,0,0,39.2015,0,0,2022-05-05T12:57:29.090+02:00,673441130.9893748,0,0.3000002,101.443,1,0.88
627,2022-05-05T12:58:53.055+02:00,1651748331.999614,53.22896740681802,10.39806323921034,37.35279,0.0133253,0.7438746,14.30880234888068,180.0,2.400000095367432,5.999684891258127,-9999,4986.0564615,-0.75457763671875,-0.804351806640625,-0.455780029296875,4986.0514635,0.3166922175620401,-0.6761536073572775,0.5306890131704673,-0.0060936207883059,0.2014206051826477,1.486250996589661,-0.277765154838562,-0.3923097848892212,0.1969361901283264,XArbitraryZVertical,0.2947718405149672,-0.2770504171124604,0.0576626562460013,0.9127035872630276,-0.5397244691848755,-0.5061277151107788,-0.6727052330970764,0,0,0,-1,-1,4983.991526791667,unknown,2,2022-05-05T12:58:50.990+02:00,2022-05-05T12:55:18.700+02:00,58,0.8036995,0,0,39.2015,0,0,2022-05-05T12:57:29.090+02:00,673441130.9893748,0,0.3000002,101.443,1,0.88
628,2022-05-05T12:58:53.065+02:00,1651748331.999614,53.22896740681802,10.39806323921034,37.35279,0.0133253,0.7438746,14.30880234888068,180.0,2.400000095367432,5.999684891258127,-9999,4986.066456500001,-0.7539215087890625,-0.73199462890625,-0.5066070556640625,4986.0614585,0.3296408694164892,-0.681011164384779,0.5227384723609706,0.1887405067682266,0.1322104930877686,1.255742073059082,-0.2090756893157959,-0.3050969839096069,0.2174006700515747,XArbitraryZVertical,0.2932007968536274,-0.2782856857063113,0.0642745719675525,0.9123920586359364,-0.5455020070075989,-0.4992547631263733,-0.6731807589530945,0,0,0,-1,-1,4983.991526791667,unknown,2,2022-05-05T12:58:50.990+02:00,2022-05-05T12:55:18.700+02:00,58,0.8036995,0,0,39.2015,0,0,2022-05-05T12:57:29.090+02:00,673441130.9893748,0,0.3000002,101.443,1,0.88
629,2022-05-05T12:58:53.075+02:00,1651748331.999614,53.22896740681802,10.39806323921034,37.35279,0.0133253,0.7438746,14.30880234888068,180.0,2.400000095367432,5.999684891258127,-9999,4986.0764525,-0.7436065673828125,-0.705657958984375,-0.5290374755859375,4986.0714545,0.3420095967659825,-0.6859432304446885,0.5178324286160183,0.395510733127594,0.1124455854296684,1.03190279006958,-0.2035611867904663,-0.2369966804981232,0.1657623648643494,XArbitraryZVertical,0.2929239592671495,-0.2793042253972705,0.070075040911512,0.9117424593976956,-0.550360381603241,-0.4949979186058044,-0.6723694205284119,0,0,0,-1,-1,4983.991526791667,unknown,2,2022-05-05T12:58:50.990+02:00,2022-05-05T12:55:18.700+02:00,58,0.8036995,0,0,39.2015,0,0,2022-05-05T12:57:29.090+02:00,673441130.9893748,0,0.3000002,101.443,1,0.88
630,2022-05-05T12:58:53.089+02:00,1651748331.999614,53.22896740681802,10.39806323921034,37.35279,0.0133253,0.7438746,14.30880234888068,180.0,2.400000095367432,5.999684891258127,-9999,4986.0864475,-0.6931915283203125,-0.7060699462890625,-0.5338287353515625,4986.0814495,0.3535504207559955,-0.6906281087320045,0.5156004927044896,0.5287288427352905,0.0942218378186225,0.7993737459182739,-0.1893999576568604,-0.2126005589962006,0.1415961384773254,XArbitraryZVertical,0.2937240089093117,-0.2800167989788645,0.0750515382630224,0.9108699517379084,-0.5542066693305969,-0.4930573701858521,-0.6706336140632629,0,0,0,-1,-1,4983.991526791667,unknown,2,2022-05-05T12:58:50.990+02:00,2022-05-05T12:55:18.700+02:00,58,0.8036995,0,0,39.2015,0,0,2022-05-05T12:57:29.090+02:00,673441130.9893748,0,0.3000002,101.443,1,0.88
631,2022-05-05T12:58:53.106+02:00,1651748332.999616,53.22896739058175,10.39806247590043,37.30877,0.007490893,0.4294117,14.29176871086431,180.0,2.400000095367432,5.999684891258127,-9999,4986.096443500001,-0.652923583984375,-0.6826934814453125,-0.5347137451171875,4986.0914455,0.3637561442171158,-0.6948727665971663,0.5158160543418507,0.6376444101333618,0.0610982440412044,0.5452216267585754,-0.1362113952636719,-0.2128249704837799,0.1343647837638855,XArbitraryZVertical,0.2954122472127065,-0.2804191038994277,0.0790324215218944,0.9098629082375108,-0.5569801926612854,-0.4932448863983154,-0.6681934595108032,0,0,0,-1,-1,4983.991526791667,unknown,2,2022-05-05T12:58:50.990+02:00,2022-05-05T12:55:18.700+02:00,58,0.8036995,0,0,39.2015,0,0,2022-05-05T12:57:29.090+02:00,673441130.9893748,0,0.3000002,101.443,1,0.88
632,2022-05-05T12:58:53.109+02:00,1651748332.999616,53.22896739058175,10.39806247590043,37.30877,0.007490893,0.4294117,14.29176871086431,180.0,2.400000095367432,5.999684891258127,-9999,4986.1064385,-0.648590087890625,-0.7213134765625,-0.53472900390625,4986.1014415,0.3724381805977927,-0.698694804762139,0.5182198126852657,0.6883763074874878,0.0393255688250064,0.3128298819065094,-0.0941578149795532,-0.1873589754104614,0.1304363608360291,XArbitraryZVertical,0.2978381858926682,-0.2805661684477482,0.0819701066063218,0.9087661921098248,-0.5587657690048218,-0.4953344762325287,-0.6651501059532166,0,0,0,-1,-1,4983.991526791667,unknown,2,2022-05-05T12:58:50.990+02:00,2022-05-05T12:55:18.700+02:00,58,0.8036995,0,0,39.2015,0,0,2022-05-05T12:57:29.090+02:00,673441130.9893748,0,0.3000002,101.443,1,0.88
633,2022-05-05T12:58:53.115+02:00,1651748332.999616,53.22896739058175,10.39806247590043,37.30877,0.007490893,0.4294117,14.29176871086431,180.0,2.400000095367432,5.999684891258127,-9999,4986.116434500001,-0.6427764892578125,-0.74920654296875,-0.53460693359375,4986.1114365,0.3793190467626349,-0.7017393462108713,0.5220186434235413,0.655780017375946,0.0304822772741317,0.113527424633503,-0.0890206694602966,-0.2226825058460236,0.1272749900817871,XArbitraryZVertical,0.3005920494383744,-0.2804326200838111,0.0839351470252001,0.9077206951662186,-0.5595694780349731,-0.4986309409141541,-0.6620039343833923,0,0,0,-1,-1,4983.991526791667,unknown,2,2022-05-05T12:58:50.990+02:00,2022-05-05T12:55:18.700+02:00,58,0.8036995,0,0,39.2015,0,0,2022-05-05T12:57:29.090+02:00,673441130.9893748,0,0.3000002,101.443,1,0.88
634,2022-05-05T12:58:53.125+02:00,1651748332.999616,53.22896739058175,10.39806247590043,37.30877,0.007490893,0.4294117,14.29176871086431,180.0,2.400000095367432,5.999684891258127,-9999,4986.1264295,-0.6187744140625,-0.7163238525390625,-0.5314483642578125,4986.1214325,0.3842737752119678,-0.7040549314611023,0.5265374622309187,0.586222231388092,0.0084504764527082,-0.0407087504863739,-0.0831398963928222,-0.2466636300086975,0.1243753433227539,XArbitraryZVertical,0.3033575823823793,-0.2801482725359832,0.0849912215425662,0.9067897662512288,-0.559636652469635,-0.5025427937507629,-0.6589822173118591,0,0,0,-1,-1,4983.991526791667,unknown,2,2022-05-05T12:58:50.990+02:00,2022-05-05T12:55:18.700+02:00,58,0.8036995,0,0,39.2015,0,0,2022-05-05T12:57:29.090+02:00,673441130.9893748,0,0.3000002,101.443,1,0.88
635,2022-05-05T12:58:53.135+02:00,1651748332.999616,53.22896739058175,10.39806247590043,37.30877,0.007490893,0.4294117,14.29176871086431,180.0,2.400000095367432,5.999684891258127,-9999,4986.1364255,-0.600677490234375,-0.7097930908203125,-0.5274810791015625,4986.1314275,0.3874044373170603,-0.7056217983585077,0.5313824715620232,0.5046898126602173,-0.0096544912084937,-0.1710715442895889,-0.0596915483474731,-0.209598183631897,0.1247950792312622,XArbitraryZVertical,0.3059744297262904,-0.2797461938510193,0.0852652733924538,0.90600860971161,-0.5590829253196716,-0.5067256689071655,-0.6562434434890747,0,0,0,-1,-1,4983.991526791667,unknown,2,2022-05-05T12:58:50.990+02:00,2022-05-05T12:55:18.700+02:00,58,0.8036995,0,0,39.2015,0,0,2022-05-05T12:57:29.090+02:00,673441130.9893748,0,0.3000002,101.443,1,0.88
636,2022-05-05T12:58:53.145+02:00,1651748332.999616,53.22896739058175,10.39806247590043,37.30877,0.007490893,0.4294117,14.29176871086431,180.0,2.400000095367432,5.999684891258127,-9999,4986.1464205,-0.5980987548828125,-0.66729736328125,-0.5401153564453125,4986.1414235,0.3888814124537393,-0.7066908106885219,0.5363090870190286,0.4086622893810272,-0.0562274530529975,-0.2681628167629242,-0.0425211787223815,-0.1988262534141541,0.1262578368186951,XArbitraryZVertical,0.3083706660593611,-0.2793530232623496,0.0848461508762464,0.9053565849782248,-0.5581563115119934,-0.5109667778015137,-0.6537388563156128,0,0,0,-1,-1,4983.991526791667,unknown,2,2022-05-05T12:58:50.990+02:00,2022-05-05T12:55:18.700+02:00,58,0.8036995,0,0,39.2015,0,0,2022-05-05T12:57:29.090+02:00,673441130.9893748,0,0.3000002,101.443,1,0.88
637,2022-05-05T12:58:53.155+02:00,1651748332.999616,53.22896739058175,10.39806247590043,37.30877,0.007490893,0.4294117,14.29176871086431,180.0,2.400000095367432,5.999684891258127,-9999,4986.1564165,-0.6135711669921875,-0.631683349609375,-0.54833984375,4986.151418500001,0.3887914108644729,-0.7073426908967577,0.5410288004532848,0.3008221089839935,-0.0836662650108337,-0.3520515859127045,-0.0410897731781005,-0.1522791981697083,0.1114192008972168,XArbitraryZVertical,0.3104374697836904,-0.2790363546100995,0.0838180997442758,0.9048436145393528,-0.5570091009140015,-0.515018105506897,-0.6515345573425293,0,0,0,-1,-1,4983.991526791667,unknown,2,2022-05-05T12:58:50.990+02:00,2022-05-05T12:55:18.700+02:00,58,0.8036995,0,0,39.2015,0,0,2022-05-05T12:57:29.090+02:00,673441130.9893748,0,0.3000002,101.443,1,0.88
638,2022-05-05T12:58:53.165+02:00,1651748332.999616,53.22896739058175,10.39806247590043,37.30877,0.007490893,0.4294117,14.29176871086431,180.0,2.400000095367432,5.999684891258127,-9999,4986.1664115,-0.6005859375,-0.56268310546875,-0.554718017578125,4986.1614145,0.3874050864787655,-0.7076484311679391,0.5455335003868448,0.2323638796806335,-0.1207117736339569,-0.4105413854122162,-0.057876706123352,-0.1128090620040894,0.1012548804283142,XArbitraryZVertical,0.3122136997528034,-0.278792537326198,0.0822965794662776,0.9044471339647095,-0.5556944608688354,-0.5188742280006409,-0.6495946645736694,0,0,0,-1,-1,4983.991526791667,unknown,2,2022-05-05T12:58:50.990+02:00,2022-05-05T12:55:18.700+02:00,58,0.8036995,0,0,39.2015,0,0,2022-05-05T12:57:29.090+02:00,673441130.9893748,0,0.3000002,101.443,1,0.88
639,2022-05-05T12:58:53.175+02:00,1651748332.999616,53.22896739058175,10.39806247590043,37.30877,0.007490893,0.4294117,14.29176871086431,180.0,2.400000095367432,5.999684891258127,-9999,4986.1764075,-0.6195831298828125,-0.5389251708984375,-0.5825042724609375,4986.171409500001,0.3852473695830004,-0.7079914803682276,0.549877585366805,0.205014556646347,-0.1766453385353088,-0.4403813183307648,-0.0461397171020507,-0.0401002168655395,0.0929675102233886,XArbitraryZVertical,0.3138128512491253,-0.2787090014005649,0.0804503169514664,0.9040855342270252,-0.5544462203979492,-0.5225828886032104,-0.6476855874061584,0,0,0,-1,-1,4983.991526791667,unknown,2,2022-05-05T12:58:50.990+02:00,2022-05-05T12:55:18.700+02:00,58,0.8036995,0,0,39.2015,0,0,2022-05-05T12:57:29.090+02:00,673441130.9893748,0,0.3000002,101.443,1,0.88
