,loggingTime(txt),locationTimestamp_since1970(s),locationLatitude(WGS84),locationLongitude(WGS84),locationAltitude(m),locationSpeed(m/s),locationSpeedAccuracy(m/s),locationCourse(°),locationCourseAccuracy(°),locationVerticalAccuracy(m),locationHorizontalAccuracy(m),locationFloor(Z),accelerometerTimestamp_sinceReboot(s),accelerometerAccelerationX(G),accelerometerAccelerationY(G),accelerometerAccelerationZ(G),motionTimestamp_sinceReboot(s),motionYaw(rad),motionRoll(rad),motionPitch(rad),motionRotationRateX(rad/s),motionRotationRateY(rad/s),motionRotationRateZ(rad/s),motionUserAccelerationX(G),motionUserAccelerationY(G),motionUserAccelerationZ(G),motionAttitudeReferenceFrame(txt),motionQuaternionX(R),motionQuaternionY(R),motionQuaternionZ(R),motionQuaternionW(R),motionGravityX(G),motionGravityY(G),motionGravityZ(G),motionMagneticFieldX(µT),motionMagneticFieldY(µT),motionMagneticFieldZ(µT),motionHeading(°),motionMagneticFieldCalibrationAccuracy(Z),activityTimestamp_sinceReboot(s),activity(txt),activityActivityConfidence(Z),activityActivityStartDate(txt),pedometerStartDate(txt),pedometerNumberofSteps(N),pedometerAverageActivePace(s/m),pedometerCurrentPace(s/m),pedometerCurrentCadence(steps/s),pedometerDistance(m),pedometerFloorAscended(N),pedometerFloorDescended(N),pedometerEndDate(txt),altimeterTimestamp_sinceReboot(s),altimeterReset(bool),altimeterRelativeAltitude(m),altimeterPressure(kPa),batteryState(N),batteryLevel(R)
407,2022-06-02T10:39:20.931+02:00,1654159150.781398,53.22899670524735,10.39847340447524,42.83807,-1,-1,-1,-1,48.92399978637695,32.01386601977254,-1,2305.208246291667,-0.6942901611328125,-0.194244384765625,0.0019989013671875,2305.198252291667,2.827738941538018,-0.9822076680813906,0.5866111381338421,-3.651816844940186,-4.846198081970215,4.256465435028076,0.1620386838912964,0.4055927991867065,0.4101107716560364,XArbitraryZVertical,0.4857559443711732,0.1812597778691755,0.812471740563507,0.2665999242577588,-0.6926782727241516,-0.553541898727417,-0.4623721241950989,0,0,0,-1,-1,2300.3556565,walking,2,2022-06-02T10:39:16.077+02:00,2022-06-02T10:17:13.754+02:00,421,1.066923,0,0,325.4592,0,0,2022-06-02T10:38:45.407+02:00,675851958.6329484,0,6.820312,101.2997,1,0.84
408,2022-06-02T10:39:20.941+02:00,1654159150.781398,53.22899670524735,10.39847340447524,42.83807,-1,-1,-1,-1,48.92399978637695,32.01386601977254,-1,2305.218241291667,-0.9944610595703124,-0.208770751953125,0.1173095703125,2305.208246291667,2.815440794793692,-1.030792104447517,0.5271903895078444,-4.399508476257324,-6.243765830993652,4.649624347686768,0.1322417855262756,0.3422949910163879,0.4462542831897736,XArbitraryZVertical,0.5063485933941708,0.1464419256397101,0.8080488480506782,0.2631020823567753,-0.7412504553794861,-0.5031071901321411,-0.4443317353725433,0,0,0,-1,-1,2300.3556565,walking,2,2022-06-02T10:39:16.077+02:00,2022-06-02T10:17:13.754+02:00,421,1.066923,0,0,325.4592,0,0,2022-06-02T10:38:45.407+02:00,675851958.6329484,0,6.820312,101.2997,1,0.84
409,2022-06-02T10:39:20.951+02:00,1654159150.781398,53.22899670524735,10.39847340447524,42.83807,-1,-1,-1,-1,48.92399978637695,32.01386601977254,-1,2305.228236291667,-1.347000122070312,-0.11773681640625,0.2543487548828125,2305.218241291667,2.795983857639383,-1.091408046432515,0.4622237718918126,-4.885538101196289,-7.782501697540283,5.008864879608154,-0.0321706533432006,0.227037101984024,0.4606720209121704,XArbitraryZVertical,0.5313614757367595,0.1060053133151519,0.7992018452033776,0.2601810185756173,-0.794169008731842,-0.4459396302700043,-0.4128357172012329,0,0,0,-1,-1,2300.3556565,walking,2,2022-06-02T10:39:16.077+02:00,2022-06-02T10:17:13.754+02:00,421,1.066923,0,0,325.4592,0,0,2022-06-02T10:38:45.407+02:00,675851958.6329484,0,6.820312,101.2997,1,0.84
410,2022-06-02T10:39:20.961+02:00,1654159150.781398,53.22899670524735,10.39847340447524,42.83807,-1,-1,-1,-1,48.92399978637695,32.01386601977254,-1,2305.238231291667,-1.60284423828125,0.02978515625,0.452728271484375,2305.228236291667,2.768790703956643,-1.164872365687037,0.3933864717921345,-5.457460403442383,-9.265137672424316,5.258450508117676,-0.3254956603050232,0.2158685326576233,0.5461485385894775,XArbitraryZVertical,0.5603552291604101,0.0604057517754529,0.7849132110914654,0.2574187295321688,-0.8485612869262695,-0.3833183944225311,-0.3647063374519348,0,0,0,-1,-1,2300.3556565,walking,2,2022-06-02T10:39:16.077+02:00,2022-06-02T10:17:13.754+02:00,421,1.066923,0,0,325.4592,0,0,2022-06-02T10:38:45.407+02:00,675851958.6329484,0,6.820312,101.2997,1,0.84
411,2022-06-02T10:39:20.971+02:00,1654159150.781398,53.22899670524735,10.39847340447524,42.83807,-1,-1,-1,-1,48.92399978637695,32.01386601977254,-1,2305.248225291667,-1.621780395507812,0.27093505859375,0.6977081298828125,2305.238231291667,2.730798845777687,-1.250878430027937,0.3227070875962417,-6.204543113708496,-10.67046070098877,5.377317905426025,-0.5953142046928406,0.258037805557251,0.6364963054656982,XArbitraryZVertical,0.5922663662697382,0.0096501419527592,0.7641728281771776,0.2552789867585804,-0.9002607464790344,-0.3171350657939911,-0.2982548475265503,0,0,0,-1,-1,2300.3556565,walking,2,2022-06-02T10:39:16.077+02:00,2022-06-02T10:17:13.754+02:00,421,1.066923,0,0,325.4592,0,0,2022-06-02T10:38:45.407+02:00,675851958.6329484,0,6.820312,101.2997,1,0.84
412,2022-06-02T10:39:20.981+02:00,1654159150.781398,53.22899670524735,10.39847340447524,42.83807,-1,-1,-1,-1,48.92399978637695,32.01386601977254,-1,2305.258220291667,-1.314971923828125,0.355224609375,1.124465942382812,2305.248225291667,2.677962232669864,-1.349024210692461,0.2531699767259156,-7.350658893585205,-12.0134334564209,5.233446598052979,-0.7066335678100586,0.4016735851764679,0.7843582034111023,XArbitraryZVertical,0.6256008690672145,-0.0463681307124299,0.7359246201044691,0.2547319342134888,-0.9444130659103394,-0.2504741549491882,-0.2129471004009247,0,0,0,-1,-1,2300.3556565,walking,2,2022-06-02T10:39:16.077+02:00,2022-06-02T10:17:13.754+02:00,421,1.066923,0,0,325.4592,0,0,2022-06-02T10:38:45.407+02:00,675851958.6329484,0,6.820312,101.2997,1,0.84
413,2022-06-02T10:39:20.991+02:00,1654159150.781398,53.22899670524735,10.39847340447524,42.83807,-1,-1,-1,-1,48.92399978637695,32.01386601977254,-1,2305.268215291667,-1.01153564453125,0.33648681640625,1.735885620117188,2305.258220291667,2.60472456970658,-1.461163823144306,0.1906269251091803,-8.824442863464355,-13.70634746551514,4.705873966217041,-0.527198314666748,0.5317597389221191,0.9819579720497132,XArbitraryZVertical,0.6592840728194326,-0.1078377669180272,0.6980105720357027,0.2578693447176137,-0.97599059343338,-0.1894745081663132,-0.1074310541152954,0,0,0,-1,-1,2300.3556565,walking,2,2022-06-02T10:39:16.077+02:00,2022-06-02T10:17:13.754+02:00,421,1.066923,0,0,325.4592,0,0,2022-06-02T10:38:45.407+02:00,675851958.6329484,0,6.820312,101.2997,1,0.84
414,2022-06-02T10:39:21.001+02:00,1654159150.781398,53.22899670524735,10.39847340447524,42.83807,-1,-1,-1,-1,48.92399978637695,32.01386601977254,-1,2305.278210291667,-0.996337890625,0.215728759765625,2.5048828125,2305.268215291667,2.511285582108103,-1.592355021537407,0.1422742818791476,-10.01935863494873,-15.62889957427979,4.109694480895996,-0.1301612257957458,0.4877878725528717,1.390495419502258,XArbitraryZVertical,0.6931795495541515,-0.1737000815654177,0.6475678538815716,0.2645490338172843,-0.989665985107422,-0.1417947858572006,0.0213392116129398,0,0,0,-1,-1,2300.3556565,walking,2,2022-06-02T10:39:16.077+02:00,2022-06-02T10:17:13.754+02:00,421,1.066923,0,0,325.4592,0,0,2022-06-02T10:38:45.407+02:00,675851958.6329484,0,6.820312,101.2997,1,0.84
415,2022-06-02T10:39:21.011+02:00,1654159150.781398,53.22899670524735,10.39847340447524,42.83807,-1,-1,-1,-1,48.92399978637695,32.01386601977254,-1,2305.288205291667,-0.5471954345703125,-0.032684326171875,3.48095703125,2305.278210291667,2.402216580504458,-1.744727294993233,0.1151030010029312,-11.02403259277344,-17.62721061706543,3.368988275527954,-0.0234056711196899,0.4194602370262146,1.936259269714355,XArbitraryZVertical,0.7262918710996775,-0.2417751546809124,0.5826663129798109,0.2730289984792904,-0.9783948659896852,-0.1148490086197853,0.1719102114439011,0,0,0,-1,-1,2300.3556565,walking,2,2022-06-02T10:39:16.077+02:00,2022-06-02T10:17:13.754+02:00,421,1.066923,0,0,325.4592,0,0,2022-06-02T10:38:45.407+02:00,675851958.6329484,0,6.820312,101.2997,1,0.84
416,2022-06-02T10:39:21.021+02:00,1654159150.781398,53.22899670524735,10.39847340447524,42.83807,-1,-1,-1,-1,48.92399978637695,32.01386601977254,-1,2305.298199291667,0.51422119140625,-0.015777587890625,4.760711669921875,2305.288205291667,2.283902969493258,-1.917681344403633,0.114908319442705,-11.61320209503174,-19.6245174407959,2.734095573425293,0.0672605037689209,0.1947185099124908,2.604090213775635,XArbitraryZVertical,0.7568944553322776,-0.3097979688606724,0.5020427918452792,0.2812276429788592,-0.9342343211174012,-0.114655613899231,0.3377279937267303,0,0,0,-1,-1,2300.3556565,walking,2,2022-06-02T10:39:16.077+02:00,2022-06-02T10:17:13.754+02:00,421,1.066923,0,0,325.4592,0,0,2022-06-02T10:38:45.407+02:00,675851958.6329484,0,6.820312,101.2997,1,0.84
417,2022-06-02T10:39:21.031+02:00,1654159150.781398,53.22899670524735,10.39847340447524,42.83807,-1,-1,-1,-1,48.92399978637695,32.01386601977254,-1,2305.308194291667,2.11865234375,-0.02728271484375,5.599288940429688,2305.298199291667,2.168196392528398,-2.109259756282766,0.1422534220684215,-11.46794414520264,-21.59273338317871,2.083059072494507,0.7781249284744263,0.0652818828821182,3.639426708221436,XArbitraryZVertical,0.7831889635551432,-0.374744900101192,0.4062283654070191,0.284885366259743,-0.8498257994651794,-0.1417741328477859,0.5076373815536499,0,0,0,-1,-1,2300.3556565,walking,2,2022-06-02T10:39:16.077+02:00,2022-06-02T10:17:13.754+02:00,421,1.066923,0,0,325.4592,0,0,2022-06-02T10:38:45.407+02:00,675851958.6329484,0,6.820312,101.2997,1,0.84
418,2022-06-02T10:39:21.041+02:00,1654159150.781398,53.22899670524735,10.39847340447524,42.83807,-1,-1,-1,-1,48.92399978637695,32.01386601977254,-1,2305.318189291667,4.754669189453125,-0.654998779296875,6.762252807617188,2305.308194291667,2.067657588956543,-2.317006693858852,0.1956316194592542,-10.70475959777832,-23.38205528259277,1.25385308265686,1.952224731445312,0.2466933131217957,4.545666694641113,XArbitraryZVertical,0.8035161010915794,-0.4328022011580518,0.296900627063546,0.2808808898118285,-0.7202606201171875,-0.1943861395120621,0.6659117341041565,0,0,0,-1,-1,2300.3556565,walking,2,2022-06-02T10:39:16.077+02:00,2022-06-02T10:17:13.754+02:00,421,1.066923,0,0,325.4592,0,0,2022-06-02T10:38:45.407+02:00,675851958.6329484,0,6.820312,101.2997,1,0.84
419,2022-06-02T10:39:21.051+02:00,1654159150.781398,53.22899670524735,10.39847340447524,42.83807,-1,-1,-1,-1,48.92399978637695,32.01386601977254,-1,2305.328184291667,8.642898559570312,-1.427841186523438,9.378219604492188,2305.318189291667,1.994978583062968,-2.546634119343064,0.2586806892559311,-7.977280616760254,-25.86182022094727,1.489201664924622,3.780626535415649,-0.0524831712245941,5.260417938232422,XArbitraryZVertical,0.8170098202445593,-0.4824970381093793,0.1773015282666265,0.2612577436341209,-0.5418263673782349,-0.2558053731918335,0.8006168603897095,0,0,0,-1,-1,2300.3556565,walking,2,2022-06-02T10:39:16.077+02:00,2022-06-02T10:17:13.754+02:00,421,1.066923,0,0,325.4592,0,0,2022-06-02T10:38:45.407+02:00,675851958.6329484,0,6.820312,101.2997,1,0.84
420,2022-06-02T10:39:21.061+02:00,1654159150.781398,53.22899670524735,10.39847340447524,42.83807,-1,-1,-1,-1,48.92399978637695,32.01386601977254,-1,2305.338178291667,10.32029724121094,-2.192428588867188,12.99565124511719,2305.328184291667,1.936204786346533,-2.797252490190578,0.3041839535547464,-5.537384033203125,-26.93025779724121,4.583313465118408,7.016734600067139,-0.6938934326171875,6.93747091293335,XArbitraryZVertical,0.8169760599980999,-0.5306528278613465,0.0548930674943149,0.2189617495559347,-0.3220779895782471,-0.2995146811008453,0.8980846405029297,0,0,0,-1,-1,2300.3556565,walking,2,2022-06-02T10:39:16.077+02:00,2022-06-02T10:17:13.754+02:00,421,1.066923,0,0,325.4592,0,0,2022-06-02T10:38:45.407+02:00,675851958.6329484,0,6.820312,101.2997,1,0.84
421,2022-06-02T10:39:21.071+02:00,1654159150.781398,53.22899670524735,10.39847340447524,42.83807,-1,-1,-1,-1,48.92399978637695,32.01386601977254,-1,2305.348173291667,9.9757080078125,-2.519638061523438,16.419677734375,2305.338178291667,1.855128473021894,-3.022362643886943,0.3495143129532574,-7.152743339538574,-22.95924186706543,8.58869743347168,10.03173923492432,-1.571285247802734,10.25722503662109,XArbitraryZVertical,0.7927873443100145,-0.5813109871992698,-0.0571514777921304,0.1740668313524942,-0.1117559894919395,-0.3424415290355682,0.932868480682373,0,0,0,-1,-1,2300.3556565,walking,2,2022-06-02T10:39:16.077+02:00,2022-06-02T10:17:13.754+02:00,421,1.066923,0,0,325.4592,0,0,2022-06-02T10:38:45.407+02:00,675851958.6329484,0,6.820312,101.2997,1,0.84
422,2022-06-02T10:39:21.081+02:00,1654159150.781398,53.22899670524735,10.39847340447524,42.83807,-1,-1,-1,-1,48.92399978637695,32.01386601977254,-1,2305.358168291667,9.28436279296875,-3.869476318359375,18.62762451171875,2305.348173291667,1.733469753041509,3.103504530341563,0.4255373839041393,-8.26632022857666,-17.51272201538086,13.47620487213135,10.17066955566406,-1.860932350158691,13.863525390625,XArbitraryZVertical,0.7422932509155247,-0.6356718491228273,-0.1508551038468233,0.1488775587271245,0.0346829034388065,-0.4128102958202362,0.910155951976776,0,0,0,-1,-1,2300.3556565,walking,2,2022-06-02T10:39:16.077+02:00,2022-06-02T10:17:13.754+02:00,421,1.066923,0,0,325.4592,0,0,2022-06-02T10:38:45.407+02:00,675851958.6329484,0,6.820312,101.2997,1,0.84
423,2022-06-02T10:39:21.091+02:00,1654159150.781398,53.22899670524735,10.39847340447524,42.83807,-1,-1,-1,-1,48.92399978637695,32.01386601977254,-1,2305.368163291667,9.299591064453123,-4.119277954101562,19.05473327636719,2305.368163291667,1.301254815465593,3.135092876776485,0.5495586977145197,-0.0685384795069694,1.99609375,25.07598686218262,8.855724334716797,-3.862073421478271,18.01914978027344,XArbitraryZVertical,0.5822587720049228,-0.7663832625085224,-0.2177954091408081,0.161853675423694,0.0055426792241632,-0.5223109722137451,0.8527371883392334,0,0,0,-1,-1,2300.3556565,walking,2,2022-06-02T10:39:16.077+02:00,2022-06-02T10:17:13.754+02:00,421,1.066923,0,0,325.4592,0,0,2022-06-02T10:38:45.407+02:00,675851958.6329484,0,6.820312,101.2997,1,0.84
424,2022-06-02T10:39:21.101+02:00,1654159150.781398,53.22899670524735,10.39847340447524,42.83807,-1,-1,-1,-1,48.92399978637695,32.01386601977254,-1,2305.378157291667,12.76644897460938,-0.4165496826171875,20.160400390625,2305.368163291667,1.301254815465593,3.135092876776485,0.5495586977145197,-0.0685384795069694,1.99609375,25.07598686218262,8.855724334716797,-3.862073421478271,18.01914978027344,XArbitraryZVertical,0.5822587720049228,-0.7663832625085224,-0.2177954091408081,0.161853675423694,0.0055426792241632,-0.5223109722137451,0.8527371883392334,0,0,0,-1,-1,2300.3556565,walking,2,2022-06-02T10:39:16.077+02:00,2022-06-02T10:17:13.754+02:00,421,1.066923,0,0,325.4592,0,0,2022-06-02T10:38:45.407+02:00,675851958.6329484,0,6.820312,101.2997,1,0.84
425,2022-06-02T10:39:21.111+02:00,1654159150.781398,53.22899670524735,10.39847340447524,42.83807,-1,-1,-1,-1,48.92399978637695,32.01386601977254,-1,2305.388152291667,18.34275817871094,5.291748046875,15.77192687988281,2305.378157291667,0.9922599951532722,-2.903981631875979,0.5057566281601494,2.680222034454346,15.11975479125977,28.66272735595703,11.00921249389648,-2.241879224777222,18.82402610778809,XArbitraryZVertical,0.4837164318974919,-0.8313438923071372,-0.1638483978568183,0.2191787789280939,-0.2059135586023331,-0.484469473361969,0.850228488445282,0,0,0,-1,-1,2300.3556565,walking,2,2022-06-02T10:39:16.077+02:00,2022-06-02T10:17:13.754+02:00,421,1.066923,0,0,325.4592,0,0,2022-06-02T10:38:45.407+02:00,675851958.6329484,0,6.820312,101.2997,1,0.84
426,2022-06-02T10:39:21.121+02:00,1654159150.781398,53.22899670524735,10.39847340447524,42.83807,-1,-1,-1,-1,48.92399978637695,32.01386601977254,-1,2305.398147291667,26.56004333496094,10.01200866699219,7.349319458007812,2305.388152291667,0.7182298251938768,-2.564374675917725,0.3400985601012933,9.565755844116213,30.12918472290039,30.26860427856445,15.68533706665039,2.739311218261719,18.24602508544922,XArbitraryZVertical,0.3771444769262976,-0.8676145033750737,-0.0532972297116544,0.3196349466735768,-0.5144383311271667,-0.3335800170898438,0.7899857759475708,0,0,0,-1,-1,2300.3556565,walking,2,2022-06-02T10:39:16.077+02:00,2022-06-02T10:17:13.754+02:00,421,1.066923,0,0,325.4592,0,0,2022-06-02T10:38:45.407+02:00,675851958.6329484,0,6.820312,101.2997,1,0.84
427,2022-06-02T10:39:21.131+02:00,1654159150.781398,53.22899670524735,10.39847340447524,42.83807,-1,-1,-1,-1,48.92399978637695,32.01386601977254,-1,2305.408142291667,32.02633666992188,18.84791564941406,2.469070434570312,2305.398147291667,0.63253959114172,-2.204724848823458,0.0170340997021866,28.09404182434082,35.12198257446289,25.53715515136719,22.74618721008301,7.900532245635986,10.98983287811279,XArbitraryZVertical,0.2811635120887432,-0.8467947696828839,0.1331961967158894,0.4314446059918809,-0.8055899143218994,-0.0170332752168178,0.5922285914421082,0,0,0,-1,-1,2300.3556565,walking,2,2022-06-02T10:39:16.077+02:00,2022-06-02T10:17:13.754+02:00,421,1.066923,0,0,325.4592,0,0,2022-06-02T10:38:45.407+02:00,675851958.6329484,0,6.820312,101.2997,1,0.84
428,2022-06-02T10:39:21.141+02:00,1654159150.781398,53.22899670524735,10.39847340447524,42.83807,-1,-1,-1,-1,48.92399978637695,32.01386601977254,-1,2305.418136291667,31.98373413085938,31.78787231445312,3.936264038085938,2305.408142291667,0.861979981894599,-1.817406402801182,-0.2566671618096982,34.80570602416992,35.09663009643555,5.342041969299316,32.09396743774414,12.20120429992676,3.785561561584473,XArbitraryZVertical,0.2553048318819968,-0.7435589787486678,0.3464296152108047,0.511787010126673,-0.937977969646454,0.2538582980632782,0.2361210286617279,0,0,0,-1,-1,2300.3556565,walking,2,2022-06-02T10:39:16.077+02:00,2022-06-02T10:17:13.754+02:00,421,1.066923,0,0,325.4592,0,0,2022-06-02T10:38:45.407+02:00,675851958.6329484,0,6.820312,101.2997,1,0.84
429,2022-06-02T10:39:21.151+02:00,1654159150.781398,53.22899670524735,10.39847340447524,42.83807,-1,-1,-1,-1,48.92399978637695,32.01386601977254,-1,2305.428131291667,31.82981872558594,31.12454223632812,29.13018798828125,2305.418136291667,1.215195533570197,-1.37122682076224,-0.2372081165699875,35.00625228881836,35.05694961547852,-16.94417572021484,33.04496002197266,28.42707443237305,1.503929495811462,XArbitraryZVertical,0.2837269849576518,-0.568463707579023,0.5002966360199413,0.5882611414251848,-0.9527055025100708,0.2349898368120193,-0.1926960200071335,0,0,0,-1,-1,2300.3556565,walking,2,2022-06-02T10:39:16.077+02:00,2022-06-02T10:17:13.754+02:00,421,1.066923,0,0,325.4592,0,0,2022-06-02T10:38:45.407+02:00,675851958.6329484,0,6.820312,101.2997,1,0.84
430,2022-06-02T10:39:21.161+02:00,1654159150.781398,53.22899670524735,10.39847340447524,42.83807,-1,-1,-1,-1,48.92399978637695,32.01386601977254,-1,2305.438126291667,31.02885437011719,-17.15945434570312,32.11834716796875,2305.428131291667,1.473309908923059,-1.071064727170832,0.0726726532977563,35.05143737792969,13.50827312469482,-8.24137020111084,32.78832626342773,31.83582305908203,15.16211414337158,XArbitraryZVertical,0.3657414470849186,-0.3567500994159802,0.5636449366428271,0.6490506893325677,-0.8753944039344788,-0.0726087018847465,-0.4779251217842102,0,0,0,-1,-1,2300.3556565,walking,2,2022-06-02T10:39:16.077+02:00,2022-06-02T10:17:13.754+02:00,421,1.066923,0,0,325.4592,0,0,2022-06-02T10:38:45.407+02:00,675851958.6329484,0,6.820312,101.2997,1,0.84
431,2022-06-02T10:39:21.171+02:00,1654159150.781398,53.22899670524735,10.39847340447524,42.83807,-1,-1,-1,-1,48.92399978637695,32.01386601977254,-1,2305.448121291667,1.797576904296875,-32.02816772460938,7.804092407226562,2305.438126291667,1.736739157989421,-1.288908670599985,0.2657256438982394,20.96009826660156,-34.44572448730469,-10.06971645355225,32.63966369628906,15.95749473571777,32.48703384399414,XArbitraryZVertical,0.5229268440005143,-0.303882306511322,0.5533894362680202,0.5726805155186131,-0.9268193244934082,-0.2626095116138458,-0.2684061229228973,0,0,0,-1,-1,2300.3556565,walking,2,2022-06-02T10:39:16.077+02:00,2022-06-02T10:17:13.754+02:00,421,1.066923,0,0,325.4592,0,0,2022-06-02T10:38:45.407+02:00,675851958.6329484,0,6.820312,101.2997,1,0.84
432,2022-06-02T10:39:21.181+02:00,1654159150.781398,53.22899670524735,10.39847340447524,42.83807,-1,-1,-1,-1,48.92399978637695,32.01386601977254,-1,2305.458116291667,-2.552154541015625,7.709945678710938,0.9950714111328124,2305.448121291667,1.60512721828719,-1.46770887468191,0.4666940418169719,-19.17391586303711,-10.10975551605225,-25.1247730255127,21.82026481628418,-31.72970581054688,25.96030807495117,XArbitraryZVertical,0.587899898669363,-0.3292772836608067,0.4119471803955517,0.6133918607324964,-0.8883194327354431,-0.4499363303184509,-0.0919003561139106,0,0,0,-1,-1,2300.3556565,walking,2,2022-06-02T10:39:16.077+02:00,2022-06-02T10:17:13.754+02:00,421,1.066923,0,0,325.4592,0,0,2022-06-02T10:38:45.407+02:00,675851958.6329484,0,6.820312,101.2997,1,0.84
433,2022-06-02T10:39:21.191+02:00,1654159150.781398,53.22899670524735,10.39847340447524,42.83807,-1,-1,-1,-1,48.92399978637695,32.01386601977254,-1,2305.468110291667,18.18161010742188,0.369110107421875,4.689651489257812,2305.458116291667,1.346573109503294,-1.440949670298589,0.6212018732559362,-28.8620548248291,-2.928596496582031,-12.59123039245605,-5.1347975730896,-12.80827617645264,-1.082299470901489,XArbitraryZVertical,0.5712606558980262,-0.3478723513887185,0.2885418561044177,0.6851201629523765,-0.8063339591026306,-0.5820128917694092,-0.1052921786904335,0,0,0,-1,-1,2300.3556565,walking,2,2022-06-02T10:39:16.077+02:00,2022-06-02T10:17:13.754+02:00,421,1.066923,0,0,325.4592,0,0,2022-06-02T10:38:45.407+02:00,675851958.6329484,0,6.820312,101.2997,1,0.84
434,2022-06-02T10:39:21.202+02:00,1654159150.781398,53.22899670524735,10.39847340447524,42.83807,-1,-1,-1,-1,48.92399978637695,32.01386601977254,-1,2305.478105291667,10.97044372558594,-11.12944030761719,-3.20068359375,2305.468110291667,1.071882380998263,-1.325881043816656,0.6216599273396737,-9.494430541992188,-10.14474678039551,2.94045090675354,7.90010404586792,12.81740093231201,5.454983711242676,XArbitraryZVertical,0.5064789537751888,-0.3806887212151962,0.2213616803590425,0.7413191831416959,-0.7886537909507751,-0.5823853611946106,-0.1971103399991989,0,0,0,-1,-1,2300.3556565,walking,2,2022-06-02T10:39:16.077+02:00,2022-06-02T10:17:13.754+02:00,421,1.066923,0,0,325.4592,0,0,2022-06-02T10:38:45.407+02:00,675851958.6329484,0,6.820312,101.2997,1,0.84
435,2022-06-02T10:39:21.211+02:00,1654159150.781398,53.22899670524735,10.39847340447524,42.83807,-1,-1,-1,-1,48.92399978637695,32.01386601977254,-1,2305.488100291667,4.176986694335938,-1.106063842773438,2.972747802734375,2305.478105291667,0.9633059421544088,-1.353772194412265,0.636509720784319,-10.34180927276611,-5.765541076660156,-6.281118392944336,20.6372241973877,-10.91189384460449,1.689607620239258,XArbitraryZVertical,0.4917614824594789,-0.4142358278691942,0.1692795020023816,0.7469429457931586,-0.7853113412857056,-0.5943922996520996,-0.1731586456298828,0,0,0,-1,-1,2305.468970291667,walking,2,2022-06-02T10:39:21.191+02:00,2022-06-02T10:17:13.754+02:00,421,1.066923,0,0,325.4592,0,0,2022-06-02T10:38:45.407+02:00,675851961.1904297,0,6.933594,101.3004,1,0.84
436,2022-06-02T10:39:21.221+02:00,1654159150.781398,53.22899670524735,10.39847340447524,42.83807,-1,-1,-1,-1,48.92399978637695,32.01386601977254,-1,2305.498095291667,8.230926513671875,0.1002044677734375,2.605758666992188,2305.488100291667,0.7683879114918372,-1.302562567246783,0.6523247967527166,-20.20055389404297,-8.111601829528809,-4.955319404602051,4.440192699432373,-4.712254524230957,-1.671514272689819,XArbitraryZVertical,0.4514824902678117,-0.4368726911457944,0.1023001787419348,0.771258936365707,-0.7662574052810669,-0.6070355176925659,-0.2106116265058517,0,0,0,-1,-1,2305.468970291667,walking,2,2022-06-02T10:39:21.191+02:00,2022-06-02T10:17:13.754+02:00,421,1.066923,0,0,325.4592,0,0,2022-06-02T10:38:45.407+02:00,675851961.1904297,0,6.933594,101.3004,1,0.84
437,2022-06-02T10:39:21.231+02:00,1654159150.781398,53.22899670524735,10.39847340447524,42.83807,-1,-1,-1,-1,48.92399978637695,32.01386601977254,-1,2305.508089291667,3.478424072265625,1.101104736328125,0.283172607421875,2305.498095291667,0.4793731124233963,-1.188356132255103,0.6474024226509393,-20.7951545715332,-3.625298738479614,-8.166741371154785,9.071250915527344,1.181592464447021,5.200550079345703,XArbitraryZVertical,0.3820272806808642,-0.4530109410793172,0.013515736303717,0.805390165916569,-0.7400278449058533,-0.6031164526939392,-0.2976724803447723,0,0,0,-1,-1,2305.468970291667,walking,2,2022-06-02T10:39:21.191+02:00,2022-06-02T10:17:13.754+02:00,421,1.066923,0,0,325.4592,0,0,2022-06-02T10:38:45.407+02:00,675851961.1904297,0,6.933594,101.3004,1,0.84
438,2022-06-02T10:39:21.241+02:00,1654159150.781398,53.22899670524735,10.39847340447524,42.83807,-1,-1,-1,-1,48.92399978637695,32.01386601977254,-1,2305.518084291667,4.09796142578125,3.978057861328125,0.09649658203125,2305.508089291667,0.2499568922254211,-1.056499444382803,0.667602616787484,-9.843582153320312,1.609853625297546,-10.75198364257812,6.350467681884766,0.4356792569160461,1.058674216270447,XArbitraryZVertical,0.3401299952766104,-0.4372140436518739,-0.0621289769121016,0.8302380983564234,-0.6837196350097656,-0.6191051006317139,-0.3863109350204468,0,0,0,-1,-1,2305.468970291667,walking,2,2022-06-02T10:39:21.191+02:00,2022-06-02T10:17:13.754+02:00,421,1.066923,0,0,325.4592,0,0,2022-06-02T10:38:45.407+02:00,675851961.1904297,0,6.933594,101.3004,1,0.84
439,2022-06-02T10:39:21.271+02:00,1654159150.781398,53.22899670524735,10.39847340447524,42.83807,-1,-1,-1,-1,48.92399978637695,32.01386601977254,-1,2305.528079291667,6.506790161132812,-0.91290283203125,-0.9206695556640624,2305.518084291667,0.1218880405026035,-0.948456384276893,0.7306987939740642,-1.060146927833557,2.952420234680176,-10.34709548950195,3.907776355743408,3.9009108543396,0.6495117545127869,XArbitraryZVertical,0.3432358628367083,-0.4063616481788873,-0.1122389899759252,0.8393221921040288,-0.6050878167152405,-0.6673901677131653,-0.4341187179088593,0,0,0,-1,-1,2305.468970291667,walking,2,2022-06-02T10:39:21.191+02:00,2022-06-02T10:17:13.754+02:00,421,1.066923,0,0,325.4592,0,0,2022-06-02T10:38:45.407+02:00,675851961.1904297,0,6.933594,101.3004,1,0.84
440,2022-06-02T10:39:21.274+02:00,1654159150.781398,53.22899670524735,10.39847340447524,42.83807,-1,-1,-1,-1,48.92399978637695,32.01386601977254,-1,2305.538074291667,6.11590576171875,-1.4896240234375,-2.032440185546875,2305.528079291667,0.0364132025193842,-0.8587695267223381,0.8162276481122758,1.880370497703552,3.250240802764893,-10.84061717987061,6.053159713745117,2.815252304077148,0.344422459602356,XArbitraryZVertical,0.3677478585128481,-0.3754874350373332,-0.150004370891624,0.8374182579764318,-0.5185524821281433,-0.7285670638084412,-0.4475413858890533,0,0,0,-1,-1,2305.468970291667,walking,2,2022-06-02T10:39:21.191+02:00,2022-06-02T10:17:13.754+02:00,421,1.066923,0,0,325.4592,0,0,2022-06-02T10:38:45.407+02:00,675851961.1904297,0,6.933594,101.3004,1,0.84
441,2022-06-02T10:39:21.277+02:00,1654159150.781398,53.22899670524735,10.39847340447524,42.83807,-1,-1,-1,-1,48.92399978637695,32.01386601977254,-1,2305.548068291667,5.360702514648438,-2.772369384765625,-2.793807983398438,2305.538074291667,-0.0617925320352568,-0.752907328384177,0.907847531410252,1.199377298355103,2.843725204467773,-10.86494541168213,7.066035747528076,-1.278469562530518,-1.262608766555786,XArbitraryZVertical,0.3973883141863755,-0.3428361798963781,-0.1869437688859129,0.8304203276843424,-0.4208177328109741,-0.7881808280944824,-0.449091762304306,0,0,0,-1,-1,2305.468970291667,walking,2,2022-06-02T10:39:21.191+02:00,2022-06-02T10:17:13.754+02:00,421,1.066923,0,0,325.4592,0,0,2022-06-02T10:38:45.407+02:00,675851961.1904297,0,6.933594,101.3004,1,0.84
442,2022-06-02T10:39:21.282+02:00,1654159150.781398,53.22899670524735,10.39847340447524,42.83807,-1,-1,-1,-1,48.92399978637695,32.01386601977254,-1,2305.558063291667,4.656417846679688,-3.993667602539062,-3.43768310546875,2305.548068291667,-0.1897278740325271,-0.6254184876075544,0.9756275254282916,-0.4905896186828613,1.912715911865234,-9.318245887756348,5.979637145996094,-0.7721200585365295,-1.899720072746277,XArbitraryZVertical,0.4182194871680973,-0.3127754234691348,-0.2231556276427348,0.8230829763439805,-0.3282241821289062,-0.828053891658783,-0.4545280039310455,0,0,0,-1,-1,2305.468970291667,walking,2,2022-06-02T10:39:21.191+02:00,2022-06-02T10:17:13.754+02:00,421,1.066923,0,0,325.4592,0,0,2022-06-02T10:38:45.407+02:00,675851961.1904297,0,6.933594,101.3004,1,0.84
443,2022-06-02T10:39:21.292+02:00,1654159150.781398,53.22899670524735,10.39847340447524,42.83807,-1,-1,-1,-1,48.92399978637695,32.01386601977254,-1,2305.568058291667,3.623504638671875,-3.773284912109375,-4.152984619140625,2305.558063291667,-0.3360408732911825,-0.4871019604404799,1.009617387971501,-1.970438957214355,1.199588537216187,-7.864077091217041,5.37592887878418,-2.909444570541382,-2.663119792938232,XArbitraryZVertical,0.4274593947315259,-0.2865912621373294,-0.2570395822512274,0.8179697280659294,-0.2490979880094528,-0.8466283082962036,-0.4702878296375275,0,0,0,-1,-1,2305.468970291667,walking,2,2022-06-02T10:39:21.191+02:00,2022-06-02T10:17:13.754+02:00,421,1.066923,0,0,325.4592,0,0,2022-06-02T10:38:45.407+02:00,675851961.1904297,0,6.933594,101.3004,1,0.84
444,2022-06-02T10:39:21.301+02:00,1654159150.781398,53.22899670524735,10.39847340447524,42.83807,-1,-1,-1,-1,48.92399978637695,32.01386601977254,-1,2305.578053291667,2.95196533203125,-4.06085205078125,-4.205413818359375,2305.568058291667,-0.4732552602933114,-0.3620790400612034,1.022043187589435,-1.681754946708679,0.4162126779556274,-6.386594295501709,4.312851428985596,-2.976841449737549,-3.33814001083374,XArbitraryZVertical,0.4308537069708186,-0.265449866793077,-0.2867389661268826,0.8134384424973233,-0.1847691535949707,-0.8531755805015564,-0.4878028929233551,0,0,0,-1,-1,2305.468970291667,walking,2,2022-06-02T10:39:21.191+02:00,2022-06-02T10:17:13.754+02:00,421,1.066923,0,0,325.4592,0,0,2022-06-02T10:38:45.407+02:00,675851961.1904297,0,6.933594,101.3004,1,0.84
445,2022-06-02T10:39:21.311+02:00,1654159150.781398,53.22899670524735,10.39847340447524,42.83807,-1,-1,-1,-1,48.92399978637695,32.01386601977254,-1,2305.588047291667,2.342041015625,-4.0557861328125,-4.031784057617188,2305.578053291667,-0.5877551061373589,-0.264364687523139,1.022743068286184,-1.981041550636292,-0.4208409488201141,-4.983528137207031,3.39155912399292,-3.044546127319336,-3.75523829460144,XArbitraryZVertical,0.4310139501088214,-0.2505281255275361,-0.3121396205152198,0.808722008470903,-0.1361421495676041,-0.8535404205322266,-0.5029252767562866,0,0,0,-1,-1,2305.468970291667,walking,2,2022-06-02T10:39:21.191+02:00,2022-06-02T10:17:13.754+02:00,421,1.066923,0,0,325.4592,0,0,2022-06-02T10:38:45.407+02:00,675851961.1904297,0,6.933594,101.3004,1,0.84
446,2022-06-02T10:39:21.321+02:00,1654159150.781398,53.22899670524735,10.39847340447524,42.83807,-1,-1,-1,-1,48.92399978637695,32.01386601977254,-1,2305.598042291667,1.877182006835938,-3.7093505859375,-3.901199340820312,2305.588047291667,-0.6760124116304368,-0.1969543519399402,1.011496044987258,-2.147954225540161,-1.120606541633606,-3.579771280288696,2.764396667480469,-3.268050193786621,-3.585515022277832,XArbitraryZVertical,0.4263141273018936,-0.2410157376683687,-0.3336244681823404,0.8055199741553244,-0.1038283333182335,-0.8476265668869019,-0.5203353762626648,0,0,0,-1,-1,2305.468970291667,walking,2,2022-06-02T10:39:21.191+02:00,2022-06-02T10:17:13.754+02:00,421,1.066923,0,0,325.4592,0,0,2022-06-02T10:38:45.407+02:00,675851961.1904297,0,6.933594,101.3004,1,0.84
447,2022-06-02T10:39:21.331+02:00,1654159150.781398,53.22899670524735,10.39847340447524,42.83807,-1,-1,-1,-1,48.92399978637695,32.01386601977254,-1,2305.608037291667,1.70001220703125,-3.22772216796875,-3.580062866210938,2305.598042291667,-0.7385952626364803,-0.1582947006773915,1.000399865230197,-1.149641513824463,-1.698975563049316,-2.678561210632324,2.161182403564453,-3.074298143386841,-3.445056676864624,XArbitraryZVertical,0.4208238328842634,-0.2372759298459454,-0.3511095263029993,0.802078250115126,-0.0851172134280204,-0.8416869640350342,-0.5332148671150208,0,0,0,-1,-1,2305.468970291667,walking,2,2022-06-02T10:39:21.191+02:00,2022-06-02T10:17:13.754+02:00,421,1.066923,0,0,325.4592,0,0,2022-06-02T10:38:45.407+02:00,675851961.1904297,0,6.933594,101.3004,1,0.84
448,2022-06-02T10:39:21.341+02:00,1654159150.781398,53.22899670524735,10.39847340447524,42.83807,-1,-1,-1,-1,48.92399978637695,32.01386601977254,-1,2305.618032291667,1.67987060546875,-3.046035766601562,-3.110260009765625,2305.608037291667,-0.7804910989038053,-0.1421650728190103,0.997486485803142,-0.1560302227735519,-2.105700254440308,-1.687683343887329,1.842203497886658,-2.611595630645752,-3.222745895385742,XArbitraryZVertical,0.4175159220752852,-0.2391833938495144,-0.3646489182887368,0.7971843751864862,-0.0768530666828155,-0.8401102423667908,-0.5369434952735901,0,0,0,-1,-1,2305.468970291667,walking,2,2022-06-02T10:39:21.191+02:00,2022-06-02T10:17:13.754+02:00,421,1.066923,0,0,325.4592,0,0,2022-06-02T10:38:45.407+02:00,675851961.1904297,0,6.933594,101.3004,1,0.84
449,2022-06-02T10:39:21.351+02:00,1654159150.781398,53.22899670524735,10.39847340447524,42.83807,-1,-1,-1,-1,48.92399978637695,32.01386601977254,-1,2305.628026291667,1.930572509765625,-2.592025756835938,-2.546905517578125,2305.618032291667,-0.801411254970783,-0.146860394471639,1.00097006038721,0.4660381376743317,-2.348065376281738,-0.7328680753707886,1.748179912567139,-2.265823841094971,-2.838804006576538,XArbitraryZVertical,0.4155424158894835,-0.2459377703949179,-0.3737193828699362,0.7919423697203299,-0.0789445713162422,-0.8419947028160095,-0.5336782336235046,0,0,0,-1,-1,2305.468970291667,walking,2,2022-06-02T10:39:21.191+02:00,2022-06-02T10:17:13.754+02:00,421,1.066923,0,0,325.4592,0,0,2022-06-02T10:38:45.407+02:00,675851961.1904297,0,6.933594,101.3004,1,0.84
450,2022-06-02T10:39:21.361+02:00,1654159150.781398,53.22899670524735,10.39847340447524,42.83807,-1,-1,-1,-1,48.92399978637695,32.01386601977254,-1,2305.638021291667,2.3309326171875,-2.183258056640625,-2.321823120117188,2305.628026291667,-0.8092896644305932,-0.1647471700473928,1.005995111223155,0.3791071474552155,-2.552222013473511,-0.2501204311847687,1.853178381919861,-2.035416603088379,-2.269011974334717,XArbitraryZVertical,0.4132408776194378,-0.2554050591810457,-0.3802211042699014,0.7870400340520234,-0.0877822041511535,-0.8446950316429138,-0.5280004739761353,0,0,0,-1,-1,2305.468970291667,walking,2,2022-06-02T10:39:21.191+02:00,2022-06-02T10:17:13.754+02:00,421,1.066923,0,0,325.4592,0,0,2022-06-02T10:38:45.407+02:00,675851961.1904297,0,6.933594,101.3004,1,0.84
451,2022-06-02T10:39:21.371+02:00,1654159150.781398,53.22899670524735,10.39847340447524,42.83807,-1,-1,-1,-1,48.92399978637695,32.01386601977254,-1,2305.648016291667,2.619491577148438,-2.049163818359375,-2.246963500976562,2305.638021291667,-0.8070657902820262,-0.192775978140102,1.008705528294216,0.1883233338594437,-2.669683694839478,0.4008024930953979,2.237894058227539,-1.491076469421387,-1.888445615768433,XArbitraryZVertical,0.4092791085718974,-0.2663618395424096,-0.3849529988708313,0.7831685827539387,-0.1021060049533844,-0.8461426496505737,-0.5230839848518372,0,0,0,-1,-1,2305.468970291667,walking,2,2022-06-02T10:39:21.191+02:00,2022-06-02T10:17:13.754+02:00,421,1.066923,0,0,325.4592,0,0,2022-06-02T10:38:45.407+02:00,675851961.1904297,0,6.933594,101.3004,1,0.84
452,2022-06-02T10:39:21.381+02:00,1654159150.781398,53.22899670524735,10.39847340447524,42.83807,-1,-1,-1,-1,48.92399978637695,32.01386601977254,-1,2305.658011291667,2.793487548828125,-1.80364990234375,-2.09954833984375,2305.648016291667,-0.7949635829400605,-0.230226958770805,1.008384812982896,-0.030868899077177,-2.77550196647644,0.8288480043411255,2.619286298751831,-1.269460916519165,-1.738669395446777,XArbitraryZVertical,0.4035601601280052,-0.278496032503478,-0.38784874559573,0.780482161470536,-0.1216817647218704,-0.8459717035293579,-0.5191583037376404,0,0,0,-1,-1,2305.468970291667,walking,2,2022-06-02T10:39:21.191+02:00,2022-06-02T10:17:13.754+02:00,421,1.066923,0,0,325.4592,0,0,2022-06-02T10:38:45.407+02:00,675851961.1904297,0,6.933594,101.3004,1,0.84
453,2022-06-02T10:39:21.391+02:00,1654159150.781398,53.22899670524735,10.39847340447524,42.83807,-1,-1,-1,-1,48.92399978637695,32.01386601977254,-1,2305.668005291667,2.796188354492188,-1.66900634765625,-1.869308471679688,2305.658011291667,-0.7786219920933007,-0.2722217365577924,1.0023296921278,-0.7260732650756836,-2.877560138702393,1.173347353935242,2.860732793807983,-1.080291748046875,-1.696434140205383,XArbitraryZVertical,0.395216776617782,-0.2907670912250944,-0.3901106785269772,0.7791480272419194,-0.1447446346282959,-0.8427274227142334,-0.5185164213180542,0,0,0,-1,-1,2305.468970291667,walking,2,2022-06-02T10:39:21.191+02:00,2022-06-02T10:17:13.754+02:00,421,1.066923,0,0,325.4592,0,0,2022-06-02T10:38:45.407+02:00,675851961.1904297,0,6.933594,101.3004,1,0.84
454,2022-06-02T10:39:21.401+02:00,1654159150.781398,53.22899670524735,10.39847340447524,42.83807,-1,-1,-1,-1,48.92399978637695,32.01386601977254,-1,2305.678000291667,2.574859619140625,-1.355819702148438,-1.861740112304688,2305.668005291667,-0.7616037369118698,-0.3157048663435865,0.9890167722712851,-1.199360013008118,-2.956751108169556,1.342952132225037,3.002052307128906,-0.9026119709014891,-1.436646223068237,XArbitraryZVertical,0.3836983511751582,-0.3026529880452142,-0.3923346864164041,0.7792626099990206,-0.1706159710884094,-0.835486114025116,-0.52235347032547,0,0,0,-1,-1,2305.468970291667,walking,2,2022-06-02T10:39:21.191+02:00,2022-06-02T10:17:13.754+02:00,421,1.066923,0,0,325.4592,0,0,2022-06-02T10:38:45.407+02:00,675851961.1904297,0,6.933594,101.3004,1,0.84
455,2022-06-02T10:39:21.411+02:00,1654159150.781398,53.22899670524735,10.39847340447524,42.83807,-1,-1,-1,-1,48.92399978637695,32.01386601977254,-1,2305.687995291667,2.311843872070312,-1.125732421875,-1.735305786132812,2305.678000291667,-0.7445917264511509,-0.3591965892129575,0.9742138106636392,-0.8837453126907349,-2.891386270523071,1.43466317653656,2.896039247512817,-0.7118630409240723,-1.330787420272827,XArbitraryZVertical,0.371571495325996,-0.3145680831242584,-0.3941622177877462,0.7794983587038082,-0.1974917203187943,-0.827260434627533,-0.5259630680084229,0,0,0,-1,-1,2305.468970291667,walking,2,2022-06-02T10:39:21.191+02:00,2022-06-02T10:17:13.754+02:00,421,1.066923,0,0,325.4592,0,0,2022-06-02T10:38:45.407+02:00,675851961.1904297,0,6.933594,101.3004,1,0.84
456,2022-06-02T10:39:21.421+02:00,1654159150.781398,53.22899670524735,10.39847340447524,42.83807,-1,-1,-1,-1,48.92399978637695,32.01386601977254,-1,2305.697990291667,1.986679077148438,-0.965423583984375,-1.623199462890625,2305.687995291667,-0.7223413022417564,-0.4049643456405598,0.9640674889756335,-0.0111663695424795,-2.56304931640625,1.65308940410614,2.673466205596924,-0.3803409337997437,-1.288542032241821,XArbitraryZVertical,0.3618480451068201,-0.3271598933849437,-0.3939202870931907,0.779011716276119,-0.2246442139148712,-0.8215175867080688,-0.5240647792816162,0,0,0,-1,-1,2305.468970291667,walking,2,2022-06-02T10:39:21.191+02:00,2022-06-02T10:17:13.754+02:00,421,1.066923,0,0,325.4592,0,0,2022-06-02T10:38:45.407+02:00,675851961.1904297,0,6.933594,101.3004,1,0.84
457,2022-06-02T10:39:21.431+02:00,1654159150.781398,53.22899670524735,10.39847340447524,42.83807,-1,-1,-1,-1,48.92399978637695,32.01386601977254,-1,2305.707985291667,1.796722412109375,-0.677734375,-1.486663818359375,2305.697990291667,-0.6928450174777765,-0.4524923426127668,0.9616682238735076,0.9688315987586976,-2.095766305923462,1.580719590187073,2.400708436965942,-0.2554295063018799,-1.165818214416504,XArbitraryZVertical,0.3564268419219736,-0.3401091885307326,-0.3909522520084425,0.7774586761463131,-0.2501499354839325,-0.8201472163200378,-0.5145713090896606,0,0,0,-1,-1,2305.468970291667,walking,2,2022-06-02T10:39:21.191+02:00,2022-06-02T10:17:13.754+02:00,421,1.066923,0,0,325.4592,0,0,2022-06-02T10:38:45.407+02:00,675851961.1904297,0,6.933594,101.3004,1,0.84
458,2022-06-02T10:39:21.441+02:00,1654159150.781398,53.22899670524735,10.39847340447524,42.83807,-1,-1,-1,-1,48.92399978637695,32.01386601977254,-1,2305.717979291667,1.69561767578125,-0.535186767578125,-1.355087280273438,2305.707985291667,-0.6548481632572312,-0.5021127880359304,0.9677779223641696,2.138974666595459,-1.581945180892944,1.7492516040802,2.138029813766479,0.0176736116409301,-1.053240537643433,XArbitraryZVertical,0.3559769527543347,-0.3531515918162609,-0.3851923484288072,0.7747200375805616,-0.2729480266571045,-0.8236275315284729,-0.4971287250518799,0,0,0,-1,-1,2305.468970291667,walking,2,2022-06-02T10:39:21.191+02:00,2022-06-02T10:17:13.754+02:00,421,1.066923,0,0,325.4592,0,0,2022-06-02T10:38:45.407+02:00,675851961.1904297,0,6.933594,101.3004,1,0.84
459,2022-06-02T10:39:21.451+02:00,1654159150.781398,53.22899670524735,10.39847340447524,42.83807,-1,-1,-1,-1,48.92399978637695,32.01386601977254,-1,2305.727974291667,1.736190795898438,-0.451446533203125,-1.311386108398438,2305.717979291667,-0.6031688598337612,-0.5583415126055795,0.9810085979203256,3.00482964515686,-1.144816875457764,1.892499089241028,2.040093421936035,0.228412926197052,-0.9510252475738524,XArbitraryZVertical,0.3601956315407097,-0.3666051319325905,-0.3758169318379331,0.7711169699991031,-0.2946556508541107,-0.8310587406158447,-0.4717195630073547,0,0,0,-1,-1,2305.468970291667,walking,2,2022-06-02T10:39:21.191+02:00,2022-06-02T10:17:13.754+02:00,421,1.066923,0,0,325.4592,0,0,2022-06-02T10:38:45.407+02:00,675851961.1904297,0,6.933594,101.3004,1,0.84
460,2022-06-02T10:39:21.461+02:00,1654159150.781398,53.22899670524735,10.39847340447524,42.83807,-1,-1,-1,-1,48.92399978637695,32.01386601977254,-1,2305.737969291667,1.790557861328125,-0.7826690673828125,-1.3759765625,2305.727974291667,-0.540263430039479,-0.6209666721128725,0.9969060928803304,3.502687692642212,-0.8778138756752014,2.161638975143433,2.001923322677612,0.3800175189971924,-0.8632422685623169,XArbitraryZVertical,0.3670913324360464,-0.3800893687499139,-0.3639427816413742,0.7670213117396991,-0.3158728182315826,-0.8397952914237976,-0.4415520429611206,0,0,0,-1,-1,2305.468970291667,walking,2,2022-06-02T10:39:21.191+02:00,2022-06-02T10:17:13.754+02:00,421,1.066923,0,0,325.4592,0,0,2022-06-02T10:38:45.407+02:00,675851961.1904297,0,6.933594,101.3004,1,0.84
461,2022-06-02T10:39:21.471+02:00,1654159150.781398,53.22899670524735,10.39847340447524,42.83807,-1,-1,-1,-1,48.92399978637695,32.01386601977254,-1,2305.747963291667,1.730316162109375,-1.00323486328125,-1.32440185546875,2305.737969291667,-0.4636760004057184,-0.6936059524058352,1.011188689009542,3.668236494064331,-0.7407915592193604,2.547971248626709,2.131420135498047,0.2627620100975037,-0.9567622542381288,XArbitraryZVertical,0.3749810912233055,-0.3940690664977247,-0.3492672890527054,0.7629619299034013,-0.339382141828537,-0.8474634885787964,-0.4081974923610687,0,0,0,-1,-1,2305.468970291667,walking,2,2022-06-02T10:39:21.191+02:00,2022-06-02T10:17:13.754+02:00,421,1.066923,0,0,325.4592,0,0,2022-06-02T10:38:45.407+02:00,675851961.1904297,0,6.933594,101.3004,1,0.84
462,2022-06-02T10:39:21.481+02:00,1654159150.781398,53.22899670524735,10.39847340447524,42.83807,-1,-1,-1,-1,48.92399978637695,32.01386601977254,-1,2305.757958291667,1.728713989257812,-0.9247894287109376,-1.337005615234375,2305.747963291667,-0.3825264484144631,-0.7695778513221889,1.01928530306313,3.21325159072876,-0.664619505405426,2.771252155303955,2.121464967727661,-0.089107871055603,-0.9711979031562804,XArbitraryZVertical,0.3816574530013115,-0.4076481945425174,-0.3335947038342903,0.7595229626737513,-0.3645985126495361,-0.8517337441444397,-0.3763210773468018,0,0,0,-1,-1,2305.468970291667,walking,2,2022-06-02T10:39:21.191+02:00,2022-06-02T10:17:13.754+02:00,421,1.066923,0,0,325.4592,0,0,2022-06-02T10:38:45.407+02:00,675851961.1904297,0,6.933594,101.3004,1,0.84
463,2022-06-02T10:39:21.491+02:00,1654159150.781398,53.22899670524735,10.39847340447524,42.83807,-1,-1,-1,-1,48.92399978637695,32.01386601977254,-1,2305.767953291667,1.794235229492188,-0.730804443359375,-1.367660522460938,2305.757958291667,-0.3026454563357833,-0.8442454417981804,1.018286848664624,2.709839344024658,-0.6822994351387024,3.16166090965271,2.112185478210449,-0.1330732107162476,-0.970712423324585,XArbitraryZVertical,0.3856357107941832,-0.4206728730470289,-0.3174884227956624,0.7573113907594863,-0.3922909796237946,-0.8512101769447327,-0.3486388623714447,0,0,0,-1,-1,2305.468970291667,walking,2,2022-06-02T10:39:21.191+02:00,2022-06-02T10:17:13.754+02:00,421,1.066923,0,0,325.4592,0,0,2022-06-02T10:38:45.407+02:00,675851961.1904297,0,6.933594,101.3004,1,0.84
464,2022-06-02T10:39:21.501+02:00,1654159150.781398,53.22899670524735,10.39847340447524,42.83807,-1,-1,-1,-1,48.92399978637695,32.01386601977254,-1,2305.777948291667,1.871139526367188,-0.485443115234375,-1.270553588867188,2305.767953291667,-0.2257519292875586,-0.9166954302946624,1.009006309977683,2.450896978378296,-0.7490919232368469,3.459786653518677,2.176686525344849,0.0080307722091674,-1.036917924880981,XArbitraryZVertical,0.3870937706027203,-0.4337029280380857,-0.3009415240730329,0.7559724878740959,-0.422749787569046,-0.8463029265403748,-0.3241203725337982,0,0,0,-1,-1,2305.468970291667,walking,2,2022-06-02T10:39:21.191+02:00,2022-06-02T10:17:13.754+02:00,421,1.066923,0,0,325.4592,0,0,2022-06-02T10:38:45.407+02:00,675851961.1904297,0,6.933594,101.3004,1,0.84
465,2022-06-02T10:39:21.513+02:00,1654159150.781398,53.22899670524735,10.39847340447524,42.83807,-1,-1,-1,-1,48.92399978637695,32.01386601977254,-1,2305.787943291667,1.844757080078125,-0.31256103515625,-1.190292358398438,2305.777948291667,-0.14943152403194,-0.9888235690176816,0.9939984311093992,2.520318508148193,-0.8020238876342773,3.743643999099731,2.295732498168945,0.2267630100250244,-1.034224271774292,XArbitraryZVertical,0.3873870806046496,-0.4472708255160825,-0.2833700989150066,0.7547061602570926,-0.455568253993988,-0.8382132053375244,-0.299760103225708,0,0,0,-1,-1,2305.468970291667,walking,2,2022-06-02T10:39:21.191+02:00,2022-06-02T10:17:13.754+02:00,421,1.066923,0,0,325.4592,0,0,2022-06-02T10:38:45.407+02:00,675851961.1904297,0,6.933594,101.3004,1,0.84
466,2022-06-02T10:39:21.521+02:00,1654159161.481271,53.22886676092295,10.39829072151826,42.62697,-1,-1,-1,-1,41.78797912597656,40.0,-9999,2305.797937291667,1.859771728515625,-0.146759033203125,-1.128646850585938,2305.787943291667,-0.0747652377043025,-1.058803806006561,0.9741001969267404,2.447635889053345,-0.7406781911849976,3.932590007781982,2.355474472045898,0.4455133676528931,-0.9417821168899536,XArbitraryZVertical,0.3869914103848137,-0.4610779979521987,-0.2647003760240874,0.7533779276587222,-0.4898584187030792,-0.8271965980529785,-0.2752894461154938,0,0,0,-1,-1,2305.468970291667,walking,2,2022-06-02T10:39:21.191+02:00,2022-06-02T10:17:13.754+02:00,421,1.066923,0,0,325.4592,0,0,2022-06-02T10:38:45.407+02:00,675851961.1904297,0,6.933594,101.3004,1,0.84
