,loggingTime(txt),locationTimestamp_since1970(s),locationLatitude(WGS84),locationLongitude(WGS84),locationAltitude(m),locationSpeed(m/s),locationSpeedAccuracy(m/s),locationCourse(°),locationCourseAccuracy(°),locationVerticalAccuracy(m),locationHorizontalAccuracy(m),locationFloor(Z),accelerometerTimestamp_sinceReboot(s),accelerometerAccelerationX(G),accelerometerAccelerationY(G),accelerometerAccelerationZ(G),motionTimestamp_sinceReboot(s),motionYaw(rad),motionRoll(rad),motionPitch(rad),motionRotationRateX(rad/s),motionRotationRateY(rad/s),motionRotationRateZ(rad/s),motionUserAccelerationX(G),motionUserAccelerationY(G),motionUserAccelerationZ(G),motionAttitudeReferenceFrame(txt),motionQuaternionX(R),motionQuaternionY(R),motionQuaternionZ(R),motionQuaternionW(R),motionGravityX(G),motionGravityY(G),motionGravityZ(G),motionMagneticFieldX(µT),motionMagneticFieldY(µT),motionMagneticFieldZ(µT),motionHeading(°),motionMagneticFieldCalibrationAccuracy(Z),activityTimestamp_sinceReboot(s),activity(txt),activityActivityConfidence(Z),activityActivityStartDate(txt),pedometerStartDate(txt),pedometerNumberofSteps(N),pedometerAverageActivePace(s/m),pedometerCurrentPace(s/m),pedometerCurrentCadence(steps/s),pedometerDistance(m),pedometerFloorAscended(N),pedometerFloorDescended(N),pedometerEndDate(txt),altimeterTimestamp_sinceReboot(s),altimeterReset(bool),altimeterRelativeAltitude(m),altimeterPressure(kPa),batteryState(N),batteryLevel(R)
238,2022-06-02T10:54:28.681+02:00,1654160064.863409,53.22866137252311,10.3982896408892,42.6418,-1,-1,-1,-1,29.29669761657715,52.3311376,-9999,3208.846055625,0.66021728515625,0.5414886474609375,1.371856689453125,3208.841058625,-2.122895324833101,1.52894722498522,0.0364683366926627,-0.8704511523246765,6.535188674926758,3.290370464324951,-0.3970960378646851,0.6135630011558533,1.22760009765625,XArbitraryZVertical,0.6106126815949053,0.3259564691502624,-0.6238713944810371,0.3628896852608725,0.998460054397583,-0.0364602543413639,-0.0418090671300888,0,0,0,-1,-1,3206.825183666667,unknown,2,2022-06-02T10:54:26.659+02:00,2022-06-02T10:17:13.754+02:00,521,1.609496,0,0,405.4342,0,0,2022-06-02T10:54:26.659+02:00,675852866.6587945,0,5.441406,101.3207,1,0.78
239,2022-06-02T10:54:28.691+02:00,1654160064.863409,53.22866137252311,10.3982896408892,42.6418,-1,-1,-1,-1,29.29669761657715,52.3311376,-9999,3208.856049625,0.7427825927734375,0.59967041015625,1.6207275390625,3208.851052625,-2.111958315586568,1.595922716833547,0.0682475557556577,-1.303583860397339,6.972451686859131,3.102340698242188,-0.3371398448944092,0.6096832752227783,1.346791386604309,XArbitraryZVertical,0.6345022248449146,0.3315713430931057,-0.5952927414676034,0.3648203251621982,0.9973570704460144,-0.0681945905089378,0.0250652581453323,0,0,0,-1,-1,3206.825183666667,unknown,2,2022-06-02T10:54:26.659+02:00,2022-06-02T10:17:13.754+02:00,521,1.609496,0,0,405.4342,0,0,2022-06-02T10:54:26.659+02:00,675852866.6587945,0,5.441406,101.3207,1,0.78
240,2022-06-02T10:54:28.701+02:00,1654160064.863409,53.22866137252311,10.3982896408892,42.6418,-1,-1,-1,-1,29.29669761657715,52.3311376,-9999,3208.866043625,0.735595703125,0.5618133544921875,1.823928833007812,3208.861046625,-2.09808198802276,1.666384622881929,0.0991921378250635,-1.796179294586182,7.37397289276123,2.918630599975586,-0.247759222984314,0.6987000107765198,1.525753855705261,XArbitraryZVertical,0.6574389671904965,0.3395008347506303,-0.5640318944737771,0.366580154190584,0.9905416369438172,-0.0990295559167861,0.0949736237525939,0,0,0,-1,-1,3206.825183666667,unknown,2,2022-06-02T10:54:26.659+02:00,2022-06-02T10:17:13.754+02:00,521,1.609496,0,0,405.4342,0,0,2022-06-02T10:54:26.659+02:00,675852866.6587945,0,5.441406,101.3207,1,0.78
241,2022-06-02T10:54:28.711+02:00,1654160064.863409,53.22866137252311,10.3982896408892,42.6418,-1,-1,-1,-1,29.29669761657715,52.3311376,-9999,3208.876037625,0.66387939453125,0.70501708984375,2.058761596679688,3208.871040625,-2.081168183735505,1.740009473431151,0.1296743291007935,-2.382989406585693,7.752435684204102,2.714927911758423,-0.2418458461761475,0.6911246180534363,1.656935930252075,XArbitraryZVertical,0.6791319660163919,0.3496801174937224,-0.5300753512017031,0.3681352521276157,0.9774413704872132,-0.1293112188577652,0.1669928282499313,0,0,0,-1,-1,3206.825183666667,unknown,2,2022-06-02T10:54:26.659+02:00,2022-06-02T10:17:13.754+02:00,521,1.609496,0,0,405.4342,0,0,2022-06-02T10:54:26.659+02:00,675852866.6587945,0,5.441406,101.3207,1,0.78
242,2022-06-02T10:54:28.721+02:00,1654160064.863409,53.22866137252311,10.3982896408892,42.6418,-1,-1,-1,-1,29.29669761657715,52.3311376,-9999,3208.886031625,0.484039306640625,0.783355712890625,2.301025390625,3208.881034625,-2.05959373425136,1.816675311157286,0.1609642436041473,-3.064682245254517,8.224353790283203,2.530766725540161,-0.293506383895874,0.865287184715271,1.818499088287354,XArbitraryZVertical,0.6991601153398264,0.362362199152062,-0.4928715580310084,0.3700626594524741,0.9573857188224792,-0.1602700650691986,0.2402624636888504,0,0,0,-1,-1,3206.825183666667,unknown,2,2022-06-02T10:54:26.659+02:00,2022-06-02T10:17:13.754+02:00,521,1.609496,0,0,405.4342,0,0,2022-06-02T10:54:26.659+02:00,675852866.6587945,0,5.441406,101.3207,1,0.78
243,2022-06-02T10:54:28.731+02:00,1654160064.863409,53.22866137252311,10.3982896408892,42.6418,-1,-1,-1,-1,29.29669761657715,52.3311376,-9999,3208.896025625,0.379364013671875,0.83624267578125,2.570816040039062,3208.891028625,-2.034690751775716,1.89745491711315,0.192647495254088,-3.398128509521484,8.829328536987305,2.150733232498169,-0.4455595016479492,0.9748138189315796,1.986081123352051,XArbitraryZVertical,0.7176078014278648,0.3775064087427459,-0.4523468023408754,0.371362821216059,0.929598867893219,-0.1914580762386322,0.3149440884590149,0,0,0,-1,-1,3206.825183666667,unknown,2,2022-06-02T10:54:26.659+02:00,2022-06-02T10:17:13.754+02:00,521,1.609496,0,0,405.4342,0,0,2022-06-02T10:54:26.659+02:00,675852866.6587945,0,5.441406,101.3207,1,0.78
244,2022-06-02T10:54:28.741+02:00,1654160064.863409,53.22866137252311,10.3982896408892,42.6418,-1,-1,-1,-1,29.29669761657715,52.3311376,-9999,3208.906019625,0.3387908935546875,1.055862426757812,2.90496826171875,3208.901022625,-2.007689485000443,1.983399420433388,0.2229934591667877,-3.777213335037231,9.479092597961426,1.62701153755188,-0.5140337944030762,1.057392716407776,2.179749488830566,XArbitraryZVertical,0.7343279218506373,0.3953426198379549,-0.4087632364312782,0.3706470852456528,0.8933976888656616,-0.2211499512195587,0.3910665810108185,0,0,0,-1,-1,3206.825183666667,unknown,2,2022-06-02T10:54:26.659+02:00,2022-06-02T10:17:13.754+02:00,521,1.609496,0,0,405.4342,0,0,2022-06-02T10:54:26.659+02:00,675852866.6587945,0,5.441406,101.3207,1,0.78
245,2022-06-02T10:54:28.751+02:00,1654160064.863409,53.22866137252311,10.3982896408892,42.6418,-1,-1,-1,-1,29.29669761657715,52.3311376,-9999,3208.916013625,0.169586181640625,1.17138671875,3.320877075195312,3208.911016625,-1.975802767788456,2.073468487619161,0.2539758526059828,-4.544456481933594,10.05830955505371,1.200720191001892,-0.5093967914581299,1.307116746902466,2.438653945922852,XArbitraryZVertical,0.7483130175841901,0.4161547509157142,-0.3615522745481996,0.3689483058677794,0.8481877446174622,-0.2512542605400085,0.466314285993576,0,0,0,-1,-1,3206.825183666667,unknown,2,2022-06-02T10:54:26.659+02:00,2022-06-02T10:17:13.754+02:00,521,1.609496,0,0,405.4342,0,0,2022-06-02T10:54:26.659+02:00,675852866.6587945,0,5.441406,101.3207,1,0.78
246,2022-06-02T10:54:28.761+02:00,1654160064.863409,53.22866137252311,10.3982896408892,42.6418,-1,-1,-1,-1,29.29669761657715,52.3311376,-9999,3208.926007625,0.09600830078125,1.15411376953125,4.031906127929688,3208.921010625,-1.936976193534149,2.167092323097505,0.2870396307227945,-5.264338493347168,10.74008655548096,0.5004667043685913,-0.6239822506904602,1.454500913619995,2.782271862030029,XArbitraryZVertical,0.7585852214222464,0.4402851798211,-0.310240949228947,0.3666715281529283,0.79356849193573,-0.2831142246723175,0.5386051535606384,0,0,0,-1,-1,3206.825183666667,unknown,2,2022-06-02T10:54:26.659+02:00,2022-06-02T10:17:13.754+02:00,521,1.609496,0,0,405.4342,0,0,2022-06-02T10:54:26.659+02:00,675852866.6587945,0,5.441406,101.3207,1,0.78
247,2022-06-02T10:54:28.771+02:00,1654160064.863409,53.22866137252311,10.3982896408892,42.6418,-1,-1,-1,-1,29.29669761657715,52.3311376,-9999,3208.936001625,0.160491943359375,1.228057861328125,4.887039184570312,3208.931004625,-1.890653777216976,2.263915062995855,0.3204065016871712,-5.805231094360352,11.39865493774414,-0.5329180955886841,-0.6340993046760559,1.469066143035889,3.42548394203186,XArbitraryZVertical,0.764157170616315,0.4682680086614672,-0.2554962875338352,0.3626439018658511,0.7301077246665955,-0.3149524033069611,0.6064222455024719,0,0,0,-1,-1,3206.825183666667,unknown,2,2022-06-02T10:54:26.659+02:00,2022-06-02T10:17:13.754+02:00,521,1.609496,0,0,405.4342,0,0,2022-06-02T10:54:26.659+02:00,675852866.6587945,0,5.441406,101.3207,1,0.78
248,2022-06-02T10:54:28.781+02:00,1654160064.863409,53.22866137252311,10.3982896408892,42.6418,-1,-1,-1,-1,29.29669761657715,52.3311376,-9999,3208.945995625,0.31768798828125,1.372772216796875,5.757247924804688,3208.940998625,-1.835648409080299,2.363161326660055,0.3518590764794982,-6.031355857849121,12.07729530334473,-1.879045963287354,-0.498652458190918,1.572701454162598,4.218646049499512,XArbitraryZVertical,0.763881888160257,0.5006805878579961,-0.1983657340689594,0.3556042712357945,0.6591442823410034,-0.3446435928344727,0.6683931946754456,0,0,0,-1,-1,3206.825183666667,unknown,2,2022-06-02T10:54:26.659+02:00,2022-06-02T10:17:13.754+02:00,521,1.609496,0,0,405.4342,0,0,2022-06-02T10:54:26.659+02:00,675852866.6587945,0,5.441406,101.3207,1,0.78
249,2022-06-02T10:54:28.791+02:00,1654160064.863409,53.22866137252311,10.3982896408892,42.6418,-1,-1,-1,-1,29.29669761657715,52.3311376,-9999,3208.955989625,0.478729248046875,1.756210327148438,6.718643188476562,3208.950992625,-1.771390475776657,2.463421904360189,0.3790114986443804,-6.020802021026611,12.51387786865234,-3.49719500541687,-0.2651576399803162,1.742774486541748,5.033791542053223,XArbitraryZVertical,0.756835924219743,0.5375198171631322,-0.1405518346113659,0.3442629229798754,0.5828456282615662,-0.3700022995471954,0.7234563231468201,0,0,0,-1,-1,3206.825183666667,unknown,2,2022-06-02T10:54:26.659+02:00,2022-06-02T10:17:13.754+02:00,521,1.609496,0,0,405.4342,0,0,2022-06-02T10:54:26.659+02:00,675852866.6587945,0,5.441406,101.3207,1,0.78
250,2022-06-02T10:54:28.801+02:00,1654160064.863409,53.22866137252311,10.3982896408892,42.6418,-1,-1,-1,-1,29.29669761657715,52.3311376,-9999,3208.965983625,0.7660064697265625,2.086944580078125,8.0919189453125,3208.960986625,-1.69325609867408,2.558013480474442,0.4017134708640574,-6.240928649902344,12.2612361907959,-5.584238529205322,-0.028420090675354,2.14720630645752,5.950579643249512,XArbitraryZVertical,0.740989375529851,0.5787629301343395,-0.0845548058341042,0.3298767644707921,0.507149338722229,-0.390995979309082,0.7680635452270508,0,0,0,-1,-1,3206.825183666667,unknown,2,2022-06-02T10:54:26.659+02:00,2022-06-02T10:17:13.754+02:00,521,1.609496,0,0,405.4342,0,0,2022-06-02T10:54:26.659+02:00,675852866.6587945,0,5.441406,101.3207,1,0.78
251,2022-06-02T10:54:28.812+02:00,1654160064.863409,53.22866137252311,10.3982896408892,42.6418,-1,-1,-1,-1,29.29669761657715,52.3311376,-9999,3208.975977625,1.260330200195312,2.189117431640625,9.552444458007812,3208.970980625,-1.591252321874916,2.634290441364834,0.4229714772444023,-7.132818222045898,11.07048511505127,-8.331438064575195,0.3229992687702179,2.497416496276855,7.294888496398926,XArbitraryZVertical,0.7129051497165996,0.6247250021079299,-0.0330489459875483,0.3168478147218097,0.4430070221424103,-0.4104718863964081,0.7970301508903503,0,0,0,-1,-1,3206.825183666667,unknown,2,2022-06-02T10:54:26.659+02:00,2022-06-02T10:17:13.754+02:00,521,1.609496,0,0,405.4342,0,0,2022-06-02T10:54:26.659+02:00,675852866.6587945,0,5.441406,101.3207,1,0.78
252,2022-06-02T10:54:28.821+02:00,1654160064.863409,53.22866137252311,10.3982896408892,42.6418,-1,-1,-1,-1,29.29669761657715,52.3311376,-9999,3208.985971625,1.55096435546875,2.796920776367188,10.70831298828125,3208.980974625,-1.454828903412207,2.677637303149986,0.4430513086640691,-7.846038818359375,8.919775009155273,-11.77924251556396,0.8560474514961243,2.617815494537354,8.744501113891602,XArbitraryZVertical,0.6690442857137215,0.6755380372895353,0.0105749151073442,0.3097034445834572,0.4042827486991882,-0.4286981523036957,0.8079438209533691,0,0,0,-1,-1,3206.825183666667,unknown,2,2022-06-02T10:54:26.659+02:00,2022-06-02T10:17:13.754+02:00,521,1.609496,0,0,405.4342,0,0,2022-06-02T10:54:26.659+02:00,675852866.6587945,0,5.441406,101.3207,1,0.78
253,2022-06-02T10:54:28.831+02:00,1654160064.863409,53.22866137252311,10.3982896408892,42.6418,-1,-1,-1,-1,29.29669761657715,52.3311376,-9999,3208.995965166667,0.8436737060546875,3.41644287109375,11.85214233398438,3208.990968166667,-1.281341136289173,2.674808358952517,0.4519037915112635,-7.517419338226318,5.299034118652344,-15.52194881439209,1.146121263504028,3.233599901199341,9.904936790466309,XArbitraryZVertical,0.6082848049484152,0.7291622618312275,0.0400083372242423,0.3109841524673597,0.404842883348465,-0.4366790056228638,0.8033760190010071,0,0,0,-1,-1,3206.825183666667,unknown,2,2022-06-02T10:54:26.659+02:00,2022-06-02T10:17:13.754+02:00,521,1.609496,0,0,405.4342,0,0,2022-06-02T10:54:26.659+02:00,675852866.6587945,0,5.441406,101.3207,1,0.78
254,2022-06-02T10:54:28.841+02:00,1654160064.863409,53.22866137252311,10.3982896408892,42.6418,-1,-1,-1,-1,29.29669761657715,52.3311376,-9999,3209.005959166667,-0.8993682861328125,4.597015380859375,12.68487548828125,3209.000962166667,-1.071287841155957,2.609914642863244,0.4312389704248242,-7.195002555847168,-0.3966888189315796,-19.82366561889648,0.3831080496311188,3.834439754486084,11.06909847259521,XArbitraryZVertical,0.5293991606287225,0.781830161795747,0.0465380893299629,0.3260553904475885,0.4605654180049896,-0.4179966747760773,0.7830437421798706,0,0,0,-1,-1,3206.825183666667,unknown,2,2022-06-02T10:54:26.659+02:00,2022-06-02T10:17:13.754+02:00,521,1.609496,0,0,405.4342,0,0,2022-06-02T10:54:26.659+02:00,675852866.6587945,0,5.441406,101.3207,1,0.78
255,2022-06-02T10:54:28.851+02:00,1654160064.863409,53.22866137252311,10.3982896408892,42.6418,-1,-1,-1,-1,29.29669761657715,52.3311376,-9999,3209.015953166667,-3.166244506835938,6.81817626953125,12.52442932128906,3209.010956166667,-0.8278873431494701,2.479119628414069,0.3819331971121052,-10.09336566925049,-6.320032596588135,-22.38185501098633,-1.470118641853333,4.969730377197266,11.95321464538574,XArbitraryZVertical,0.4299586445883981,0.8252065819764997,0.0359007346957357,0.3645281072761775,0.5707502961158752,-0.3727150559425354,0.7316606640815735,0,0,0,-1,-1,3206.825183666667,unknown,2,2022-06-02T10:54:26.659+02:00,2022-06-02T10:17:13.754+02:00,521,1.609496,0,0,405.4342,0,0,2022-06-02T10:54:26.659+02:00,675852866.6587945,0,5.441406,101.3207,1,0.78
256,2022-06-02T10:54:28.861+02:00,1654160064.863409,53.22866137252311,10.3982896408892,42.6418,-1,-1,-1,-1,29.29669761657715,52.3311376,-9999,3209.025947166667,-6.592819213867188,7.299713134765625,11.99514770507812,3209.020950166667,-0.5652977244289082,2.309400362978608,0.3119729593648187,-12.83418655395508,-9.721587181091309,-23.51593780517578,-3.869962215423584,7.125113010406494,11.88367080688477,XArbitraryZVertical,0.3123072088328168,0.8502019366330057,0.0250995262102752,0.423073207838328,0.7037177681922913,-0.3069369494915009,0.6407582759857178,0,0,0,-1,-1,3206.825183666667,unknown,2,2022-06-02T10:54:26.659+02:00,2022-06-02T10:17:13.754+02:00,521,1.609496,0,0,405.4342,0,0,2022-06-02T10:54:26.659+02:00,675852866.6587945,0,5.441406,101.3207,1,0.78
257,2022-06-02T10:54:28.871+02:00,1654160064.863409,53.22866137252311,10.3982896408892,42.6418,-1,-1,-1,-1,29.29669761657715,52.3311376,-9999,3209.035941166667,-13.59329223632812,6.923599243164062,12.6951904296875,3209.030944166667,-0.3060994795746301,2.12005003439872,0.1764244814142739,-10.1890230178833,-16.2482738494873,-28.91857147216797,-7.432494163513184,7.475224018096924,11.48120021820068,XArbitraryZVertical,0.1750411742009335,0.8522524130690426,0.0017185191438432,0.4929739009689202,0.8396747708320618,-0.1755106896162033,0.5139471888542175,0,0,0,-1,-1,3206.825183666667,unknown,2,2022-06-02T10:54:26.659+02:00,2022-06-02T10:17:13.754+02:00,521,1.609496,0,0,405.4342,0,0,2022-06-02T10:54:26.659+02:00,675852866.6587945,0,5.441406,101.3207,1,0.78
258,2022-06-02T10:54:28.881+02:00,1654160064.863409,53.22866137252311,10.3982896408892,42.6418,-1,-1,-1,-1,29.29669761657715,52.3311376,-9999,3209.045935166667,-20.05482482910156,8.642013549804688,14.29450988769531,3209.040938166667,-0.1220638559749265,1.878030718935568,-0.068593694117862,-1.813173174858093,-28.58684349060059,-29.70914840698242,-14.54422473907471,6.855059146881104,12.39347743988037,XArbitraryZVertical,0.0289783981223484,0.8062359868424883,-0.0636206795167653,0.587448721736151,0.9509318470954896,0.0685399174690246,0.3017124235630035,0,0,0,-1,-1,3206.825183666667,unknown,2,2022-06-02T10:54:26.659+02:00,2022-06-02T10:17:13.754+02:00,521,1.609496,0,0,405.4342,0,0,2022-06-02T10:54:26.659+02:00,675852866.6587945,0,5.441406,101.3207,1,0.78
259,2022-06-02T10:54:28.891+02:00,1654160064.863409,53.22866137252311,10.3982896408892,42.6418,-1,-1,-1,-1,29.29669761657715,52.3311376,-9999,3209.055929166667,-30.48562622070312,10.05078125,16.60546875,3209.050932166667,-0.1242360112406722,1.549134605456859,-0.3487191632745945,11.5090856552124,-35.04977798461914,-26.62291145324707,-20.99441528320312,8.300318717956543,14.314866065979,XArbitraryZVertical,-0.0809898029259809,0.6951708317416327,-0.164793272954415,0.6949973090955196,0.939590573310852,0.3416943550109863,-0.0203563328832387,0,0,0,-1,-1,3206.825183666667,unknown,2,2022-06-02T10:54:26.659+02:00,2022-06-02T10:17:13.754+02:00,521,1.609496,0,0,405.4342,0,0,2022-06-02T10:54:26.659+02:00,675852866.6587945,0,5.441406,101.3207,1,0.78
260,2022-06-02T10:54:28.901+02:00,1654160064.863409,53.22866137252311,10.3982896408892,42.6418,-1,-1,-1,-1,29.29669761657715,52.3311376,-9999,3209.065923166667,-32.12095642089844,6.431106567382812,19.62040710449219,3209.060926166667,-0.4055026997584034,1.076691766667003,-0.4815447876360186,33.12765884399414,-35.14680099487305,-12.49958038330078,-31.26590156555176,9.587632179260254,17.02578163146973,XArbitraryZVertical,-0.1002669524931872,0.5289519295506433,-0.2876509811503726,0.7920942833899484,0.780275821685791,0.463148832321167,-0.4203127920627594,0,0,0,-1,-1,3206.825183666667,unknown,2,2022-06-02T10:54:26.659+02:00,2022-06-02T10:17:13.754+02:00,521,1.609496,0,0,405.4342,0,0,2022-06-02T10:54:26.659+02:00,675852866.6587945,0,5.441406,101.3207,1,0.78
261,2022-06-02T10:54:28.911+02:00,1654160064.863409,53.22866137252311,10.3982896408892,42.6418,-1,-1,-1,-1,29.29669761657715,52.3311376,-9999,3209.075917166667,-31.8814697265625,26.89053344726562,16.79133605957031,3209.070920166667,-0.6575633891294592,0.6258953809343476,-0.2381116870186057,35.09366607666016,-35.09355926513672,17.98633575439453,-32.69025039672852,6.195238590240479,20.40797996520996,XArbitraryZVertical,-0.008250161047219,0.3258001051253726,-0.3396407650176113,0.8822870026617671,0.5692942142486572,0.2358680069446564,-0.78757244348526,0,0,0,-1,-1,3206.825183666667,unknown,2,2022-06-02T10:54:26.659+02:00,2022-06-02T10:17:13.754+02:00,521,1.609496,0,0,405.4342,0,0,2022-06-02T10:54:26.659+02:00,675852866.6587945,0,5.441406,101.3207,1,0.78
262,2022-06-02T10:54:28.921+02:00,1654160064.863409,53.22866137252311,10.3982896408892,42.6418,-1,-1,-1,-1,29.29669761657715,52.3311376,-9999,3209.085911166667,-32.08242797851562,30.28965759277344,29.09689331054688,3209.080914166667,-0.7586629530933031,0.3121945286848499,0.1069834548782055,35.17693328857422,-18.03853225708008,-2.637642860412598,-32.18686294555664,26.99731254577637,17.73755645751953,XArbitraryZVertical,0.1065475233631904,0.1246481852921588,-0.3575528633004286,0.9193837520978134,0.305391788482666,-0.1067794933915138,-0.9462209343910216,0,0,0,-1,-1,3206.825183666667,unknown,2,2022-06-02T10:54:26.659+02:00,2022-06-02T10:17:13.754+02:00,521,1.609496,0,0,405.4342,0,0,2022-06-02T10:54:26.659+02:00,675852866.6587945,0,5.441406,101.3207,1,0.78
263,2022-06-02T10:54:28.931+02:00,1654160064.863409,53.22866137252311,10.3982896408892,42.6418,-1,-1,-1,-1,29.29669761657715,52.3311376,-9999,3209.095905166667,-18.75994873046875,-17.97125244140625,31.51676940917969,3209.090908166667,-0.9701960522213996,0.5158524802442398,0.4025633240789616,34.90211486816406,34.44210052490234,-3.905311822891235,-32.53627014160156,30.68143653869629,29.8972282409668,XArbitraryZVertical,0.2875488345582886,0.1309516391539076,-0.3966552983095039,0.8618768389946562,0.4538439214229584,-0.3917780518531799,-0.8003346920013428,0,0,0,-1,-1,3206.825183666667,unknown,2,2022-06-02T10:54:26.659+02:00,2022-06-02T10:17:13.754+02:00,521,1.609496,0,0,405.4342,0,0,2022-06-02T10:54:26.659+02:00,675852866.6587945,0,5.441406,101.3207,1,0.78
264,2022-06-02T10:54:28.941+02:00,1654160064.863409,53.22866137252311,10.3982896408892,42.6418,-1,-1,-1,-1,29.29669761657715,52.3311376,-9999,3209.105899166667,6.75128173828125,-32.0596923828125,9.4215087890625,3209.100902166667,-1.132070950488393,0.8835382538557289,0.6936271302866703,18.69122123718262,9.265049934387209,15.57259464263916,-19.35432434082031,-17.33192253112793,32.00459671020508,XArbitraryZVertical,0.4749808036957061,0.1745859914629767,-0.3332829100515804,0.7955094683881339,0.5943756103515625,-0.6393303871154785,-0.4878259301185608,0,0,0,-1,-1,3206.825183666667,unknown,2,2022-06-02T10:54:26.659+02:00,2022-06-02T10:17:13.754+02:00,521,1.609496,0,0,405.4342,0,0,2022-06-02T10:54:26.659+02:00,675852866.6587945,0,5.441406,101.3207,1,0.78
265,2022-06-02T10:54:28.951+02:00,1654160064.863409,53.22866137252311,10.3982896408892,42.6418,-1,-1,-1,-1,29.29669761657715,52.3311376,-9999,3209.115893166667,5.043014526367188,-6.767532348632812,6.266555786132812,3209.110896166667,-0.8530906581749831,0.8157392298017512,0.6581232734054044,-34.87068557739258,16.40002250671387,3.276721239089966,6.17514705657959,-31.44805908203125,9.963702201843262,XArbitraryZVertical,0.4253689029739399,0.2190084663784768,-0.2427159295191686,0.8439108449667835,0.5761348605155945,-0.6116331815719604,-0.5421931743621826,0,0,0,-1,-1,3206.825183666667,unknown,2,2022-06-02T10:54:26.659+02:00,2022-06-02T10:17:13.754+02:00,521,1.609496,0,0,405.4342,0,0,2022-06-02T10:54:26.659+02:00,675852866.6587945,0,5.441406,101.3207,1,0.78
266,2022-06-02T10:54:28.961+02:00,1654160064.863409,53.22866137252311,10.3982896408892,42.6418,-1,-1,-1,-1,29.29669761657715,52.3311376,-9999,3209.125887166667,-2.155776977539062,12.91435241699219,11.50723266601562,3209.120890166667,-0.5843860217676278,0.7802846892756065,0.3930197496238516,-34.97076416015625,-0.1130048483610153,-8.302130699157715,4.393168449401855,-6.384552955627441,6.923081874847412,XArbitraryZVertical,0.2803657830301837,0.3051752446687301,-0.1901707705094682,0.889998930436367,0.6498460173606873,-0.3829796612262726,-0.6565262079238892,0,0,0,-1,-1,3206.825183666667,unknown,2,2022-06-02T10:54:26.659+02:00,2022-06-02T10:17:13.754+02:00,521,1.609496,0,0,405.4342,0,0,2022-06-02T10:54:26.659+02:00,675852866.6587945,0,5.441406,101.3207,1,0.78
267,2022-06-02T10:54:28.971+02:00,1654160064.863409,53.22866137252311,10.3982896408892,42.6418,-1,-1,-1,-1,29.29669761657715,52.3311376,-9999,3209.135881166667,-26.87701416015625,7.853607177734375,4.048263549804688,3209.130884166667,-0.4783748939544182,0.6331967534638558,0.1376971694976567,-11.28249454498291,15.27457332611084,-1.174641489982605,-2.74190092086792,13.05161476135254,12.30574226379395,XArbitraryZVertical,0.1370988000842524,0.2862674947147594,-0.2037969611175448,0.9261326061294024,0.5861239433288574,-0.1372624486684799,-0.7985096573829651,0,0,0,-1,-1,3206.825183666667,unknown,2,2022-06-02T10:54:26.659+02:00,2022-06-02T10:17:13.754+02:00,521,1.609496,0,0,405.4342,0,0,2022-06-02T10:54:26.659+02:00,675852866.6587945,0,5.441406,101.3207,1,0.78
268,2022-06-02T10:54:28.981+02:00,1654160064.863409,53.22866137252311,10.3982896408892,42.6418,-1,-1,-1,-1,29.29669761657715,52.3311376,-9999,3209.145875166667,-6.44903564453125,5.30059814453125,8.270263671875,3209.140878166667,-0.4019201711195362,0.7256897242592765,0.1927711970103667,3.837752342224121,1.688186407089233,17.28789138793945,-27.52837371826172,8.045186996459961,4.782449722290039,XArbitraryZVertical,0.1586798032883318,0.328219056944251,-0.1522772800139289,0.9186427571725196,0.6513587832450867,-0.1915794909000397,-0.7341859340667725,0,0,0,-1,-1,3206.825183666667,unknown,2,2022-06-02T10:54:26.659+02:00,2022-06-02T10:17:13.754+02:00,521,1.609496,0,0,405.4342,0,0,2022-06-02T10:54:26.659+02:00,675852866.6587945,0,5.441406,101.3207,1,0.78
269,2022-06-02T10:54:28.992+02:00,1654160064.863409,53.22866137252311,10.3982896408892,42.6418,-1,-1,-1,-1,29.29669761657715,52.3311376,-9999,3209.155869166667,-7.403350830078125,1.566680908203125,3.405868530273438,3209.150872166667,-0.3277911884984074,0.7183505876752634,0.338459187194796,9.375051498413086,1.022759437561035,8.969200134277344,-7.069841384887695,5.632632255554199,8.98044204711914,XArbitraryZVertical,0.212095286873514,0.3161111091417703,-0.092161117081734,0.9201062409792778,0.6208055019378662,-0.3320340812206268,-0.7101787328720093,0,0,0,-1,-1,3206.825183666667,unknown,2,2022-06-02T10:54:26.659+02:00,2022-06-02T10:17:13.754+02:00,521,1.609496,0,0,405.4342,0,0,2022-06-02T10:54:26.659+02:00,675852866.6587945,0,5.441406,101.3207,1,0.78
270,2022-06-02T10:54:29.005+02:00,1654160065.815581,53.22885049977639,10.39873768576458,41.22404,-1,-1,-1,-1,35.78470230102539,158.9079730818873,-9999,3209.165863166667,-22.347412109375,4.672286987304688,5.672317504882812,3209.160866166667,-0.3390884173918349,0.7399254902276393,0.4777870504556635,11.86059093475342,3.377447843551636,11.95150279998779,-8.002079963684082,2.026496171951294,4.061684131622314,XArbitraryZVertical,0.2767324004076688,0.3090492626570729,-0.0685157836055315,0.9073109536531327,0.5987286567687988,-0.4598151743412018,-0.6558154821395874,0,0,0,-1,-1,3206.825183666667,unknown,2,2022-06-02T10:54:26.659+02:00,2022-06-02T10:17:13.754+02:00,521,1.609496,0,0,405.4342,0,0,2022-06-02T10:54:26.659+02:00,675852866.6587945,0,5.441406,101.3207,1,0.78
271,2022-06-02T10:54:29.011+02:00,1654160065.815581,53.22885049977639,10.39873768576458,41.22404,-1,-1,-1,-1,35.78470230102539,158.9079730818873,-9999,3209.175857166667,-14.73141479492188,-4.665771484375,7.815017700195312,3209.170860166667,-0.3252510519536946,0.8059355672369264,0.6563358014275342,11.68690395355225,11.22392845153809,13.88202381134033,-22.91899108886719,5.282505035400391,6.220889091491699,XArbitraryZVertical,0.3526851685661514,0.318319727026378,-0.0162666504556174,0.879784721421436,0.5715796947479248,-0.6102180480957031,-0.5485714673995972,0,0,0,-1,-1,3206.825183666667,unknown,2,2022-06-02T10:54:26.659+02:00,2022-06-02T10:17:13.754+02:00,521,1.609496,0,0,405.4342,0,0,2022-06-02T10:54:26.659+02:00,675852866.6587945,0,5.441406,101.3207,1,0.78
272,2022-06-02T10:54:29.021+02:00,1654160065.815581,53.22885049977639,10.39873768576458,41.22404,-1,-1,-1,-1,35.78470230102539,158.9079730818873,-9999,3209.185851166667,-10.24931335449219,-6.928482055664062,4.825927734375,3209.180854166667,-0.3049429157461096,0.9133730138429982,0.8172374444987519,6.621187686920166,11.98374652862549,12.55493068695068,-15.27303695678711,-3.93651294708252,8.233141899108887,XArbitraryZVertical,0.4139467392727901,0.3458123100413422,0.0480923401051799,0.8406836625862413,0.5416221618652344,-0.7292583584785461,-0.4181239008903503,0,0,0,-1,-1,3206.825183666667,unknown,2,2022-06-02T10:54:26.659+02:00,2022-06-02T10:17:13.754+02:00,521,1.609496,0,0,405.4342,0,0,2022-06-02T10:54:26.659+02:00,675852866.6587945,0,5.441406,101.3207,1,0.78
273,2022-06-02T10:54:29.031+02:00,1654160065.815581,53.22885049977639,10.39873768576458,41.22404,-1,-1,-1,-1,35.78470230102539,158.9079730818873,-9999,3209.195845166667,-7.798141479492188,-3.543853759765625,4.782974243164062,3209.190847166667,-0.2215998655811519,0.9381561730605128,0.9387256890624746,0.0804148465394973,5.665464401245117,12.88252353668213,-10.72578907012939,-6.121676445007324,5.175263404846191,XArbitraryZVertical,0.4455677075982518,0.35609206698165,0.1152592686173475,0.8132546825469517,0.4764754772186279,-0.8068058490753174,-0.3493357300758362,0,0,0,-1,-1,3206.825183666667,unknown,2,2022-06-02T10:54:26.659+02:00,2022-06-02T10:17:13.754+02:00,521,1.609496,0,0,405.4342,0,0,2022-06-02T10:54:26.659+02:00,675852866.6587945,0,5.441406,101.3207,1,0.78
274,2022-06-02T10:54:29.041+02:00,1654160065.815581,53.22885049977639,10.39873768576458,41.22404,-1,-1,-1,-1,35.78470230102539,158.9079730818873,-9999,3209.205839166667,-7.887863159179688,-2.504348754882812,4.393035888671875,3209.200841166667,-0.0831148253289061,0.8668014732516403,1.035790706198841,0.5754038691520691,3.872252464294434,11.76187038421631,-8.18677806854248,-2.683587789535522,5.112980842590332,XArbitraryZVertical,0.4640529772836068,0.3459066998472433,0.1749627813722266,0.7964868271901322,0.3886362612247467,-0.8602657914161682,-0.3300067782402039,0,0,0,-1,-1,3206.825183666667,unknown,2,2022-06-02T10:54:26.659+02:00,2022-06-02T10:17:13.754+02:00,521,1.609496,0,0,405.4342,0,0,2022-06-02T10:54:26.659+02:00,675852866.6587945,0,5.441406,101.3207,1,0.78
275,2022-06-02T10:54:29.051+02:00,1654160065.815581,53.22885049977639,10.39873768576458,41.22404,-1,-1,-1,-1,35.78470230102539,158.9079730818873,-9999,3209.215832166667,-8.029953002929688,-1.786178588867188,2.715896606445312,3209.210836166667,0.0474756769387034,0.7953957237740215,1.130166368234137,2.467446804046631,4.976493358612061,10.50804328918457,-8.192450523376465,-1.599865436553955,4.691593170166016,XArbitraryZVertical,0.4857913758064812,0.3387153114750007,0.2258150393828011,0.7734895822849934,0.3045875430107117,-0.9044831395149232,-0.2985573410987854,0,0,0,-1,-1,3206.825183666667,unknown,2,2022-06-02T10:54:26.659+02:00,2022-06-02T10:17:13.754+02:00,521,1.609496,0,0,405.4342,0,0,2022-06-02T10:54:26.659+02:00,675852866.6587945,0,5.441406,101.3207,1,0.78
276,2022-06-02T10:54:29.061+02:00,1654160065.815581,53.22885049977639,10.39873768576458,41.22404,-1,-1,-1,-1,35.78470230102539,158.9079730818873,-9999,3209.225826166667,-7.963043212890625,-2.464447021484375,1.787857055664062,3209.220829166667,0.1969324972183569,0.7079927588507167,1.219654210446351,2.855904340744019,4.994073867797852,10.12344360351562,-8.253640174865723,-0.8471980094909668,2.977200031280518,XArbitraryZVertical,0.506676225213308,0.3356002097154135,0.273163550318182,0.745676374693779,0.2236873358488083,-0.9389804601669312,-0.2613033950328827,0,0,0,-1,-1,3206.825183666667,unknown,2,2022-06-02T10:54:26.659+02:00,2022-06-02T10:17:13.754+02:00,521,1.609496,0,0,405.4342,0,0,2022-06-02T10:54:26.659+02:00,675852866.6587945,0,5.441406,101.3207,1,0.78
277,2022-06-02T10:54:29.071+02:00,1654160065.815581,53.22885049977639,10.39873768576458,41.22404,-1,-1,-1,-1,35.78470230102539,158.9079730818873,-9999,3209.235820166667,-9.2835693359375,-2.629592895507812,1.659759521484375,3209.230823166667,0.4066767704957258,0.5604208451021332,1.303850354337549,2.946176767349243,5.678632259368896,10.13857841491699,-8.103257179260254,-1.499865770339966,2.011292219161987,XArbitraryZVertical,0.5266475627630995,0.3330536139878173,0.3186006203747195,0.714290621278687,0.140213668346405,-0.96458101272583,-0.2234352678060532,0,0,0,-1,-1,3206.825183666667,unknown,2,2022-06-02T10:54:26.659+02:00,2022-06-02T10:17:13.754+02:00,521,1.609496,0,0,405.4342,0,0,2022-06-02T10:54:26.659+02:00,675852866.6587945,0,5.441406,101.3207,1,0.78
278,2022-06-02T10:54:29.081+02:00,1654160065.815581,53.22885049977639,10.39873768576458,41.22404,-1,-1,-1,-1,35.78470230102539,158.9079730818873,-9999,3209.245814166667,-9.405014038085938,-4.261428833007812,1.692291259765625,3209.240817166667,0.7795026982890281,0.2610916458975361,1.364937871151146,0.9210055470466614,6.979348659515381,10.54227256774902,-9.336334228515623,-1.650707006454468,1.857239246368408,XArbitraryZVertical,0.5400628202732408,0.3310472418641084,0.3682912390609684,0.680515529884578,0.0527647696435451,-0.9788858890533448,-0.1974797546863556,0,0,0,-1,-1,3206.825183666667,unknown,2,2022-06-02T10:54:26.659+02:00,2022-06-02T10:17:13.754+02:00,521,1.609496,0,0,405.4342,0,0,2022-06-02T10:54:26.659+02:00,675852866.6587945,0,5.441406,101.3207,1,0.78
279,2022-06-02T10:54:29.091+02:00,1654160065.815581,53.22885049977639,10.39873768576458,41.22404,-1,-1,-1,-1,35.78470230102539,158.9079730818873,-9999,3209.255808166667,-7.965484619140625,-4.790267944335938,1.159423828125,3209.250811166667,1.306591081353103,-0.1855185168781622,1.365823569246805,-1.447465896606445,6.75936222076416,10.62821006774902,-9.367469787597656,-3.282362222671509,1.892338633537292,XArbitraryZVertical,0.5426299067461645,0.3248524041092029,0.4230559746068543,0.6488815122630015,-0.0375442095100879,-0.9790665507316588,-0.2000474035739899,0,0,0,-1,-1,3206.825183666667,unknown,2,2022-06-02T10:54:26.659+02:00,2022-06-02T10:17:13.754+02:00,521,1.609496,0,0,405.4342,0,0,2022-06-02T10:54:26.659+02:00,675852866.6587945,0,5.441406,101.3207,1,0.78
280,2022-06-02T10:54:29.101+02:00,1654160065.815581,53.22885049977639,10.39873768576458,41.22404,-1,-1,-1,-1,35.78470230102539,158.9079730818873,-9999,3209.265802166667,-6.737014770507812,-4.178329467773438,1.0045166015625,3209.260805166667,1.701309184585434,-0.5065633545797813,1.310353962575439,-2.497035026550293,6.000178813934326,9.953914642333984,-7.840548515319824,-3.823991775512695,1.384592771530151,XArbitraryZVertical,0.5383703670534613,0.3123665553970627,0.476354587883227,0.6210238506220204,-0.1249362230300903,-0.9662761688232422,-0.2251689732074738,0,0,0,-1,-1,3206.825183666667,unknown,2,2022-06-02T10:54:26.659+02:00,2022-06-02T10:17:13.754+02:00,521,1.609496,0,0,405.4342,0,0,2022-06-02T10:54:26.659+02:00,675852866.6587945,0,5.441406,101.3207,1,0.78
281,2022-06-02T10:54:29.111+02:00,1654160065.815581,53.22885049977639,10.39873768576458,41.22404,-1,-1,-1,-1,35.78470230102539,158.9079730818873,-9999,3209.275796166667,-5.6279296875,-3.854904174804688,0.9207000732421876,3209.270799166667,1.921699619124652,-0.6597540373910977,1.237293373127475,-2.4151451587677,5.561183452606201,8.814072608947754,-6.53637170791626,-3.233428001403809,1.263173699378967,XArbitraryZVertical,0.5305941413852879,0.2985653840931418,0.524150107516725,0.5954789435210416,-0.2006431519985199,-0.944901406764984,-0.2586571276187897,0,0,0,-1,-1,3206.825183666667,unknown,2,2022-06-02T10:54:26.659+02:00,2022-06-02T10:17:13.754+02:00,521,1.609496,0,0,405.4342,0,0,2022-06-02T10:54:26.659+02:00,675852866.6587945,0,5.441406,101.3207,1,0.78
282,2022-06-02T10:54:29.121+02:00,1654160065.815581,53.22885049977639,10.39873768576458,41.22404,-1,-1,-1,-1,35.78470230102539,158.9079730818873,-9999,3209.285790166667,-4.334762573242188,-3.082534790039062,1.493087768554688,3209.280793166667,2.063808598062882,-0.7403016525917209,1.167189622561816,-1.5404132604599,4.786298274993896,8.107791900634766,-5.36302375793457,-2.935253620147705,1.210644721984863,XArbitraryZVertical,0.5227248834537642,0.2859831300701056,0.5654171173491437,0.5703296269117849,-0.2649058997631073,-0.9196504950523376,-0.2899446785449982,0,0,0,-1,-1,3206.825183666667,unknown,2,2022-06-02T10:54:26.659+02:00,2022-06-02T10:17:13.754+02:00,521,1.609496,0,0,405.4342,0,0,2022-06-02T10:54:26.659+02:00,675852866.6587945,0,5.441406,101.3207,1,0.78
283,2022-06-02T10:54:29.131+02:00,1654160065.815581,53.22885049977639,10.39873768576458,41.22404,-1,-1,-1,-1,35.78470230102539,158.9079730818873,-9999,3209.295784166667,-3.603271484375,-2.324478149414062,1.53497314453125,3209.290787166667,2.185320182337472,-0.8039136195876858,1.108390941302346,0.2743624150753021,4.712411880493164,7.230250835418701,-4.013534545898438,-2.187552690505981,1.802635192871094,XArbitraryZVertical,0.5182024312165538,0.2769341927166384,0.6000587926963574,0.542865501420111,-0.3212278187274933,-0.8949820399284363,-0.3095473945140839,0,0,0,-1,-1,3206.825183666667,unknown,2,2022-06-02T10:54:26.659+02:00,2022-06-02T10:17:13.754+02:00,521,1.609496,0,0,405.4342,0,0,2022-06-02T10:54:26.659+02:00,675852866.6587945,0,5.441406,101.3207,1,0.78
284,2022-06-02T10:54:29.141+02:00,1654160065.815581,53.22885049977639,10.39873768576458,41.22404,-1,-1,-1,-1,35.78470230102539,158.9079730818873,-9999,3209.305778166667,-3.330886840820312,-2.255096435546875,1.234375,3209.300781166667,2.297925885874443,-0.855481756619118,1.066404229925111,1.679645776748657,4.872598648071289,6.146523952484131,-3.238453388214111,-1.449009537696838,1.85193145275116,XArbitraryZVertical,0.515280707604205,0.2756930343259515,0.6285768715579173,0.5131958977874124,-0.3648180067539215,-0.8754684329032898,-0.3169582784175873,0,0,0,-1,-1,3206.825183666667,unknown,2,2022-06-02T10:54:26.659+02:00,2022-06-02T10:17:13.754+02:00,521,1.609496,0,0,405.4342,0,0,2022-06-02T10:54:26.659+02:00,675852866.6587945,0,5.441406,101.3207,1,0.78
285,2022-06-02T10:54:29.150+02:00,1654160065.815581,53.22885049977639,10.39873768576458,41.22404,-1,-1,-1,-1,35.78470230102539,158.9079730818873,-9999,3209.315772166667,-3.161911010742188,-2.39141845703125,0.936737060546875,3209.310775166667,2.403820123983647,-0.8995277441782967,1.032922927976553,1.995308637619019,4.673612594604492,5.734095573425293,-2.929730415344238,-1.396296262741089,1.553021907806396,XArbitraryZVertical,0.5129648699995403,0.2784663963816661,0.6530038628405255,0.482606965138186,-0.4011564254760742,-0.8588001132011414,-0.318647027015686,0,0,0,-1,-1,3206.825183666667,unknown,2,2022-06-02T10:54:26.659+02:00,2022-06-02T10:17:13.754+02:00,521,1.609496,0,0,405.4342,0,0,2022-06-02T10:54:26.659+02:00,675852866.6587945,0,5.441406,101.3207,1,0.78
286,2022-06-02T10:54:29.160+02:00,1654160065.815581,53.22885049977639,10.39873768576458,41.22404,-1,-1,-1,-1,35.78470230102539,158.9079730818873,-9999,3209.325766166667,-2.617752075195312,-2.599884033203125,0.877899169921875,3209.320769166667,2.495388666860149,-0.9310765484312186,1.002370825579481,1.888963103294373,4.536862373352051,5.010040283203125,-2.730048179626465,-1.548668742179871,1.258089780807495,XArbitraryZVertical,0.5096408762491632,0.2821166837503368,0.6746488973304637,0.4533488026313506,-0.4318628013134003,-0.8427495956420898,-0.3213527202606201,0,0,0,-1,-1,3206.825183666667,unknown,2,2022-06-02T10:54:26.659+02:00,2022-06-02T10:17:13.754+02:00,521,1.609496,0,0,405.4342,0,0,2022-06-02T10:54:26.659+02:00,675852866.6587945,0,5.441406,101.3207,1,0.78
287,2022-06-02T10:54:29.170+02:00,1654160065.815581,53.22885049977639,10.39873768576458,41.22404,-1,-1,-1,-1,35.78470230102539,158.9079730818873,-9999,3209.335760166667,-1.915008544921875,-2.893524169921875,0.7747802734375,3209.330763166667,2.567550319931355,-0.9460817374374644,0.9741181321389136,1.165728449821472,4.535418033599854,4.265407085418701,-2.161979913711548,-1.772677183151245,1.206533789634705,XArbitraryZVertical,0.5040925957716016,0.2856104262188647,0.694123079642701,0.4272122985686033,-0.4557720422744751,-0.8272066712379456,-0.3286346793174744,0,0,0,-1,-1,3206.825183666667,unknown,2,2022-06-02T10:54:26.659+02:00,2022-06-02T10:17:13.754+02:00,521,1.609496,0,0,405.4342,0,0,2022-06-02T10:54:26.659+02:00,675852866.6587945,0,5.441406,101.3207,1,0.78
288,2022-06-02T10:54:29.181+02:00,1654160065.815581,53.22885049977639,10.39873768576458,41.22404,-1,-1,-1,-1,35.78470230102539,158.9079730818873,-9999,3209.345754166667,-1.282699584960938,-2.90863037109375,0.5931243896484375,3209.340757166667,2.615155808042103,-0.9406075159767018,0.9460594678622284,-0.0771174281835556,4.289894580841064,3.38995885848999,-1.442471385002136,-2.082406997680664,1.119450688362122,XArbitraryZVertical,0.4951717588722869,0.2871753480094487,0.7124963764001804,0.405812990795741,-0.4725371897220612,-0.8111170530319214,-0.3446705043315887,0,0,0,-1,-1,3206.825183666667,unknown,2,2022-06-02T10:54:26.659+02:00,2022-06-02T10:17:13.754+02:00,521,1.609496,0,0,405.4342,0,0,2022-06-02T10:54:26.659+02:00,675852866.6587945,0,5.441406,101.3207,1,0.78
289,2022-06-02T10:54:29.190+02:00,1654160065.815581,53.22885049977639,10.39873768576458,41.22404,-1,-1,-1,-1,35.78470230102539,158.9079730818873,-9999,3209.355748166667,-0.8464813232421875,-2.41046142578125,0.391082763671875,3209.350751166667,2.635449605524068,-0.9173610371903484,0.9192475399977094,-1.202715277671814,3.59049391746521,2.330935955047607,-0.8012031316757202,-2.113484859466553,0.9617769122123718,XArbitraryZVertical,0.4837658312747908,0.2857347445998211,0.7288098477249979,0.3913597483815792,-0.4814964532852173,-0.7951455116271973,-0.3686525523662567,0,0,0,-1,-1,3206.825183666667,unknown,2,2022-06-02T10:54:26.659+02:00,2022-06-02T10:17:13.754+02:00,521,1.609496,0,0,405.4342,0,0,2022-06-02T10:54:26.659+02:00,675852866.6587945,0,5.441406,101.3207,1,0.78
290,2022-06-02T10:54:29.200+02:00,1654160065.815581,53.22885049977639,10.39873768576458,41.22404,-1,-1,-1,-1,35.78470230102539,158.9079730818873,-9999,3209.365742166667,-0.65655517578125,-1.740203857421875,0.277984619140625,3209.360745166667,2.633119096547162,-0.88472814942196,0.8954231384482095,-1.909892678260803,2.675682306289673,1.253477096557617,-0.3627462089061737,-1.629987478256226,0.7871395349502563,XArbitraryZVertical,0.4718797297299249,0.2816045440026287,0.741873924259729,0.3842542211840541,-0.483735054731369,-0.7804737091064453,-0.3960568010807037,0,0,0,-1,-1,3206.825183666667,unknown,2,2022-06-02T10:54:26.659+02:00,2022-06-02T10:17:13.754+02:00,521,1.609496,0,0,405.4342,0,0,2022-06-02T10:54:26.659+02:00,675852866.6587945,0,5.441406,101.3207,1,0.78
291,2022-06-02T10:54:29.210+02:00,1654160065.815581,53.22885049977639,10.39873768576458,41.22404,-1,-1,-1,-1,35.78470230102539,158.9079730818873,-9999,3209.375736166667,-0.75750732421875,-1.020889282226562,0.090087890625,3209.370739166667,2.615484221883794,-0.8470557294713161,0.8774265797954757,-2.012087821960449,2.171548128128052,0.0383689627051353,-0.1776315867900848,-0.9711070656776428,0.7012131214141846,XArbitraryZVertical,0.4599556855249198,0.2771759828967522,0.7515259283942624,0.3831747343486523,-0.4789235889911652,-0.7690966725349426,-0.4232284724712372,0,0,0,-1,-1,3206.825183666667,unknown,2,2022-06-02T10:54:26.659+02:00,2022-06-02T10:17:13.754+02:00,521,1.609496,0,0,405.4342,0,0,2022-06-02T10:54:26.659+02:00,675852866.6587945,0,5.441406,101.3207,1,0.78
292,2022-06-02T10:54:29.229+02:00,1654160065.815581,53.22885049977639,10.39873768576458,41.22404,-1,-1,-1,-1,35.78470230102539,158.9079730818873,-9999,3209.385730166667,-0.8347625732421875,-0.509735107421875,-0.0394287109375,3209.380733166667,2.590055427910524,-0.807360355734734,0.8691155189330407,-1.462716817855835,1.902298808097839,-1.006101250648499,-0.2911548316478729,-0.2571308016777039,0.5363931655883789,XArbitraryZVertical,0.4482553746910505,0.2755258237492333,0.7576018321082694,0.3862536659656139,-0.4663524627685547,-0.7637583017349243,-0.4463052749633789,0,0,0,-1,-1,3206.825183666667,unknown,2,2022-06-02T10:54:26.659+02:00,2022-06-02T10:17:13.754+02:00,521,1.609496,0,0,405.4342,0,0,2022-06-02T10:54:26.659+02:00,675852866.6587945,0,5.441406,101.3207,1,0.78
293,2022-06-02T10:54:29.234+02:00,1654160065.815581,53.22885049977639,10.39873768576458,41.22404,-1,-1,-1,-1,35.78470230102539,158.9079730818873,-9999,3209.395724166667,-0.76812744140625,-0.321563720703125,-0.10711669921875,3209.390727166667,2.562698809674509,-0.7676858990738948,0.8722930785474698,-0.5597180128097534,1.86976146697998,-1.911970138549805,-0.3881669640541077,0.2560705542564392,0.4232743084430695,XArbitraryZVertical,0.4371123478621102,0.2785341792438357,0.7603159541868492,0.3914984388970496,-0.4465955793857574,-0.7658055424690247,-0.4627030193805695,0,0,0,-1,-1,3206.825183666667,unknown,2,2022-06-02T10:54:26.659+02:00,2022-06-02T10:17:13.754+02:00,521,1.615954,0,0,405.4342,0,0,2022-06-02T10:54:29.215+02:00,675852866.6587945,0,5.441406,101.3207,1,0.78
294,2022-06-02T10:54:29.241+02:00,1654160065.815581,53.22885049977639,10.39873768576458,41.22404,-1,-1,-1,-1,35.78470230102539,158.9079730818873,-9999,3209.405718166667,-0.5848236083984375,-0.228973388671875,-0.1756439208984375,3209.400721166667,2.535602371541731,-0.728449610564442,0.8872732507154919,0.3910707235336304,1.784485220909119,-2.636831760406494,-0.3477104008197784,0.4537890553474426,0.3641344606876373,XArbitraryZVertical,0.4267563285292105,0.2867985851642513,0.7598800661353156,0.3977533941687464,-0.4204170405864716,-0.7753525972366333,-0.4712512195110321,0,0,0,-1,-1,3209.381528166667,walking,2,2022-06-02T10:54:29.215+02:00,2022-06-02T10:17:13.754+02:00,521,1.615954,0,0,405.4342,0,0,2022-06-02T10:54:29.215+02:00,675852869.215179,0,5.660156,101.3185,1,0.78
295,2022-06-02T10:54:29.251+02:00,1654160065.815581,53.22885049977639,10.39873768576458,41.22404,-1,-1,-1,-1,35.78470230102539,158.9079730818873,-9999,3209.415712166667,-0.4838714599609375,-0.09930419921875,-0.2740478515625,3209.410715166667,2.507790881355787,-0.6900401507065019,0.9121710186550566,1.095163464546204,1.5246422290802,-3.218682050704956,-0.1952247023582458,0.5618610978126526,0.2963662445545197,XArbitraryZVertical,0.4176867226120227,0.2992202047826885,0.7563855272236253,0.4048281265765719,-0.3895988762378693,-0.7908343076705933,-0.4720101356506348,0,0,0,-1,-1,3209.381528166667,walking,2,2022-06-02T10:54:29.215+02:00,2022-06-02T10:17:13.754+02:00,521,1.615954,0,0,405.4342,0,0,2022-06-02T10:54:29.215+02:00,675852869.215179,0,5.660156,101.3185,1,0.78
296,2022-06-02T10:54:29.261+02:00,1654160065.815581,53.22885049977639,10.39873768576458,41.22404,-1,-1,-1,-1,35.78470230102539,158.9079730818873,-9999,3209.425706166667,-0.4913787841796875,-0.00628662109375,-0.4185791015625,3209.420709166667,2.475525471017047,-0.6507516879822645,0.9437674466815592,1.391632914543152,1.159205079078674,-3.74414587020874,-0.1284325420856476,0.7104702591896057,0.1927803456783295,XArbitraryZVertical,0.4098908268400291,0.3139671995088895,0.7501029441831985,0.4132306645495952,-0.3554388880729675,-0.8097743391990662,-0.4668282270431519,0,0,0,-1,-1,3209.381528166667,walking,2,2022-06-02T10:54:29.215+02:00,2022-06-02T10:17:13.754+02:00,521,1.615954,0,0,405.4342,0,0,2022-06-02T10:54:29.215+02:00,675852869.215179,0,5.660156,101.3185,1,0.78
297,2022-06-02T10:54:29.271+02:00,1654160065.815581,53.22885049977639,10.39873768576458,41.22404,-1,-1,-1,-1,35.78470230102539,158.9079730818873,-9999,3209.435700166667,-0.598297119140625,-0.086669921875,-0.5374908447265625,3209.430703166667,2.431992812112168,-0.6055670299942011,0.9774175886578425,1.034625887870789,0.7444007396697998,-4.245867729187012,-0.173086017370224,0.8227695822715759,0.0411550998687744,XArbitraryZVertical,0.4025571177168694,0.3287562173130593,0.7416504996189706,0.4240537564077914,-0.3182927668094635,-0.8290561437606812,-0.4597342312335968,0,0,0,-1,-1,3209.381528166667,walking,2,2022-06-02T10:54:29.215+02:00,2022-06-02T10:17:13.754+02:00,521,1.615954,0,0,405.4342,0,0,2022-06-02T10:54:29.215+02:00,675852869.215179,0,5.660156,101.3185,1,0.78
