loggingTime(txt),locationTimestamp_since1970(s),locationLatitude(WGS84),locationLongitude(WGS84),locationAltitude(m),locationSpeed(m/s),locationSpeedAccuracy(m/s),locationCourse(°),locationCourseAccuracy(°),locationVerticalAccuracy(m),locationHorizontalAccuracy(m),locationFloor(Z),accelerometerTimestamp_sinceReboot(s),accelerometerAccelerationX(G),accelerometerAccelerationY(G),accelerometerAccelerationZ(G),motionTimestamp_sinceReboot(s),motionYaw(rad),motionRoll(rad),motionPitch(rad),motionRotationRateX(rad/s),motionRotationRateY(rad/s),motionRotationRateZ(rad/s),motionUserAccelerationX(G),motionUserAccelerationY(G),motionUserAccelerationZ(G),motionAttitudeReferenceFrame(txt),motionQuaternionX(R),motionQuaternionY(R),motionQuaternionZ(R),motionQuaternionW(R),motionGravityX(G),motionGravityY(G),motionGravityZ(G),motionMagneticFieldX(µT),motionMagneticFieldY(µT),motionMagneticFieldZ(µT),motionHeading(°),motionMagneticFieldCalibrationAccuracy(Z),activityTimestamp_sinceReboot(s),activity(txt),activityActivityConfidence(Z),activityActivityStartDate(txt),pedometerStartDate(txt),pedometerNumberofSteps(N),pedometerAverageActivePace(s/m),pedometerCurrentPace(s/m),pedometerCurrentCadence(steps/s),pedometerDistance(m),pedometerFloorAscended(N),pedometerFloorDescended(N),pedometerEndDate(txt),altimeterTimestamp_sinceReboot(s),altimeterReset(bool),altimeterRelativeAltitude(m),altimeterPressure(kPa),batteryState(N),batteryLevel(R)
2022-06-02T11:05:24.273+02:00,1654160724.067894,53.22909490367912,10.3985283734116,36.87961,0,20,-1,-1,2.400000095367432,7.999579855010836,-9999,3808.3856705,-0.1671142578125,-0.1355438232421875,-0.9153900146484375,3808.3756765,-0.03464873282190024,-0.1154255521789742,0.06199558113838905,0.2498975545167923,0.3060397505760193,-0.08630765974521637,0.01932135969400406,-0.04361972212791443,0.1016517877578735,XArbitraryZVertical,0.0299378316696229,-0.05818039492197351,-0.01907377118218478,0.9976747399023443,-0.1149481683969498,-0.06195587664842606,-0.991437554359436,0,0,0,-1,-1,3807.8321495,unknown,2,2022-06-02T11:05:23.695+02:00,2022-06-02T10:17:13.754+02:00,731,1.513853,0.6000988,2.019538,586.7537,0,0,2022-06-02T11:05:23.694+02:00,675853503.2547591,0,5.910156,101.312,1,0.75
2022-06-02T11:05:24.277+02:00,1654160724.067894,53.22909490367912,10.3985283734116,36.87961,0,20,-1,-1,2.400000095367432,7.999579855010836,-9999,3808.3956655,-0.1523284912109375,-0.10400390625,-0.954193115234375,3808.3856705,-0.03512786155978268,-0.1121571369194502,0.06423756261448998,0.1874658614397049,0.3446076512336731,-0.0665653795003891,-0.05704035609960556,-0.07806432992219925,0.09080380201339722,XArbitraryZVertical,0.03107394583049202,-0.05657474980028027,-0.01932601843529375,0.9977275455888689,-0.1116913035511971,-0.06419339030981064,-0.9916673898696899,0,0,0,-1,-1,3807.8321495,unknown,2,2022-06-02T11:05:23.695+02:00,2022-06-02T10:17:13.754+02:00,731,1.513853,0.6000988,2.019538,586.7537,0,0,2022-06-02T11:05:23.694+02:00,675853503.2547591,0,5.910156,101.312,1,0.75
2022-06-02T11:05:24.278+02:00,1654160724.067894,53.22909490367912,10.3985283734116,36.87961,0,20,-1,-1,2.400000095367432,7.999579855010836,-9999,3808.4056595,-0.155059814453125,-0.0912933349609375,-0.9753265380859375,3808.3956655,-0.03558492890851871,-0.1087272397431795,0.06593802260566242,0.1445597112178802,0.341093122959137,-0.06012964993715286,-0.05047508329153061,-0.05434903502464294,0.05739498138427734,XArbitraryZVertical,0.031942921218366,-0.05488431755741109,-0.01954641120369998,0.9977902230174668,-0.108277328312397,-0.06589025259017944,-0.9919347167015076,0,0,0,-1,-1,3807.8321495,unknown,2,2022-06-02T11:05:23.695+02:00,2022-06-02T10:17:13.754+02:00,731,1.513853,0.6000988,2.019538,586.7537,0,0,2022-06-02T11:05:23.694+02:00,675853503.2547591,0,5.910156,101.312,1,0.75
2022-06-02T11:05:24.283+02:00,1654160724.067894,53.22909490367912,10.3985283734116,36.87961,0,20,-1,-1,2.400000095367432,7.999579855010836,-9999,3808.4156545,-0.1502685546875,-0.093109130859375,-0.99530029296875,3808.4056595,-0.03581330268876329,-0.105284573829597,0.06718768863457818,0.09988491237163544,0.3530406057834625,-0.01137808989733458,-0.04788739234209061,-0.02670443803071976,0.02536106109619141,XArbitraryZVertical,0.03259399126955401,-0.05318043351820265,-0.01963782600374785,0.9978596007072577,-0.1048530638217926,-0.06713715195655823,-0.9922189712524414,0,0,0,-1,-1,3807.8321495,unknown,2,2022-06-02T11:05:23.695+02:00,2022-06-02T10:17:13.754+02:00,731,1.513853,0.6000988,2.019538,586.7537,0,0,2022-06-02T11:05:23.694+02:00,675853503.2547591,0,5.910156,101.312,1,0.75
2022-06-02T11:05:24.289+02:00,1654160724.067894,53.22909490367912,10.3985283734116,36.87961,0,20,-1,-1,2.400000095367432,7.999579855010836,-9999,3808.4256485,-0.13360595703125,-0.0828857421875,-0.9994354248046875,3808.4256485,-0.03505347744899511,-0.09798639268497988,0.06849432046302865,0.04779009148478508,0.3786265254020691,0.07128683477640152,-0.0448252335190773,-0.02315776795148849,-0.00534510612487793,XArbitraryZVertical,0.03333632805079269,-0.04953673871598348,-0.01917116923132269,0.9980316666946095,-0.09760027378797531,-0.06844078004360199,-0.9928696155548096,0,0,0,-1,-1,3807.8321495,unknown,2,2022-06-02T11:05:23.695+02:00,2022-06-02T10:17:13.754+02:00,731,1.513853,0.6000988,2.019538,586.7537,0,0,2022-06-02T11:05:23.694+02:00,675853503.2547591,0,5.910156,101.312,1,0.75
2022-06-02T11:05:24.299+02:00,1654160724.067894,53.22909490367912,10.3985283734116,36.87961,0,20,-1,-1,2.400000095367432,7.999579855010836,-9999,3808.4356435,-0.1246795654296875,-0.0623321533203125,-0.992340087890625,3808.4256485,-0.03505347744899511,-0.09798639268497988,0.06849432046302865,0.04779009148478508,0.3786265254020691,0.07128683477640152,-0.0448252335190773,-0.02315776795148849,-0.00534510612487793,XArbitraryZVertical,0.03333632805079269,-0.04953673871598348,-0.01917116923132269,0.9980316666946095,-0.09760027378797531,-0.06844078004360199,-0.9928696155548096,0,0,0,-1,-1,3807.8321495,unknown,2,2022-06-02T11:05:23.695+02:00,2022-06-02T10:17:13.754+02:00,731,1.513853,0.6000988,2.019538,586.7537,0,0,2022-06-02T11:05:23.694+02:00,675853503.2547591,0,5.910156,101.312,1,0.75
2022-06-02T11:05:24.309+02:00,1654160724.067894,53.22909490367912,10.3985283734116,36.87961,0,20,-1,-1,2.400000095367432,7.999579855010836,-9999,3808.4456375,-0.1025238037109375,-0.058990478515625,-0.9753265380859375,3808.4356435,-0.03412173449729159,-0.09416199345812021,0.06896487711390846,0.06519651412963867,0.3965101838111877,0.1076397746801376,-0.03541199117898941,-0.002973966300487518,-0.004873931407928467,XArbitraryZVertical,0.03362996223725487,-0.04761628723276384,-0.01865331571345688,0.9981251009001931,-0.0937994047999382,-0.06891021877527237,-0.9932034015655518,0,0,0,-1,-1,3807.8321495,unknown,2,2022-06-02T11:05:23.695+02:00,2022-06-02T10:17:13.754+02:00,731,1.513853,0.6000988,2.019538,586.7537,0,0,2022-06-02T11:05:23.694+02:00,675853503.2547591,0,5.910156,101.312,1,0.75
2022-06-02T11:05:24.319+02:00,1654160724.067894,53.22909490367912,10.3985283734116,36.87961,0,20,-1,-1,2.400000095367432,7.999579855010836,-9999,3808.4556325,-0.0894622802734375,-0.078521728515625,-0.9656219482421875,3808.4456375,-0.03285528938158918,-0.09032800467668751,0.06966401631504809,0.09292694926261902,0.3859009444713593,0.1333592683076859,-0.02445446699857712,0.01202098280191422,0.01105517148971558,XArbitraryZVertical,0.03404355727067903,-0.04568665970710049,-0.01797228950611886,0.9982137625198421,-0.08998642116785049,-0.0696076825261116,-0.9935075044631958,0,0,0,-1,-1,3807.8321495,unknown,2,2022-06-02T11:05:23.695+02:00,2022-06-02T10:17:13.754+02:00,731,1.513853,0.6000988,2.019538,586.7537,0,0,2022-06-02T11:05:23.694+02:00,675853503.2547591,0,5.910156,101.312,1,0.75
2022-06-02T11:05:24.329+02:00,1654160724.067894,53.22909490367912,10.3985283734116,36.87961,0,20,-1,-1,2.400000095367432,7.999579855010836,-9999,3808.4656265,-0.0921630859375,-0.09771728515625,-0.9568939208984375,3808.4556325,-0.03132290701393679,-0.08665128286314133,0.07068366945043239,0.1324078440666199,0.3689863085746765,0.1513855159282684,-0.007987767457962036,0.001899205148220062,0.02162301540374756,XArbitraryZVertical,0.03461911123798243,-0.04383258025887613,-0.01716656886687704,0.9982913136091386,-0.08632678538560867,-0.07062482833862305,-0.9937604665756226,0,0,0,-1,-1,3807.8321495,unknown,2,2022-06-02T11:05:23.695+02:00,2022-06-02T10:17:13.754+02:00,731,1.513853,0.6000988,2.019538,586.7537,0,0,2022-06-02T11:05:23.694+02:00,675853503.2547591,0,5.910156,101.312,1,0.75
2022-06-02T11:05:24.339+02:00,1654160724.067894,53.22909490367912,10.3985283734116,36.87961,0,20,-1,-1,2.400000095367432,7.999579855010836,-9999,3808.4756215,-0.0950164794921875,-0.110076904296875,-0.95916748046875,3808.4656265,-0.02955229951291928,-0.08316494687183938,0.07192595923199104,0.1496179848909378,0.3580162227153778,0.1749100238084793,-0.00625697523355484,-0.01312752813100815,0.03385365009307861,XArbitraryZVertical,0.03530639579559981,-0.04206988076411185,-0.01624780865027953,0.9983583803189104,-0.08285433053970337,-0.07186395674943924,-0.9939671754837036,0,0,0,-1,-1,3807.8321495,unknown,2,2022-06-02T11:05:23.695+02:00,2022-06-02T10:17:13.754+02:00,731,1.513853,0.6000988,2.019538,586.7537,0,0,2022-06-02T11:05:23.694+02:00,675853503.2547591,0,5.910156,101.312,1,0.75
2022-06-02T11:05:24.349+02:00,1654160724.067894,53.22909490367912,10.3985283734116,36.87961,0,20,-1,-1,2.400000095367432,7.999579855010836,-9999,3808.4856155,-0.1088409423828125,-0.10687255859375,-0.975830078125,3808.4756215,-0.02763039745947006,-0.07983406294494964,0.07336022696756887,0.1659912616014481,0.3401038348674774,0.1909357905387878,-0.01464243233203888,-0.03551601618528366,0.03781980276107788,XArbitraryZVertical,0.03608825411575888,-0.04038199440913231,-0.01525777482235422,0.9984157857774481,-0.07953479140996933,-0.07329444587230682,-0.9941338896751404,0,0,0,-1,-1,3807.8321495,unknown,2,2022-06-02T11:05:23.695+02:00,2022-06-02T10:17:13.754+02:00,731,1.513853,0.6000988,2.019538,586.7537,0,0,2022-06-02T11:05:23.694+02:00,675853503.2547591,0,5.910156,101.312,1,0.75
2022-06-02T11:05:24.359+02:00,1654160724.067894,53.22909490367912,10.3985283734116,36.87961,0,20,-1,-1,2.400000095367432,7.999579855010836,-9999,3808.4956105,-0.116455078125,-0.099151611328125,-0.968841552734375,3808.4856155,-0.02549708395331845,-0.07657151088081421,0.07488513397624563,0.1718765795230865,0.3449779450893402,0.2069757431745529,-0.02454773336648941,-0.03684868663549423,0.02538812160491943,XArbitraryZVertical,0.03691573719467302,-0.03872333442854845,-0.01416264302974653,0.9984673169411614,-0.0762823224067688,-0.07481516152620316,-0.9942754507064819,0,0,0,-1,-1,3807.8321495,unknown,2,2022-06-02T11:05:23.695+02:00,2022-06-02T10:17:13.754+02:00,731,1.513853,0.6000988,2.019538,586.7537,0,0,2022-06-02T11:05:23.694+02:00,675853503.2547591,0,5.910156,101.312,1,0.75
2022-06-02T11:05:24.373+02:00,1654160724.067894,53.22909490367912,10.3985283734116,36.87961,0,20,-1,-1,2.400000095367432,7.999579855010836,-9999,3808.5056045,-0.1102752685546875,-0.1199493408203125,-0.9550933837890625,3808.4956105,-0.02317732471853471,-0.07323891818507444,0.07650841998272719,0.1870985180139542,0.3543583452701569,0.2316089868545532,-0.04232072830200195,-0.02509821951389313,0.01947194337844849,XArbitraryZVertical,0.03779272004303991,-0.03702493546351271,-0.0129722620200401,0.9985151450203753,-0.07295940071344376,-0.07643380016088486,-0.994401752948761,0,0,0,-1,-1,3807.8321495,unknown,2,2022-06-02T11:05:23.695+02:00,2022-06-02T10:17:13.754+02:00,731,1.513853,0.6000988,2.019538,586.7537,0,0,2022-06-02T11:05:23.694+02:00,675853503.2547591,0,5.910156,101.312,1,0.75
2022-06-02T11:05:24.379+02:00,1654160724.067894,53.22909490367912,10.3985283734116,36.87961,0,20,-1,-1,2.400000095367432,7.999579855010836,-9999,3808.5155995,-0.1106414794921875,-0.13671875,-0.9526824951171875,3808.5056045,-0.02063344185215742,-0.06988733523346126,0.07819137703982085,0.1847559958696365,0.353863000869751,0.2481794357299805,-0.04474750161170959,-0.02828784286975861,0.0330546498298645,XArbitraryZVertical,0.03869964396966164,-0.03531098798976185,-0.01166781058996384,0.9985585657524368,-0.06961710005998611,-0.07811172306537628,-0.9945109486579895,0,0,0,-1,-1,3807.8321495,unknown,2,2022-06-02T11:05:23.695+02:00,2022-06-02T10:17:13.754+02:00,731,1.513853,0.6000988,2.019538,586.7537,0,0,2022-06-02T11:05:23.694+02:00,675853503.2547591,0,5.910156,101.312,1,0.75
2022-06-02T11:05:24.389+02:00,1654160724.067894,53.22909490367912,10.3985283734116,36.87961,0,20,-1,-1,2.400000095367432,7.999579855010836,-9999,3808.5255935,-0.108673095703125,-0.1434783935546875,-0.9574432373046875,3808.5155995,-0.01796240414701388,-0.06655632246828114,0.07979705462284697,0.1724966317415237,0.3541044890880585,0.262540876865387,-0.04256061464548111,-0.05190995335578918,0.04142487049102783,XArbitraryZVertical,0.03956567004916729,-0.03360223863387996,-0.01029606443477153,0.998598713229953,-0.0662955641746521,-0.0797123983502388,-0.9946109056472778,0,0,0,-1,-1,3807.8321495,unknown,2,2022-06-02T11:05:23.695+02:00,2022-06-02T10:17:13.754+02:00,731,1.513853,0.6000988,2.019538,586.7537,0,0,2022-06-02T11:05:23.694+02:00,675853503.2547591,0,5.910156,101.312,1,0.75
2022-06-02T11:05:24.399+02:00,1654160724.067894,53.22909490367912,10.3985283734116,36.87961,0,20,-1,-1,2.400000095367432,7.999579855010836,-9999,3808.5355885,-0.10687255859375,-0.1614227294921875,-0.9600982666015625,3808.5255935,-0.01517887090510644,-0.06328369731851234,0.081277035013066,0.1572851836681366,0.3445892930030823,0.2698294222354889,-0.04614392668008804,-0.05763691663742065,0.03794711828231812,XArbitraryZVertical,0.04036592516554694,-0.03191772087677936,-0.00886457360736161,0.9986356665581101,-0.06303269416093826,-0.08118757605552673,-0.9947037100791931,0,0,0,-1,-1,3807.8321495,unknown,2,2022-06-02T11:05:23.695+02:00,2022-06-02T10:17:13.754+02:00,731,1.513853,0.6000988,2.019538,586.7537,0,0,2022-06-02T11:05:23.694+02:00,675853503.2547591,0,5.910156,101.312,1,0.75
2022-06-02T11:05:24.409+02:00,1654160724.067894,53.22909490367912,10.3985283734116,36.87961,0,20,-1,-1,2.400000095367432,7.999579855010836,-9999,3808.5455825,-0.1020965576171875,-0.159515380859375,-0.9803924560546875,3808.5355885,-0.0123682444514991,-0.06005532479387157,0.08251547078771575,0.1305406242609024,0.3448709845542908,0.2723328471183777,-0.04748476669192314,-0.06763309985399246,0.0381816029548645,XArbitraryZVertical,0.04104114430109999,-0.03025198306505409,-0.007414347565116042,0.9986717966381605,-0.05981501936912537,-0.08242186158895493,-0.994800865650177,0,0,0,-1,-1,3807.8321495,unknown,2,2022-06-02T11:05:23.695+02:00,2022-06-02T10:17:13.754+02:00,731,1.513853,0.6000988,2.019538,586.7537,0,0,2022-06-02T11:05:23.694+02:00,675853503.2547591,0,5.910156,101.312,1,0.75
2022-06-02T11:05:24.419+02:00,1654160724.067894,53.22909490367912,10.3985283734116,36.87961,0,20,-1,-1,2.400000095367432,7.999579855010836,-9999,3808.5555775,-0.1133880615234375,-0.13653564453125,-0.9995269775390625,3808.5455825,-0.00964039449106101,-0.05697508016224876,0.08364348512370727,0.1250316202640533,0.3167085647583008,0.2596634030342102,-0.04744181409478188,-0.08268329501152039,0.02442795038223267,XArbitraryZVertical,0.04165492971211342,-0.02865990041324245,-0.006004886815141995,0.9987027867794573,-0.05674517899751663,-0.0835459902882576,-0.9948869347572327,0,0,0,-1,-1,3807.8321495,unknown,2,2022-06-02T11:05:23.695+02:00,2022-06-02T10:17:13.754+02:00,731,1.513853,0.6000988,2.019538,586.7537,0,0,2022-06-02T11:05:23.694+02:00,675853503.2547591,0,5.910156,101.312,1,0.75
2022-06-02T11:05:24.429+02:00,1654160724.067894,53.22909490367912,10.3985283734116,36.87961,0,20,-1,-1,2.400000095367432,7.999579855010836,-9999,3808.5655715,-0.125396728515625,-0.13873291015625,-1.006179809570312,3808.5555775,-0.007009105034811323,-0.05410065852166034,0.08469068671978398,0.1103427857160568,0.302698940038681,0.2545264661312103,-0.0515272282063961,-0.06021645665168762,0.003136813640594482,XArbitraryZVertical,0.04222224377098944,-0.02717092377262425,-0.004645089942189599,0.9987278254967031,-0.05388046428561211,-0.08458948135375977,-0.9949580430984497,0,0,0,-1,-1,3807.8321495,unknown,2,2022-06-02T11:05:23.695+02:00,2022-06-02T10:17:13.754+02:00,731,1.513853,0.6000988,2.019538,586.7537,0,0,2022-06-02T11:05:23.694+02:00,675853503.2547591,0,5.910156,101.312,1,0.75
2022-06-02T11:05:24.439+02:00,1654160724.067894,53.22909490367912,10.3985283734116,36.87961,0,20,-1,-1,2.400000095367432,7.999579855010836,-9999,3808.5755665,-0.1263580322265625,-0.1248016357421875,-0.997955322265625,3808.5655715,-0.004424509959544526,-0.05131735466094275,0.08556180009997115,0.08864148706197739,0.2978706359863281,0.2476025372743607,-0.07161922752857208,-0.05193272233009338,-0.008647143840789795,XArbitraryZVertical,0.04269696607282913,-0.02572690852784696,-0.003306745200711024,0.9987512506855498,-0.05110718682408333,-0.085457444190979,-0.9950301647186279,0,0,0,-1,-1,3807.8321495,unknown,2,2022-06-02T11:05:23.695+02:00,2022-06-02T10:17:13.754+02:00,731,1.513853,0.6000988,2.019538,586.7537,0,0,2022-06-02T11:05:23.694+02:00,675853503.2547591,0,5.910156,101.312,1,0.75
2022-06-02T11:05:24.449+02:00,1654160724.067894,53.22909490367912,10.3985283734116,36.87961,0,20,-1,-1,2.400000095367432,7.999579855010836,-9999,3808.5855605,-0.1188507080078125,-0.120941162109375,-0.986602783203125,3808.5755665,-0.001983422277417446,-0.04853445511015195,0.08626132063220687,0.07952525466680527,0.3025363087654114,0.2289898991584778,-0.07924370467662811,-0.04678021371364594,-0.009148538112640381,XArbitraryZVertical,0.04308053197634209,-0.02428501557921136,-0.002036730888055844,0.9987743159113518,-0.04833501204848289,-0.08615437895059586,-0.9951086044311523,0,0,0,-1,-1,3807.8321495,unknown,2,2022-06-02T11:05:23.695+02:00,2022-06-02T10:17:13.754+02:00,731,1.513853,0.6000988,2.019538,586.7537,0,0,2022-06-02T11:05:23.694+02:00,675853503.2547591,0,5.910156,101.312,1,0.75
2022-06-02T11:05:24.459+02:00,1654160724.067894,53.22909490367912,10.3985283734116,36.87961,0,20,-1,-1,2.400000095367432,7.999579855010836,-9999,3808.5955555,-0.1175384521484375,-0.1195068359375,-0.9908294677734375,3808.5855605,0.0002991782071393355,-0.04572431065530515,0.08693539290277011,0.07252566516399384,0.2995929718017578,0.2171766608953476,-0.07767894864082336,-0.0340694934129715,0.001438379287719727,XArbitraryZVertical,0.04344607240537029,-0.02283207337012022,-0.000843957191643094,0.9987944215720521,-0.04553576186299324,-0.08682592958211899,-0.9951822757720947,0,0,0,-1,-1,3807.8321495,unknown,2,2022-06-02T11:05:23.695+02:00,2022-06-02T10:17:13.754+02:00,731,1.513853,0.6000988,2.019538,586.7537,0,0,2022-06-02T11:05:23.694+02:00,675853503.2547591,0,5.910156,101.312,1,0.75
2022-06-02T11:05:24.469+02:00,1654160724.067894,53.22909490367912,10.3985283734116,36.87961,0,20,-1,-1,2.400000095367432,7.999579855010836,-9999,3808.605549125,-0.123779296875,-0.0914154052734375,-0.9653472900390625,3808.5955555,0.002506235419388166,-0.04299635401325477,0.08758708555084214,0.07806278020143509,0.2760759294033051,0.218189999461174,-0.07252282649278641,-0.03557176887989044,0.006217122077941895,XArbitraryZVertical,0.04379630951387836,-0.02142104681068853,0.0003105193364282685,0.9988106922248506,-0.0428183414041996,-0.08747514337301254,-0.9952460527420044,0,0,0,-1,-1,3807.8321495,unknown,2,2022-06-02T11:05:23.695+02:00,2022-06-02T10:17:13.754+02:00,731,1.513853,0.6000988,2.019538,586.7537,0,0,2022-06-02T11:05:23.694+02:00,675853503.2547591,0,5.910156,101.312,1,0.75
2022-06-02T11:05:24.479+02:00,1654160724.067894,53.22909490367912,10.3985283734116,36.87961,0,20,-1,-1,2.400000095367432,7.999579855010836,-9999,3808.615544125,-0.115234375,-0.104827880859375,-0.9680328369140625,3808.605549125,0.004843535354716765,-0.04052221912135723,0.08819378352765797,0.06198447197675705,0.2711743712425232,0.241166964173317,-0.07868011295795441,-0.01882360130548477,0.01732945442199707,XArbitraryZVertical,0.04412244549509532,-0.02013323541407131,0.001525815781010769,0.9988219778058107,-0.0403536818921566,-0.08807949721813202,-0.9952957034111023,0,0,0,-1,-1,3807.8321495,unknown,2,2022-06-02T11:05:23.695+02:00,2022-06-02T10:17:13.754+02:00,731,1.513853,0.6000988,2.019538,586.7537,0,0,2022-06-02T11:05:23.694+02:00,675853503.2547591,0,5.910156,101.312,1,0.75
2022-06-02T11:05:24.489+02:00,1654160724.067894,53.22909490367912,10.3985283734116,36.87961,0,20,-1,-1,2.400000095367432,7.999579855010836,-9999,3808.625538125,-0.121124267578125,-0.0838623046875,-0.9786224365234375,3808.615544125,0.007233037859658561,-0.03822212288331304,0.08849392099904414,0.02211702056229115,0.2471325546503067,0.235488161444664,-0.08965276181697845,-0.001770496368408203,0.03341490030288696,XArbitraryZVertical,0.0442932044011622,-0.01893113288022111,0.00276703824074268,0.9988352826002687,-0.03806328773498535,-0.08837846666574478,-0.9953594207763672,0,0,0,-1,-1,3807.8321495,unknown,2,2022-06-02T11:05:23.695+02:00,2022-06-02T10:17:13.754+02:00,731,1.513853,0.6000988,2.019538,586.7537,0,0,2022-06-02T11:05:23.694+02:00,675853503.2547591,0,5.910156,101.312,1,0.75
2022-06-02T11:05:24.499+02:00,1654160724.067894,53.22909490367912,10.3985283734116,36.87961,0,20,-1,-1,2.400000095367432,7.999579855010836,-9999,3808.635533125,-0.1208953857421875,-0.0712738037109375,-0.98553466796875,3808.625538125,0.009621221862441198,-0.03588554281130924,0.08852441178901457,-0.002396578434854746,0.2566286027431488,0.2403665482997894,-0.07684198021888733,-0.01278749108314514,0.01924669742584229,XArbitraryZVertical,0.04432634929944444,-0.01771120628884948,0.00401123182895477,0.998851977199789,-0.03573735430836678,-0.08840883523225784,-0.9954429864883423,0,0,0,-1,-1,3807.8321495,unknown,2,2022-06-02T11:05:23.695+02:00,2022-06-02T10:17:13.754+02:00,731,1.513853,0.6000988,2.019538,586.7537,0,0,2022-06-02T11:05:23.694+02:00,675853503.2547591,0,5.910156,101.312,1,0.75
2022-06-02T11:05:24.509+02:00,1654160724.067894,53.22909490367912,10.3985283734116,36.87961,0,20,-1,-1,2.400000095367432,7.999579855010836,-9999,3808.645527125,-0.1118316650390625,-0.0735931396484375,-0.9998016357421875,3808.635533125,0.01206461052139626,-0.03357377688685448,0.08835811103901603,-0.01493840385228395,0.250257670879364,0.2413400560617447,-0.09112095832824707,0.01660314202308655,0.01546561717987061,XArbitraryZVertical,0.04425882219659549,-0.01650304157772143,0.005284194616917321,0.9988697299905547,-0.03343652188777924,-0.08824318647384644,-0.9955376386642456,0,0,0,-1,-1,3807.8321495,unknown,2,2022-06-02T11:05:23.695+02:00,2022-06-02T10:17:13.754+02:00,731,1.513853,0.6000988,2.019538,586.7537,0,0,2022-06-02T11:05:23.694+02:00,675853503.2547591,0,5.910156,101.312,1,0.75
2022-06-02T11:05:24.519+02:00,1654160724.067894,53.22909490367912,10.3985283734116,36.87961,0,20,-1,-1,2.400000095367432,7.999579855010836,-9999,3808.655522125,-0.1096343994140625,-0.0832672119140625,-1.009048461914062,3808.645527125,0.01446712154812307,-0.0313036633246562,0.08799288516017192,-0.04125922545790672,0.2464368045330048,0.2397434860467911,-0.08483509719371796,0.01381319016218185,0.002311229705810547,XArbitraryZVertical,0.04408881837889272,-0.01531753246631478,0.006537256441511772,0.9988887262791075,-0.03117746114730835,-0.08787937462329865,-0.9956430792808533,0,0,0,-1,-1,3807.8321495,unknown,2,2022-06-02T11:05:23.695+02:00,2022-06-02T10:17:13.754+02:00,731,1.513853,0.6000988,2.019538,586.7537,0,0,2022-06-02T11:05:23.694+02:00,675853503.2547591,0,5.910156,101.312,1,0.75
2022-06-02T11:05:24.529+02:00,1654160724.067894,53.22909490367912,10.3985283734116,36.87961,0,20,-1,-1,2.400000095367432,7.999579855010836,-9999,3808.665516125,-0.1026611328125,-0.0839996337890625,-1.015518188476562,3808.655522125,0.01678078171414005,-0.02899435046894301,0.08738739181376899,-0.06491056084632874,0.2515305280685425,0.2207222580909729,-0.07907625287771225,0.01084490120410919,-0.008705377578735352,XArbitraryZVertical,0.04379518221370279,-0.01411587403089478,0.007748214572607937,0.9989107519495325,-0.02887966483831406,-0.08727621287107468,-0.9957654476165771,0,0,0,-1,-1,3807.8321495,unknown,2,2022-06-02T11:05:23.695+02:00,2022-06-02T10:17:13.754+02:00,731,1.513853,0.6000988,2.019538,586.7537,0,0,2022-06-02T11:05:23.694+02:00,675853503.2547591,0,5.910156,101.312,1,0.75
2022-06-02T11:05:24.539+02:00,1654160724.067894,53.22909490367912,10.3985283734116,36.87961,0,20,-1,-1,2.400000095367432,7.999579855010836,-9999,3808.675511125,-0.09954833984375,-0.0575714111328125,-1.01922607421875,3808.665516125,0.01899881267411337,-0.02672443420161284,0.08657149239235902,-0.07724845409393311,0.2422192841768265,0.223147064447403,-0.07884754985570908,-0.0004354417324066162,-0.01679599285125732,XArbitraryZVertical,0.04339322270643108,-0.01293768350958819,0.008911348639354194,0.998934570074258,-0.02662118338048458,-0.08646339923143387,-0.9958992600440979,0,0,0,-1,-1,3807.8321495,unknown,2,2022-06-02T11:05:23.695+02:00,2022-06-02T10:17:13.754+02:00,731,1.513853,0.6000988,2.019538,586.7537,0,0,2022-06-02T11:05:23.694+02:00,675853503.2547591,0,5.910156,101.312,1,0.75
2022-06-02T11:05:24.549+02:00,1654160724.067894,53.22909490367912,10.3985283734116,36.87961,0,20,-1,-1,2.400000095367432,7.999579855010836,-9999,3808.685505125,-0.0864715576171875,-0.03253173828125,-1.0164794921875,3808.675511125,0.02114655312993038,-0.02442955657382209,0.08580426930846487,-0.06749112904071808,0.2547471225261688,0.2131449580192566,-0.0795140415430069,0.01033583283424377,-0.02477389574050903,XArbitraryZVertical,0.04301240357326374,-0.01174911836837651,0.01003872554688949,0.9989550234685587,-0.02433726191520691,-0.08569902181625366,-0.9960237741470337,0,0,0,-1,-1,3807.8321495,unknown,2,2022-06-02T11:05:23.695+02:00,2022-06-02T10:17:13.754+02:00,731,1.513853,0.6000988,2.019538,586.7537,0,0,2022-06-02T11:05:23.694+02:00,675853503.2547591,0,5.910156,101.312,1,0.75
2022-06-02T11:05:24.559+02:00,1654160724.067894,53.22909490367912,10.3985283734116,36.87961,0,20,-1,-1,2.400000095367432,7.999579855010836,-9999,3808.695500125,-0.0797576904296875,-0.0506591796875,-1.021713256835938,3808.685505125,0.02335785919847288,-0.02209812820388915,0.08513450034697337,-0.05319873988628387,0.2506232261657715,0.2291255295276642,-0.07005521655082703,0.0464574471116066,-0.01947474479675293,XArbitraryZVertical,0.04267781370741085,-0.01054112931250106,0.01119722771903912,0.9989705684816799,-0.02201630175113678,-0.08503169566392899,-0.9961349964141846,0,0,0,-1,-1,3807.8321495,unknown,2,2022-06-02T11:05:23.695+02:00,2022-06-02T10:17:13.754+02:00,731,1.513853,0.6000988,2.019538,586.7537,0,0,2022-06-02T11:05:23.694+02:00,675853503.2547591,0,5.910156,101.312,1,0.75
2022-06-02T11:05:24.569+02:00,1654160724.067894,53.22909490367912,10.3985283734116,36.87961,0,20,-1,-1,2.400000095367432,7.999579855010836,-9999,3808.705494125,-0.0761566162109375,-0.059539794921875,-1.019195556640625,3808.695500125,0.02566418100259412,-0.0197346277619896,0.08454037890541033,-0.05409685894846916,0.2616924643516541,0.2337516397237778,-0.06195637583732605,0.04536191374063492,-0.02279311418533325,XArbitraryZVertical,0.04237856818242215,-0.009315316532733028,0.01240272483892929,0.998981164126849,-0.01966287009418011,-0.0844397097826004,-0.9962345361709595,0,0,0,-1,-1,3807.8321495,unknown,2,2022-06-02T11:05:23.695+02:00,2022-06-02T10:17:13.754+02:00,731,1.513853,0.6000988,2.019538,586.7537,0,0,2022-06-02T11:05:23.694+02:00,675853503.2547591,0,5.910156,101.312,1,0.75
2022-06-02T11:05:24.579+02:00,1654160724.067894,53.22909490367912,10.3985283734116,36.87961,0,20,-1,-1,2.400000095367432,7.999579855010836,-9999,3808.715489125,-0.081451416015625,-0.051849365234375,-0.9964447021484375,3808.705494125,0.02795207382609747,-0.0173378546816147,0.08404779943659509,-0.04056320711970329,0.2529522478580475,0.2307225614786148,-0.06037617474794388,0.02361559867858887,-0.02954334020614624,XArbitraryZVertical,0.04212689365584273,-0.008073205626292863,0.01359856334471369,0.9989871355388505,-0.01727578788995743,-0.08394888043403625,-0.9963203072547913,0,0,0,-1,-1,3807.8321495,unknown,2,2022-06-02T11:05:23.695+02:00,2022-06-02T10:17:13.754+02:00,731,1.513853,0.6000988,2.019538,586.7537,0,0,2022-06-02T11:05:23.694+02:00,675853503.2547591,0,5.910156,101.312,1,0.75
2022-06-02T11:05:24.589+02:00,1654160724.067894,53.22909490367912,10.3985283734116,36.87961,0,20,-1,-1,2.400000095367432,7.999579855010836,-9999,3808.725483125,-0.0720977783203125,-0.0730743408203125,-0.978424072265625,3808.715489125,0.03039496062650076,-0.01497452913499182,0.08354688227570875,-0.05579442158341408,0.2623940706253052,0.2569977045059204,-0.06195202469825745,0.03042540699243546,-0.009184420108795166,XArbitraryZVertical,0.04186898581155302,-0.00684517523457967,0.01487057439682906,0.9989889166940735,-0.01492173969745636,-0.08344972133636475,-0.9964002370834351,0,0,0,-1,-1,3807.8321495,unknown,2,2022-06-02T11:05:23.695+02:00,2022-06-02T10:17:13.754+02:00,731,1.513853,0.6000988,2.019538,586.7537,0,0,2022-06-02T11:05:23.694+02:00,675853503.2547591,0,5.910156,101.312,1,0.75
2022-06-02T11:05:24.599+02:00,1654160724.067894,53.22909490367912,10.3985283734116,36.87961,0,20,-1,-1,2.400000095367432,7.999579855010836,-9999,3808.735478125,-0.0570526123046875,-0.074554443359375,-0.954803466796875,3808.725483125,0.0330649132313937,-0.01252953723816362,0.08283278093116436,-0.07936739176511765,0.2692075073719025,0.2745468616485596,-0.06745453178882599,0.02135194838047028,0.007967710494995117,XArbitraryZVertical,0.04150156191829266,-0.005574026057382393,0.01625785143902468,0.9989905193607317,-0.01248625107109547,-0.08273809403181076,-0.9964931011199951,0,0,0,-1,-1,3807.8321495,unknown,2,2022-06-02T11:05:23.695+02:00,2022-06-02T10:17:13.754+02:00,731,1.513853,0.6000988,2.019538,586.7537,0,0,2022-06-02T11:05:23.694+02:00,675853503.2547591,0,5.910156,101.312,1,0.75
2022-06-02T11:05:24.609+02:00,1654160724.067894,53.22909490367912,10.3985283734116,36.87961,0,20,-1,-1,2.400000095367432,7.999579855010836,-9999,3808.745473125,-0.066070556640625,-0.06427001953125,-0.947174072265625,3808.735478125,0.03576848335035054,-0.01011639688820005,0.08185910881097848,-0.1040307953953743,0.2546243071556091,0.2648457884788513,-0.05243289470672607,0.00544322282075882,0.0302613377571106,XArbitraryZVertical,0.04100144213600718,-0.004321391157606368,0.0176611446591931,0.9989936303907637,-0.01008234918117523,-0.08176771551370621,-0.9966003894805908,0,0,0,-1,-1,3807.8321495,unknown,2,2022-06-02T11:05:23.695+02:00,2022-06-02T10:17:13.754+02:00,731,1.513853,0.6000988,2.019538,586.7537,0,0,2022-06-02T11:05:23.694+02:00,675853503.2547591,0,5.910156,101.312,1,0.75
2022-06-02T11:05:24.619+02:00,1654160724.067894,53.22909490367912,10.3985283734116,36.87961,0,20,-1,-1,2.400000095367432,7.999579855010836,-9999,3808.755467125,-0.069183349609375,-0.067840576171875,-0.9520263671875,3808.745473125,0.03846786429056276,-0.007726691888261847,0.08070606059833978,-0.1245323494076729,0.2696636915206909,0.2775514423847198,-0.05145684629678726,0.01116043329238892,0.04749655723571777,XArbitraryZVertical,0.04040855966354603,-0.003083594134781469,0.01906112021199891,0.9989966307817515,-0.007701464928686619,-0.0806184783577919,-0.9967153072357178,0,0,0,-1,-1,3807.8321495,unknown,2,2022-06-02T11:05:23.695+02:00,2022-06-02T10:17:13.754+02:00,731,1.513853,0.6000988,2.019538,586.7537,0,0,2022-06-02T11:05:23.694+02:00,675853503.2547591,0,5.910156,101.312,1,0.75
2022-06-02T11:05:24.629+02:00,1654160724.067894,53.22909490367912,10.3985283734116,36.87961,0,20,-1,-1,2.400000095367432,7.999579855010836,-9999,3808.765462125,-0.061798095703125,-0.07574462890625,-0.955169677734375,3808.755467125,0.04125823542668988,-0.005226309650028902,0.07934626953887423,-0.1457447856664658,0.2714954614639282,0.2776739001274109,-0.06554514914751053,0.01450470089912415,0.04730093479156494,XArbitraryZVertical,0.03970801585733529,-0.001792393795230948,0.02050773081738731,0.9989992127049349,-0.005209842696785927,-0.07926303893327713,-0.9968401193618774,0,0,0,-1,-1,3807.8321495,unknown,2,2022-06-02T11:05:23.695+02:00,2022-06-02T10:17:13.754+02:00,731,1.513853,0.6000988,2.019538,586.7537,0,0,2022-06-02T11:05:23.694+02:00,675853503.2547591,0,5.910156,101.312,1,0.75
2022-06-02T11:05:24.639+02:00,1654160724.067894,53.22909490367912,10.3985283734116,36.87961,0,20,-1,-1,2.400000095367432,7.999579855010836,-9999,3808.775456125,-0.0531158447265625,-0.0749053955078125,-0.9629669189453125,3808.765462125,0.04397253272221729,-0.002630422360430354,0.07787369698443716,-0.1495347321033478,0.2895485162734985,0.2676995694637299,-0.06100669130682945,0.005376763641834259,0.04298645257949829,XArbitraryZVertical,0.03894646324757022,-0.0004581063145917382,0.02191662937547566,0.9990007595369083,-0.002622447442263365,-0.07779501378536224,-0.9969659447669983,0,0,0,-1,-1,3807.8321495,unknown,2,2022-06-02T11:05:23.695+02:00,2022-06-02T10:17:13.754+02:00,731,1.513853,0.6000988,2.019538,586.7537,0,0,2022-06-02T11:05:23.694+02:00,675853503.2547591,0,5.910156,101.312,1,0.75
2022-06-02T11:05:24.649+02:00,1654160724.067894,53.22909490367912,10.3985283734116,36.87961,0,20,-1,-1,2.400000095367432,7.999579855010836,-9999,3808.785451125,-0.04925537109375,-0.059234619140625,-0.9683380126953125,3808.775456125,0.04664363563679651,4.030178152829706e-05,0.0763021274829578,-0.1543726623058319,0.2915593981742859,0.2617722153663635,-0.05864918231964111,0.001292161643505096,0.03738886117935181,XArbitraryZVertical,0.03813096766176092,0.0009095864500776766,0.02330350319977064,0.9990005751083411,4.018452091258951e-05,-0.07622811198234558,-0.9970903992652893,0,0,0,-1,-1,3807.8321495,unknown,2,2022-06-02T11:05:23.695+02:00,2022-06-02T10:17:13.754+02:00,731,1.513853,0.6000988,2.019538,586.7537,0,0,2022-06-02T11:05:23.694+02:00,675853503.2547591,0,5.910156,101.312,1,0.75
2022-06-02T11:05:24.659+02:00,1654160724.067894,53.22909490367912,10.3985283734116,36.87961,0,20,-1,-1,2.400000095367432,7.999579855010836,-9999,3808.795445125,-0.0453948974609375,-0.053436279296875,-0.97686767578125,3808.785451125,0.04924316772915238,0.002710347153014145,0.07477556717913403,-0.1473416537046432,0.2885833382606506,0.2562792003154755,-0.05284313857555389,0.004164479672908783,0.03066450357437134,XArbitraryZVertical,0.03733437141489342,0.002274053951978449,0.02465250935999057,0.9989960777228817,0.002702770056203008,-0.07470590621232986,-0.9972019195556641,0,0,0,-1,-1,3807.8321495,unknown,2,2022-06-02T11:05:23.695+02:00,2022-06-02T10:17:13.754+02:00,731,1.513853,0.6000988,2.019538,586.7537,0,0,2022-06-02T11:05:23.694+02:00,675853503.2547591,0,5.910156,101.312,1,0.75
2022-06-02T11:05:24.669+02:00,1654160724.067894,53.22909490367912,10.3985283734116,36.87961,0,20,-1,-1,2.400000095367432,7.999579855010836,-9999,3808.805440125,-0.0538177490234375,-0.046112060546875,-0.9707489013671875,3808.795445125,0.05193013246250435,0.005290470558643131,0.0733689978584436,-0.1434181779623032,0.2665655910968781,0.2770937085151672,-0.05227327346801758,0.02030938118696213,0.02570760250091553,XArbitraryZVertical,0.03659515356019891,0.003594753334131426,0.02604157715493556,0.9989842646826227,0.005276212934404612,-0.07330319285392761,-0.9972957372665405,0,0,0,-1,-1,3807.8321495,unknown,2,2022-06-02T11:05:23.695+02:00,2022-06-02T10:17:13.754+02:00,731,1.513853,0.6000988,2.019538,586.7537,0,0,2022-06-02T11:05:23.694+02:00,675853503.2547591,0,5.910156,101.312,1,0.75
2022-06-02T11:05:24.679+02:00,1654160724.067894,53.22909490367912,10.3985283734116,36.87961,0,20,-1,-1,2.400000095367432,7.999579855010836,-9999,3808.815434125,-0.045989990234375,-0.0497589111328125,-0.9658966064453125,3808.805440125,0.05469623987171823,0.007751475446296723,0.07213839892320978,-0.1127774491906166,0.2658012509346008,0.2654224038124084,-0.05816152691841125,0.01973817497491837,0.02083724737167358,XArbitraryZVertical,0.03594171430850611,0.004857839866877693,0.02746643385985942,0.9989644913690872,0.007731237448751926,-0.07207585126161575,-0.9973691701889038,0,0,0,-1,-1,3807.8321495,unknown,2,2022-06-02T11:05:23.695+02:00,2022-06-02T10:17:13.754+02:00,731,1.513853,0.6000988,2.019538,586.7537,0,0,2022-06-02T11:05:23.694+02:00,675853503.2547591,0,5.910156,101.312,1,0.75
2022-06-02T11:05:24.689+02:00,1654160724.067894,53.22909490367912,10.3985283734116,36.87961,0,20,-1,-1,2.400000095367432,7.999579855010836,-9999,3808.825429125,-0.04644775390625,-0.0828704833984375,-0.9503173828125,3808.815434125,0.05748297300545957,0.01014047125534986,0.07099512019014742,-0.1223623976111412,0.2565830647945404,0.2800574898719788,-0.05732543766498566,0.0307285487651825,0.03034281730651855,XArbitraryZVertical,0.03532938018527655,0.00608481237707303,0.02889892625890477,0.9989392146886774,0.01011475268751383,-0.07093549519777298,-0.9974296092987061,0,0,0,-1,-1,3807.8321495,unknown,2,2022-06-02T11:05:23.695+02:00,2022-06-02T10:17:13.754+02:00,731,1.513853,0.6000988,2.019538,586.7537,0,0,2022-06-02T11:05:23.694+02:00,675853503.2547591,0,5.910156,101.312,1,0.75
2022-06-02T11:05:24.699+02:00,1654160724.067894,53.22909490367912,10.3985283734116,36.87961,0,20,-1,-1,2.400000095367432,7.999579855010836,-9999,3808.835423125,-0.0301055908203125,-0.0950469970703125,-0.9478912353515625,3808.825429125,0.06026889324642577,0.01256791275287559,0.06962412314000672,-0.162267193198204,0.2634060680866241,0.2645307183265686,-0.06067860126495361,0.001986674964427948,0.03859037160873413,XArbitraryZVertical,0.03459932355367171,0.007325907542439706,0.03032964946001678,0.9989140617896375,0.01253713294863701,-0.06956788897514343,-0.9974984526634216,0,0,0,-1,-1,3807.8321495,unknown,2,2022-06-02T11:05:23.695+02:00,2022-06-02T10:17:13.754+02:00,731,1.513853,0.6000988,2.019538,586.7537,0,0,2022-06-02T11:05:23.694+02:00,675853503.2547591,0,5.910156,101.312,1,0.75
2022-06-02T11:05:24.709+02:00,1654160724.067894,53.22909490367912,10.3985283734116,36.87961,0,20,-1,-1,2.400000095367432,7.999579855010836,-9999,3808.845418125,-0.00555419921875,-0.1046295166015625,-0.95025634765625,3808.835423125,0.06282669031895849,0.01489953925771128,0.06787506260002082,-0.1924187839031219,0.2409826517105103,0.2337812036275864,-0.05334733799099922,-0.02247858047485352,0.05184692144393921,XArbitraryZVertical,0.03367948998102151,0.008507419956879163,0.03164187454842377,0.9988954138462997,0.01486468128859997,-0.06782295554876328,-0.9975866079330444,0,0,0,-1,-1,3807.8321495,unknown,2,2022-06-02T11:05:23.695+02:00,2022-06-02T10:17:13.754+02:00,731,1.513853,0.6000988,2.019538,586.7537,0,0,2022-06-02T11:05:23.694+02:00,675853503.2547591,0,5.910156,101.312,1,0.75
2022-06-02T11:05:24.719+02:00,1654160724.067894,53.22909490367912,10.3985283734116,36.87961,0,20,-1,-1,2.400000095367432,7.999579855010836,-9999,3808.855412125,-0.0266265869140625,-0.0921783447265625,-0.9588775634765625,3808.845418125,0.06515697523839011,0.01692504652048448,0.06562692917511476,-0.2758069038391113,0.1886443495750427,0.237915500998497,-0.03890623152256012,-0.03329715132713318,0.04636472463607788,XArbitraryZVertical,0.03251349866466797,0.009521973032667271,0.03283151016702227,0.9988865000888256,0.01688780635595322,-0.06557983160018921,-0.9977043867111206,0,0,0,-1,-1,3807.8321495,unknown,2,2022-06-02T11:05:23.695+02:00,2022-06-02T10:17:13.754+02:00,731,1.513853,0.6000988,2.019538,586.7537,0,0,2022-06-02T11:05:23.694+02:00,675853503.2547591,0,5.910156,101.312,1,0.75
2022-06-02T11:05:24.729+02:00,1654160724.067894,53.22909490367912,10.3985283734116,36.87961,0,20,-1,-1,2.400000095367432,7.999579855010836,-9999,3808.865407125,-0.049102783203125,-0.0537109375,-0.958648681640625,3808.855412125,0.06721711513195142,0.01851994577509984,0.06297442314160442,-0.2669331133365631,0.1750659495592117,0.1686293631792068,-0.02078624442219734,-0.04493160545825958,0.04493522644042969,XArbitraryZVertical,0.0311518862809529,0.01030784516268394,0.03387549079536534,0.9988872012739367,0.01848217844963074,-0.06293280422687531,-0.9978466033935547,0,0,0,-1,-1,3807.8321495,unknown,2,2022-06-02T11:05:23.695+02:00,2022-06-02T10:17:13.754+02:00,731,1.513853,0.6000988,2.019538,586.7537,0,0,2022-06-02T11:05:23.694+02:00,675853503.2547591,0,5.910156,101.312,1,0.75
2022-06-02T11:05:24.739+02:00,1654160724.067894,53.22909490367912,10.3985283734116,36.87961,0,20,-1,-1,2.400000095367432,7.999579855010836,-9999,3808.875401125,-0.021514892578125,-0.0664215087890625,-0.962127685546875,3808.865407125,0.06893634780319041,0.02034002181240278,0.0603677580588241,-0.2596259117126465,0.2032214254140854,0.1698797196149826,-0.06919072568416595,-0.004366204142570496,0.03703445196151733,XArbitraryZVertical,0.02980950546175704,0.011199131561218,0.03475060877383788,0.9988885173980431,0.0203015711158514,-0.06033109873533249,-0.9979719519615173,0,0,0,-1,-1,3807.8321495,unknown,2,2022-06-02T11:05:23.695+02:00,2022-06-02T10:17:13.754+02:00,731,1.513853,0.6000988,2.019538,586.7537,0,0,2022-06-02T11:05:23.694+02:00,675853503.2547591,0,5.910156,101.312,1,0.75
2022-06-02T11:05:24.749+02:00,1654160724.067894,53.22909490367912,10.3985283734116,36.87961,0,20,-1,-1,2.400000095367432,7.999579855010836,-9999,3808.885396125,-0.00140380859375,-0.053741455078125,-0.9832916259765625,3808.875401125,0.07066474406344389,0.02228184869532698,0.05783326776647368,-0.2580434381961823,0.2003731727600098,0.1656910926103592,-0.05890961736440659,-0.002684842795133591,0.04010301828384399,XArbitraryZVertical,0.02849938554568006,0.01215036130495746,0.03562996778148675,0.9988846965513326,0.02224275469779968,-0.05780103430151939,-0.998080313205719,0,0,0,-1,-1,3807.8321495,unknown,2,2022-06-02T11:05:23.695+02:00,2022-06-02T10:17:13.754+02:00,731,1.513853,0.6000988,2.019538,586.7537,0,0,2022-06-02T11:05:23.694+02:00,675853503.2547591,0,5.910156,101.312,1,0.75
2022-06-02T11:05:24.759+02:00,1654160724.067894,53.22909490367912,10.3985283734116,36.87961,0,20,-1,-1,2.400000095367432,7.999579855010836,-9999,3808.895390125,0.0057525634765625,-0.059906005859375,-0.995513916015625,3808.885396125,0.07219692612696094,0.02407478817474229,0.05556573314572763,-0.2106447964906693,0.1801975965499878,0.1297493427991867,-0.03209194540977478,-0.008442990481853485,0.02584677934646606,XArbitraryZVertical,0.02732492673316363,0.01302711965516605,0.03640824904159617,0.9988783353306986,0.02403531037271023,-0.0555371455848217,-0.9981672763824463,0,0,0,-1,-1,3807.8321495,unknown,2,2022-06-02T11:05:23.695+02:00,2022-06-02T10:17:13.754+02:00,731,1.513853,0.6000988,2.019538,586.7537,0,0,2022-06-02T11:05:23.694+02:00,675853503.2547591,0,5.910156,101.312,1,0.75
2022-06-02T11:05:24.769+02:00,1654160724.067894,53.22909490367912,10.3985283734116,36.87961,0,20,-1,-1,2.400000095367432,7.999579855010836,-9999,3808.905385125,0.00347900390625,-0.09063720703125,-0.99945068359375,3808.895390125,0.07373365168924187,0.02570019303940064,0.0533747775646434,-0.2421608418226242,0.1538268476724625,0.1705147475004196,-0.02338720113039017,0.00858011469244957,0.008515298366546631,XArbitraryZVertical,0.02619043565787948,0.01381989835806434,0.03718496294277567,0.9988694747545392,0.02566076815128326,-0.05334943905472755,-0.9982461333274841,0,0,0,-1,-1,3807.8321495,unknown,2,2022-06-02T11:05:23.695+02:00,2022-06-02T10:17:13.754+02:00,731,1.513853,0.6000988,2.019538,586.7537,0,0,2022-06-02T11:05:23.694+02:00,675853503.2547591,0,5.910156,101.312,1,0.75
2022-06-02T11:05:24.779+02:00,1654160724.067894,53.22909490367912,10.3985283734116,36.87961,0,20,-1,-1,2.400000095367432,7.999579855010836,-9999,3808.915379125,0.0197296142578125,-0.063201904296875,-0.9811859130859375,3808.905385125,0.07558915756324885,0.02721835142240813,0.05085676711353326,-0.2646597325801849,0.1672987043857574,0.1703791916370392,-0.02391441725194454,-0.03414138033986092,-0.003005564212799072,XArbitraryZVertical,0.02489108614645625,0.01455527556513495,0.03811563472101012,0.9988571767046074,0.02717980369925499,-0.05083484575152397,-0.9983371496200562,0,0,0,-1,-1,3807.8321495,unknown,2,2022-06-02T11:05:23.695+02:00,2022-06-02T10:17:13.754+02:00,731,1.513853,0.6000988,2.019538,586.7537,0,0,2022-06-02T11:05:23.694+02:00,675853503.2547591,0,5.910156,101.312,1,0.75
2022-06-02T11:05:24.789+02:00,1654160724.067894,53.22909490367912,10.3985283734116,36.87961,0,20,-1,-1,2.400000095367432,7.999579855010836,-9999,3808.925374125,0.0212554931640625,-0.0602569580078125,-0.9803009033203125,3808.915379125,0.07684220839932185,0.02882062270959597,0.048452932057481,-0.244130864739418,0.1345205903053284,0.1227484941482544,-0.0192155446857214,-0.03210194781422615,0.006132543087005615,XArbitraryZVertical,0.02365036525123496,0.01532534520541736,0.03874520381646351,0.9988515571975662,0.02878281287848949,-0.04843397438526154,-0.9984115958213806,0,0,0,-1,-1,3807.8321495,unknown,2,2022-06-02T11:05:23.695+02:00,2022-06-02T10:17:13.754+02:00,731,1.513853,0.6000988,2.019538,586.7537,0,0,2022-06-02T11:05:23.694+02:00,675853503.2547591,0,5.910156,101.312,1,0.75
2022-06-02T11:05:24.799+02:00,1654160724.067894,53.22909490367912,10.3985283734116,36.87961,0,20,-1,-1,2.400000095367432,7.999579855010836,-9999,3808.935368125,0.0274200439453125,-0.0492401123046875,-0.999725341796875,3808.925374125,0.07811622318710931,0.0300496752859602,0.04589733381253467,-0.2740269899368286,0.1288842856884003,0.1320208162069321,-0.00495857372879982,-0.01051530241966248,0.01714217662811279,XArbitraryZVertical,0.02234004885643617,0.01590478552514717,0.0393779893318722,0.9988479559507351,0.03001351282000542,-0.04588122293353081,-0.9984959363937378,0,0,0,-1,-1,3807.8321495,unknown,2,2022-06-02T11:05:23.695+02:00,2022-06-02T10:17:13.754+02:00,731,1.513853,0.6000988,2.019538,586.7537,0,0,2022-06-02T11:05:23.694+02:00,675853503.2547591,0,5.910156,101.312,1,0.75
2022-06-02T11:05:24.809+02:00,1654160724.067894,53.22909490367912,10.3985283734116,36.87961,0,20,-1,-1,2.400000095367432,7.999579855010836,-9999,3808.945363125,0.0344390869140625,-0.00439453125,-0.99700927734375,3808.935368125,0.07929748609152462,0.03135870132515383,0.04333866692169504,-0.221035823225975,0.1461090743541718,0.04441293701529503,-0.0124337337911129,-0.01800001040101051,0.01292836666107178,XArbitraryZVertical,0.02102661690284677,0.01652147361887964,0.03996363552236851,0.9988431651450678,0.0313241221010685,-0.04332510009407997,-0.9985698461532593,0,0,0,-1,-1,3807.8321495,unknown,2,2022-06-02T11:05:23.695+02:00,2022-06-02T10:17:13.754+02:00,731,1.513853,0.6000988,2.019538,586.7537,0,0,2022-06-02T11:05:23.694+02:00,675853503.2547591,0,5.910156,101.312,1,0.75
2022-06-02T11:05:24.819+02:00,1654160724.067894,53.22909490367912,10.3985283734116,36.87961,0,20,-1,-1,2.400000095367432,7.999579855010836,-9999,3808.955357125,0.0176239013671875,-0.035888671875,-1.015151977539062,3808.945363125,0.08022472824561841,0.03232743342227044,0.0410402317607351,-0.2358608394861221,0.1023815646767616,0.1144010797142982,0.005287818610668182,0.02082603797316551,0.001413047313690186,XArbitraryZVertical,0.01985146834447826,0.01696933797228293,0.04041930981696102,0.9988413326322104,0.03229458630084991,-0.0410287119448185,-0.9986359477043152,0,0,0,-1,-1,3807.8321495,unknown,2,2022-06-02T11:05:23.695+02:00,2022-06-02T10:17:13.754+02:00,731,1.513853,0.6000988,2.019538,586.7537,0,0,2022-06-02T11:05:23.694+02:00,675853503.2547591,0,5.910156,101.312,1,0.75
2022-06-02T11:05:24.829+02:00,1654160724.067894,53.22909490367912,10.3985283734116,36.87961,0,20,-1,-1,2.400000095367432,7.999579855010836,-9999,3808.965352125,0.0431671142578125,-0.02105712890625,-1.00177001953125,3808.955357125,0.08133054693042631,0.03348108554949991,0.03872777799089827,-0.2310699075460434,0.1300553381443024,0.09991900622844696,-0.01501710712909698,0.01683695986866951,-0.008206784725189209,XArbitraryZVertical,0.01866355044988389,0.01750984928407345,0.04096461226299457,0.998832712101704,0.03344973176717758,-0.0387180969119072,-0.998690128326416,0,0,0,-1,-1,3807.8321495,unknown,2,2022-06-02T11:05:23.695+02:00,2022-06-02T10:17:13.754+02:00,731,1.513853,0.6000988,2.019538,586.7537,0,0,2022-06-02T11:05:23.694+02:00,675853503.2547591,0,5.910156,101.312,1,0.75
2022-06-02T11:05:24.839+02:00,1654160724.067894,53.22909490367912,10.3985283734116,36.87961,0,20,-1,-1,2.400000095367432,7.999579855010836,-9999,3808.975346125,0.0443572998046875,-0.0308837890625,-0.989898681640625,3808.965352125,0.08248289321651651,0.0346410216606951,0.03640737399991056,-0.238626629114151,0.1170484572649002,0.1104070693254471,-0.000431448221206665,0.007682248950004578,-0.01339292526245117,XArbitraryZVertical,0.01747051050327985,0.01805243167333468,0.041531741326554,0.9988212337716325,0.03461114317178726,-0.03639933094382286,-0.9987377524375916,0,0,0,-1,-1,3807.8321495,unknown,2,2022-06-02T11:05:23.695+02:00,2022-06-02T10:17:13.754+02:00,731,1.513853,0.6000988,2.019538,586.7537,0,0,2022-06-02T11:05:23.694+02:00,675853503.2547591,0,5.910156,101.312,1,0.75
2022-06-02T11:05:24.849+02:00,1654160724.067894,53.22909490367912,10.3985283734116,36.87961,0,20,-1,-1,2.400000095367432,7.999579855010836,-9999,3808.985341125,0.049560546875,-0.03289794921875,-0.9767913818359375,3808.975346125,0.08368049799714472,0.0357634920635691,0.03406204038273861,-0.2388056516647339,0.1116905808448792,0.115754023194313,0.007996562868356705,0.007749266922473907,0.005037009716033936,XArbitraryZVertical,0.01626476179459747,0.01857477892310064,0.04211953626000026,0.9988074966886067,0.0357351265847683,-0.03405545279383659,-0.9987808465957642,0,0,0,-1,-1,3807.8321495,unknown,2,2022-06-02T11:05:23.695+02:00,2022-06-02T10:17:13.754+02:00,731,1.513853,0.6000988,2.019538,586.7537,0,0,2022-06-02T11:05:23.694+02:00,675853503.2547591,0,5.910156,101.312,1,0.75
2022-06-02T11:05:24.859+02:00,1654160724.067894,53.22909490367912,10.3985283734116,36.87961,0,20,-1,-1,2.400000095367432,7.999579855010836,-9999,3808.995335125,0.05853271484375,-0.0381011962890625,-0.974853515625,3808.985341125,0.0849494601906623,0.03679579407682332,0.03168884989932052,-0.2468851506710052,0.1090718954801559,0.1201551705598831,0.01222695410251617,0.0002656653523445129,0.0167962908744812,XArbitraryZVertical,0.01504572401874756,0.01905060193676432,0.04274065509465923,0.9987912893460952,0.03676902130246162,-0.0316835455596447,-0.9988213777542114,0,0,0,-1,-1,3807.8321495,unknown,2,2022-06-02T11:05:23.695+02:00,2022-06-02T10:17:13.754+02:00,731,1.513853,0.6000988,2.019538,586.7537,0,0,2022-06-02T11:05:23.694+02:00,675853503.2547591,0,5.910156,101.312,1,0.75
2022-06-02T11:05:24.880+02:00,1654160724.067894,53.22909490367912,10.3985283734116,36.87961,0,20,-1,-1,2.400000095367432,7.999579855010836,-9999,3809.005330125,0.06585693359375,-0.0310516357421875,-0.980377197265625,3808.995335125,0.08629325271624891,0.03781201949923441,0.02922203018240314,-0.2605750262737274,0.1012117713689804,0.1278765350580215,0.01317749172449112,-0.006304629147052765,0.02527153491973877,XArbitraryZVertical,0.01377894713227861,0.01951535857644922,0.04339688131587657,0.998772249509272,0.03778687119483948,-0.02921787090599537,-0.9988585710525513,0,0,0,-1,-1,3807.8321495,unknown,2,2022-06-02T11:05:23.695+02:00,2022-06-02T10:17:13.754+02:00,731,1.513853,0.6000988,2.019538,586.7537,0,0,2022-06-02T11:05:23.694+02:00,675853503.2547591,0,5.910156,101.312,1,0.75
2022-06-02T11:05:24.883+02:00,1654160724.067894,53.22909490367912,10.3985283734116,36.87961,0,20,-1,-1,2.400000095367432,7.999579855010836,-9999,3809.015324125,0.0678558349609375,-0.01300048828125,-0.989166259765625,3809.005330125,0.08771750185414448,0.03873800761395052,0.02650120813998452,-0.2903787195682526,0.09549795836210251,0.1359443217515945,0.02528064697980881,-0.01204563491046429,0.02206176519393921,XArbitraryZVertical,0.01238589148254088,0.01992831284131974,0.04408900138809987,0.9987519844795281,0.03871472179889679,-0.02649810537695885,-0.9988989233970642,0,0,0,-1,-1,3807.8321495,unknown,2,2022-06-02T11:05:23.695+02:00,2022-06-02T10:17:13.754+02:00,731,1.513853,0.6000988,2.019538,586.7537,0,0,2022-06-02T11:05:23.694+02:00,675853503.2547591,0,5.910156,101.312,1,0.75
2022-06-02T11:05:24.889+02:00,1654160724.067894,53.22909490367912,10.3985283734116,36.87961,0,20,-1,-1,2.400000095367432,7.999579855010836,-9999,3809.025319125,0.079864501953125,-0.004547119140625,-0.9954833984375,3809.015324125,0.08919793246106636,0.03968078100990024,0.02353648833969006,-0.3075303733348846,0.1031663343310356,0.1274833828210831,0.02776921167969704,0.001882053911685944,0.01439321041107178,XArbitraryZVertical,0.01086950916598402,0.02034255232970528,0.04480555715852401,0.9987293913577037,0.03965938091278076,-0.02353431470692158,-0.9989360570907593,0,0,0,-1,-1,3807.8321495,unknown,2,2022-06-02T11:05:23.695+02:00,2022-06-02T10:17:13.754+02:00,731,1.513853,0.6000988,2.019538,586.7537,0,0,2022-06-02T11:05:23.694+02:00,675853503.2547591,0,5.910156,101.312,1,0.75
2022-06-02T11:05:24.899+02:00,1654160724.067894,53.22909490367912,10.3985283734116,36.87961,0,20,-1,-1,2.400000095367432,7.999579855010836,-9999,3809.035314125,0.07965087890625,0.0048828125,-1.00909423828125,3809.025319125,0.0905936518607378,0.04062404842723862,0.02041425534028847,-0.3234648704528809,0.1017125099897385,0.1226723939180374,0.03446883708238602,0.01243245042860508,0.006626665592193604,XArbitraryZVertical,0.009274733019246926,0.02075082630634296,0.04547673501357956,0.9987067962264815,0.04060441255569458,-0.02041283808648586,-0.9989667534828186,0,0,0,-1,-1,3807.8321495,unknown,2,2022-06-02T11:05:23.695+02:00,2022-06-02T10:17:13.754+02:00,731,1.513853,0.6000988,2.019538,586.7537,0,0,2022-06-02T11:05:23.694+02:00,675853503.2547591,0,5.910156,101.312,1,0.75
2022-06-02T11:05:24.909+02:00,1654160724.067894,53.22909490367912,10.3985283734116,36.87961,0,20,-1,-1,2.400000095367432,7.999579855010836,-9999,3809.045308125,0.0743865966796875,0.006103515625,-1.007827758789062,3809.035314125,0.09173002060566919,0.04171034678134425,0.01728356659607937,-0.3249501287937164,0.09407936036586761,0.0763016939163208,0.03757738694548607,0.01583308167755604,-0.002895772457122803,XArbitraryZVertical,0.007674628276921207,0.02122707888323347,0.04601727015141012,0.9986856113961038,0.04169202595949173,-0.01728270575404167,-0.9989809989929199,0,0,0,-1,-1,3807.8321495,unknown,2,2022-06-02T11:05:23.695+02:00,2022-06-02T10:17:13.754+02:00,731,1.513853,0.6000988,2.019538,586.7537,0,0,2022-06-02T11:05:23.694+02:00,675853503.2547591,0,5.910156,101.312,1,0.75
2022-06-02T11:05:24.919+02:00,1654160724.067894,53.22909490367912,10.3985283734116,36.87961,0,20,-1,-1,2.400000095367432,7.999579855010836,-9999,3809.055303125,0.075469970703125,-0.00189208984375,-1.001327514648438,3809.045308125,0.09301944727299249,0.04277244985458669,0.01388960996676395,-0.3578010201454163,0.1287907212972641,0.1166067719459534,0.04238876327872276,0.0308263786137104,-0.0054207444190979,XArbitraryZVertical,0.005941443867487723,0.02168376332667301,0.04662955595468157,0.9986591748449649,0.04275528341531754,-0.01388916373252869,-0.9989890456199646,0,0,0,-1,-1,3807.8321495,unknown,2,2022-06-02T11:05:23.695+02:00,2022-06-02T10:17:13.754+02:00,731,1.513853,0.6000988,2.019538,586.7537,0,0,2022-06-02T11:05:23.694+02:00,675853503.2547591,0,5.910156,101.312,1,0.75
2022-06-02T11:05:24.929+02:00,1654160724.067894,53.22909490367912,10.3985283734116,36.87961,0,20,-1,-1,2.400000095367432,7.999579855010836,-9999,3809.065297125,0.0745086669921875,-0.00433349609375,-0.9873504638671875,3809.055303125,0.09394888670309355,0.04437091799831189,0.01039039059246896,-0.3700322806835175,0.1354813277721405,0.100141316652298,0.01813078299164772,0.001189112663269043,-0.01225334405899048,XArbitraryZVertical,0.004146497259114681,0.02240276003959633,0.04706010147324527,0.9986321943959799,0.04435396566987038,-0.01039020344614983,-0.998961865901947,0,0,0,-1,-1,3807.8321495,unknown,2,2022-06-02T11:05:23.695+02:00,2022-06-02T10:17:13.754+02:00,731,1.513853,0.6000988,2.019538,586.7537,0,0,2022-06-02T11:05:23.694+02:00,675853503.2547591,0,5.910156,101.312,1,0.75
2022-06-02T11:05:24.939+02:00,1654160724.067894,53.22909490367912,10.3985283734116,36.87961,0,20,-1,-1,2.400000095367432,7.999579855010836,-9999,3809.075292125,0.08660888671875,0.01666259765625,-0.97430419921875,3809.065297125,0.09504161298125295,0.04598255401907988,0.006718376522785349,-0.36785888671875,0.1771640628576279,0.07922591269016266,0.03457057848572731,0.009342796169221401,0.004917144775390625,XArbitraryZVertical,0.0022624524862796,0.02312269824259194,0.04756723870177925,0.9985978039478243,0.04596531391143799,-0.006718325894325972,-0.9989204406738281,0,0,0,-1,-1,3807.8321495,unknown,2,2022-06-02T11:05:23.695+02:00,2022-06-02T10:17:13.754+02:00,731,1.513853,0.6000988,2.019538,586.7537,0,0,2022-06-02T11:05:23.694+02:00,675853503.2547591,0,5.910156,101.312,1,0.75
2022-06-02T11:05:24.949+02:00,1654160724.067894,53.22909490367912,10.3985283734116,36.87961,0,20,-1,-1,2.400000095367432,7.999579855010836,-9999,3809.085286125,0.1161956787109375,0.026275634765625,-0.9695587158203125,3809.075292125,0.09596545753452516,0.04778633910772898,0.003119743105748926,-0.3552182018756866,0.191291332244873,0.0645873099565506,0.02640505507588387,0.00571369007229805,0.01974290609359741,XArbitraryZVertical,0.0004117217117628389,0.02393816660267944,0.04798779355047806,0.9985609548988544,0.04776792228221893,-0.003119738074019551,-0.9988535642623901,0,0,0,-1,-1,3807.8321495,unknown,2,2022-06-02T11:05:23.695+02:00,2022-06-02T10:17:13.754+02:00,731,1.513853,0.6000988,2.019538,586.7537,0,0,2022-06-02T11:05:23.694+02:00,675853503.2547591,0,5.910156,101.312,1,0.75
2022-06-02T11:05:24.959+02:00,1654160724.067894,53.22909490367912,10.3985283734116,36.87961,0,20,-1,-1,2.400000095367432,7.999579855010836,-9999,3809.095281125,0.0976104736328125,0.002349853515625,-0.9732208251953125,3809.085286125,0.09647543568386428,0.04819655664687495,0.0007116557888139654,-0.3490979969501495,0.1463669985532761,0.06070921942591667,0.05007346346974373,0.02144830673933029,0.02181828022003174,XArbitraryZVertical,-0.0008065720300267624,0.02408506968116096,0.04821357596245758,0.9985462454420909,0.04817788675427437,-0.0007116557098925114,-0.9988385438919067,0,0,0,-1,-1,3807.8321495,unknown,2,2022-06-02T11:05:23.695+02:00,2022-06-02T10:17:13.754+02:00,731,1.513853,0.6000988,2.019538,586.7537,0,0,2022-06-02T11:05:23.694+02:00,675853503.2547591,0,5.910156,101.312,1,0.75
2022-06-02T11:05:24.969+02:00,1654160724.067894,53.22909490367912,10.3985283734116,36.87961,0,20,-1,-1,2.400000095367432,7.999579855010836,-9999,3809.105275125,0.1234893798828125,-0.00689697265625,-0.9751129150390625,3809.095281125,0.09731390342686583,0.04850459903866997,-0.002122003064882994,-0.3757080435752869,0.1756603717803955,0.04656150937080383,0.06354455649852753,0.02285659313201904,0.0329708456993103,XArbitraryZVertical,-0.002238895132492748,0.02416961907062186,0.04859772614891851,0.9985234379454526,0.04848547279834747,0.002122001489624381,-0.9988216161727905,0,0,0,-1,-1,3807.8321495,unknown,2,2022-06-02T11:05:23.695+02:00,2022-06-02T10:17:13.754+02:00,731,1.513853,0.6000988,2.019538,586.7537,0,0,2022-06-02T11:05:23.694+02:00,675853503.2547591,0,5.910156,101.312,1,0.75
2022-06-02T11:05:24.979+02:00,1654160724.067894,53.22909490367912,10.3985283734116,36.87961,0,20,-1,-1,2.400000095367432,7.999579855010836,-9999,3809.115270125,0.1262054443359375,-0.0102386474609375,-0.9795379638671875,3809.105275125,0.09783041508906354,0.04909767463072833,-0.005424623901915876,-0.4219990968704224,0.1632516384124756,0.0152688343077898,0.05471305921673775,-0.01526655908674002,0.02147006988525391,XArbitraryZVertical,-0.003908456032496162,0.02438434180378121,0.04881429469081655,0.9985024937861243,0.04907722771167755,0.005424597300589085,-0.9987802505493164,0,0,0,-1,-1,3807.8321495,unknown,2,2022-06-02T11:05:23.695+02:00,2022-06-02T10:17:13.754+02:00,731,1.513853,0.6000988,2.019538,586.7537,0,0,2022-06-02T11:05:23.694+02:00,675853503.2547591,0,5.910156,101.312,1,0.75
