,loggingTime(txt),locationTimestamp_since1970(s),locationLatitude(WGS84),locationLongitude(WGS84),locationAltitude(m),locationSpeed(m/s),locationSpeedAccuracy(m/s),locationCourse(°),locationCourseAccuracy(°),locationVerticalAccuracy(m),locationHorizontalAccuracy(m),locationFloor(Z),accelerometerTimestamp_sinceReboot(s),accelerometerAccelerationX(G),accelerometerAccelerationY(G),accelerometerAccelerationZ(G),motionTimestamp_sinceReboot(s),motionYaw(rad),motionRoll(rad),motionPitch(rad),motionRotationRateX(rad/s),motionRotationRateY(rad/s),motionRotationRateZ(rad/s),motionUserAccelerationX(G),motionUserAccelerationY(G),motionUserAccelerationZ(G),motionAttitudeReferenceFrame(txt),motionQuaternionX(R),motionQuaternionY(R),motionQuaternionZ(R),motionQuaternionW(R),motionGravityX(G),motionGravityY(G),motionGravityZ(G),motionMagneticFieldX(µT),motionMagneticFieldY(µT),motionMagneticFieldZ(µT),motionHeading(°),motionMagneticFieldCalibrationAccuracy(Z),activityTimestamp_sinceReboot(s),activity(txt),activityActivityConfidence(Z),activityActivityStartDate(txt),pedometerStartDate(txt),pedometerNumberofSteps(N),pedometerAverageActivePace(s/m),pedometerCurrentPace(s/m),pedometerCurrentCadence(steps/s),pedometerDistance(m),pedometerFloorAscended(N),pedometerFloorDescended(N),pedometerEndDate(txt),altimeterTimestamp_sinceReboot(s),altimeterReset(bool),altimeterRelativeAltitude(m),altimeterPressure(kPa),batteryState(N),batteryLevel(R)
505,2022-06-02T11:06:58.582+02:00,1654160818.000251,53.22905389876345,10.39848385098534,36.8687,0.1406222,0.7869415,185.1076204702921,136.3840724593959,2.400000095367432,7.999579855010837,-9999,3902.718869375,1.316268920898438,-2.512786865234375,-1.364334106445312,3902.713871375,-2.135953050463071,-0.0497129845010363,0.7356592217312885,-6.191329002380371,9.14604663848877,-7.766351222991943,0.9093238115310668,-2.640523433685303,-1.267095804214478,XArbitraryZVertical,0.1529117742830042,-0.3261621238540744,-0.8216705678003161,0.4416939325815592,-0.0368414521217346,-0.6710760593414307,-0.7404724955558777,0,0,0,-1,-1,3899.926593375,unknown,2,2022-06-02T11:06:55.789+02:00,2022-06-02T10:17:13.754+02:00,757,1.520161,0,0,607.4087,0,0,2022-06-02T11:06:58.348+02:00,675853618.3483071,0,3.542969,101.3397,1,0.74
506,2022-06-02T11:06:58.592+02:00,1654160818.000251,53.22905389876345,10.39848385098534,36.8687,0.1406222,0.7869415,185.1076204702921,136.3840724593959,2.400000095367432,7.999579855010837,-9999,3902.728863375,1.110595703125,-1.39093017578125,-0.134033203125,3902.723866375,-2.242029329043416,0.1268413196727433,0.6576588576548406,-8.889704704284668,12.5055046081543,-8.895196914672852,1.216152429580688,-1.90152108669281,-0.5792666673660278,XArbitraryZVertical,0.1941366950951643,-0.2641537584758604,-0.8416800091657831,0.4290786277566128,0.1001164838671684,-0.6112657189369202,-0.7850674986839294,0,0,0,-1,-1,3899.926593375,unknown,2,2022-06-02T11:06:55.789+02:00,2022-06-02T10:17:13.754+02:00,757,1.520161,0,0,607.4087,0,0,2022-06-02T11:06:58.348+02:00,675853618.3483071,0,3.542969,101.3397,1,0.74
507,2022-06-02T11:06:58.602+02:00,1654160818.000251,53.22905389876345,10.39848385098534,36.8687,0.1406222,0.7869415,185.1076204702921,136.3840724593959,2.400000095367432,7.999579855010837,-9999,3902.738858375,0.83154296875,-0.531219482421875,0.8630523681640625,3902.733861375,-2.318558491662285,0.312802919753516,0.5356802975434615,-12.34445571899414,16.01096534729004,-8.777091979980469,0.845974862575531,-0.8805039525032043,0.6841604709625244,XArbitraryZVertical,0.2422380891332058,-0.1795100993627088,-0.8565592770600546,0.4188112589894302,0.2646208703517914,-0.5104261636734009,-0.8181936740875244,0,0,0,-1,-1,3899.926593375,unknown,2,2022-06-02T11:06:55.789+02:00,2022-06-02T10:17:13.754+02:00,757,1.520161,0,0,607.4087,0,0,2022-06-02T11:06:58.348+02:00,675853618.3483071,0,3.542969,101.3397,1,0.74
508,2022-06-02T11:06:58.612+02:00,1654160818.000251,53.22905389876345,10.39848385098534,36.8687,0.1406222,0.7869415,185.1076204702921,136.3840724593959,2.400000095367432,7.999579855010837,-9999,3902.748853375,0.1893463134765625,0.42205810546875,1.132476806640625,3902.743855375,-2.342279666451511,0.5006960760610804,0.3706265510464299,-16.39828872680664,19.41690063476562,-8.216856956481934,0.3841008543968201,-0.1690199077129364,1.680736303329468,XArbitraryZVertical,0.293769228283408,-0.0696968515838934,-0.8594356571461587,0.4125680455950533,0.4474421143531799,-0.3621995151042938,-0.81768399477005,0,0,0,-1,-1,3899.926593375,unknown,2,2022-06-02T11:06:55.789+02:00,2022-06-02T10:17:13.754+02:00,757,1.520161,0,0,607.4087,0,0,2022-06-02T11:06:58.348+02:00,675853618.3483071,0,3.542969,101.3397,1,0.74
509,2022-06-02T11:06:58.622+02:00,1654160818.000251,53.22905389876345,10.39848385098534,36.8687,0.1406222,0.7869415,185.1076204702921,136.3840724593959,2.400000095367432,7.999579855010837,-9999,3902.758847375,-0.805511474609375,1.498092651367188,1.827072143554688,3902.753850375,-2.298542108786731,0.7023557024547904,0.1769464420790031,-20.38486099243164,22.94680786132812,-6.527088642120361,-0.4465842843055725,0.5980826616287231,1.883880615234375,XArbitraryZVertical,0.346609712080736,0.0644967195002853,-0.8409889911447155,0.4104134592193842,0.6359305381774902,-0.1760245263576508,-0.7514037489891052,0,0,0,-1,-1,3899.926593375,unknown,2,2022-06-02T11:06:55.789+02:00,2022-06-02T10:17:13.754+02:00,757,1.520161,0,0,607.4087,0,0,2022-06-02T11:06:58.348+02:00,675853618.3483071,0,3.542969,101.3397,1,0.74
510,2022-06-02T11:06:58.632+02:00,1654160818.000251,53.22905389876345,10.39848385098534,36.8687,0.1406222,0.7869415,185.1076204702921,136.3840724593959,2.400000095367432,7.999579855010837,-9999,3902.768842375,-0.611114501953125,1.528106689453125,2.103485107421875,3902.763845375,-2.174546802124194,0.9382117562490996,-0.0103538136482558,-23.36472320556641,25.96560478210449,-3.905831336975098,-1.6119704246521,1.487739086151123,2.418271541595459,XArbitraryZVertical,0.3981105631521978,0.2142621040284964,-0.7907968361838056,0.4126014098945809,0.8064588308334351,0.0103536285459995,-0.5911994576454163,0,0,0,-1,-1,3899.926593375,unknown,2,2022-06-02T11:06:55.789+02:00,2022-06-02T10:17:13.754+02:00,757,1.520161,0,0,607.4087,0,0,2022-06-02T11:06:58.348+02:00,675853618.3483071,0,3.542969,101.3397,1,0.74
511,2022-06-02T11:06:58.642+02:00,1654160818.000251,53.22905389876345,10.39848385098534,36.8687,0.1406222,0.7869415,185.1076204702921,136.3840724593959,2.400000095367432,7.999579855010837,-9999,3902.778837375,-0.7366943359375,1.3204345703125,2.313186645507812,3902.773839375,-1.971330906901453,1.225889853271516,-0.1460125726014861,-25.36221313476562,27.79514122009277,-0.8426710367202759,-1.542207479476929,1.382612466812134,2.437995910644531,XArbitraryZVertical,0.4453454399374766,0.3666224308620311,-0.7032412506433624,0.4155804667094885,0.9310927987098694,0.1454942971467972,-0.334510862827301,0,0,0,-1,-1,3899.926593375,unknown,2,2022-06-02T11:06:55.789+02:00,2022-06-02T10:17:13.754+02:00,757,1.520161,0,0,607.4087,0,0,2022-06-02T11:06:58.348+02:00,675853618.3483071,0,3.542969,101.3397,1,0.74
512,2022-06-02T11:06:58.652+02:00,1654160818.000251,53.22905389876345,10.39848385098534,36.8687,0.1406222,0.7869415,185.1076204702921,136.3840724593959,2.400000095367432,7.999579855010837,-9999,3902.788831375,-2.297821044921875,0.9967193603515624,2.423873901367188,3902.783834375,-1.712733018738122,1.55373637441569,-0.181504097689199,-26.00529289245605,28.73693466186523,3.192032337188721,-1.720124483108521,1.139925360679626,2.329965591430664,XArbitraryZVertical,0.4850971451604644,0.5062522207421608,-0.578142872617609,0.4173010117605783,0.983430027961731,0.18050916492939,-0.0167788974940776,0,0,0,-1,-1,3899.926593375,unknown,2,2022-06-02T11:06:55.789+02:00,2022-06-02T10:17:13.754+02:00,757,1.520161,0,0,607.4087,0,0,2022-06-02T11:06:58.348+02:00,675853618.3483071,0,3.542969,101.3397,1,0.74
513,2022-06-02T11:06:58.662+02:00,1654160818.000251,53.22905389876345,10.39848385098534,36.8687,0.1406222,0.7869415,185.1076204702921,136.3840724593959,2.400000095367432,7.999579855010837,-9999,3902.798826375,-4.910614013671875,-0.5392913818359375,2.328933715820312,3902.793829375,-1.473027218578922,1.876327044680731,-0.0934601030054898,-23.27771759033203,28.59311294555664,7.421758651733398,-3.2473464012146,0.9033952355384828,2.124387264251709,XArbitraryZVertical,0.5206631040864049,0.6153480370738525,-0.4246365851388458,0.4122382319399021,0.9495251774787904,0.093324102461338,0.2994865477085114,0,0,0,-1,-1,3899.926593375,unknown,2,2022-06-02T11:06:55.789+02:00,2022-06-02T10:17:13.754+02:00,757,1.520161,0,0,607.4087,0,0,2022-06-02T11:06:58.348+02:00,675853618.3483071,0,3.542969,101.3397,1,0.74
514,2022-06-02T11:06:58.672+02:00,1654160818.000251,53.22905389876345,10.39848385098534,36.8687,0.1406222,0.7869415,185.1076204702921,136.3840724593959,2.400000095367432,7.999579855010837,-9999,3902.808821375,-8.374664306640625,-2.753585815429688,2.468643188476562,3902.803823375,-1.331926713557446,2.163170666979666,0.0750727596092798,-16.71374702453613,28.22622299194336,10.7527551651001,-5.737894535064697,-0.464289128780365,1.772174000740051,XArbitraryZVertical,0.5588323383201156,0.6827050745164779,-0.2640784084793636,0.3897211841128339,0.8272803425788879,-0.0750022605061531,0.5567595958709717,0,0,0,-1,-1,3899.926593375,unknown,2,2022-06-02T11:06:55.789+02:00,2022-06-02T10:17:13.754+02:00,757,1.520161,0,0,607.4087,0,0,2022-06-02T11:06:58.348+02:00,675853618.3483071,0,3.542969,101.3397,1,0.74
515,2022-06-02T11:06:58.682+02:00,1654160818.000251,53.22905389876345,10.39848385098534,36.8687,0.1406222,0.7869415,185.1076204702921,136.3840724593959,2.400000095367432,7.999579855010837,-9999,3902.818815375,-12.46115112304688,-5.233200073242188,5.456817626953125,3902.813818375,-1.31693777117614,2.44402266122502,0.2406077621687047,-7.529458045959473,28.17172050476074,11.8699426651001,-8.998517036437988,-2.515292882919312,1.724315404891968,XArbitraryZVertical,0.6033468049798377,0.7128369184890279,-0.1184041791957044,0.3373670516462163,0.6238529682159424,-0.2382929176092148,0.7443276643753052,0,0,0,-1,-1,3899.926593375,unknown,2,2022-06-02T11:06:55.789+02:00,2022-06-02T10:17:13.754+02:00,757,1.520161,0,0,607.4087,0,0,2022-06-02T11:06:58.348+02:00,675853618.3483071,0,3.542969,101.3397,1,0.74
516,2022-06-02T11:06:58.692+02:00,1654160818.000251,53.22905389876345,10.39848385098534,36.8687,0.1406222,0.7869415,185.1076204702921,136.3840724593959,2.400000095367432,7.999579855010837,-9999,3902.828810375,-16.15176391601562,-5.376800537109375,11.33226013183594,3902.823813375,-1.398314878156656,2.744087035724299,0.31287440341367,3.352015018463135,27.04617881774902,8.768105506896973,-12.82947731018066,-4.925405502319336,4.579550266265869,XArbitraryZVertical,0.6467441245339419,0.7213568577838214,-0.0086204110943258,0.2475720586271131,0.3683260083198547,-0.3077947497367859,0.8772673606872559,0,0,0,-1,-1,3899.926593375,unknown,2,2022-06-02T11:06:55.789+02:00,2022-06-02T10:17:13.754+02:00,757,1.520161,0,0,607.4087,0,0,2022-06-02T11:06:58.348+02:00,675853618.3483071,0,3.542969,101.3397,1,0.74
517,2022-06-02T11:06:58.702+02:00,1654160818.000251,53.22905389876345,10.39848385098534,36.8687,0.1406222,0.7869415,185.1076204702921,136.3840724593959,2.400000095367432,7.999579855010837,-9999,3902.838805375,-16.25053405761719,-4.046539306640625,17.66432189941406,3902.833807375,-1.46261485190433,3.022363216580183,0.2711620501985494,6.626027584075928,24.74571800231934,0.5793256759643555,-16.26636505126953,-5.108949184417725,10.37563991546631,XArbitraryZVertical,0.6665329630828161,0.7307830313177781,0.0610010544595591,0.1340474855863775,0.1146008297801018,-0.2678512036800385,0.9566200375556946,0,0,0,-1,-1,3899.926593375,unknown,2,2022-06-02T11:06:55.789+02:00,2022-06-02T10:17:13.754+02:00,757,1.520161,0,0,607.4087,0,0,2022-06-02T11:06:58.348+02:00,675853618.3483071,0,3.542969,101.3397,1,0.74
518,2022-06-02T11:06:58.712+02:00,1654160818.000251,53.22905389876345,10.39848385098534,36.8687,0.1406222,0.7869415,185.1076204702921,136.3840724593959,2.400000095367432,7.999579855010837,-9999,3902.848799375,-13.74226379394531,-3.053390502929688,20.5272216796875,3902.843802375,-1.415365140970453,-3.04631314713275,0.2353115787842986,0.3787302076816559,20.01080513000488,-10.06044673919678,-16.15802001953125,-3.813393354415894,16.69629096984863,XArbitraryZVertical,0.6406001402079979,0.7573948809952004,0.1198394854657479,0.0402859444886118,-0.0925136432051658,-0.2331459820270538,0.968031108379364,0,0,0,-1,-1,3899.926593375,unknown,2,2022-06-02T11:06:55.789+02:00,2022-06-02T10:17:13.754+02:00,757,1.520161,0,0,607.4087,0,0,2022-06-02T11:06:58.348+02:00,675853618.3483071,0,3.542969,101.3397,1,0.74
519,2022-06-02T11:06:58.722+02:00,1654160818.000251,53.22905389876345,10.39848385098534,36.8687,0.1406222,0.7869415,185.1076204702921,136.3840724593959,2.400000095367432,7.999579855010837,-9999,3902.858794375,-14.68804931640625,-0.9095458984375,19.86018371582031,3902.853797375,-1.258492190206438,-2.928642579858594,0.2813635235490807,-3.94025731086731,10.86563587188721,-21.56344795227051,-13.53923034667969,-2.775724649429321,19.58824348449707,XArbitraryZVertical,0.5673735850487684,0.8047210063829174,0.1746484781131712,-0.0030145791508552,-0.2030336558818817,-0.2776658236980438,0.9389773607254028,0,0,0,-1,-1,3899.926593375,unknown,2,2022-06-02T11:06:55.789+02:00,2022-06-02T10:17:13.754+02:00,757,1.520161,0,0,607.4087,0,0,2022-06-02T11:06:58.348+02:00,675853618.3483071,0,3.542969,101.3397,1,0.74
520,2022-06-02T11:06:58.732+02:00,1654160818.000251,53.22905389876345,10.39848385098534,36.8687,0.1406222,0.7869415,185.1076204702921,136.3840724593959,2.400000095367432,7.999579855010837,-9999,3902.868789375,-17.88471984863281,0.935577392578125,16.68009948730469,3902.863791375,-0.990702384231629,-2.970499273651547,0.3696407986951657,-2.434145212173462,-2.449440717697144,-31.08838653564453,-14.52928924560547,-0.548265278339386,18.94134140014648,XArbitraryZVertical,0.4517221977464343,0.869119193029703,0.2010124804479382,0.0131418224650896,-0.1587599813938141,-0.3612805008888245,0.9188422560691832,0,0,0,-1,-1,3899.926593375,unknown,2,2022-06-02T11:06:55.789+02:00,2022-06-02T10:17:13.754+02:00,757,1.520161,0,0,607.4087,0,0,2022-06-02T11:06:58.348+02:00,675853618.3483071,0,3.542969,101.3397,1,0.74
521,2022-06-02T11:06:58.742+02:00,1654160818.000251,53.22905389876345,10.39848385098534,36.8687,0.1406222,0.7869415,185.1076204702921,136.3840724593959,2.400000095367432,7.999579855010837,-9999,3902.878783375,-23.15756225585938,4.749984741210938,12.46849060058594,3902.873786375,-0.6310435846835022,3.087536885866725,0.3892363908393466,3.304100513458252,-14.72285556793213,-34.74747085571289,-17.93470764160156,1.315059423446655,15.75625228881836,XArbitraryZVertical,0.3093114841659327,0.93072563924771,0.1755501823096552,0.0851955499791722,0.0499879904091358,-0.3794820308685303,0.9238476157188416,0,0,0,-1,-1,3899.926593375,unknown,2,2022-06-02T11:06:55.789+02:00,2022-06-02T10:17:13.754+02:00,757,1.520161,0,0,607.4087,0,0,2022-06-02T11:06:58.348+02:00,675853618.3483071,0,3.542969,101.3397,1,0.74
522,2022-06-02T11:06:58.752+02:00,1654160818.000251,53.22905389876345,10.39848385098534,36.8687,0.1406222,0.7869415,185.1076204702921,136.3840724593959,2.400000095367432,7.999579855010837,-9999,3902.888778375,-29.19546508789062,7.688018798828125,10.75718688964844,3902.883781375,-0.2883094015587128,2.768161081828439,0.2528501356755357,10.07088279724121,-27.95907974243164,-34.78220367431641,-23.51077461242676,5.000149250030518,11.56701469421387,XArbitraryZVertical,0.1631958970272006,0.9613037416651076,0.0961575211732591,0.2000396882341395,0.3532127737998962,-0.2501644790172577,0.9014755487442015,0,0,0,-1,-1,3899.926593375,unknown,2,2022-06-02T11:06:55.789+02:00,2022-06-02T10:17:13.754+02:00,757,1.520161,0,0,607.4087,0,0,2022-06-02T11:06:58.348+02:00,675853618.3483071,0,3.542969,101.3397,1,0.74
523,2022-06-02T11:06:58.762+02:00,1654160818.000251,53.22905389876345,10.39848385098534,36.8687,0.1406222,0.7869415,185.1076204702921,136.3840724593959,2.400000095367432,7.999579855010837,-9999,3902.898773375,-32.04005432128906,9.260177612304688,13.05169677734375,3902.893775375,-0.0716343099659089,2.408623089435633,-0.0455632947781081,17.85541343688965,-35.15447616577148,-32.87240982055664,-29.86384963989258,7.642471313476562,10.01476764678955,XArbitraryZVertical,0.025265272225885,0.9330441580114872,-0.034081798905307,0.3572515497838569,0.6683850884437561,0.045547530055046,0.7424194812774658,0,0,0,-1,-1,3899.926593375,unknown,2,2022-06-02T11:06:55.789+02:00,2022-06-02T10:17:13.754+02:00,757,1.520161,0,0,607.4087,0,0,2022-06-02T11:06:58.348+02:00,675853618.3483071,0,3.542969,101.3397,1,0.74
524,2022-06-02T11:06:58.772+02:00,1654160818.000251,53.22905389876345,10.39848385098534,36.8687,0.1406222,0.7869415,185.1076204702921,136.3840724593959,2.400000095367432,7.999579855010837,-9999,3902.908767375,-32.03500366210938,9.898590087890623,19.83660888671875,3902.903770375,-0.0612746878980638,2.053222590541405,-0.4093020872053944,25.7526912689209,-35.16767120361328,-26.63021850585938,-32.85275268554688,8.862208366394043,12.62608814239502,XArbitraryZVertical,-0.079503975515549,0.8405257226099543,-0.1893160424870787,0.5013532547210091,0.8126978278160095,0.3979691565036774,0.42560875415802,0,0,0,-1,-1,3899.926593375,unknown,2,2022-06-02T11:06:55.789+02:00,2022-06-02T10:17:13.754+02:00,757,1.520161,0,0,607.4087,0,0,2022-06-02T11:06:58.348+02:00,675853618.3483071,0,3.542969,101.3397,1,0.74
525,2022-06-02T11:06:58.782+02:00,1654160818.000251,53.22905389876345,10.39848385098534,36.8687,0.1406222,0.7869415,185.1076204702921,136.3840724593959,2.400000095367432,7.999579855010837,-9999,3902.918762375,-32.20994567871094,9.962310791015623,30.59043884277344,3902.913765375,-0.3693079558943249,1.530473665608814,-0.6890149636825593,35.30182266235352,-35.15235900878906,-15.16173839569092,-32.80624771118164,9.262812614440918,19.86772346496582,XArbitraryZVertical,-0.1197260130308185,0.6856441654233899,-0.3546127657207748,0.624345607143858,0.7712451219558716,0.6357771754264832,-0.0311155207455158,0,0,0,-1,-1,3899.926593375,unknown,2,2022-06-02T11:06:55.789+02:00,2022-06-02T10:17:13.754+02:00,757,1.520161,0,0,607.4087,0,0,2022-06-02T11:06:58.348+02:00,675853618.3483071,0,3.542969,101.3397,1,0.74
526,2022-06-02T11:06:58.792+02:00,1654160818.000251,53.22905389876345,10.39848385098534,36.8687,0.1406222,0.7869415,185.1076204702921,136.3840724593959,2.400000095367432,7.999579855010837,-9999,3902.928757375,-32.20234680175781,12.80284118652344,31.44105529785156,3902.923759375,-0.8184098722700616,0.8926112953823465,-0.6383238720920166,35.25159072875977,-35.12666320800781,-0.5363438725471497,-32.8353271484375,9.366460800170898,31.09428596496582,XArbitraryZVertical,-0.0966018934930151,0.4886151201228337,-0.4650345781364153,0.7318921524089905,0.6253806948661804,0.5958501696586609,-0.5038467049598694,0,0,0,-1,-1,3899.926593375,unknown,2,2022-06-02T11:06:55.789+02:00,2022-06-02T10:17:13.754+02:00,757,1.520161,0,0,607.4087,0,0,2022-06-02T11:06:58.348+02:00,675853618.3483071,0,3.542969,101.3397,1,0.74
527,2022-06-02T11:06:58.802+02:00,1654160818.000251,53.22905389876345,10.39848385098534,36.8687,0.1406222,0.7869415,185.1076204702921,136.3840724593959,2.400000095367432,7.999579855010837,-9999,3902.938751375,-32.33999633789062,-12.30049133300781,31.29051208496094,3902.933754375,-1.0383797218955,0.5394475235345413,-0.3446299188151772,35.02310943603516,-7.940789699554443,9.204230308532717,-32.68580627441406,12.46499252319336,32.24860000610352,XArbitraryZVertical,-0.013229991243039,0.3099248784505196,-0.5108231852150411,0.8017674468875768,0.4834589958190918,0.3378483653068542,-0.8075430989265442,0,0,0,-1,-1,3899.926593375,unknown,2,2022-06-02T11:06:55.789+02:00,2022-06-02T10:17:13.754+02:00,757,1.520161,0,0,607.4087,0,0,2022-06-02T11:06:58.348+02:00,675853618.3483071,0,3.542969,101.3397,1,0.74
528,2022-06-02T11:06:58.812+02:00,1654160818.000251,53.22905389876345,10.39848385098534,36.8687,0.1406222,0.7869415,185.1076204702921,136.3840724593959,2.400000095367432,7.999579855010837,-9999,3902.948746375,-26.74655151367188,-26.29412841796875,19.06825256347656,3902.943749375,-1.061654752304493,0.6223233649550567,0.0523942199181495,34.11180877685547,16.79035377502441,27.90615844726562,-32.922119140625,-12.24812126159668,32.10192489624023,XArbitraryZVertical,0.1764465665180748,0.2513184674316558,-0.4748548548156014,0.8247534819699877,0.5821245908737183,-0.0523702502250671,-0.8114112615585327,0,0,0,-1,-1,3899.926593375,unknown,2,2022-06-02T11:06:55.789+02:00,2022-06-02T10:17:13.754+02:00,757,1.520161,0,0,607.4087,0,0,2022-06-02T11:06:58.348+02:00,675853618.3483071,0,3.542969,101.3397,1,0.74
529,2022-06-02T11:06:58.822+02:00,1654160818.000251,53.22905389876345,10.39848385098534,36.8687,0.1406222,0.7869415,185.1076204702921,136.3840724593959,2.400000095367432,7.999579855010837,-9999,3902.958741375,-5.4814453125,-15.3753662109375,-2.03411865234375,3902.953743375,-0.9472279008067084,0.6904570634807402,0.3595406570686699,0.1369897723197937,2.470687866210938,26.42345428466797,-27.34271812438965,-25.94228363037109,19.7899112701416,XArbitraryZVertical,0.3015974719325248,0.2195665424968295,-0.3684290479082384,0.8515218639825297,0.5961659550666809,-0.351844310760498,-0.7216590046882629,0,0,0,-1,-1,3899.926593375,unknown,2,2022-06-02T11:06:55.789+02:00,2022-06-02T10:17:13.754+02:00,757,1.520161,0,0,607.4087,0,0,2022-06-02T11:06:58.348+02:00,675853618.3483071,0,3.542969,101.3397,1,0.74
530,2022-06-02T11:06:58.832+02:00,1654160818.000251,53.22905389876345,10.39848385098534,36.8687,0.1406222,0.7869415,185.1076204702921,136.3840724593959,2.400000095367432,7.999579855010837,-9999,3902.968735375,-5.173843383789062,-3.998794555664062,3.08087158203125,3902.963738375,-0.6911095608443323,0.5770145546409805,0.4153504502669986,-16.60363578796387,-6.24222469329834,16.98705863952637,-5.980586528778076,-14.97185516357422,-1.267282724380493,XArbitraryZVertical,0.2802815646187494,0.1949981621832388,-0.2625456093651897,0.9024896655227412,0.4991410374641418,-0.4035106003284454,-0.7668359279632568,0,0,0,-1,-1,3899.926593375,unknown,2,2022-06-02T11:06:55.789+02:00,2022-06-02T10:17:13.754+02:00,757,1.520161,0,0,607.4087,0,0,2022-06-02T11:06:58.348+02:00,675853618.3483071,0,3.542969,101.3397,1,0.74
531,2022-06-02T11:06:58.842+02:00,1654160818.000251,53.22905389876345,10.39848385098534,36.8687,0.1406222,0.7869415,185.1076204702921,136.3840724593959,2.400000095367432,7.999579855010837,-9999,3902.978730375,-18.6571044921875,1.417343139648438,3.850173950195312,3902.973733375,-0.5047573506287668,0.4179417538321747,0.3483042895887847,-8.47511100769043,-7.040517807006836,9.21342658996582,-5.555351734161377,-3.657490015029907,3.939919233322144,XArbitraryZVertical,0.2151531157165765,0.1555164321414012,-0.2057732620361953,0.9419028324870738,0.3815082609653473,-0.3413044214248657,-0.859047532081604,0,0,0,-1,-1,3899.926593375,unknown,2,2022-06-02T11:06:55.789+02:00,2022-06-02T10:17:13.754+02:00,757,1.520161,0,0,607.4087,0,0,2022-06-02T11:06:58.348+02:00,675853618.3483071,0,3.542969,101.3397,1,0.74
532,2022-06-02T11:06:58.852+02:00,1654160818.000251,53.22905389876345,10.39848385098534,36.8687,0.1406222,0.7869415,185.1076204702921,136.3840724593959,2.400000095367432,7.999579855010837,-9999,3902.988725375,-14.66326904296875,-0.2749176025390625,7.2955322265625,3902.983727375,-0.4072902649831661,0.4062347227907218,0.3794084782804246,3.293463468551636,10.63084697723389,9.294842720031738,-19.02415657043457,1.787714242935181,4.703460693359375,XArbitraryZVertical,0.2209402693730785,0.1566588331830599,-0.1572766571203111,0.9496879759047072,0.3670515120029449,-0.3703710734844208,-0.8532868027687073,0,0,0,-1,-1,3899.926593375,unknown,2,2022-06-02T11:06:55.789+02:00,2022-06-02T10:17:13.754+02:00,757,1.520161,0,0,607.4087,0,0,2022-06-02T11:06:58.348+02:00,675853618.3483071,0,3.542969,101.3397,1,0.74
533,2022-06-02T11:06:58.862+02:00,1654160818.000251,53.22905389876345,10.39848385098534,36.8687,0.1406222,0.7869415,185.1076204702921,136.3840724593959,2.400000095367432,7.999579855010837,-9999,3902.998719375,-3.73187255859375,-4.770751953125,8.477584838867188,3902.993722375,-0.3183458717424238,0.4729913887890332,0.4406181773831523,1.119343042373657,7.669107437133789,9.490964889526367,-15.07530975341797,0.1515810787677765,8.100716590881348,XArbitraryZVertical,0.246001740674336,0.1920706750095968,-0.0998113654585227,0.9447907808726964,0.4120407402515411,-0.426498681306839,-0.805184006690979,0,0,0,-1,-1,3899.926593375,unknown,2,2022-06-02T11:06:55.789+02:00,2022-06-02T10:17:13.754+02:00,757,1.520161,0,0,607.4087,0,0,2022-06-02T11:06:58.348+02:00,675853618.3483071,0,3.542969,101.3397,1,0.74
534,2022-06-02T11:06:58.872+02:00,1654160818.000251,53.22905389876345,10.39848385098534,36.8687,0.1406222,0.7869415,185.1076204702921,136.3840724593959,2.400000095367432,7.999579855010837,-9999,3903.008714375,-6.469039916992188,-1.43829345703125,6.982681274414062,3903.003717375,-0.2325222964663341,0.4825636070789741,0.4660269284297088,-3.935142040252686,1.691232204437256,7.657207489013672,-4.146438121795654,-4.321411609649658,9.26893138885498,XArbitraryZVertical,0.2496767444485328,0.204910882508217,-0.0547920854294074,0.9448125531544832,0.4145653545856476,-0.4493404626846313,-0.7913461327552795,0,0,0,-1,-1,3899.926593375,unknown,2,2022-06-02T11:06:55.789+02:00,2022-06-02T10:17:13.754+02:00,757,1.520161,0,0,607.4087,0,0,2022-06-02T11:06:58.348+02:00,675853618.3483071,0,3.542969,101.3397,1,0.74
535,2022-06-02T11:06:58.882+02:00,1654160818.000251,53.22905389876345,10.39848385098534,36.8687,0.1406222,0.7869415,185.1076204702921,136.3840724593959,2.400000095367432,7.999579855010837,-9999,3903.018709375,-9.639236450195312,2.414688110351562,4.877639770507812,3903.013711375,-0.1141706029085322,0.4334573060679424,0.4646635277061045,-4.654238700866699,-0.3958898782730103,10.79487419128418,-6.844518184661865,-0.9901714324951172,7.793978214263916,XArbitraryZVertical,0.2364337139470781,0.1960882724371391,-0.0047917194198167,0.9516435332522244,0.3754781186580658,-0.4481220245361328,-0.8112969994544983,0,0,0,-1,-1,3899.926593375,unknown,2,2022-06-02T11:06:55.789+02:00,2022-06-02T10:17:13.754+02:00,757,1.520161,0,0,607.4087,0,0,2022-06-02T11:06:58.348+02:00,675853618.3483071,0,3.542969,101.3397,1,0.74
536,2022-06-02T11:06:58.892+02:00,1654160818.000251,53.22905389876345,10.39848385098534,36.8687,0.1406222,0.7869415,185.1076204702921,136.3840724593959,2.400000095367432,7.999579855010837,-9999,3903.028703375,-6.9759521484375,2.399383544921875,3.99139404296875,3903.023706375,0.0014671310267477,0.364840016985143,0.4799045040190634,-0.5163625478744507,-3.067525148391724,8.8623685836792,-9.955732345581056,2.87638258934021,5.706294536590576,XArbitraryZVertical,0.2335836229538292,0.176383835063959,0.0438139230837468,0.9552003855779072,0.3164953887462616,-0.4616944789886475,-0.8286548852920532,0,0,0,-1,-1,3899.926593375,unknown,2,2022-06-02T11:06:55.789+02:00,2022-06-02T10:17:13.754+02:00,757,1.520161,0,0,607.4087,0,0,2022-06-02T11:06:58.348+02:00,675853618.3483071,0,3.542969,101.3397,1,0.74
537,2022-06-02T11:06:58.902+02:00,1654160818.000251,53.22905389876345,10.39848385098534,36.8687,0.1406222,0.7869415,185.1076204702921,136.3840724593959,2.400000095367432,7.999579855010837,-9999,3903.038698375,-8.18756103515625,1.307586669921875,4.124282836914062,3903.033701375,0.0853128758714943,0.2846812236633563,0.5211275181588834,3.521898746490479,-4.37444543838501,7.924227714538574,-7.219522953033447,2.897241830825806,4.823746204376221,XArbitraryZVertical,0.2489426640954615,0.1478221791284093,0.0773009524236092,0.9540444080427471,0.2435708343982697,-0.4978583157062531,-0.8323522806167603,0,0,0,-1,-1,3899.926593375,unknown,2,2022-06-02T11:06:55.789+02:00,2022-06-02T10:17:13.754+02:00,757,1.520161,0,0,607.4087,0,0,2022-06-02T11:06:58.348+02:00,675853618.3483071,0,3.542969,101.3397,1,0.74
538,2022-06-02T11:06:58.912+02:00,1654160818.000251,53.22905389876345,10.39848385098534,36.8687,0.1406222,0.7869415,185.1076204702921,136.3840724593959,2.400000095367432,7.999579855010837,-9999,3903.048693375,-7.826095581054688,-0.069580078125,3.656875610351562,3903.043695375,0.1644892004197759,0.2022825305172763,0.5868349609841661,5.606114387512207,-3.894368886947632,8.415120124816895,-8.354854583740234,1.861315011978149,4.940001964569092,XArbitraryZVertical,0.2788343747651522,0.1199659069867131,0.1073430109474001,0.946750697581792,0.1672937721014023,-0.5537282824516296,-0.8157191276550293,0,0,0,-1,-1,3899.926593375,unknown,2,2022-06-02T11:06:55.789+02:00,2022-06-02T10:17:13.754+02:00,757,1.520161,0,0,607.4087,0,0,2022-06-02T11:06:58.348+02:00,675853618.3483071,0,3.542969,101.3397,1,0.74
539,2022-06-02T11:06:58.922+02:00,1654160818.000251,53.22905389876345,10.39848385098534,36.8687,0.1406222,0.7869415,185.1076204702921,136.3840724593959,2.400000095367432,7.999579855010837,-9999,3903.058687375,-7.2857666015625,-1.404632568359375,3.0850830078125,3903.053690375,0.2597066703374523,0.1080558367950024,0.6523669847156399,4.716734886169434,-3.821729421615601,8.896649360656738,-7.911795139312744,0.5374889969825745,4.446889877319336,XArbitraryZVertical,0.3106448861078506,0.0921551366980621,0.1396401640270176,0.9356856269579864,0.0856994688510894,-0.6070690155029297,-0.790014386177063,0,0,0,-1,-1,3899.926593375,unknown,2,2022-06-02T11:06:55.789+02:00,2022-06-02T10:17:13.754+02:00,757,1.520161,0,0,607.4087,0,0,2022-06-02T11:06:58.348+02:00,675853618.3483071,0,3.542969,101.3397,1,0.74
540,2022-06-02T11:06:58.932+02:00,1654160818.000251,53.22905389876345,10.39848385098534,36.8687,0.1406222,0.7869415,185.1076204702921,136.3840724593959,2.400000095367432,7.999579855010837,-9999,3903.068682375,-6.964096069335938,-1.662384033203125,2.488113403320312,3903.063685375,0.3738644542063908,0.0019713742552958,0.6962443024308222,2.987111568450928,-3.130338430404663,9.33937168121338,-7.28727912902832,-0.7632918953895569,3.852337837219238,XArbitraryZVertical,0.3350179683482091,0.0643084458057907,0.1750278125507745,0.92357598680046,0.0015125483041629,-0.6413406133651733,-0.7672547698020935,0,0,0,-1,-1,3899.926593375,unknown,2,2022-06-02T11:06:55.789+02:00,2022-06-02T10:17:13.754+02:00,757,1.520161,0,0,607.4087,0,0,2022-06-02T11:06:58.348+02:00,675853618.3483071,0,3.542969,101.3397,1,0.74
541,2022-06-02T11:06:58.942+02:00,1654160818.000251,53.22905389876345,10.39848385098534,36.8687,0.1406222,0.7869415,185.1076204702921,136.3840724593959,2.400000095367432,7.999579855010837,-9999,3903.078677375,-5.979949951171875,-2.018585205078125,1.807083129882812,3903.073679375,0.498086862271811,-0.1075226274618451,0.7139793991781737,1.597308993339539,-2.721721172332764,9.366230964660645,-6.882990837097168,-1.007537603378296,3.239510774612427,XArbitraryZVertical,0.3505943538715961,0.0372139915004107,0.2124049383505242,0.911363158585745,-0.0811050236225128,-0.6548464298248291,-0.751397430896759,0,0,0,-1,-1,3899.926593375,unknown,2,2022-06-02T11:06:55.789+02:00,2022-06-02T10:17:13.754+02:00,757,1.520161,0,0,607.4087,0,0,2022-06-02T11:06:58.348+02:00,675853618.3483071,0,3.542969,101.3397,1,0.74
542,2022-06-02T11:06:58.952+02:00,1654160818.000251,53.22905389876345,10.39848385098534,36.8687,0.1406222,0.7869415,185.1076204702921,136.3840724593959,2.400000095367432,7.999579855010837,-9999,3903.088671375,-5.460693359375,-2.134735107421875,1.109634399414062,3903.083674375,0.6210756346658789,-0.2158555001581454,0.7094932262150695,0.5421063899993896,-2.780836582183838,9.08693790435791,-5.817451000213623,-1.367135763168335,2.548168659210205,XArbitraryZVertical,0.3596803459495858,0.0093435073569963,0.2492503853051286,0.8991200535195085,-0.1624990552663803,-0.6514493823051453,-0.7410854697227478,0,0,0,-1,-1,3899.926593375,unknown,2,2022-06-02T11:06:55.789+02:00,2022-06-02T10:17:13.754+02:00,757,1.520161,0,0,607.4087,0,0,2022-06-02T11:06:58.348+02:00,675853618.3483071,0,3.542969,101.3397,1,0.74
543,2022-06-02T11:06:58.962+02:00,1654160818.000251,53.22905389876345,10.39848385098534,36.8687,0.1406222,0.7869415,185.1076204702921,136.3840724593959,2.400000095367432,7.999579855010837,-9999,3903.098666375,-5.143020629882812,-2.23455810546875,0.63421630859375,3903.093669375,0.7326498222631779,-0.3144329175027185,0.6887945825004569,0.0645840540528297,-2.565063953399658,8.47021198272705,-5.221927165985107,-1.499128103256226,1.843796849250793,XArbitraryZVertical,0.364128000086363,-0.0181544715284051,0.2836403613975833,0.8869212586334997,-0.2387659698724747,-0.6356070637702942,-0.734162449836731,0,0,0,-1,-1,3899.926593375,unknown,2,2022-06-02T11:06:55.789+02:00,2022-06-02T10:17:13.754+02:00,757,1.520161,0,0,607.4087,0,0,2022-06-02T11:06:58.348+02:00,675853618.3483071,0,3.542969,101.3397,1,0.74
544,2022-06-02T11:06:58.972+02:00,1654160818.000251,53.22905389876345,10.39848385098534,36.8687,0.1406222,0.7869415,185.1076204702921,136.3840724593959,2.400000095367432,7.999579855010837,-9999,3903.108661375,-4.783981323242188,-2.076812744140625,0.4049072265625,3903.103663375,0.8301123590188071,-0.3992170261476104,0.6615094967289918,0.1677539050579071,-2.17530632019043,7.671828269958496,-4.836313247680664,-1.620249509811401,1.361234426498413,XArbitraryZVertical,0.3669053667184765,-0.0432596605631142,0.3148848622044348,0.8742748490446239,-0.3067075610160828,-0.6143086552619934,-0.7270181179046631,0,0,0,-1,-1,3899.926593375,unknown,2,2022-06-02T11:06:55.789+02:00,2022-06-02T10:17:13.754+02:00,757,1.520161,0,0,607.4087,0,0,2022-06-02T11:06:58.348+02:00,675853618.3483071,0,3.542969,101.3397,1,0.74
545,2022-06-02T11:06:58.982+02:00,1654160818.000251,53.22905389876345,10.39848385098534,36.8687,0.1406222,0.7869415,185.1076204702921,136.3840724593959,2.400000095367432,7.999579855010837,-9999,3903.118655375,-4.609298706054688,-1.898696899414062,0.363800048828125,3903.113658375,0.91186000627481,-0.4669810159504064,0.6337223676699447,0.2813513278961182,-1.482132911682129,6.433113574981689,-4.421203136444092,-1.48466420173645,1.124457240104675,XArbitraryZVertical,0.3689686597293491,-0.0639308754209997,0.3422969881575313,0.8617468182169294,-0.3627781867980957,-0.5921484231948853,-0.7195499539375305,0,0,0,-1,-1,3899.926593375,unknown,2,2022-06-02T11:06:55.789+02:00,2022-06-02T10:17:13.754+02:00,757,1.520161,0,0,607.4087,0,0,2022-06-02T11:06:58.348+02:00,675853618.3483071,0,3.542969,101.3397,1,0.74
546,2022-06-02T11:06:58.992+02:00,1654160818.000251,53.22905389876345,10.39848385098534,36.8687,0.1406222,0.7869415,185.1076204702921,136.3840724593959,2.400000095367432,7.999579855010837,-9999,3903.128650375,-4.478530883789062,-2.114028930664062,0.2954254150390625,3903.123653375,0.9758441637061576,-0.5153814103953456,0.610051195412382,0.4613206088542938,-0.742854654788971,4.983171939849854,-4.205336093902588,-1.325787544250488,1.076954126358032,XArbitraryZVertical,0.3704699738230843,-0.0785807220061846,0.3647828395406229,0.850594196443723,-0.4039627909660339,-0.572909414768219,-0.713154137134552,0,0,0,-1,-1,3899.926593375,unknown,2,2022-06-02T11:06:55.789+02:00,2022-06-02T10:17:13.754+02:00,757,1.520161,0,0,607.4087,0,0,2022-06-02T11:06:58.348+02:00,675853618.3483071,0,3.542969,101.3397,1,0.74
547,2022-06-02T11:06:59.002+02:00,1654160818.000251,53.22905389876345,10.39848385098534,36.8687,0.1406222,0.7869415,185.1076204702921,136.3840724593959,2.400000095367432,7.999579855010837,-9999,3903.138644375,-4.255569458007812,-2.502853393554688,0.28802490234375,3903.133647375,1.024248412082601,-0.5469626000870315,0.5919842980426195,0.3833411335945129,-0.1384132653474808,3.749444484710693,-4.046937465667725,-1.556020021438599,1.004194259643555,XArbitraryZVertical,0.37141179553284,-0.0875719154336583,0.3826272351186482,0.8414158728206738,-0.4315933287143707,-0.5580087900161743,-0.708768904209137,0,0,0,-1,-1,3899.926593375,unknown,2,2022-06-02T11:06:55.789+02:00,2022-06-02T10:17:13.754+02:00,757,1.520161,0,0,607.4087,0,0,2022-06-02T11:06:58.348+02:00,675853618.3483071,0,3.542969,101.3397,1,0.74
548,2022-06-02T11:06:59.012+02:00,1654160818.000251,53.22905389876345,10.39848385098534,36.8687,0.1406222,0.7869415,185.1076204702921,136.3840724593959,2.400000095367432,7.999579855010837,-9999,3903.148639375,-4.037063598632812,-2.881301879882812,0.2950439453125,3903.143642375,1.056542585220133,-0.564122826314303,0.5754782005332565,-0.4220638573169708,0.2457118332386017,2.588590621948242,-3.807013511657715,-1.958617329597473,0.9969711899757384,XArbitraryZVertical,0.3699390819036243,-0.0931233356415009,0.3959998914208612,0.8352587257332817,-0.4485558271408081,-0.5442360043525696,-0.7089462280273438,0,0,0,-1,-1,3899.926593375,unknown,2,2022-06-02T11:06:55.789+02:00,2022-06-02T10:17:13.754+02:00,757,1.520161,0,0,607.4087,0,0,2022-06-02T11:06:58.348+02:00,675853618.3483071,0,3.542969,101.3397,1,0.74
549,2022-06-02T11:06:59.022+02:00,1654160818.000251,53.22905389876345,10.39848385098534,36.8687,0.1406222,0.7869415,185.1076204702921,136.3840724593959,2.400000095367432,7.999579855010837,-9999,3903.158634375,-3.947723388671875,-2.923675537109375,0.32177734375,3903.153636375,1.070156630051115,-0.5675909638750453,0.5559248098651438,-1.697194695472717,0.5320144295692444,1.439399003982544,-3.580417394638062,-2.353572845458984,1.01126754283905,XArbitraryZVertical,0.3638970257595793,-0.0972994108585689,0.4046300797114347,0.8332983850854632,-0.4566462635993958,-0.5277290940284729,-0.7162235379219055,0,0,0,-1,-1,3899.926593375,unknown,2,2022-06-02T11:06:55.789+02:00,2022-06-02T10:17:13.754+02:00,757,1.520161,0,0,607.4087,0,0,2022-06-02T11:06:58.348+02:00,675853618.3483071,0,3.542969,101.3397,1,0.74
550,2022-06-02T11:06:59.032+02:00,1654160818.000251,53.22905389876345,10.39848385098534,36.8687,0.1406222,0.7869415,185.1076204702921,136.3840724593959,2.400000095367432,7.999579855010837,-9999,3903.168628375,-4.021621704101562,-2.568527221679688,0.29156494140625,3903.163631375,1.062900671965985,-0.5568201600678319,0.5308890741666235,-3.181577444076538,0.8771284818649292,0.1588355898857117,-3.491976737976074,-2.417375326156616,1.053866863250732,XArbitraryZVertical,0.3518463820668412,-0.1007937470245286,0.4080501007948475,0.8363849509964877,-0.4557466506958008,-0.5063002705574036,-0.7320894598960876,0,0,0,-1,-1,3899.926593375,unknown,2,2022-06-02T11:06:55.789+02:00,2022-06-02T10:17:13.754+02:00,757,1.520161,0,0,607.4087,0,0,2022-06-02T11:06:58.348+02:00,675853618.3483071,0,3.542969,101.3397,1,0.74
551,2022-06-02T11:06:59.043+02:00,1654160818.000251,53.22905389876345,10.39848385098534,36.8687,0.1406222,0.7869415,185.1076204702921,136.3840724593959,2.400000095367432,7.999579855010837,-9999,3903.178623375,-4.116119384765625,-2.069656372070312,0.1808013916015625,3903.173626375,1.035353469089325,-0.5329785488541825,0.500718946628078,-4.426689147949219,1.166143298149109,-1.121557950973511,-3.575896263122559,-2.088470935821533,1.047127485275269,XArbitraryZVertical,0.3339474503000657,-0.1034302597534569,0.4058154226656361,0.8444495358769484,-0.4457253217697144,-0.4800563454627991,-0.7555625438690186,0,0,0,-1,-1,3899.926593375,unknown,2,2022-06-02T11:06:55.789+02:00,2022-06-02T10:17:13.754+02:00,757,1.520161,0,0,607.4087,0,0,2022-06-02T11:06:58.348+02:00,675853618.3483071,0,3.542969,101.3397,1,0.74
552,2022-06-02T11:06:59.052+02:00,1654160818.000251,53.22905389876345,10.39848385098534,36.8687,0.1406222,0.7869415,185.1076204702921,136.3840724593959,2.400000095367432,7.999579855010837,-9999,3903.188618375,-4.160537719726562,-1.685317993164062,-0.015350341796875,3903.183620375,0.9903037932687276,-0.4991615574438258,0.4666728823553151,-5.405168056488037,1.392542481422424,-2.442004919052124,-3.688616037368774,-1.619738817214966,0.964902937412262,XArbitraryZVertical,0.3113343585703292,-0.1049770106567718,0.397712312833943,0.8566653765193495,-0.4275033473968506,-0.4499174356460571,-0.7841014862060547,0,0,0,-1,-1,3899.926593375,unknown,2,2022-06-02T11:06:55.789+02:00,2022-06-02T10:17:13.754+02:00,757,1.520161,0,0,607.4087,0,0,2022-06-02T11:06:58.348+02:00,675853618.3483071,0,3.542969,101.3397,1,0.74
553,2022-06-02T11:06:59.062+02:00,1654160818.000251,53.22905389876345,10.39848385098534,36.8687,0.1406222,0.7869415,185.1076204702921,136.3840724593959,2.400000095367432,7.999579855010837,-9999,3903.198612375,-4.231948852539062,-1.319610595703125,-0.086639404296875,3903.193615375,0.9305985955119216,-0.4591855245834786,0.4298508877061898,-6.068447589874268,1.420958995819092,-3.715449094772339,-3.75764012336731,-1.268582701683044,0.7995147705078125,XArbitraryZVertical,0.2853632591294023,-0.1055236520856171,0.3834867310643957,0.871992249671911,-0.4028976559638977,-0.4167352616786957,-0.8148651123046875,0,0,0,-1,-1,3899.926593375,unknown,2,2022-06-02T11:06:55.789+02:00,2022-06-02T10:17:13.754+02:00,757,1.520161,0,0,607.4087,0,0,2022-06-02T11:06:58.348+02:00,675853618.3483071,0,3.542969,101.3397,1,0.74
554,2022-06-02T11:06:59.072+02:00,1654160818.000251,53.22905389876345,10.39848385098534,36.8687,0.1406222,0.7869415,185.1076204702921,136.3840724593959,2.400000095367432,7.999579855010837,-9999,3903.208607375,-4.343032836914062,-1.034164428710938,-0.09625244140625,3903.203610375,0.8592831091485424,-0.4164516526906294,0.3910006875315508,-6.460717678070068,1.439494252204895,-4.819977283477783,-3.85796070098877,-0.9384968280792236,0.7588694095611572,XArbitraryZVertical,0.2572572174839759,-0.1051871215145842,0.3632757291433653,0.889261010014112,-0.3739882111549377,-0.3811137676239014,-0.8455088138580322,0,0,0,-1,-1,3899.926593375,unknown,2,2022-06-02T11:06:55.789+02:00,2022-06-02T10:17:13.754+02:00,757,1.520161,0,0,607.4087,0,0,2022-06-02T11:06:58.348+02:00,675853618.3483071,0,3.542969,101.3397,1,0.74
555,2022-06-02T11:06:59.085+02:00,1654160818.000251,53.22905389876345,10.39848385098534,36.8687,0.1406222,0.7869415,185.1076204702921,136.3840724593959,2.400000095367432,7.999579855010837,-9999,3903.218602375,-4.450225830078125,-0.85028076171875,-0.0055694580078125,3903.213604375,0.7796981105135773,-0.3730609769015755,0.3509627818130819,-6.61834192276001,1.476066112518311,-5.778423309326172,-4.000782489776611,-0.6903623342514038,0.7781987190246582,XArbitraryZVertical,0.2280794064493387,-0.1037025160921192,0.3377739313704464,0.907267514644788,-0.3422504067420959,-0.3438020646572113,-0.8744511604309082,0,0,0,-1,-1,3899.926593375,unknown,2,2022-06-02T11:06:55.789+02:00,2022-06-02T10:17:13.754+02:00,757,1.520161,0,0,607.4087,0,0,2022-06-02T11:06:58.348+02:00,675853618.3483071,0,3.542969,101.3397,1,0.74
556,2022-06-02T11:06:59.101+02:00,1654160819.000252,53.22905552204859,10.39847739249451,36.81069,0.2751863,0.8117787,173.7430053140912,53.80715821445376,2.400000095367432,7.999579855010837,-9999,3903.228596375,-4.61480712890625,-0.691070556640625,0.0969085693359375,3903.223599375,0.6941183055643563,-0.329533287800579,0.3098480558888825,-6.672296047210693,1.719847798347473,-6.590437889099121,-4.142034530639648,-0.5453668832778931,0.8955662250518799,XArbitraryZVertical,0.1982610125492426,-0.1006217902037152,0.3077082909633265,0.925139655352534,-0.3081915378570557,-0.3049139380455017,-0.9011356234550476,0,0,0,-1,-1,3899.926593375,unknown,2,2022-06-02T11:06:55.789+02:00,2022-06-02T10:17:13.754+02:00,757,1.520161,0,0,607.4087,0,0,2022-06-02T11:06:58.348+02:00,675853618.3483071,0,3.542969,101.3397,1,0.74
557,2022-06-02T11:06:59.103+02:00,1654160819.000252,53.22905552204859,10.39847739249451,36.81069,0.2751863,0.8117787,173.7430053140912,53.80715821445376,2.400000095367432,7.999579855010837,-9999,3903.238591375,-4.865890502929688,-0.525726318359375,0.1744384765625,3903.233594375,0.6047174758990431,-0.2841398651962782,0.2678371892495693,-6.484655857086182,2.282315254211426,-7.175353050231934,-4.344470500946045,-0.4264242053031921,1.022586822509766,XArbitraryZVertical,0.16796253888722,-0.0946014758070332,0.2740857767541842,0.9421868723265284,-0.2703368365764618,-0.2646463513374329,-0.9256783127784728,0,0,0,-1,-1,3899.926593375,unknown,2,2022-06-02T11:06:55.789+02:00,2022-06-02T10:17:13.754+02:00,757,1.520161,0,0,607.4087,0,0,2022-06-02T11:06:58.348+02:00,675853618.3483071,0,3.542969,101.3397,1,0.74
558,2022-06-02T11:06:59.112+02:00,1654160819.000252,53.22905552204859,10.39847739249451,36.81069,0.2751863,0.8117787,173.7430053140912,53.80715821445376,2.400000095367432,7.999579855010837,-9999,3903.248586375,-5.071563720703125,-0.403411865234375,0.2337799072265625,3903.243588375,0.5133603457356117,-0.235372412963979,0.2249829487894877,-6.360564231872559,3.031243085861206,-7.757025718688965,-4.638562679290771,-0.302636593580246,1.122358798980713,XArbitraryZVertical,0.1374454669394062,-0.0845492051223941,0.2377728693807867,0.9578226214164486,-0.2273278832435608,-0.2230897396802902,-0.9479203224182128,0,0,0,-1,-1,3899.926593375,unknown,2,2022-06-02T11:06:55.789+02:00,2022-06-02T10:17:13.754+02:00,757,1.520161,0,0,607.4087,0,0,2022-06-02T11:06:58.348+02:00,675853618.3483071,0,3.542969,101.3397,1,0.74
559,2022-06-02T11:06:59.122+02:00,1654160819.000252,53.22905552204859,10.39847739249451,36.81069,0.2751863,0.8117787,173.7430053140912,53.80715821445376,2.400000095367432,7.999579855010837,-9999,3903.258580375,-5.210739135742188,-0.3541259765625,0.3934326171875,3903.253583375,0.4201107737562871,-0.182484097517374,0.1789275526918332,-6.476085186004639,3.803133249282837,-8.207063674926758,-4.892987728118896,-0.2254375368356705,1.201476097106934,XArbitraryZVertical,0.1059400569682689,-0.0702042578415624,0.19885458225428,0.971753427252065,-0.1785757839679718,-0.1779743432998657,-0.9676961302757264,0,0,0,-1,-1,3899.926593375,unknown,2,2022-06-02T11:06:55.789+02:00,2022-06-02T10:17:13.754+02:00,757,1.520161,0,0,607.4087,0,0,2022-06-02T11:06:58.348+02:00,675853618.3483071,0,3.542969,101.3397,1,0.74
560,2022-06-02T11:06:59.132+02:00,1654160819.000252,53.22905552204859,10.39847739249451,36.81069,0.2751863,0.8117787,173.7430053140912,53.80715821445376,2.400000095367432,7.999579855010837,-9999,3903.268575375,-5.414215087890625,-0.206695556640625,0.58477783203125,3903.263578375,0.3258269303961023,-0.1265450369943986,0.1270385041705382,-6.645741939544678,4.499153614044189,-8.594843864440918,-5.085548400878906,-0.2274289429187775,1.377442359924316,XArbitraryZVertical,0.0727455912594289,-0.0519923459129672,0.1575822862628893,0.9834494092450652,-0.1251905113458633,-0.1266970783472061,-0.9840097427368164,0,0,0,-1,-1,3899.926593375,unknown,2,2022-06-02T11:06:55.789+02:00,2022-06-02T10:17:13.754+02:00,757,1.520161,0,0,607.4087,0,0,2022-06-02T11:06:58.348+02:00,675853618.3483071,0,3.542969,101.3397,1,0.74
561,2022-06-02T11:06:59.142+02:00,1654160819.000252,53.22905552204859,10.39847739249451,36.81069,0.2751863,0.8117787,173.7430053140912,53.80715821445376,2.400000095367432,7.999579855010837,-9999,3903.278570375,-5.633270263671875,0.092010498046875,0.7111358642578125,3903.273572375,0.2321393064569266,-0.0687980271910859,0.0684765149533933,-6.825644493103027,5.221658229827881,-8.815685272216797,-5.345632553100586,-0.1382725834846497,1.580074071884155,XArbitraryZVertical,0.0379617289555595,-0.030178814857706,0.1145034891390291,0.9922384200570444,-0.0685826614499092,-0.0684230104088783,-0.99529629945755,0,0,0,-1,-1,3899.926593375,unknown,2,2022-06-02T11:06:55.789+02:00,2022-06-02T10:17:13.754+02:00,757,1.520161,0,0,607.4087,0,0,2022-06-02T11:06:58.348+02:00,675853618.3483071,0,3.542969,101.3397,1,0.74
562,2022-06-02T11:06:59.152+02:00,1654160819.000252,53.22905552204859,10.39847739249451,36.81069,0.2751863,0.8117787,173.7430053140912,53.80715821445376,2.400000095367432,7.999579855010837,-9999,3903.288564375,-5.866897583007812,0.400421142578125,0.7642669677734375,3903.283567375,0.1407199274486783,-0.0091063602646902,0.0035206509683996,-6.879400730133057,6.055381298065186,-8.94550609588623,-5.62416410446167,0.0955310985445976,1.711088180541992,XArbitraryZVertical,0.0020760467748278,-0.0044181390315768,0.0702930958009267,0.9975143830986566,-0.0091061778366565,-0.0035206438042223,-0.9999523162841796,0,0,0,-1,-1,3899.926593375,unknown,2,2022-06-02T11:06:55.789+02:00,2022-06-02T10:17:13.754+02:00,757,1.520161,0,0,607.4087,0,0,2022-06-02T11:06:58.348+02:00,675853618.3483071,0,3.542969,101.3397,1,0.74
563,2022-06-02T11:06:59.162+02:00,1654160819.000252,53.22905552204859,10.39847739249451,36.81069,0.2751863,0.8117787,173.7430053140912,53.80715821445376,2.400000095367432,7.999579855010837,-9999,3903.298559375,-5.9942626953125,0.6329345703125,0.7593536376953125,3903.293562375,0.051899640449024,0.0523349794296852,-0.0673702490218262,-6.894278049468994,6.774219512939453,-9.095051765441896,-5.919089794158936,0.3331018090248108,1.760632395744324,XArbitraryZVertical,-0.0343343928137563,0.0252672964889454,0.0250424196424529,0.9987770375088628,0.05219242349267,0.0673192963004112,-0.9963654279708862,0,0,0,-1,-1,3899.926593375,unknown,2,2022-06-02T11:06:55.789+02:00,2022-06-02T10:17:13.754+02:00,757,1.520161,0,0,607.4087,0,0,2022-06-02T11:06:58.348+02:00,675853618.3483071,0,3.542969,101.3397,1,0.74
564,2022-06-02T11:06:59.172+02:00,1654160819.000252,53.22905552204859,10.39847739249451,36.81069,0.2751863,0.8117787,173.7430053140912,53.80715821445376,2.400000095367432,7.999579855010837,-9999,3903.308554375,-6.027084350585938,0.83544921875,0.8187408447265625,3903.303556375,-0.0333423763593524,0.1142390581040587,-0.1430394754115147,-6.783888816833496,7.379402160644531,-9.064079284667969,-6.107089042663574,0.4903823137283325,1.742689371109009,XArbitraryZVertical,-0.0703830704553826,0.0581239211580292,-0.0206795863452598,0.9956104813658606,0.1128265857696533,0.1425521969795227,-0.9833356738090516,0,0,0,-1,-1,3899.926593375,unknown,2,2022-06-02T11:06:55.789+02:00,2022-06-02T10:17:13.754+02:00,757,1.520161,0,0,607.4087,0,0,2022-06-02T11:06:58.348+02:00,675853618.3483071,0,3.542969,101.3397,1,0.74
