,loggingTime(txt),locationTimestamp_since1970(s),locationLatitude(WGS84),locationLongitude(WGS84),locationAltitude(m),locationSpeed(m/s),locationSpeedAccuracy(m/s),locationCourse(°),locationCourseAccuracy(°),locationVerticalAccuracy(m),locationHorizontalAccuracy(m),locationFloor(Z),accelerometerTimestamp_sinceReboot(s),accelerometerAccelerationX(G),accelerometerAccelerationY(G),accelerometerAccelerationZ(G),motionTimestamp_sinceReboot(s),motionYaw(rad),motionRoll(rad),motionPitch(rad),motionRotationRateX(rad/s),motionRotationRateY(rad/s),motionRotationRateZ(rad/s),motionUserAccelerationX(G),motionUserAccelerationY(G),motionUserAccelerationZ(G),motionAttitudeReferenceFrame(txt),motionQuaternionX(R),motionQuaternionY(R),motionQuaternionZ(R),motionQuaternionW(R),motionGravityX(G),motionGravityY(G),motionGravityZ(G),motionMagneticFieldX(µT),motionMagneticFieldY(µT),motionMagneticFieldZ(µT),motionHeading(°),motionMagneticFieldCalibrationAccuracy(Z),activityTimestamp_sinceReboot(s),activity(txt),activityActivityConfidence(Z),activityActivityStartDate(txt),pedometerStartDate(txt),pedometerNumberofSteps(N),pedometerAverageActivePace(s/m),pedometerCurrentPace(s/m),pedometerCurrentCadence(steps/s),pedometerDistance(m),pedometerFloorAscended(N),pedometerFloorDescended(N),pedometerEndDate(txt),altimeterTimestamp_sinceReboot(s),altimeterReset(bool),altimeterRelativeAltitude(m),altimeterPressure(kPa),batteryState(N),batteryLevel(R)
364,2022-06-02T10:41:26.485+02:00,1654159286.000398,53.22907493567258,10.39850350881527,36.90506,0,20,-1,-1,2.400000095367432,7.999579855010835,-9999,2430.7623545,3.64349365234375,-1.191986083984375,-1.168365478515625,2430.7523595,-2.470501548240367,0.3853092963884005,-0.2325327866738801,4.532389640808105,7.859135627746582,0.4462762475013733,1.730415344238281,-1.239872813224792,-1.669761300086975,XArbitraryZVertical,-0.1420748833920707,-0.1701294912085634,0.9278187953908904,-0.3000382552550914,0.3657301962375641,0.2304428815841675,-0.9017413854599,0,0,0,-1,-1,2425.702113,unknown,2,2022-06-02T10:41:21.424+02:00,2022-06-02T10:17:13.754+02:00,426,1.184792,0,0,328.9867,0,0,2022-06-02T10:41:23.982+02:00,675852083.9819964,0,7.210938,101.2957,1,0.83
365,2022-06-02T10:41:26.495+02:00,1654159286.000398,53.22907493567258,10.39850350881527,36.90506,0,20,-1,-1,2.400000095367432,7.999579855010835,-9999,2430.7723485,3.681716918945312,-1.305145263671875,-0.3065948486328125,2430.7623545,-2.487879138236756,0.4711600438921955,-0.1940530114071351,3.591870784759521,9.862068176269531,-0.3102607131004333,2.378619909286499,-1.31980574131012,-1.190974235534668,XArbitraryZVertical,-0.1897657794616776,-0.1637983681489181,0.923826019807854,-0.2893171309445017,0.4454004764556885,0.1928374022245407,-0.8743180632591248,0,0,0,-1,-1,2425.702113,unknown,2,2022-06-02T10:41:21.424+02:00,2022-06-02T10:17:13.754+02:00,426,1.184792,0,0,328.9867,0,0,2022-06-02T10:41:23.982+02:00,675852083.9819964,0,7.210938,101.2957,1,0.83
366,2022-06-02T10:41:26.505+02:00,1654159286.000398,53.22907493567258,10.39850350881527,36.90506,0,20,-1,-1,2.400000095367432,7.999579855010835,-9999,2430.7823435,3.109405517578125,-1.101730346679688,-0.1697998046875,2430.7723485,-2.503427937846951,0.5736704480853928,-0.1769513859473496,0.6873849034309387,11.24792289733887,-0.6299119591712952,3.109249591827393,-1.36801540851593,-0.3415662050247192,XArbitraryZVertical,-0.2410009836536718,-0.1688753628633413,0.9150097217179955,-0.2759652868015082,0.5342439413070679,0.1760293841362,-0.8267992734909058,0,0,0,-1,-1,2425.702113,unknown,2,2022-06-02T10:41:21.424+02:00,2022-06-02T10:17:13.754+02:00,426,1.184792,0,0,328.9867,0,0,2022-06-02T10:41:23.982+02:00,675852083.9819964,0,7.210938,101.2957,1,0.83
367,2022-06-02T10:41:26.515+02:00,1654159286.000398,53.22907493567258,10.39850350881527,36.90506,0,20,-1,-1,2.400000095367432,7.999579855010835,-9999,2430.7923385,2.949417114257812,-0.3575897216796875,-0.1751708984375,2430.7823435,-2.501848116736737,0.6965123605325119,-0.1907502909097792,-3.149271488189697,13.34186744689941,-0.785110592842102,3.051806688308716,-1.494740843772888,0.4465762972831726,XArbitraryZVertical,-0.2943295368832681,-0.1917929778396335,0.8984535539311239,-0.2633757660873534,0.6299101114273071,0.1895956248044968,-0.7531711459159851,0,0,0,-1,-1,2425.702113,unknown,2,2022-06-02T10:41:21.424+02:00,2022-06-02T10:17:13.754+02:00,426,1.184792,0,0,328.9867,0,0,2022-06-02T10:41:23.982+02:00,675852083.9819964,0,7.210938,101.2957,1,0.83
368,2022-06-02T10:41:26.525+02:00,1654159286.000398,53.22907493567258,10.39850350881527,36.90506,0,20,-1,-1,2.400000095367432,7.999579855010835,-9999,2430.8023325,2.917190551757812,0.593231201171875,-0.2013702392578125,2430.7923385,-2.471675288538803,0.8457222698863432,-0.2293540912945378,-6.316818237304688,15.17998218536377,-0.3154386878013611,2.380554437637329,-1.329078912734985,0.4760243892669678,XArbitraryZVertical,-0.3507168129666693,-0.2325631983907598,0.8710170109428078,-0.2534586607198868,0.7288509607315063,0.227348580956459,-0.645824134349823,0,0,0,-1,-1,2425.702113,unknown,2,2022-06-02T10:41:21.424+02:00,2022-06-02T10:17:13.754+02:00,426,1.184792,0,0,328.9867,0,0,2022-06-02T10:41:23.982+02:00,675852083.9819964,0,7.210938,101.2957,1,0.83
369,2022-06-02T10:41:26.535+02:00,1654159286.000398,53.22907493567258,10.39850350881527,36.90506,0,20,-1,-1,2.400000095367432,7.999579855010835,-9999,2430.8123275,2.450408935546875,1.39385986328125,-0.1886138916015625,2430.8023325,-2.412222374101049,1.019334883252488,-0.2714335251912824,-7.761631488800049,16.59769058227539,0.4090225696563721,2.128842353820801,-0.625702440738678,0.3295791745185852,XArbitraryZVertical,-0.4094876979135741,-0.2827450549307221,0.8315454803080021,-0.2467937303557069,0.8205747008323669,0.2681127488613129,-0.50475013256073,0,0,0,-1,-1,2425.702113,unknown,2,2022-06-02T10:41:21.424+02:00,2022-06-02T10:17:13.754+02:00,426,1.184792,0,0,328.9867,0,0,2022-06-02T10:41:23.982+02:00,675852083.9819964,0,7.210938,101.2957,1,0.83
370,2022-06-02T10:41:26.556+02:00,1654159286.000398,53.22907493567258,10.39850350881527,36.90506,0,20,-1,-1,2.400000095367432,7.999579855010835,-9999,2430.8223225,1.51861572265625,1.797042846679688,0.4078521728515625,2430.8123275,-2.336604259568414,1.214938007308632,-0.2985010931561019,-7.589395999908447,18.30976295471191,1.0464928150177,2.021293640136719,0.2991433143615723,0.1316181421279907,XArbitraryZVertical,-0.4715127278997962,-0.3334389468894565,0.7803269094215265,-0.2399668530709667,0.8958967328071594,0.2940879166126251,-0.332988440990448,0,0,0,-1,-1,2425.702113,unknown,2,2022-06-02T10:41:21.424+02:00,2022-06-02T10:17:13.754+02:00,426,1.184792,0,0,328.9867,0,0,2022-06-02T10:41:26.540+02:00,675852083.9819964,0,7.210938,101.2957,1,0.83
371,2022-06-02T10:41:26.560+02:00,1654159286.000398,53.22907493567258,10.39850350881527,36.90506,0,20,-1,-1,2.400000095367432,7.999579855010835,-9999,2430.8323175,0.3204498291015625,2.5269775390625,1.4775390625,2430.8223225,-2.2587210868373,1.430738133349551,-0.3078893086419913,-7.393568992614746,20.20223999023438,0.6689490675926208,1.506765246391296,1.090811967849731,-0.0555778741836547,XArbitraryZVertical,-0.5365567393174492,-0.3815610574513336,0.7173880801731595,-0.2277548811325951,0.9436436295509338,0.3030478656291962,-0.1330360472202301,0,0,0,-1,-1,2425.702113,unknown,2,2022-06-02T10:41:21.424+02:00,2022-06-02T10:17:13.754+02:00,426,1.184792,0,0,328.9867,0,0,2022-06-02T10:41:26.540+02:00,675852083.9819964,0,7.210938,101.2957,1,0.83
372,2022-06-02T10:41:26.565+02:00,1654159286.000398,53.22907493567258,10.39850350881527,36.90506,0,20,-1,-1,2.400000095367432,7.999579855010835,-9999,2430.8423115,-1.147323608398438,3.229644775390625,2.818984985351562,2430.8323175,-2.175151771887614,1.667639639127469,-0.3057573208637527,-8.755075454711914,22.17069816589355,0.1344944983720779,0.5694647431373596,1.49602735042572,0.3156447410583496,XArbitraryZVertical,-0.6005189848096666,-0.4306746123291423,0.6405585746069282,-0.2087604061688798,0.949150800704956,0.3010154664516449,0.0922073423862457,0,0,0,-1,-1,2430.8190225,unknown,2,2022-06-02T10:41:26.541+02:00,2022-06-02T10:17:13.754+02:00,426,1.184792,0,0,328.9867,0,0,2022-06-02T10:41:26.540+02:00,675852086.5404658,0,7.210938,101.2954,1,0.83
373,2022-06-02T10:41:26.575+02:00,1654159286.000398,53.22907493567258,10.39850350881527,36.90506,0,20,-1,-1,2.400000095367432,7.999579855010835,-9999,2430.8523065,-2.651168823242188,3.222122192382812,4.224197387695312,2430.8423115,-2.076857556861687,1.929094786927283,-0.283700700463295,-10.53107643127441,24.38826751708984,-0.080623872578144,-0.578609824180603,2.247067213058472,1.140875816345215,XArbitraryZVertical,-0.6600627573288144,-0.482336753222305,0.5449740702363807,-0.1862032951743224,0.899059534072876,0.2799103260040283,0.3366631865501404,0,0,0,-1,-1,2430.8190225,unknown,2,2022-06-02T10:41:26.541+02:00,2022-06-02T10:17:13.754+02:00,426,1.184792,0,0,328.9867,0,0,2022-06-02T10:41:26.540+02:00,675852086.5404658,0,7.210938,101.2954,1,0.83
374,2022-06-02T10:41:26.585+02:00,1654159286.000398,53.22907493567258,10.39850350881527,36.90506,0,20,-1,-1,2.400000095367432,7.999579855010835,-9999,2430.8623015,-4.316329956054688,3.325607299804688,6.863937377929688,2430.8523065,-1.97716632880718,2.207784527879825,-0.2344181051405145,-10.91574192047119,26.12705230712891,-0.525068461894989,-1.929227709770203,2.99736762046814,2.240475416183472,XArbitraryZVertical,-0.7117863914179142,-0.5316153644894326,0.4308055190904526,-0.1585929597734149,0.7819039225578308,0.232277050614357,0.578509509563446,0,0,0,-1,-1,2430.8190225,unknown,2,2022-06-02T10:41:26.541+02:00,2022-06-02T10:17:13.754+02:00,426,1.184792,0,0,328.9867,0,0,2022-06-02T10:41:26.540+02:00,675852086.5404658,0,7.210938,101.2954,1,0.83
375,2022-06-02T10:41:26.595+02:00,1654159286.000398,53.22907493567258,10.39850350881527,36.90506,0,20,-1,-1,2.400000095367432,7.999579855010835,-9999,2430.8722955,-5.896316528320312,4.25738525390625,12.10313415527344,2430.8623015,-1.895805958715548,2.485264743764671,-0.1690809467539679,-9.622567176818848,25.41404151916504,-1.383405208587646,-3.252678871154785,3.053845643997192,3.443256378173828,XArbitraryZVertical,-0.7502287317934241,-0.572387262666881,0.3074719693245042,-0.1224357299894225,0.6015099287033081,0.1682764738798141,0.7809406518936157,0,0,0,-1,-1,2430.8190225,unknown,2,2022-06-02T10:41:26.541+02:00,2022-06-02T10:17:13.754+02:00,426,1.184792,0,0,328.9867,0,0,2022-06-02T10:41:26.540+02:00,675852086.5404658,0,7.210938,101.2954,1,0.83
376,2022-06-02T10:41:26.605+02:00,1654159286.000398,53.22907493567258,10.39850350881527,36.90506,0,20,-1,-1,2.400000095367432,7.999579855010835,-9999,2430.8822905,-10.94294738769531,3.268966674804688,16.02781677246094,2430.8722955,-1.811856282923329,2.719135091420187,-0.0885389595465743,-13.50126647949219,18.75837707519531,-5.544104099273682,-4.724727153778076,3.237184047698975,5.95542573928833,XArbitraryZVertical,-0.7630279299317075,-0.6099540813665513,0.1915380744762207,-0.0951705227793993,0.4083971083164215,0.0884233266115188,0.908511221408844,0,0,0,-1,-1,2430.8190225,unknown,2,2022-06-02T10:41:26.541+02:00,2022-06-02T10:17:13.754+02:00,426,1.184792,0,0,328.9867,0,0,2022-06-02T10:41:26.540+02:00,675852086.5404658,0,7.210938,101.2954,1,0.83
377,2022-06-02T10:41:26.615+02:00,1654159286.000398,53.22907493567258,10.39850350881527,36.90506,0,20,-1,-1,2.400000095367432,7.999579855010835,-9999,2430.8922855,-10.3309326171875,3.090438842773438,21.75633239746094,2430.8822905,-1.686593710203411,2.902570373972437,0.0219703499014753,-16.61779975891113,18.01198768615723,-9.686999320983888,-6.133012294769287,4.279354095458984,11.13179874420166,XArbitraryZVertical,-0.7423386304783889,-0.6592426642519637,0.0817850065289519,-0.087427023405408,0.2366955876350403,-0.0219685826450586,0.9713350534439088,0,0,0,-1,-1,2430.8190225,unknown,2,2022-06-02T10:41:26.541+02:00,2022-06-02T10:17:13.754+02:00,426,1.184792,0,0,328.9867,0,0,2022-06-02T10:41:26.540+02:00,675852086.5404658,0,7.210938,101.2954,1,0.83
378,2022-06-02T10:41:26.625+02:00,1654159286.000398,53.22907493567258,10.39850350881527,36.90506,0,20,-1,-1,2.400000095367432,7.999579855010835,-9999,2430.9022795,-3.675827026367188,0.5194854736328125,22.37835693359375,2430.8922855,-1.547187572750649,3.040796335786784,0.1916162636423228,-20.02511978149414,12.70885562896729,-12.67648792266846,-11.04173183441162,3.459412574768066,15.05110168457031,XArbitraryZVertical,-0.6980709339940013,-0.7078519504691442,-0.0333124373963134,-0.1026294541136417,0.0987840294837951,-0.1904458254575729,0.976714849472046,0,0,0,-1,-1,2430.8190225,unknown,2,2022-06-02T10:41:26.541+02:00,2022-06-02T10:17:13.754+02:00,426,1.184792,0,0,328.9867,0,0,2022-06-02T10:41:26.540+02:00,675852086.5404658,0,7.210938,101.2954,1,0.83
379,2022-06-02T10:41:26.635+02:00,1654159286.000398,53.22907493567258,10.39850350881527,36.90506,0,20,-1,-1,2.400000095367432,7.999579855010835,-9999,2430.9122745,-6.435379028320312,0.838592529296875,21.93138122558594,2430.9022795,-1.374987004169838,3.070021287263859,0.3618220950404641,-15.74632930755615,1.107708334922791,-18.09608268737793,-10.39781284332275,3.444417953491211,20.82347297668457,XArbitraryZVertical,-0.6288208794366895,-0.7556544558858779,-0.1166304039311662,-0.1413076262880902,0.0668802112340927,-0.3539789319038391,0.93285870552063,0,0,0,-1,-1,2430.8190225,unknown,2,2022-06-02T10:41:26.541+02:00,2022-06-02T10:17:13.754+02:00,426,1.184792,0,0,328.9867,0,0,2022-06-02T10:41:26.540+02:00,675852086.5404658,0,7.210938,101.2954,1,0.83
380,2022-06-02T10:41:26.645+02:00,1654159286.000398,53.22907493567258,10.39850350881527,36.90506,0,20,-1,-1,2.400000095367432,7.999579855010835,-9999,2430.9222695,-16.33602905273438,3.380218505859375,19.02125549316406,2430.9122745,-1.13026313641087,2.905195548399788,0.4704052587583523,-12.54181098937988,-12.48934459686279,-22.71721458435059,-3.884590625762939,0.9727330803871156,21.51176261901855,XArbitraryZVertical,-0.540356805381893,-0.8008191174227234,-0.1340208784068193,-0.2207750495011042,0.2087635695934296,-0.4532475769519806,0.8665934801101685,0,0,0,-1,-1,2430.8190225,unknown,2,2022-06-02T10:41:26.541+02:00,2022-06-02T10:17:13.754+02:00,426,1.184792,0,0,328.9867,0,0,2022-06-02T10:41:26.540+02:00,675852086.5404658,0,7.210938,101.2954,1,0.83
381,2022-06-02T10:41:26.655+02:00,1654159286.000398,53.22907493567258,10.39850350881527,36.90506,0,20,-1,-1,2.400000095367432,7.999579855010835,-9999,2430.9322645,-22.621337890625,7.805953979492188,11.16224670410156,2430.9222695,-0.8323715869170311,2.609731599264063,0.4799790952471247,-8.42997932434082,-19.56851768493652,-26.09512519836426,-6.885212898254395,1.300353050231934,21.16690254211426,XArbitraryZVertical,-0.4360197529552546,-0.8319409517169796,-0.1065590669239638,-0.3261995907310667,0.449833869934082,-0.4617606401443481,0.7644779682159424,0,0,0,-1,-1,2430.8190225,unknown,2,2022-06-02T10:41:26.541+02:00,2022-06-02T10:17:13.754+02:00,426,1.184792,0,0,328.9867,0,0,2022-06-02T10:41:26.540+02:00,675852086.5404658,0,7.210938,101.2954,1,0.83
382,2022-06-02T10:41:26.665+02:00,1654159286.000398,53.22907493567258,10.39850350881527,36.90506,0,20,-1,-1,2.400000095367432,7.999579855010835,-9999,2430.9422585,-30.90499877929688,14.71685791015625,2.90167236328125,2430.9322645,-0.591140285318343,2.260673849815177,0.3287234931453483,4.890775203704834,-30.4185848236084,-26.95293807983398,-17.06605339050293,3.703053712844849,18.41888999938965,XArbitraryZVertical,-0.32666913145321,-0.833348388733698,-0.0190705490360768,-0.4454818109989285,0.7300235629081726,-0.3228351473808289,0.6023645401000977,0,0,0,-1,-1,2430.8190225,unknown,2,2022-06-02T10:41:26.541+02:00,2022-06-02T10:17:13.754+02:00,426,1.184792,0,0,328.9867,0,0,2022-06-02T10:41:26.540+02:00,675852086.5404658,0,7.210938,101.2954,1,0.83
383,2022-06-02T10:41:26.675+02:00,1654159286.000398,53.22907493567258,10.39850350881527,36.90506,0,20,-1,-1,2.400000095367432,7.999579855010835,-9999,2430.9522535,-31.77149963378906,31.05101013183594,-1.82147216796875,2430.9422585,-0.6256060527726828,1.92609897761294,0.0918127356744067,24.90616035461426,-35.10689163208008,-8.610709190368652,-23.55492973327637,7.897637844085693,10.81583786010742,XArbitraryZVertical,-0.2772907838542129,-0.7722138767419015,0.1396879194263644,-0.5543308993234095,0.9335923790931702,-0.0916837975382804,0.3464089035987854,0,0,0,-1,-1,2430.8190225,unknown,2,2022-06-02T10:41:26.541+02:00,2022-06-02T10:17:13.754+02:00,426,1.184792,0,0,328.9867,0,0,2022-06-02T10:41:26.540+02:00,675852086.5404658,0,7.210938,101.2954,1,0.83
384,2022-06-02T10:41:26.685+02:00,1654159286.000398,53.22907493567258,10.39850350881527,36.90506,0,20,-1,-1,2.400000095367432,7.999579855010835,-9999,2430.9622485,-31.01060485839844,32.11907958984375,17.5064697265625,2430.9522535,-0.924546941057396,1.580935230702137,-0.0293696237431769,35.2352294921875,-35.14154052734375,-8.784235954284668,-31.90451622009277,14.68749237060547,2.89153790473938,XArbitraryZVertical,-0.307672575578198,-0.6406284138598298,0.3230623344223585,-0.6249507603322842,0.999517261981964,0.0293654017150402,0.0101343570277094,0,0,0,-1,-1,2430.8190225,unknown,2,2022-06-02T10:41:26.541+02:00,2022-06-02T10:17:13.754+02:00,426,1.184792,0,0,328.9867,0,0,2022-06-02T10:41:26.540+02:00,675852086.5404658,0,7.210938,101.2954,1,0.83
385,2022-06-02T10:41:26.695+02:00,1654159286.000398,53.22907493567258,10.39850350881527,36.90506,0,20,-1,-1,2.400000095367432,7.999579855010835,-9999,2430.9722425,-32.05662536621094,16.99848937988281,31.45451354980469,2430.9622485,-1.252130578054018,1.230758011904301,0.0941630214775467,35.08335113525391,-35.09064483642578,19.80055046081543,-32.71006393432617,31.14503479003906,-1.489426493644714,XArbitraryZVertical,-0.36902334634062,-0.444745920831111,0.4559230897911361,-0.6768728926754015,0.93856543302536,-0.0940239280462265,-0.3320456743240356,0,0,0,-1,-1,2430.8190225,unknown,2,2022-06-02T10:41:26.541+02:00,2022-06-02T10:17:13.754+02:00,426,1.184792,0,0,328.9867,0,0,2022-06-02T10:41:26.540+02:00,675852086.5404658,0,7.210938,101.2954,1,0.83
386,2022-06-02T10:41:26.705+02:00,1654159286.000398,53.22907493567258,10.39850350881527,36.90506,0,20,-1,-1,2.400000095367432,7.999579855010835,-9999,2430.9822375,-32.3358154296875,-26.150390625,24.31112670898438,2430.9722425,-1.499597820426901,1.021802959805354,0.3990347310932607,35.00238418579102,-7.920693397521973,11.76013374328613,-31.7966365814209,32.50761032104492,17.98730087280273,XArbitraryZVertical,-0.4531378611251257,-0.2329164112311873,0.5117532004778891,-0.6917547407261888,0.7860315442085266,-0.3885290920734406,-0.480832040309906,0,0,0,-1,-1,2430.8190225,unknown,2,2022-06-02T10:41:26.541+02:00,2022-06-02T10:17:13.754+02:00,426,1.184792,0,0,328.9867,0,0,2022-06-02T10:41:26.540+02:00,675852086.5404658,0,7.210938,101.2954,1,0.83
387,2022-06-02T10:41:26.715+02:00,1654159286.000398,53.22907493567258,10.39850350881527,36.90506,0,20,-1,-1,2.400000095367432,7.999579855010835,-9999,2430.9922325,-13.45454406738281,-24.36122131347656,8.9530029296875,2430.9822375,-1.778094407964885,1.276101470157496,0.6192585670281968,21.28540802001953,25.62547874450684,2.408371686935425,-32.83583068847656,17.57892036437988,31.6910285949707,XArbitraryZVertical,-0.5947317850954172,-0.167442332399783,0.4796803730950992,-0.6230280473420676,0.7792048454284668,-0.5804315805435181,-0.2365143448114395,0,0,0,-1,-1,2430.8190225,unknown,2,2022-06-02T10:41:26.541+02:00,2022-06-02T10:17:13.754+02:00,426,1.184792,0,0,328.9867,0,0,2022-06-02T10:41:26.540+02:00,675852086.5404658,0,7.210938,101.2954,1,0.83
388,2022-06-02T10:41:26.725+02:00,1654159286.000398,53.22907493567258,10.39850350881527,36.90506,0,20,-1,-1,2.400000095367432,7.999579855010835,-9999,2431.0022265,-1.25262451171875,-5.296615600585938,4.956863403320312,2430.9922325,-1.767032098738612,1.54690901762391,0.6000600923038539,-25.005859375,22.55414390563965,-1.461964130401611,-33.16088104248047,-25.5856990814209,24.33083915710449,XArbitraryZVertical,-0.6500467355704846,-0.2599674224104734,0.3973630355652709,-0.5932611570238784,0.8250662088394165,-0.5646920800209045,-0.0197123624384403,0,0,0,-1,-1,2430.8190225,unknown,2,2022-06-02T10:41:26.541+02:00,2022-06-02T10:17:13.754+02:00,426,1.184792,0,0,328.9867,0,0,2022-06-02T10:41:26.540+02:00,675852086.5404658,0,7.210938,101.2954,1,0.83
389,2022-06-02T10:41:26.735+02:00,1654159286.000398,53.22907493567258,10.39850350881527,36.90506,0,20,-1,-1,2.400000095367432,7.999579855010835,-9999,2431.0122215,-14.81608581542969,-1.043441772460938,6.92486572265625,2431.0022265,-1.375690541358505,1.458430523181558,0.5969096540956755,-35.06510925292969,3.20345664024353,3.777415752410889,-14.27640438079834,-23.79913139343262,9.045742988586426,XArbitraryZVertical,-0.5737161076391738,-0.3528172219102044,0.3011262797748592,-0.6750501452894161,0.8218606114387512,-0.562089204788208,-0.0927396714687347,0,0,0,-1,-1,2430.8190225,unknown,2,2022-06-02T10:41:26.541+02:00,2022-06-02T10:17:13.754+02:00,426,1.184792,0,0,328.9867,0,0,2022-06-02T10:41:26.540+02:00,675852086.5404658,0,7.210938,101.2954,1,0.83
390,2022-06-02T10:41:26.745+02:00,1654159286.000398,53.22907493567258,10.39850350881527,36.90506,0,20,-1,-1,2.400000095367432,7.999579855010835,-9999,2431.0222165,-14.02302551269531,1.050338745117188,9.608810424804688,2431.0122215,-0.9423708822132592,1.255934121014351,0.6158325079868643,-31.93818283081055,10.05736255645752,12.92647171020508,-2.028787612915039,-4.718977451324463,5.209657669067383,XArbitraryZVertical,-0.4726776437619049,-0.3875291381204334,0.1914107977780372,-0.767957640105891,0.7761631608009338,-0.5776382684707642,-0.2527940273284912,0,0,0,-1,-1,2430.8190225,unknown,2,2022-06-02T10:41:26.541+02:00,2022-06-02T10:17:13.754+02:00,426,1.184792,0,0,328.9867,0,0,2022-06-02T10:41:26.540+02:00,675852086.5404658,0,7.210938,101.2954,1,0.83
391,2022-06-02T10:41:26.755+02:00,1654159286.000398,53.22907493567258,10.39850350881527,36.90506,0,20,-1,-1,2.400000095367432,7.999579855010835,-9999,2431.0322115,-4.69720458984375,2.864517211914062,0.6986236572265625,2431.0222165,-0.5442931675857183,1.108929804823564,0.5769349951030324,-31.42821884155273,3.157624244689941,4.592564105987549,-15.56640625,-0.4979841113090515,7.298357009887695,XArbitraryZVertical,-0.368633692382301,-0.4211456522643263,0.0748212668798348,-0.8253164586041513,0.7503201365470886,-0.5454576015472412,-0.3734910786151886,0,0,0,-1,-1,2430.8190225,unknown,2,2022-06-02T10:41:26.541+02:00,2022-06-02T10:17:13.754+02:00,426,1.184792,0,0,328.9867,0,0,2022-06-02T10:41:26.540+02:00,675852086.5404658,0,7.210938,101.2954,1,0.83
392,2022-06-02T10:41:26.765+02:00,1654159286.000398,53.22907493567258,10.39850350881527,36.90506,0,20,-1,-1,2.400000095367432,7.999579855010835,-9999,2431.0422055,-5.675750732421875,4.406539916992188,-2.700469970703125,2431.0322115,-0.2699054987826295,0.9676832492026076,0.5004059026197117,-12.75684547424316,-2.070409774780273,7.062687397003174,-14.74561882019043,1.530120491981506,10.10647296905518,XArbitraryZVertical,-0.2778253193799969,-0.417111398855339,0.0012589151040718,-0.8653493657709147,0.7225936651229858,-0.4797817170619965,-0.4976623356342316,0,0,0,-1,-1,2430.8190225,unknown,2,2022-06-02T10:41:26.541+02:00,2022-06-02T10:17:13.754+02:00,426,1.184792,0,0,328.9867,0,0,2022-06-02T10:41:26.540+02:00,675852086.5404658,0,7.210938,101.2954,1,0.83
393,2022-06-02T10:41:26.775+02:00,1654159286.000398,53.22907493567258,10.39850350881527,36.90506,0,20,-1,-1,2.400000095367432,7.999579855010835,-9999,2431.0522005,-8.21807861328125,0.9205169677734376,-2.25250244140625,2431.0422055,-0.1585927231886001,0.8462304607847309,0.4965143477598948,-3.50519871711731,-10.95997905731201,4.034526824951172,-5.355574607849121,3.340880870819092,1.28139853477478,XArbitraryZVertical,-0.2548704333849103,-0.3790166239896254,-0.0305608144813206,-0.8890744313537015,0.6583698987960815,-0.4763636887073517,-0.5827749371528625,0,0,0,-1,-1,2430.8190225,unknown,2,2022-06-02T10:41:26.541+02:00,2022-06-02T10:17:13.754+02:00,426,1.184792,0,0,328.9867,0,0,2022-06-02T10:41:26.540+02:00,675852086.5404658,0,7.210938,101.2954,1,0.83
394,2022-06-02T10:41:26.785+02:00,1654159286.000398,53.22907493567258,10.39850350881527,36.90506,0,20,-1,-1,2.400000095367432,7.999579855010835,-9999,2431.0621955,-10.32212829589844,-1.15826416015625,-2.568161010742188,2431.0522005,-0.1039349898589755,0.700809278524257,0.5195425514744082,-0.5701152086257935,-11.71428108215332,6.342040061950684,-6.235498905181885,4.903022766113281,-2.037004232406616,XArbitraryZVertical,-0.258158478599539,-0.3187810428206426,-0.0409043860998571,-0.9110760570467265,0.5597479343414307,-0.4964831173419952,-0.663465678691864,0,0,0,-1,-1,2430.8190225,unknown,2,2022-06-02T10:41:26.541+02:00,2022-06-02T10:17:13.754+02:00,426,1.184792,0,0,328.9867,0,0,2022-06-02T10:41:26.540+02:00,675852086.5404658,0,7.210938,101.2954,1,0.83
395,2022-06-02T10:41:26.795+02:00,1654159286.000398,53.22907493567258,10.39850350881527,36.90506,0,20,-1,-1,2.400000095367432,7.999579855010835,-9999,2431.0721895,-9.138580322265623,-1.964309692382812,-3.7225341796875,2431.0621955,-0.0298403247054552,0.5653844674464926,0.5490008804380663,-2.708529233932495,-7.875229835510254,7.29818058013916,-8.675089836120605,1.442352175712585,-1.532204866409302,XArbitraryZVertical,-0.2642838809325577,-0.2645850974340586,-0.0618123204263213,-0.925379850807709,0.4570114314556122,-0.521835207939148,-0.7202975153923035,0,0,0,-1,-1,2430.8190225,unknown,2,2022-06-02T10:41:26.541+02:00,2022-06-02T10:17:13.754+02:00,426,1.184792,0,0,328.9867,0,0,2022-06-02T10:41:26.540+02:00,675852086.5404658,0,7.210938,101.2954,1,0.83
396,2022-06-02T10:41:26.805+02:00,1654159286.000398,53.22907493567258,10.39850350881527,36.90506,0,20,-1,-1,2.400000095367432,7.999579855010835,-9999,2431.0821845,-6.732437133789062,-2.77545166015625,-4.659423828125,2431.0721895,0.067782180030527,0.453118744635653,0.5493406384446032,-5.277513027191162,-4.59719705581665,7.396331787109375,-10.69548988342285,-0.6361390948295593,-1.801358222961426,XArbitraryZVertical,-0.2568205582425355,-0.2250374849748503,-0.0926712717889923,-0.9353144796454568,0.3733618557453156,-0.5221250057220459,-0.7668026685714722,0,0,0,-1,-1,2430.8190225,unknown,2,2022-06-02T10:41:26.541+02:00,2022-06-02T10:17:13.754+02:00,426,1.184792,0,0,328.9867,0,0,2022-06-02T10:41:26.540+02:00,675852086.5404658,0,7.210938,101.2954,1,0.83
397,2022-06-02T10:41:26.815+02:00,1654159286.000398,53.22907493567258,10.39850350881527,36.90506,0,20,-1,-1,2.400000095367432,7.999579855010835,-9999,2431.0921795,-4.314910888671875,-2.949920654296875,-5.411270141601562,2431.0821845,0.172808569704073,0.3626757250184052,0.517500978045196,-7.688470840454102,-2.951217412948608,6.599776744842529,-9.446902275085447,-1.469599843025208,-2.910007476806641,XArbitraryZVertical,-0.2356933398617861,-0.1954106322700873,-0.1280295898993517,-0.9433300139516484,0.3083219826221466,-0.4947098791599274,-0.8125266432762146,0,0,0,-1,-1,2430.8190225,unknown,2,2022-06-02T10:41:26.541+02:00,2022-06-02T10:17:13.754+02:00,426,1.184792,0,0,328.9867,0,0,2022-06-02T10:41:26.540+02:00,675852086.5404658,0,7.210938,101.2954,1,0.83
398,2022-06-02T10:41:26.825+02:00,1654159286.000398,53.22907493567258,10.39850350881527,36.90506,0,20,-1,-1,2.400000095367432,7.999579855010835,-9999,2431.1021735,-2.225540161132812,-1.551025390625,-5.406784057617188,2431.0921795,0.2681220074154581,0.2906907354110326,0.455539567306371,-9.307486534118652,-2.67416787147522,5.460792064666748,-6.989823341369629,-2.335504770278931,-3.799075603485107,XArbitraryZVertical,-0.2025613324308215,-0.1696903597621287,-0.161245693740738,-0.9508805010067922,0.2573862373828888,-0.4399469196796417,-0.8603481650352478,0,0,0,-1,-1,2430.8190225,unknown,2,2022-06-02T10:41:26.541+02:00,2022-06-02T10:17:13.754+02:00,426,1.184792,0,0,328.9867,0,0,2022-06-02T10:41:26.540+02:00,675852086.5404658,0,7.210938,101.2954,1,0.83
399,2022-06-02T10:41:26.835+02:00,1654159286.000398,53.22907493567258,10.39850350881527,36.90506,0,20,-1,-1,2.400000095367432,7.999579855010835,-9999,2431.1121685,-1.71923828125,0.34124755859375,-5.32745361328125,2431.1021735,0.3464970969191672,0.2283994419933778,0.3741168115010569,-10.03986263275146,-3.554609298706055,4.202624797821045,-4.525668621063232,-2.58447003364563,-4.504612922668457,XArbitraryZVertical,-0.1626915599088382,-0.1421369134971697,-0.1891470591539494,-0.9578893168058938,0.2107575982809067,-0.3654505610466003,-0.906657099723816,0,0,0,-1,-1,2430.8190225,unknown,2,2022-06-02T10:41:26.541+02:00,2022-06-02T10:17:13.754+02:00,426,1.184792,0,0,328.9867,0,0,2022-06-02T10:41:26.540+02:00,675852086.5404658,0,7.210938,101.2954,1,0.83
400,2022-06-02T10:41:26.845+02:00,1654159286.000398,53.22907493567258,10.39850350881527,36.90506,0,20,-1,-1,2.400000095367432,7.999579855010835,-9999,2431.1221635,-2.016860961914062,0.8916168212890625,-5.342605590820312,2431.1121685,0.4036248591861332,0.1703106788736341,0.2864076379547822,-8.990796089172363,-4.225916862487793,2.980801105499268,-2.388124704360962,-1.268517374992371,-4.461397647857666,XArbitraryZVertical,-0.1224379651293126,-0.1109762490746709,-0.2095665489517262,-0.963729710587262,0.1625844091176987,-0.2825080156326294,-0.9453864097595216,0,0,0,-1,-1,2430.8190225,unknown,2,2022-06-02T10:41:26.541+02:00,2022-06-02T10:17:13.754+02:00,426,1.184792,0,0,328.9867,0,0,2022-06-02T10:41:26.540+02:00,675852086.5404658,0,7.210938,101.2954,1,0.83
401,2022-06-02T10:41:26.855+02:00,1654159286.000398,53.22907493567258,10.39850350881527,36.90506,0,20,-1,-1,2.400000095367432,7.999579855010835,-9999,2431.1321585,-2.268447875976562,0.3181915283203125,-5.055007934570312,2431.1221635,0.4417447495718634,0.1182658077373328,0.2141593245378702,-6.403870582580566,-4.24885368347168,2.299160718917847,-1.834533214569092,0.5537735819816589,-4.357123851776123,XArbitraryZVertical,-0.0912233578625167,-0.0807058749383264,-0.2236081012323144,-0.967038827298854,0.1152948662638664,-0.2125260382890701,-0.9703297019004822,0,0,0,-1,-1,2430.8190225,unknown,2,2022-06-02T10:41:26.541+02:00,2022-06-02T10:17:13.754+02:00,426,1.184792,0,0,328.9867,0,0,2022-06-02T10:41:26.540+02:00,675852086.5404658,0,7.210938,101.2954,1,0.83
402,2022-06-02T10:41:26.865+02:00,1654159286.000398,53.22907493567258,10.39850350881527,36.90506,0,20,-1,-1,2.400000095367432,7.999579855010835,-9999,2431.1421525,-2.193710327148438,-0.494903564453125,-4.899154663085938,2431.1321585,0.4680765171176621,0.0727065051337247,0.1604133362392335,-5.019312381744385,-3.846349239349365,1.874041795730591,-2.088570833206177,1.051343083381653,-4.358052253723145,XArbitraryZVertical,-0.0694833018880037,-0.0538090590036047,-0.2338419192602152,-0.968294675752544,0.0717098340392112,-0.1597262471914291,-0.984553337097168,0,0,0,-1,-1,2430.8190225,unknown,2,2022-06-02T10:41:26.541+02:00,2022-06-02T10:17:13.754+02:00,426,1.184792,0,0,328.9867,0,0,2022-06-02T10:41:26.540+02:00,675852086.5404658,0,7.210938,101.2954,1,0.83
403,2022-06-02T10:41:26.875+02:00,1654159286.000398,53.22907493567258,10.39850350881527,36.90506,0,20,-1,-1,2.400000095367432,7.999579855010835,-9999,2431.1521475,-2.049911499023438,-0.6039581298828125,-4.668807983398438,2431.1421525,0.4887635520909188,0.033614331541289,0.1118180991469137,-5.009426593780518,-3.457324504852295,1.72945499420166,-2.301846027374268,0.4297767281532288,-4.061814308166504,XArbitraryZVertical,-0.0501518583110765,-0.0298001344241954,-0.2424555851123824,-0.9684068981173284,0.033398114144802,-0.1115852296352386,-0.993193507194519,0,0,0,-1,-1,2430.8190225,unknown,2,2022-06-02T10:41:26.541+02:00,2022-06-02T10:17:13.754+02:00,426,1.184792,0,0,328.9867,0,0,2022-06-02T10:41:26.540+02:00,675852086.5404658,0,7.210938,101.2954,1,0.83
404,2022-06-02T10:41:26.885+02:00,1654159286.000398,53.22907493567258,10.39850350881527,36.90506,0,20,-1,-1,2.400000095367432,7.999579855010835,-9999,2431.1621425,-1.848114013671875,-0.2074432373046875,-4.264007568359375,2431.1521475,0.5060031689383127,-0.0012290384271467,0.0606323190417864,-5.261056900024414,-3.213578462600708,1.515903234481812,-2.19248366355896,-0.4343084394931793,-3.900992870330811,XArbitraryZVertical,-0.0295003092922554,-0.0069926265709021,-0.2501780298407143,-0.9677249823924808,-0.0012267796555534,-0.0605951771140098,-0.9981616735458374,0,0,0,-1,-1,2430.8190225,unknown,2,2022-06-02T10:41:26.541+02:00,2022-06-02T10:17:13.754+02:00,426,1.184792,0,0,328.9867,0,0,2022-06-02T10:41:26.540+02:00,675852086.5404658,0,7.210938,101.2954,1,0.83
405,2022-06-02T10:41:26.895+02:00,1654159286.000398,53.22907493567258,10.39850350881527,36.90506,0,20,-1,-1,2.400000095367432,7.999579855010835,-9999,2431.1721365,-1.342376708984375,0.3124542236328125,-3.919479370117188,2431.1621425,0.5195876640499754,-0.032591074807887,0.0092608287494078,-4.869600772857666,-3.004417181015015,1.433486223220825,-2.017327547073364,-0.5946974754333496,-3.669381856918335,XArbitraryZVertical,-0.008660211462159,0.014558537760058,-0.2567715483991549,-0.9663235716933604,-0.0325839072465896,-0.0092606963589787,-0.9994261264801024,0,0,0,-1,-1,2430.8190225,unknown,2,2022-06-02T10:41:26.541+02:00,2022-06-02T10:17:13.754+02:00,426,1.184792,0,0,328.9867,0,0,2022-06-02T10:41:26.540+02:00,675852086.5404658,0,7.210938,101.2954,1,0.83
406,2022-06-02T10:41:26.905+02:00,1654159286.000398,53.22907493567258,10.39850350881527,36.90506,0,20,-1,-1,2.400000095367432,7.999579855010835,-9999,2431.1821315,-1.1534423828125,0.5734405517578125,-3.777542114257812,2431.1721365,0.53269501047288,-0.0630462375218981,-0.0343737210957697,-3.659101247787476,-3.213487148284912,1.603464841842651,-1.785146713256836,-0.2418102324008942,-3.266583919525146,XArbitraryZVertical,0.0082771905257051,0.0349233228396083,-0.263562459156018,-0.9639743513563424,-0.062967263162136,0.0343669541180133,-0.9974237084388732,0,0,0,-1,-1,2430.8190225,unknown,2,2022-06-02T10:41:26.541+02:00,2022-06-02T10:17:13.754+02:00,426,1.184792,0,0,328.9867,0,0,2022-06-02T10:41:26.540+02:00,675852086.5404658,0,7.210938,101.2954,1,0.83
407,2022-06-02T10:41:26.915+02:00,1654159286.000398,53.22907493567258,10.39850350881527,36.90506,0,20,-1,-1,2.400000095367432,7.999579855010835,-9999,2431.1921265,-1.176132202148438,0.3680877685546875,-3.95416259765625,2431.1821315,0.5466909721674387,-0.095559687487156,-0.0650472795730506,-2.180370569229126,-3.418947696685791,1.665161967277527,-1.247164130210876,0.2474527657032013,-2.926146984100342,XArbitraryZVertical,0.0183882409687633,0.0547324365637219,-0.2709989948650718,-0.9608463354851998,-0.0952125340700149,0.0650014206767082,-0.9933324456214904,0,0,0,-1,-1,2430.8190225,unknown,2,2022-06-02T10:41:26.541+02:00,2022-06-02T10:17:13.754+02:00,426,1.184792,0,0,328.9867,0,0,2022-06-02T10:41:26.540+02:00,675852086.5404658,0,7.210938,101.2954,1,0.83
408,2022-06-02T10:41:26.925+02:00,1654159286.000398,53.22907493567258,10.39850350881527,36.90506,0,20,-1,-1,2.400000095367432,7.999579855010835,-9999,2431.2021205,-1.317550659179688,-0.1183929443359375,-3.849868774414062,2431.1921265,0.561676056720416,-0.1289247911537785,-0.0798138923806722,-0.4739727377891541,-3.413569211959839,1.584316372871399,-1.025283694267273,0.4937113225460052,-2.788998365402222,XArbitraryZVertical,0.0204138639401105,0.0728795715077901,-0.2788344437607483,-0.9573520902915552,-0.1281586438417435,0.079729177057743,-0.988543689250946,0,0,0,-1,-1,2430.8190225,unknown,2,2022-06-02T10:41:26.541+02:00,2022-06-02T10:17:13.754+02:00,426,1.184792,0,0,328.9867,0,0,2022-06-02T10:41:26.540+02:00,675852086.5404658,0,7.210938,101.2954,1,0.83
409,2022-06-02T10:41:26.935+02:00,1654159286.000398,53.22907493567258,10.39850350881527,36.90506,0,20,-1,-1,2.400000095367432,7.999579855010835,-9999,2431.2121155,-1.48779296875,-0.66552734375,-3.284164428710938,2431.2021205,0.5751186986034207,-0.161016847339099,-0.081242828193369,0.4945732951164246,-3.206401824951172,1.087122321128845,-1.016339063644409,0.2869342267513275,-2.970353603363037,XArbitraryZVertical,0.0160268714890174,0.088535947459199,-0.285592640979914,-0.9541180605006254,-0.1597931832075119,0.0811534821987152,-0.9838090538978576,0,0,0,-1,-1,2430.8190225,unknown,2,2022-06-02T10:41:26.541+02:00,2022-06-02T10:17:13.754+02:00,426,1.184792,0,0,328.9867,0,0,2022-06-02T10:41:26.540+02:00,675852086.5404658,0,7.210938,101.2954,1,0.83
410,2022-06-02T10:41:26.953+02:00,1654159286.000398,53.22907493567258,10.39850350881527,36.90506,0,20,-1,-1,2.400000095367432,7.999579855010835,-9999,2431.2221115,-1.725128173828125,-0.9438018798828124,-2.762893676757812,2431.2121155,0.584473606105138,-0.1889371516096332,-0.0772010601627862,0.4752336740493774,-2.450335264205933,0.591704249382019,-1.130295038223267,-0.1955173909664154,-2.870589971542358,XArbitraryZVertical,0.0096347752603977,0.1013297855052998,-0.2900825678023514,-0.9515731988630822,-0.1872556507587433,0.0771243944764137,-0.9792788624763488,0,0,0,-1,-1,2430.8190225,unknown,2,2022-06-02T10:41:26.541+02:00,2022-06-02T10:17:13.754+02:00,426,1.184792,0,0,328.9867,0,0,2022-06-02T10:41:26.540+02:00,675852086.5404658,0,7.210938,101.2954,1,0.83
411,2022-06-02T10:41:26.958+02:00,1654159286.000398,53.22907493567258,10.39850350881527,36.90506,0,20,-1,-1,2.400000095367432,7.999579855010835,-9999,2431.2321055,-1.71160888671875,-0.82977294921875,-2.234039306640625,2431.2221115,0.5872938739261914,-0.2079543111447502,-0.0765219435890841,-0.2456976920366287,-1.417090058326721,-0.0520258471369743,-1.281938433647156,-0.7419747114181519,-2.308572292327881,XArbitraryZVertical,0.0063970397048082,0.1102863788995691,-0.2914712469880856,-0.9501792101540012,-0.2058545351028442,0.0764472857117652,-0.9755919575691224,0,0,0,-1,-1,2430.8190225,unknown,2,2022-06-02T10:41:26.541+02:00,2022-06-02T10:17:13.754+02:00,426,1.184792,0,0,328.9867,0,0,2022-06-02T10:41:26.540+02:00,675852086.5404658,0,7.210938,101.2954,1,0.83
412,2022-06-02T10:41:26.965+02:00,1654159286.000398,53.22907493567258,10.39850350881527,36.90506,0,20,-1,-1,2.400000095367432,7.999579855010835,-9999,2431.2421005,-1.691299438476562,-0.3331451416015625,-1.743362426757812,2431.2321055,0.5834706156414585,-0.2180487078877052,-0.0812262890547842,-0.7837984561920166,-0.5650754570960999,-0.4632581472396851,-1.509516477584839,-1.024938941001892,-1.789791226387024,XArbitraryZVertical,0.0073864014003003,0.1157333893144474,-0.2899024124111668,-0.9500040899256352,-0.2156117111444473,0.0811370015144348,-0.9731024503707886,0,0,0,-1,-1,2430.8190225,unknown,2,2022-06-02T10:41:26.541+02:00,2022-06-02T10:17:13.754+02:00,426,1.184792,0,0,328.9867,0,0,2022-06-02T10:41:26.540+02:00,675852086.5404658,0,7.210938,101.2954,1,0.83
413,2022-06-02T10:41:26.975+02:00,1654159286.000398,53.22907493567258,10.39850350881527,36.90506,0,20,-1,-1,2.400000095367432,7.999579855010835,-9999,2431.2520955,-1.633590698242188,0.158905029296875,-1.387588500976562,2431.2421005,0.5757506135723476,-0.2208161212607063,-0.0876878312646106,-0.7349902391433716,0.1285091638565063,-0.7443736791610718,-1.493424415588379,-0.9173485040664672,-1.26206910610199,XArbitraryZVertical,0.010517488011655,0.1179164268214082,-0.2865463437973829,-0.9507240819772628,-0.2181844711303711,0.0875755026936531,-0.9719702005386353,0,0,0,-1,-1,2430.8190225,unknown,2,2022-06-02T10:41:26.541+02:00,2022-06-02T10:17:13.754+02:00,426,1.184792,0,0,328.9867,0,0,2022-06-02T10:41:26.540+02:00,675852086.5404658,0,7.210938,101.2954,1,0.83
414,2022-06-02T10:41:26.985+02:00,1654159286.000398,53.22907493567258,10.39850350881527,36.90506,0,20,-1,-1,2.400000095367432,7.999579855010835,-9999,2431.2620895,-1.47467041015625,0.3810882568359375,-1.141998291015625,2431.2520955,0.5663970737403743,-0.2176608142818361,-0.0898480850363135,-0.0319327972829341,0.6386289000511169,-0.9713927507400512,-1.476224303245544,-0.4228724241256714,-0.7708956003189087,XArbitraryZVertical,0.0125452776114252,0.1166585405010488,-0.2821783352913825,-0.9521599786773408,-0.2150751799345016,0.0897272452712059,-0.9724668264389038,0,0,0,-1,-1,2430.8190225,unknown,2,2022-06-02T10:41:26.541+02:00,2022-06-02T10:17:13.754+02:00,426,1.184792,0,0,328.9867,0,0,2022-06-02T10:41:26.540+02:00,675852086.5404658,0,7.210938,101.2954,1,0.83
415,2022-06-02T10:41:26.994+02:00,1654159286.000398,53.22907493567258,10.39850350881527,36.90506,0,20,-1,-1,2.400000095367432,7.999579855010835,-9999,2431.2720845,-1.297042846679688,0.3196563720703125,-1.036697387695312,2431.2620895,0.5569279764501249,-0.210575604331783,-0.0829804933903223,0.9761782884597778,0.9185448884963988,-1.169818878173828,-1.425287127494812,0.0760196819901466,-0.4130426049232483,XArbitraryZVertical,0.0107965867682644,0.1122964928832744,-0.2773128820964312,-0.9541333651909688,-0.2083036005496979,0.0828852951526641,-0.9745458364486694,0,0,0,-1,-1,2430.8190225,unknown,2,2022-06-02T10:41:26.541+02:00,2022-06-02T10:17:13.754+02:00,426,1.184792,0,0,328.9867,0,0,2022-06-02T10:41:26.540+02:00,675852086.5404658,0,7.210938,101.2954,1,0.83
416,2022-06-02T10:41:27.004+02:00,1654159286.000398,53.22907493567258,10.39850350881527,36.90506,0,20,-1,-1,2.400000095367432,7.999579855010835,-9999,2431.2820795,-1.124038696289062,0.1888885498046875,-1.009902954101562,2431.2720845,0.5476571214937367,-0.2011285706090395,-0.0661679414764853,1.924041271209717,1.129130601882935,-1.293019413948059,-1.27533233165741,0.3149685263633728,-0.1643007397651672,XArbitraryZVertical,0.0045507881117098,0.1055012496879885,-0.2721029813348076,-0.9564563295284052,-0.1993381083011627,0.0661196708679199,-0.9776975512504578,0,0,0,-1,-1,2430.8190225,unknown,2,2022-06-02T10:41:26.541+02:00,2022-06-02T10:17:13.754+02:00,426,1.184792,0,0,328.9867,0,0,2022-06-02T10:41:26.540+02:00,675852086.5404658,0,7.210938,101.2954,1,0.83
417,2022-06-02T10:41:27.015+02:00,1654159286.000398,53.22907493567258,10.39850350881527,36.90506,0,20,-1,-1,2.400000095367432,7.999579855010835,-9999,2431.2920735,-0.98553466796875,0.1081390380859375,-0.952789306640625,2431.2820795,0.5393257783828787,-0.1896576987289624,-0.0418710320427206,2.431234121322632,1.246296882629395,-1.281047463417053,-1.108685374259949,0.277797520160675,-0.0554893016815185,XArbitraryZVertical,-0.0051328626232577,0.0967967835779256,-0.267062032987313,-0.9587917916748508,-0.1883575022220612,0.0418587997555732,-0.981208086013794,0,0,0,-1,-1,2430.8190225,unknown,2,2022-06-02T10:41:26.541+02:00,2022-06-02T10:17:13.754+02:00,426,1.184792,0,0,328.9867,0,0,2022-06-02T10:41:26.540+02:00,675852086.5404658,0,7.210938,101.2954,1,0.83
418,2022-06-02T10:41:27.024+02:00,1654159286.000398,53.22907493567258,10.39850350881527,36.90506,0,20,-1,-1,2.400000095367432,7.999579855010835,-9999,2431.3020685,-0.8822021484375,0.0460052490234375,-0.872039794921875,2431.2920735,0.531284473151416,-0.1770482097800871,-0.0153734454644648,2.447007179260254,1.31745707988739,-1.274904370307922,-0.9479348063468932,0.1735156625509262,-0.0256513953208923,XArbitraryZVertical,-0.0158211390542453,0.0873150759343384,-0.2621490761865952,-0.9609388103499054,-0.1761038899421692,0.0153728397563099,-0.9842515587806702,0,0,0,-1,-1,2430.8190225,unknown,2,2022-06-02T10:41:26.541+02:00,2022-06-02T10:17:13.754+02:00,426,1.184792,0,0,328.9867,0,0,2022-06-02T10:41:26.540+02:00,675852086.5404658,0,7.210938,101.2954,1,0.83
419,2022-06-02T10:41:27.034+02:00,1654159286.000398,53.22907493567258,10.39850350881527,36.90506,0,20,-1,-1,2.400000095367432,7.999579855010835,-9999,2431.3120635,-0.85540771484375,-0.0234222412109375,-0.8466339111328125,2431.3020685,0.5226259831261039,-0.1633706986473913,0.009681859952571,2.184183120727539,1.441407680511475,-1.284487009048462,-0.8228973150253296,0.1178207099437714,0.0338491201400756,XArbitraryZVertical,-0.0257406149463813,0.0775771382663391,-0.2571031626514147,-0.962921126624632,-0.162637323141098,-0.0096817091107368,-0.9866384267807008,0,0,0,-1,-1,2430.8190225,unknown,2,2022-06-02T10:41:26.541+02:00,2022-06-02T10:17:13.754+02:00,426,1.184792,0,0,328.9867,0,0,2022-06-02T10:41:26.540+02:00,675852086.5404658,0,7.210938,101.2954,1,0.83
420,2022-06-02T10:41:27.044+02:00,1654159286.000398,53.22907493567258,10.39850350881527,36.90506,0,20,-1,-1,2.400000095367432,7.999579855010835,-9999,2431.3220585,-0.877685546875,-0.1156158447265625,-0.790435791015625,2431.3120635,0.5125930979135034,-0.1483463238091842,0.0314910277297274,1.774065256118774,1.51326060295105,-1.408183932304382,-0.7344725728034973,0.0774910300970077,0.1164867281913757,XArbitraryZVertical,-0.0339720044380461,0.0676953232112598,-0.2516428027133308,-0.9648518822591884,-0.1477295458316803,-0.0314858220517635,-0.988526463508606,0,0,0,-1,-1,2430.8190225,unknown,2,2022-06-02T10:41:26.541+02:00,2022-06-02T10:17:13.754+02:00,426,1.184792,0,0,328.9867,0,0,2022-06-02T10:41:26.540+02:00,675852086.5404658,0,7.210938,101.2954,1,0.83
421,2022-06-02T10:41:27.054+02:00,1654159286.000398,53.22907493567258,10.39850350881527,36.90506,0,20,-1,-1,2.400000095367432,7.999579855010835,-9999,2431.3320525,-0.9509429931640624,-0.1727294921875,-0.6907196044921875,2431.3220585,0.499458606164427,-0.1324182665831475,0.0477541323880923,1.050970673561096,1.57199490070343,-1.638070821762085,-0.7235265970230103,0.0243137069046497,0.1434816122055054,XArbitraryZVertical,-0.0394299220613271,0.058202619064049,-0.244999311407179,-0.9669710647111232,-0.1318811029195786,-0.0477359853684902,-0.9901154637336732,0,0,0,-1,-1,2430.8190225,unknown,2,2022-06-02T10:41:26.541+02:00,2022-06-02T10:17:13.754+02:00,426,1.184792,0,0,328.9867,0,0,2022-06-02T10:41:26.540+02:00,675852086.5404658,0,7.210938,101.2954,1,0.83
422,2022-06-02T10:41:27.065+02:00,1654159286.000398,53.22907493567258,10.39850350881527,36.90506,0,20,-1,-1,2.400000095367432,7.999579855010835,-9999,2431.3420475,-1.062759399414062,-0.162078857421875,-0.52984619140625,2431.3320525,0.4833279542664287,-0.1151730289538326,0.0557917166662073,0.117277018725872,1.728142142295837,-1.757527709007263,-0.7629457712173462,-0.0598531030118465,0.2013934850692749,XArbitraryZVertical,-0.0408053785032724,0.0491964071439065,-0.2372702380358031,-0.9693386825596088,-0.1147397682070732,-0.0557627789676189,-0.9918292760849,0,0,0,-1,-1,2430.8190225,unknown,2,2022-06-02T10:41:26.541+02:00,2022-06-02T10:17:13.754+02:00,426,1.184792,0,0,328.9867,0,0,2022-06-02T10:41:26.540+02:00,675852086.5404658,0,7.210938,101.2954,1,0.83
423,2022-06-02T10:41:27.078+02:00,1654159286.000398,53.22907493567258,10.39850350881527,36.90506,0,20,-1,-1,2.400000095367432,7.999579855010835,-9999,2431.3520425,-1.12738037109375,-0.0798492431640625,-0.3873443603515625,2431.3420475,0.4649113245573433,-0.0952728335772984,0.0538781792704228,-0.8432382941246033,2.085825443267822,-1.855715394020081,-0.855952262878418,-0.1188774108886719,0.3033008575439453,XArbitraryZVertical,-0.0371473894667587,0.0401227174944393,-0.2287748691192819,-0.971942526666986,-0.0949907302856445,-0.0538521148264408,-0.9940204620361328,0,0,0,-1,-1,2430.8190225,unknown,2,2022-06-02T10:41:26.541+02:00,2022-06-02T10:17:13.754+02:00,426,1.184792,0,0,328.9867,0,0,2022-06-02T10:41:26.540+02:00,675852086.5404658,0,7.210938,101.2954,1,0.83
