,loggingTime(txt),locationTimestamp_since1970(s),locationLatitude(WGS84),locationLongitude(WGS84),locationAltitude(m),locationSpeed(m/s),locationSpeedAccuracy(m/s),locationCourse(°),locationCourseAccuracy(°),locationVerticalAccuracy(m),locationHorizontalAccuracy(m),locationFloor(Z),accelerometerTimestamp_sinceReboot(s),accelerometerAccelerationX(G),accelerometerAccelerationY(G),accelerometerAccelerationZ(G),motionTimestamp_sinceReboot(s),motionYaw(rad),motionRoll(rad),motionPitch(rad),motionRotationRateX(rad/s),motionRotationRateY(rad/s),motionRotationRateZ(rad/s),motionUserAccelerationX(G),motionUserAccelerationY(G),motionUserAccelerationZ(G),motionAttitudeReferenceFrame(txt),motionQuaternionX(R),motionQuaternionY(R),motionQuaternionZ(R),motionQuaternionW(R),motionGravityX(G),motionGravityY(G),motionGravityZ(G),motionMagneticFieldX(µT),motionMagneticFieldY(µT),motionMagneticFieldZ(µT),motionHeading(°),motionMagneticFieldCalibrationAccuracy(Z),activityTimestamp_sinceReboot(s),activity(txt),activityActivityConfidence(Z),activityActivityStartDate(txt),pedometerStartDate(txt),pedometerNumberofSteps(N),pedometerAverageActivePace(s/m),pedometerCurrentPace(s/m),pedometerCurrentCadence(steps/s),pedometerDistance(m),pedometerFloorAscended(N),pedometerFloorDescended(N),pedometerEndDate(txt),altimeterTimestamp_sinceReboot(s),altimeterReset(bool),altimeterRelativeAltitude(m),altimeterPressure(kPa),batteryState(N),batteryLevel(R)
305,2022-05-05T13:00:51.824+02:00,1651748445.391198,53.22886747750236,10.39797328778103,36.52425,0.5735041,0.3879698,60.52191008451118,41.13049114707324,2.400000095367432,5.999684891258126,-9999,5083.900657875,0.0523529052734375,0.871002197265625,3.119140625,5083.890661875001,-2.123621988999688,2.557676316818509,-0.0085223014507945,-5.078888416290283,5.189345836639404,-2.201744079589844,-0.3849395513534546,0.7512128353118896,1.963510751724243,XArbitraryZVertical,0.8356805272201051,0.4677371968775947,-0.25332915208122,0.1366914324511211,0.5512757897377014,0.0085221985355019,0.8342800736427307,0,0,0,-1,-1,5083.191550875001,unknown,2,2022-05-05T13:00:51.113+02:00,2022-05-05T12:55:18.700+02:00,176,0.9116709,0,0,128.845,0,0,2022-05-05T13:00:51.113+02:00,673441251.112653,0,0.3900003,101.4428,1,0.88
306,2022-05-05T13:00:51.834+02:00,1651748445.391198,53.22886747750236,10.39797328778103,36.52425,0.5735041,0.3879698,60.52191008451118,41.13049114707324,2.400000095367432,5.999684891258126,-9999,5083.910652875,-0.0205078125,0.908721923828125,3.316482543945312,5083.900657875,-2.076135429006913,2.60928712738237,0.024589432023308,-5.561059951782227,5.200258731842041,-2.355682849884033,-0.4208046793937683,0.8655598163604736,2.147486448287964,XArbitraryZVertical,0.8326732163347283,0.4871805481117338,-0.2205318925199928,0.1437926944141426,0.5073680281639099,-0.0245869532227516,0.8613791465759277,0,0,0,-1,-1,5083.191550875001,unknown,2,2022-05-05T13:00:51.113+02:00,2022-05-05T12:55:18.700+02:00,176,0.9116709,0,0,128.845,0,0,2022-05-05T13:00:51.113+02:00,673441251.112653,0,0.3900003,101.4428,1,0.88
307,2022-05-05T13:00:51.844+02:00,1651748445.391198,53.22886747750236,10.39797328778103,36.52425,0.5735041,0.3879698,60.52191008451118,41.13049114707324,2.400000095367432,5.999684891258126,-9999,5083.920648875001,-0.1099090576171875,0.93377685546875,3.509750366210938,5083.910652875,-2.02700143129294,2.65889353846814,0.0629030408292579,-5.890143871307373,5.138920307159424,-2.507728099822998,-0.4414487481117249,0.9571486115455629,2.338174343109131,XArbitraryZVertical,0.8276580706515572,0.5069309310017012,-0.1865978476168436,0.1522645744800493,0.4632536768913269,-0.0628615692257881,0.8839936852455139,0,0,0,-1,-1,5083.191550875001,unknown,2,2022-05-05T13:00:51.113+02:00,2022-05-05T12:55:18.700+02:00,176,0.9116709,0,0,128.845,0,0,2022-05-05T13:00:51.113+02:00,673441251.112653,0,0.3900003,101.4428,1,0.88
308,2022-05-05T13:00:51.854+02:00,1651748445.391198,53.22886747750236,10.39797328778103,36.52425,0.5735041,0.3879698,60.52191008451118,41.13049114707324,2.400000095367432,5.999684891258126,-9999,5083.930643875,-0.2006683349609375,0.903076171875,3.703292846679688,5083.920648875001,-1.976797173721602,2.705547850145785,0.1052274248975846,-6.134528636932373,5.030632019042969,-2.724721431732178,-0.4883197844028473,1.028403639793396,2.510388612747192,XArbitraryZVertical,0.8205041927212986,0.526764249709517,-0.1521506224664051,0.1616861667570844,0.4200214445590973,-0.1050333380699158,0.9014154076576232,0,0,0,-1,-1,5083.191550875001,unknown,2,2022-05-05T13:00:51.113+02:00,2022-05-05T12:55:18.700+02:00,176,0.9116709,0,0,128.845,0,0,2022-05-05T13:00:51.113+02:00,673441251.112653,0,0.3900003,101.4428,1,0.88
309,2022-05-05T13:00:51.863+02:00,1651748445.391198,53.22886747750236,10.39797328778103,36.52425,0.5735041,0.3879698,60.52191008451118,41.13049114707324,2.400000095367432,5.999684891258126,-9999,5083.940638875,-0.2873992919921875,0.84124755859375,3.86614990234375,5083.930643875,-1.924957011704942,2.748412094798784,0.1506752216103835,-6.31227445602417,4.854023933410645,-3.045047283172607,-0.5312226414680481,1.078130006790161,2.694497346878052,XArbitraryZVertical,0.810923059371008,0.5468261037554313,-0.1176470032449987,0.1718847673281973,0.378787487745285,-0.150105744600296,0.913230001926422,0,0,0,-1,-1,5083.191550875001,unknown,2,2022-05-05T13:00:51.113+02:00,2022-05-05T12:55:18.700+02:00,176,0.9116709,0,0,128.845,0,0,2022-05-05T13:00:51.113+02:00,673441251.112653,0,0.3900003,101.4428,1,0.88
310,2022-05-05T13:00:51.874+02:00,1651748445.391198,53.22886747750236,10.39797328778103,36.52425,0.5735041,0.3879698,60.52191008451118,41.13049114707324,2.400000095367432,5.999684891258126,-9999,5083.950634875,-0.3195343017578125,0.8322906494140625,4.011825561523438,5083.940638875,-1.871013466980549,2.786324402037494,0.1972510704552428,-6.23491907119751,4.586928844451904,-3.46152925491333,-0.5896015167236328,1.062643051147461,2.865096569061279,XArbitraryZVertical,0.7987092473102555,0.5672302236621303,-0.0840246270326719,0.1823548847931782,0.3410969078540802,-0.1959744542837143,0.9193731546401978,0,0,0,-1,-1,5083.191550875001,unknown,2,2022-05-05T13:00:51.113+02:00,2022-05-05T12:55:18.700+02:00,176,0.9116709,0,0,128.845,0,0,2022-05-05T13:00:51.113+02:00,673441251.112653,0,0.3900003,101.4428,1,0.88
311,2022-05-05T13:00:51.884+02:00,1651748445.391198,53.22886747750236,10.39797328778103,36.52425,0.5735041,0.3879698,60.52191008451118,41.13049114707324,2.400000095367432,5.999684891258126,-9999,5083.960629875,-0.386260986328125,0.7370452880859375,4.127548217773438,5083.950634875,-1.813827993095039,2.818096173221834,0.2435070637099749,-6.210256099700928,4.260776042938232,-4.005831241607666,-0.6149783134460449,1.080264806747437,3.028251647949219,XArbitraryZVertical,0.7836231562973026,0.5882295535155981,-0.0520402033471055,0.1929057803651423,0.3085055649280548,-0.241107702255249,0.9201585054397584,0,0,0,-1,-1,5083.191550875001,unknown,2,2022-05-05T13:00:51.113+02:00,2022-05-05T12:55:18.700+02:00,176,0.9116709,0,0,128.845,0,0,2022-05-05T13:00:51.113+02:00,673441251.112653,0,0.3900003,101.4428,1,0.88
312,2022-05-05T13:00:51.893+02:00,1651748445.391198,53.22886747750236,10.39797328778103,36.52425,0.5735041,0.3879698,60.52191008451118,41.13049114707324,2.400000095367432,5.999684891258126,-9999,5083.970625875,-0.4525909423828125,0.6072845458984375,4.314727783203125,5083.960629875,-1.751742580616987,2.842119667907742,0.2882542205771974,-5.961332321166992,3.799394369125366,-4.683449745178223,-0.6289293766021729,1.075767517089844,3.145087242126465,XArbitraryZVertical,0.7653519165772875,0.6101405328337188,-0.0224551870297233,0.2036191068235701,0.2828447818756104,-0.2842788994312286,0.91607004404068,0,0,0,-1,-1,5083.191550875001,unknown,2,2022-05-05T13:00:51.113+02:00,2022-05-05T12:55:18.700+02:00,176,0.9116709,0,0,128.845,0,0,2022-05-05T13:00:51.113+02:00,673441251.112653,0,0.3900003,101.4428,1,0.88
313,2022-05-05T13:00:51.903+02:00,1651748445.391198,53.22886747750236,10.39797328778103,36.52425,0.5735041,0.3879698,60.52191008451118,41.13049114707324,2.400000095367432,5.999684891258126,-9999,5083.980620875001,-0.5539093017578125,0.1136016845703125,4.50860595703125,5083.970625875,-1.683161859081052,2.856349736141387,0.3288435860682143,-5.576269149780273,3.208472490310669,-5.521779537200928,-0.6896677017211914,1.012401819229126,3.309705257415771,XArbitraryZVertical,0.7436726399408324,0.633276051938418,0.0033887135875583,0.2142453520435701,0.2663127183914185,-0.3229487836360931,0.9081751108169556,0,0,0,-1,-1,5083.191550875001,unknown,2,2022-05-05T13:00:51.113+02:00,2022-05-05T12:55:18.700+02:00,176,0.9116709,0,0,128.845,0,0,2022-05-05T13:00:51.113+02:00,673441251.112653,0,0.3900003,101.4428,1,0.88
314,2022-05-05T13:00:51.914+02:00,1651748445.391198,53.22886747750236,10.39797328778103,36.52425,0.5735041,0.3879698,60.52191008451118,41.13049114707324,2.400000095367432,5.999684891258126,-9999,5083.990616875,-0.9534454345703124,-0.425689697265625,4.715133666992188,5083.980620875001,-1.60616886485246,2.858921827557364,0.3628725603543916,-4.940029621124268,2.51477837562561,-6.526638031005859,-0.7454843521118164,0.7744100093841553,3.515291452407837,XArbitraryZVertical,0.7182874623316791,0.6579914984525485,0.0243768799030351,0.2247579511959017,0.2607584297657013,-0.3549611866474152,0.8977794051170349,0,0,0,-1,-1,5083.191550875001,unknown,2,2022-05-05T13:00:51.113+02:00,2022-05-05T12:55:18.700+02:00,176,0.9116709,0,0,128.845,0,0,2022-05-05T13:00:51.113+02:00,673441251.112653,0,0.3900003,101.4428,1,0.88
315,2022-05-05T13:00:51.923+02:00,1651748445.391198,53.22886747750236,10.39797328778103,36.52425,0.5735041,0.3879698,60.52191008451118,41.13049114707324,2.400000095367432,5.999684891258126,-9999,5084.000611875001,-1.700836181640625,-0.6198577880859375,5.097808837890625,5083.990616875,-1.518733236819927,2.846948032270309,0.3842398306832406,-3.698199987411499,1.426095485687256,-7.935215950012207,-0.977583646774292,0.173148512840271,3.708403825759888,XArbitraryZVertical,0.6888032263587026,0.6849203694537911,0.037783506342736,0.2345351371502571,0.2692249715328217,-0.3748545050621033,0.8871315717697144,0,0,0,-1,-1,5083.191550875001,unknown,2,2022-05-05T13:00:51.113+02:00,2022-05-05T12:55:18.700+02:00,176,0.9116709,0,0,128.845,0,0,2022-05-05T13:00:51.113+02:00,673441251.112653,0,0.3900003,101.4428,1,0.88
316,2022-05-05T13:00:51.934+02:00,1651748445.391198,53.22886747750236,10.39797328778103,36.52425,0.5735041,0.3879698,60.52191008451118,41.13049114707324,2.400000095367432,5.999684891258126,-9999,5084.010607875,-2.545913696289062,-0.1691131591796875,5.573654174804688,5084.000611875001,-1.417729449088381,2.813849378605683,0.3848901318482645,-2.172044038772583,-0.5961739420890808,-9.923425674438477,-1.590699553489685,-0.1874395608901978,3.997860908508301,XArbitraryZVertical,0.6540805002070285,0.71479469862958,0.0390015870474076,0.2443896840142325,0.2983565330505371,-0.3754573166370392,0.8775055408477783,0,0,0,-1,-1,5083.191550875001,unknown,2,2022-05-05T13:00:51.113+02:00,2022-05-05T12:55:18.700+02:00,176,0.9116709,0,0,128.845,0,0,2022-05-05T13:00:51.113+02:00,673441251.112653,0,0.3900003,101.4428,1,0.88
317,2022-05-05T13:00:51.943+02:00,1651748445.391198,53.22886747750236,10.39797328778103,36.52425,0.5735041,0.3879698,60.52191008451118,41.13049114707324,2.400000095367432,5.999684891258126,-9999,5084.020602875,-3.507308959960938,1.379653930664062,5.64373779296875,5084.010607875,-1.299721565717685,2.748104567973389,0.3610923127845527,-1.270123958587646,-4.08931827545166,-12.39679431915283,-2.486967086791992,-0.1895809173583984,4.492961883544922,XArbitraryZVertical,0.6117037714336043,0.7468782689208545,0.0238513771037219,0.2596584975682977,0.358686625957489,-0.353296309709549,0.8640173077583313,0,0,0,-1,-1,5083.191550875001,unknown,2,2022-05-05T13:00:51.113+02:00,2022-05-05T12:55:18.700+02:00,176,0.9116709,0,0,128.845,0,0,2022-05-05T13:00:51.113+02:00,673441251.112653,0,0.3900003,101.4428,1,0.88
318,2022-05-05T13:00:51.953+02:00,1651748445.391198,53.22886747750236,10.39797328778103,36.52425,0.5735041,0.3879698,60.52191008451118,41.13049114707324,2.400000095367432,5.999684891258126,-9999,5084.030598875001,-4.014556884765625,2.139968872070312,5.216140747070312,5084.020602875,-1.163215200906263,2.638444716324309,0.3138353586295345,-1.457527995109558,-8.951116561889648,-14.86617851257324,-3.491562604904175,0.8823479413986206,4.828708648681641,XArbitraryZVertical,0.5580426708289404,0.7779638279524098,-0.0086037114137747,0.2885941290277483,0.4586340487003326,-0.3087089359760284,0.8332786560058594,0,0,0,-1,-1,5083.191550875001,unknown,2,2022-05-05T13:00:51.113+02:00,2022-05-05T12:55:18.700+02:00,176,0.9116709,0,0,128.845,0,0,2022-05-05T13:00:51.113+02:00,673441251.112653,0,0.3900003,101.4428,1,0.88
319,2022-05-05T13:00:51.963+02:00,1651748445.391198,53.22886747750236,10.39797328778103,36.52425,0.5735041,0.3879698,60.52191008451118,41.13049114707324,2.400000095367432,5.999684891258126,-9999,5084.040593875,-4.667312622070312,1.498931884765625,4.184967041015625,5084.030598875001,-1.01418687172505,2.481287129424687,0.2445467770563462,-2.651734352111816,-14.23072624206543,-16.61718559265137,-4.395112037658691,2.205708980560303,4.758886337280273,XArbitraryZVertical,0.4905454950061836,0.8015723524848474,-0.0554004672917359,0.3373097710182839,0.5951092839241028,-0.2421166151762009,0.7663062214851379,0,0,0,-1,-1,5083.191550875001,unknown,2,2022-05-05T13:00:51.113+02:00,2022-05-05T12:55:18.700+02:00,176,0.9116709,0,0,128.845,0,0,2022-05-05T13:00:51.113+02:00,673441251.112653,0,0.3900003,101.4428,1,0.88
320,2022-05-05T13:00:51.973+02:00,1651748445.391198,53.22886747750236,10.39797328778103,36.52425,0.5735041,0.3879698,60.52191008451118,41.13049114707324,2.400000095367432,5.999684891258126,-9999,5084.050588875,-5.775741577148438,1.262847900390625,3.427398681640625,5084.040593875,-0.8678429407117729,2.283645720286109,0.1472161304684342,-2.745270013809204,-19.53071594238281,-17.5499324798584,-5.059903144836426,2.044740915298462,4.063577175140381,XArbitraryZVertical,0.4090566175005193,0.8100195568924167,-0.1137197032981021,0.4044859568062662,0.7483186721801758,-0.1466849446296692,0.646917998790741,0,0,0,-1,-1,5083.191550875001,unknown,2,2022-05-05T13:00:51.113+02:00,2022-05-05T12:55:18.700+02:00,176,0.9116709,0,0,128.845,0,0,2022-05-05T13:00:51.113+02:00,673441251.112653,0,0.3900003,101.4428,1,0.88
321,2022-05-05T13:00:51.983+02:00,1651748445.391198,53.22886747750236,10.39797328778103,36.52425,0.5735041,0.3879698,60.52191008451118,41.13049114707324,2.400000095367432,5.999684891258126,-9999,5084.060584875,-7.9217529296875,3.31439208984375,3.785934448242188,5084.050588875,-0.758233478200805,2.056412609831225,0.0107811385810768,0.9549569487571716,-23.89519691467285,-17.21632766723633,-5.977170467376709,1.215599656105042,3.296243667602539,XArbitraryZVertical,0.3195253071763569,0.7945230013887732,-0.1868120068693999,0.4813919204610084,0.8843362331390381,-0.0107809295877814,0.4667264521121979,0,0,0,-1,-1,5083.191550875001,unknown,2,2022-05-05T13:00:51.113+02:00,2022-05-05T12:55:18.700+02:00,176,0.9116709,0,0,128.845,0,0,2022-05-05T13:00:51.113+02:00,673441251.112653,0,0.3900003,101.4428,1,0.88
322,2022-05-05T13:00:51.994+02:00,1651748445.391198,53.22886747750236,10.39797328778103,36.52425,0.5735041,0.3879698,60.52191008451118,41.13049114707324,2.400000095367432,5.999684891258126,-9999,5084.070579125,-11.59965515136719,5.819351196289062,6.069320678710938,5084.070579125,-0.8610394650106128,1.457160047545533,-0.2725896882130866,13.6058521270752,-33.07877349853516,-9.700031280517578,-10.27607917785645,4.603713512420654,4.890851974487305,XArbitraryZVertical,0.1831676931413942,0.6417531095606276,-0.3907113690005781,0.633992988598465,0.95686537027359,0.2692264020442963,-0.1092050820589066,0,0,0,-1,-1,5083.191550875001,unknown,2,2022-05-05T13:00:51.113+02:00,2022-05-05T12:55:18.700+02:00,176,0.9116709,0,0,128.845,0,0,2022-05-05T13:00:51.113+02:00,673441251.112653,0,0.3900003,101.4428,1,0.88
323,2022-05-05T13:00:52.004+02:00,1651748445.391198,53.22886747750236,10.39797328778103,36.52425,0.5735041,0.3879698,60.52191008451118,41.13049114707324,2.400000095367432,5.999684891258126,-9999,5084.080575125,-17.51565551757812,5.485580444335938,7.369918823242188,5084.070579125,-0.8610394650106128,1.457160047545533,-0.2725896882130866,13.6058521270752,-33.07877349853516,-9.700031280517578,-10.27607917785645,4.603713512420654,4.890851974487305,XArbitraryZVertical,0.1831676931413942,0.6417531095606276,-0.3907113690005781,0.633992988598465,0.95686537027359,0.2692264020442963,-0.1092050820589066,0,0,0,-1,-1,5083.191550875001,unknown,2,2022-05-05T13:00:51.113+02:00,2022-05-05T12:55:18.700+02:00,176,0.9116709,0,0,128.845,0,0,2022-05-05T13:00:51.113+02:00,673441251.112653,0,0.3900003,101.4428,1,0.88
324,2022-05-05T13:00:52.013+02:00,1651748445.391198,53.22886747750236,10.39797328778103,36.52425,0.5735041,0.3879698,60.52191008451118,41.13049114707324,2.400000095367432,5.999684891258126,-9999,5084.090570125,-25.54940795898438,3.856658935546875,8.813217163085938,5084.080575125,-1.024503672401853,1.064298849090638,-0.3003294854286033,15.4030122756958,-35.12104034423828,-4.722723007202148,-15.22253036499023,5.680300235748291,7.461831569671631,XArbitraryZVertical,0.1335255302848339,0.500469126227517,-0.4837732574441166,0.7054538499919347,0.8353078961372375,0.2958349585533142,-0.4634031653404236,0,0,0,-1,-1,5083.191550875001,unknown,2,2022-05-05T13:00:51.113+02:00,2022-05-05T12:55:18.700+02:00,176,0.9116709,0,0,128.845,0,0,2022-05-05T13:00:51.113+02:00,673441251.112653,0,0.3900003,101.4428,1,0.88
325,2022-05-05T13:00:52.023+02:00,1651748445.391198,53.22886747750236,10.39797328778103,36.52425,0.5735041,0.3879698,60.52191008451118,41.13049114707324,2.400000095367432,5.999684891258126,-9999,5084.100566125,-26.989990234375,7.273895263671875,3.568283081054688,5084.090570125,-1.177386976748853,0.6945937352986068,-0.1820845573252227,23.41835784912109,-28.76993370056152,3.578638792037964,-22.1137752532959,4.151592254638672,8.871747016906738,XArbitraryZVertical,0.1171112091865168,0.3293612019906305,-0.5456957070061181,0.7615920271798543,0.629491925239563,0.1810800582170486,-0.755612313747406,0,0,0,-1,-1,5083.191550875001,unknown,2,2022-05-05T13:00:51.113+02:00,2022-05-05T12:55:18.700+02:00,176,0.9116709,0,0,128.845,0,0,2022-05-05T13:00:51.113+02:00,673441251.112653,0,0.3900003,101.4428,1,0.88
326,2022-05-05T13:00:52.033+02:00,1651748445.391198,53.22886747750236,10.39797328778103,36.52425,0.5735041,0.3879698,60.52191008451118,41.13049114707324,2.400000095367432,5.999684891258126,-9999,5084.110561125,-20.60475158691406,0.0489959716796875,2.62335205078125,5084.100566125,-1.283686529537993,0.4589428402745447,0.0893264236329375,34.04766464233398,-18.19014549255371,7.495803356170654,-28.34969711303711,5.52739429473877,8.052157402038574,XArbitraryZVertical,0.1708656016068818,0.1559854905866924,-0.5742636067278943,0.7852992555411811,0.4412343800067902,-0.0892076790332794,-0.8929469585418701,0,0,0,-1,-1,5083.191550875001,unknown,2,2022-05-05T13:00:51.113+02:00,2022-05-05T12:55:18.700+02:00,176,0.9116709,0,0,128.845,0,0,2022-05-05T13:00:51.113+02:00,673441251.112653,0,0.3900003,101.4428,1,0.88
327,2022-05-05T13:00:52.043+02:00,1651748445.391198,53.22886747750236,10.39797328778103,36.52425,0.5735041,0.3879698,60.52191008451118,41.13049114707324,2.400000095367432,5.999684891258126,-9999,5084.120557125,-13.54830932617188,-12.52091979980469,0.43603515625,5084.110561125,-1.333953301995795,0.3385961626734838,0.4401621152436234,33.30428695678711,-8.036408424377441,10.31283760070801,-23.9698600769043,6.317214488983154,2.739577293395996,XArbitraryZVertical,0.270788363276542,-0.0039287843153643,-0.5661612587468895,0.7785369309375869,0.3005023598670959,-0.4260861277580261,-0.8533164262771606,0,0,0,-1,-1,5083.191550875001,unknown,2,2022-05-05T13:00:51.113+02:00,2022-05-05T12:55:18.700+02:00,176,0.9116709,0,0,128.845,0,0,2022-05-05T13:00:51.113+02:00,673441251.112653,0,0.3900003,101.4428,1,0.88
328,2022-05-05T13:00:52.053+02:00,1651748445.391198,53.22886747750236,10.39797328778103,36.52425,0.5735041,0.3879698,60.52191008451118,41.13049114707324,2.400000095367432,5.999684891258126,-9999,5084.130552125001,-4.427444458007812,-12.87294006347656,-4.446792602539062,5084.120557125,-1.285814445593359,0.266649299276694,0.737668351405319,20.24990272521973,-1.425406694412231,14.94981575012207,-17.99593544006348,-6.700360774993896,3.270174980163574,XArbitraryZVertical,0.3603254718824873,-0.1149910493677743,-0.515885913601071,0.7686380081432317,0.1950006932020187,-0.6725642085075378,-0.7138852477073669,0,0,0,-1,-1,5083.191550875001,unknown,2,2022-05-05T13:00:51.113+02:00,2022-05-05T12:55:18.700+02:00,176,0.9116709,0,0,128.845,0,0,2022-05-05T13:00:51.113+02:00,673441251.112653,0,0.3900003,101.4428,1,0.88
329,2022-05-05T13:00:52.063+02:00,1651748445.391198,53.22886747750236,10.39797328778103,36.52425,0.5735041,0.3879698,60.52191008451118,41.13049114707324,2.400000095367432,5.999684891258126,-9999,5084.140548125,-1.922805786132812,-9.09954833984375,-4.79962158203125,5084.130552125001,-1.098695676636056,0.1287465087651339,0.889273045505643,4.686458587646484,1.688697338104248,15.32465839385986,-8.498394012451172,-13.1754732131958,-1.741096973419189,XArbitraryZVertical,0.3964050585507069,-0.1745896391691991,-0.4467879011997686,0.7827913620685975,0.0808834433555603,-0.7766140103340149,-0.6247629523277283,0,0,0,-1,-1,5083.191550875001,unknown,2,2022-05-05T13:00:51.113+02:00,2022-05-05T12:55:18.700+02:00,176,0.9116709,0,0,128.845,0,0,2022-05-05T13:00:51.113+02:00,673441251.112653,0,0.3900003,101.4428,1,0.88
330,2022-05-05T13:00:52.073+02:00,1651748445.391198,53.22886747750236,10.39797328778103,36.52425,0.5735041,0.3879698,60.52191008451118,41.13049114707324,2.400000095367432,5.999684891258126,-9999,5084.150543125001,-0.545928955078125,-5.116180419921875,-2.709136962890625,5084.140548125,-0.8915520250163473,-0.0018251490105827,0.8918467514815843,-4.317790031433105,4.400722026824951,10.25796318054199,-2.580930948257446,-10.28312301635742,-4.662903308868408,XArbitraryZVertical,0.3887886573188361,-0.1866975196676021,-0.3893514050362986,0.8138752176137302,-0.0011461488902568,-0.7782328128814697,-0.627974808216095,0,0,0,-1,-1,5083.191550875001,unknown,2,2022-05-05T13:00:51.113+02:00,2022-05-05T12:55:18.700+02:00,176,0.9116709,0,0,128.845,0,0,2022-05-05T13:00:51.113+02:00,673441251.112653,0,0.3900003,101.4428,1,0.88
331,2022-05-05T13:00:52.083+02:00,1651748445.391198,53.22886747750236,10.39797328778103,36.52425,0.5735041,0.3879698,60.52191008451118,41.13049114707324,2.400000095367432,5.999684891258126,-9999,5084.160538125,-1.416366577148438,-2.518035888671875,-2.347564697265625,5084.150543125001,-0.7663300088886896,-0.0701849809172787,0.8440881634198502,-4.29730224609375,0.7860846519470215,6.974230766296387,-1.196723222732544,-6.321787357330322,-3.00166654586792,XArbitraryZVertical,0.3677225477790664,-0.1827333422654163,-0.3541728287763227,0.8402084956384335,-0.0465935431420803,-0.7473655939102173,-0.662777304649353,0,0,0,-1,-1,5083.191550875001,unknown,2,2022-05-05T13:00:51.113+02:00,2022-05-05T12:55:18.700+02:00,176,0.9116709,0,0,128.845,0,0,2022-05-05T13:00:51.113+02:00,673441251.112653,0,0.3900003,101.4428,1,0.88
332,2022-05-05T13:00:52.093+02:00,1651748445.391198,53.22886747750236,10.39797328778103,36.52425,0.5735041,0.3879698,60.52191008451118,41.13049114707324,2.400000095367432,5.999684891258126,-9999,5084.170534125,-3.21588134765625,-2.233657836914062,-1.928680419921875,5084.160538125,-0.673014899624437,-0.1343741808904247,0.8045164262390715,-2.091612100601196,0.6253071427345276,6.243810653686523,-0.4062579274177551,-2.719766616821289,-1.671525597572327,XArbitraryZVertical,0.3483073325560103,-0.1872905169874573,-0.3279602999764143,0.8579315222436459,-0.0929029211401939,-0.7204954028129578,-0.6872085332870483,0,0,0,-1,-1,5083.191550875001,unknown,2,2022-05-05T13:00:51.113+02:00,2022-05-05T12:55:18.700+02:00,176,0.9116709,0,0,128.845,0,0,2022-05-05T13:00:51.113+02:00,673441251.112653,0,0.3900003,101.4428,1,0.88
333,2022-05-05T13:00:52.103+02:00,1651748445.391198,53.22886747750236,10.39797328778103,36.52425,0.5735041,0.3879698,60.52191008451118,41.13049114707324,2.400000095367432,5.999684891258126,-9999,5084.180529125,-2.728591918945312,-1.906417846679688,-1.493927001953125,5084.170534125,-0.5942454642293318,-0.1733307887294722,0.7802715623423245,-1.197038531303406,2.751270771026611,5.736299514770508,-2.491195440292358,-1.569186925888062,-1.540603876113892,XArbitraryZVertical,0.3388477975979698,-0.1874718490245291,-0.3012308799855084,0.8713762265674391,-0.1225741878151894,-0.7034724354743958,-0.7000729441642761,0,0,0,-1,-1,5083.191550875001,unknown,2,2022-05-05T13:00:51.113+02:00,2022-05-05T12:55:18.700+02:00,176,0.9116709,0,0,128.845,0,0,2022-05-05T13:00:51.113+02:00,673441251.112653,0,0.3900003,101.4428,1,0.88
334,2022-05-05T13:00:52.117+02:00,1651748445.391198,53.22886747750236,10.39797328778103,36.52425,0.5735041,0.3879698,60.52191008451118,41.13049114707324,2.400000095367432,5.999684891258126,-9999,5084.190525125,-2.027191162109375,-1.283676147460938,-1.215850830078125,5084.180529125,-0.5149542593592891,-0.1988031526905339,0.7606031700465011,-0.5440177917480469,2.965790033340454,6.107714176177979,-2.974773406982422,-1.461550951004028,-0.92305725812912,XArbitraryZVertical,0.3337274793200818,-0.183166581936661,-0.270903880166927,0.8841307356676825,-0.1430702656507492,-0.6893585324287415,-0.7101519703865051,0,0,0,-1,-1,5083.191550875001,unknown,2,2022-05-05T13:00:51.113+02:00,2022-05-05T12:55:18.700+02:00,176,0.9116709,0,0,128.845,0,0,2022-05-05T13:00:51.113+02:00,673441251.112653,0,0.3900003,101.4428,1,0.88
335,2022-05-05T13:00:52.123+02:00,1651748446.990997,53.22871735977083,10.39792010637564,41.3239,-1.0,-1.0,-1.0,-1.0,32.41880035400391,60.9592462111786,-9999,5084.200520125,-1.898483276367188,-1.105087280273438,-0.9134521484375,5084.190525125,-0.4351865597926652,-0.227687973279487,0.7460945342428178,0.1608205288648605,2.138891696929932,5.838054180145264,-2.165324687957764,-0.8780325055122375,-0.6654209494590759,XArbitraryZVertical,0.3307203929000119,-0.1814599113985852,-0.240156082226178,0.8944392196016527,-0.1657606959342957,-0.67877596616745,-0.7153926491737366,0,0,0,-1,-1,5083.191550875001,unknown,2,2022-05-05T13:00:51.113+02:00,2022-05-05T12:55:18.700+02:00,176,0.9116709,0,0,128.845,0,0,2022-05-05T13:00:51.113+02:00,673441251.112653,0,0.3900003,101.4428,1,0.88
336,2022-05-05T13:00:52.134+02:00,1651748446.990997,53.22871735977083,10.39792010637564,41.3239,-1.0,-1.0,-1.0,-1.0,32.41880035400391,60.9592462111786,-9999,5084.210516125,-2.201828002929688,-1.033004760742188,-0.9963226318359376,5084.200520125,-0.3590263129554842,-0.2619948586173835,0.7387387996643743,1.228638291358948,1.346944212913513,5.449097633361816,-1.684578895568848,-0.4840536117553711,-0.3307561874389648,XArbitraryZVertical,0.3304326008159282,-0.1837651209403197,-0.2114823304143204,0.901287986248234,-0.1914892792701721,-0.6733559966087341,-0.7140893340110779,0,0,0,-1,-1,5083.191550875001,unknown,2,2022-05-05T13:00:51.113+02:00,2022-05-05T12:55:18.700+02:00,176,0.9116709,0,0,128.845,0,0,2022-05-05T13:00:51.113+02:00,673441251.112653,0,0.3900003,101.4428,1,0.88
337,2022-05-05T13:00:52.143+02:00,1651748446.990997,53.22871735977083,10.39792010637564,41.3239,-1.0,-1.0,-1.0,-1.0,32.41880035400391,60.9592462111786,-9999,5084.220511125,-2.372024536132812,-1.310699462890625,-1.138931274414062,5084.210516125,-0.2811284560888834,-0.3022275141116347,0.7421035321132874,2.545779466629028,1.204666495323181,5.447657585144043,-1.814448118209839,-0.3809991478919983,-0.1953595876693726,XArbitraryZVertical,0.3352726806060968,-0.1891322632804011,-0.1831259932603348,0.9045916636607126,-0.219380646944046,-0.6758397817611694,-0.7036424279212952,0,0,0,-1,-1,5083.191550875001,unknown,2,2022-05-05T13:00:51.113+02:00,2022-05-05T12:55:18.700+02:00,176,0.9116709,0,0,128.845,0,0,2022-05-05T13:00:51.113+02:00,673441251.112653,0,0.3900003,101.4428,1,0.88
338,2022-05-05T13:00:52.154+02:00,1651748446.990997,53.22871735977083,10.39792010637564,41.3239,-1.0,-1.0,-1.0,-1.0,32.41880035400391,60.9592462111786,-9999,5084.230507125,-2.050949096679688,-1.861404418945312,-1.046493530273438,5084.220511125,-0.1987975598498662,-0.3443965378198215,0.75151559201783,2.940687417984009,1.59761917591095,5.406125545501709,-2.086241483688354,-0.4239273071289062,-0.4172147512435913,XArbitraryZVertical,0.3439480613720373,-0.1944852058247504,-0.1535169390294336,0.9057085088439102,-0.246690109372139,-0.682746946811676,-0.6877504587173462,0,0,0,-1,-1,5083.191550875001,unknown,2,2022-05-05T13:00:51.113+02:00,2022-05-05T12:55:18.700+02:00,176,0.9116709,0,0,128.845,0,0,2022-05-05T13:00:51.113+02:00,673441251.112653,0,0.3900003,101.4428,1,0.88
339,2022-05-05T13:00:52.181+02:00,1651748446.990997,53.22871735977083,10.39792010637564,41.3239,-1.0,-1.0,-1.0,-1.0,32.41880035400391,60.9592462111786,-9999,5084.240502125001,-1.463592529296875,-2.0072021484375,-1.0333251953125,5084.240502125001,-0.0380840004899073,-0.4144999223659605,0.7623155858783339,2.301110506057739,2.093867063522339,4.836559295654297,-1.459170937538147,-1.298720836639404,-0.3553405404090881,XArbitraryZVertical,0.3603320157603833,-0.1978992358414433,-0.0938275526187324,0.9067487569177118,-0.2912716269493103,-0.6905980110168457,-0.6619934439659119,0,0,0,-1,-1,5083.191550875001,unknown,2,2022-05-05T13:00:51.113+02:00,2022-05-05T12:55:18.700+02:00,176,0.9116709,0,0,128.845,0,0,2022-05-05T13:00:51.113+02:00,673441251.112653,0,0.3900003,101.4428,1,0.88
340,2022-05-05T13:00:52.185+02:00,1651748446.990997,53.22871735977083,10.39792010637564,41.3239,-1.0,-1.0,-1.0,-1.0,32.41880035400391,60.9592462111786,-9999,5084.250497125,-1.15179443359375,-1.867263793945312,-1.175735473632812,5084.240502125001,-0.0380840004899073,-0.4144999223659605,0.7623155858783339,2.301110506057739,2.093867063522339,4.836559295654297,-1.459170937538147,-1.298720836639404,-0.3553405404090881,XArbitraryZVertical,0.3603320157603833,-0.1978992358414433,-0.0938275526187324,0.9067487569177118,-0.2912716269493103,-0.6905980110168457,-0.6619934439659119,0,0,0,-1,-1,5083.191550875001,unknown,2,2022-05-05T13:00:51.113+02:00,2022-05-05T12:55:18.700+02:00,176,0.9116709,0,0,128.845,0,0,2022-05-05T13:00:51.113+02:00,673441251.112653,0,0.3900003,101.4428,1,0.88
341,2022-05-05T13:00:52.187+02:00,1651748446.990997,53.22871735977083,10.39792010637564,41.3239,-1.0,-1.0,-1.0,-1.0,32.41880035400391,60.9592462111786,-9999,5084.260493125001,-1.116607666015625,-1.700576782226562,-1.106033325195312,5084.250497125,0.0314145042127922,-0.4437728878696798,0.7629802710837706,2.003849267959595,1.654618144035339,4.25861930847168,-0.9480211734771729,-1.2692791223526,-0.460328221321106,XArbitraryZVertical,0.3663397391563118,-0.1985200746137553,-0.0677027759671767,0.9065326511795456,-0.310325413942337,-0.6910786032676697,-0.652769923210144,0,0,0,-1,-1,5083.191550875001,unknown,2,2022-05-05T13:00:51.113+02:00,2022-05-05T12:55:18.700+02:00,176,0.9116709,0,0,128.845,0,0,2022-05-05T13:00:51.113+02:00,673441251.112653,0,0.3900003,101.4428,1,0.88
342,2022-05-05T13:00:52.193+02:00,1651748446.990997,53.22871735977083,10.39792010637564,41.3239,-1.0,-1.0,-1.0,-1.0,32.41880035400391,60.9592462111786,-9999,5084.270488125,-1.086471557617188,-1.512847900390625,-1.009368896484375,5084.260493125001,0.091977723173893,-0.4704289731113085,0.7619701048080304,1.684175610542297,1.426711201667786,3.694592475891113,-0.7907379865646362,-1.081151485443115,-0.5250635147094727,XArbitraryZVertical,0.3711598129694713,-0.1994892036437429,-0.04506387175615,0.9057669699992364,-0.327929675579071,-0.6903480887413025,-0.6448888778686523,0,0,0,-1,-1,5083.191550875001,unknown,2,2022-05-05T13:00:51.113+02:00,2022-05-05T12:55:18.700+02:00,176,0.9116709,0,0,128.845,0,0,2022-05-05T13:00:51.113+02:00,673441251.112653,0,0.3900003,101.4428,1,0.88
343,2022-05-05T13:00:52.203+02:00,1651748446.990997,53.22871735977083,10.39792010637564,41.3239,-1.0,-1.0,-1.0,-1.0,32.41880035400391,60.9592462111786,-9999,5084.280484125,-1.057418823242188,-1.250320434570312,-0.9541168212890624,5084.270488125,0.1439167454277197,-0.4921344055149303,0.7597332089239327,1.400628805160522,1.403395175933838,3.198479890823364,-0.7665073871612549,-0.9384234547615052,-0.4032267332077026,XArbitraryZVertical,0.3749616081804983,-0.1997855506922874,-0.0253293399151945,0.9049022003364634,-0.3425776958465576,-0.6887280344963074,-0.6389790773391724,0,0,0,-1,-1,5083.191550875001,unknown,2,2022-05-05T13:00:51.113+02:00,2022-05-05T12:55:18.700+02:00,176,0.9116709,0,0,128.845,0,0,2022-05-05T13:00:51.113+02:00,673441251.112653,0,0.3900003,101.4428,1,0.88
344,2022-05-05T13:00:52.213+02:00,1651748446.990997,53.22871735977083,10.39792010637564,41.3239,-1.0,-1.0,-1.0,-1.0,32.41880035400391,60.9592462111786,-9999,5084.290479125,-1.154342651367188,-1.024200439453125,-0.9045257568359376,5084.280484125,0.1881499675780746,-0.5087529486315868,0.7566736127182447,1.164445996284485,1.34326159954071,2.725648880004883,-0.7055035829544067,-0.6870132684707642,-0.3468067049980164,XArbitraryZVertical,0.3778749400740924,-0.1992307342490565,-0.0080552896804346,0.9041309145516548,-0.3541735410690308,-0.6865065693855286,-0.6350352764129639,0,0,0,-1,-1,5083.191550875001,unknown,2,2022-05-05T13:00:51.113+02:00,2022-05-05T12:55:18.700+02:00,176,0.9116709,0,0,128.845,0,0,2022-05-05T13:00:51.113+02:00,673441251.112653,0,0.3900003,101.4428,1,0.88
345,2022-05-05T13:00:52.223+02:00,1651748446.990997,53.22871735977083,10.39792010637564,41.3239,-1.0,-1.0,-1.0,-1.0,32.41880035400391,60.9592462111786,-9999,5084.300475125,-1.290008544921875,-0.8360595703125,-0.8589935302734375,5084.290479125,0.2259058964148549,-0.5214700863515401,0.7538076120528351,1.068703770637512,1.312796115875244,2.372196197509766,-0.7284298539161682,-0.4539468884468079,-0.2965274453163147,XArbitraryZVertical,0.3803545666328599,-0.1980875443891431,0.0069856403347969,0.9033509736036736,-0.3631992042064667,-0.6844198107719421,-0.6321834325790405,0,0,0,-1,-1,5083.191550875001,unknown,2,2022-05-05T13:00:51.113+02:00,2022-05-05T12:55:18.700+02:00,176,0.9116709,0,0,128.845,0,0,2022-05-05T13:00:51.113+02:00,673441251.112653,0,0.3900003,101.4428,1,0.88
346,2022-05-05T13:00:52.233+02:00,1651748446.990997,53.22871735977083,10.39792010637564,41.3239,-1.0,-1.0,-1.0,-1.0,32.41880035400391,60.9592462111786,-9999,5084.310470125,-1.328262329101562,-0.757293701171875,-0.782135009765625,5084.300475125,0.2602187635432611,-0.5311252096223795,0.7515902648254214,1.062740325927734,1.470837950706482,2.200679540634155,-0.8581720590591431,-0.236464262008667,-0.2560778260231018,XArbitraryZVertical,0.3828283210291631,-0.196125822649469,0.0209488866935566,0.902517752744802,-0.3700537383556366,-0.6828014850616455,-0.6299542784690857,0,0,0,-1,-1,5083.191550875001,unknown,2,2022-05-05T13:00:51.113+02:00,2022-05-05T12:55:18.700+02:00,176,0.9116709,0,0,128.845,0,0,2022-05-05T13:00:51.113+02:00,673441251.112653,0,0.3900003,101.4428,1,0.88
347,2022-05-05T13:00:52.243+02:00,1651748446.990997,53.22871735977083,10.39792010637564,41.3239,-1.0,-1.0,-1.0,-1.0,32.41880035400391,60.9592462111786,-9999,5084.320466125,-1.27215576171875,-0.7272186279296875,-0.751007080078125,5084.310470125,0.2929557952230207,-0.5375718990455445,0.749478082057888,1.005687952041626,1.709490418434143,2.146210193634033,-0.9494503140449524,-0.1009392142295837,-0.189932644367218,XArbitraryZVertical,0.3851781675017402,-0.1929800991528319,0.0347865449275932,0.9017684101070138,-0.3748447597026825,-0.6812567710876465,-0.628792941570282,0,0,0,-1,-1,5083.191550875001,unknown,2,2022-05-05T13:00:51.113+02:00,2022-05-05T12:55:18.700+02:00,176,0.9116709,0,0,128.845,0,0,2022-05-05T13:00:51.113+02:00,673441251.112653,0,0.3900003,101.4428,1,0.88
348,2022-05-05T13:00:52.253+02:00,1651748446.990997,53.22871735977083,10.39792010637564,41.3239,-1.0,-1.0,-1.0,-1.0,32.41880035400391,60.9592462111786,-9999,5084.330461125001,-1.183074951171875,-0.6894683837890625,-0.793060302734375,5084.320466125,0.3246283715466634,-0.5409979651746482,0.7464814544488831,0.860220730304718,1.905889630317688,2.15297532081604,-0.9294180870056152,-0.0618762373924255,-0.1300709247589111,XArbitraryZVertical,0.3869665171799046,-0.1887612470591171,0.0488502660924486,0.9012435296763212,-0.3780465424060822,-0.6790600419044495,-0.6292521953582764,0,0,0,-1,-1,5083.191550875001,unknown,2,2022-05-05T13:00:51.113+02:00,2022-05-05T12:55:18.700+02:00,176,0.9116709,0,0,128.845,0,0,2022-05-05T13:00:51.113+02:00,673441251.112653,0,0.3900003,101.4428,1,0.88
349,2022-05-05T13:00:52.263+02:00,1651748446.990997,53.22871735977083,10.39792010637564,41.3239,-1.0,-1.0,-1.0,-1.0,32.41880035400391,60.9592462111786,-9999,5084.340457125,-1.096298217773438,-0.6199493408203125,-0.8918304443359375,5084.330461125001,0.3556019386855399,-0.5423480217876855,0.7421591705177228,0.7528120279312134,2.015971660614014,2.202626943588257,-0.8475744724273682,-0.0394359827041626,-0.1305915117263794,XArbitraryZVertical,0.3880137636402995,-0.1839039595970337,0.0632027187399129,0.90090525664239,-0.3804071247577667,-0.6758807897567749,-0.6312493085861206,0,0,0,-1,-1,5083.191550875001,unknown,2,2022-05-05T13:00:51.113+02:00,2022-05-05T12:55:18.700+02:00,176,0.9116709,0,0,128.845,0,0,2022-05-05T13:00:51.113+02:00,673441251.112653,0,0.3900003,101.4428,1,0.88
350,2022-05-05T13:00:52.273+02:00,1651748446.990997,53.22871735977083,10.39792010637564,41.3239,-1.0,-1.0,-1.0,-1.0,32.41880035400391,60.9592462111786,-9999,5084.350452125001,-1.0025634765625,-0.5479736328125,-0.962738037109375,5084.340457125,0.3866529252990072,-0.5427512971609375,0.7369076630253444,0.7340800762176514,2.080531120300293,2.270102262496948,-0.7568536400794983,0.0197336673736572,-0.1967909336090088,XArbitraryZVertical,0.3885717571106149,-0.1787421593948011,0.0779224279630268,0.9005507103360386,-0.3824896812438965,-0.6720011234283447,-0.6341264843940735,0,0,0,-1,-1,5083.191550875001,unknown,2,2022-05-05T13:00:51.113+02:00,2022-05-05T12:55:18.700+02:00,176,0.9116709,0,0,128.845,0,0,2022-05-05T13:00:51.113+02:00,673441251.112653,0,0.3900003,101.4428,1,0.88
351,2022-05-05T13:00:52.283+02:00,1651748446.990997,53.22871735977083,10.39792010637564,41.3239,-1.0,-1.0,-1.0,-1.0,32.41880035400391,60.9592462111786,-9999,5084.360447125,-0.8865509033203125,-0.587066650390625,-0.864990234375,5084.350452125001,0.4181852576920318,-0.5431812413210171,0.731475564989344,0.749805748462677,2.070751905441284,2.288398742675781,-0.6688998341560364,0.0837704539299011,-0.3187788724899292,XArbitraryZVertical,0.3890265770063849,-0.1735499491045462,0.0928864249254768,0.8999505071141333,-0.3846433162689209,-0.6679684519767761,-0.6370774507522583,0,0,0,-1,-1,5083.191550875001,unknown,2,2022-05-05T13:00:51.113+02:00,2022-05-05T12:55:18.700+02:00,176,0.9116709,0,0,128.845,0,0,2022-05-05T13:00:51.113+02:00,673441251.112653,0,0.3900003,101.4428,1,0.88
352,2022-05-05T13:00:52.293+02:00,1651748446.990997,53.22871735977083,10.39792010637564,41.3239,-1.0,-1.0,-1.0,-1.0,32.41880035400391,60.9592462111786,-9999,5084.370443125001,-0.759735107421875,-0.696624755859375,-0.8087158203125,5084.360447125,0.4489088510637173,-0.5428163602903572,0.7259002698461434,0.6436716914176941,2.093068361282349,2.204177379608154,-0.5604793429374695,0.1181547045707703,-0.2802881002426147,XArbitraryZVertical,0.3892400112512105,-0.1682077835572375,0.1076649965614937,0.899225652480122,-0.3863285481929779,-0.6638090014457703,-0.6403967142105103,0,0,0,-1,-1,5083.191550875001,unknown,2,2022-05-05T13:00:51.113+02:00,2022-05-05T12:55:18.700+02:00,176,0.9116709,0,0,128.845,0,0,2022-05-05T13:00:51.113+02:00,673441251.112653,0,0.3900003,101.4428,1,0.88
353,2022-05-05T13:00:52.303+02:00,1651748446.990997,53.22871735977083,10.39792010637564,41.3239,-1.0,-1.0,-1.0,-1.0,32.41880035400391,60.9592462111786,-9999,5084.380438125,-0.679656982421875,-0.6990966796875,-0.7969207763671875,5084.370443125001,0.4771468025948861,-0.5408590903128657,0.7192145502368381,0.3746305704116821,2.02057671546936,2.118903875350952,-0.4347622990608215,0.0102954506874084,-0.1786971092224121,XArbitraryZVertical,0.3886046493558789,-0.1628358517052707,0.12181393598351,0.8986836830071208,-0.3873507678508759,-0.6587939858436584,-0.6449418067932129,0,0,0,-1,-1,5083.191550875001,unknown,2,2022-05-05T13:00:51.113+02:00,2022-05-05T12:55:18.700+02:00,176,0.9116709,0,0,128.845,0,0,2022-05-05T13:00:51.113+02:00,673441251.112653,0,0.3900003,101.4428,1,0.88
354,2022-05-05T13:00:52.313+02:00,1651748446.990997,53.22871735977083,10.39792010637564,41.3239,-1.0,-1.0,-1.0,-1.0,32.41880035400391,60.9592462111786,-9999,5084.390434125,-0.6747589111328125,-0.6351470947265625,-0.7744293212890625,5084.380438125,0.5020852119777337,-0.5376661372926658,0.7102271075007701,0.0119976643472909,1.89069676399231,2.037819862365723,-0.3212428092956543,-0.0611287355422973,-0.1507368087768555,XArbitraryZVertical,0.3865643045534537,-0.1579579750528879,0.1350930326186766,0.898536180720548,-0.388306200504303,-0.6520059704780579,-0.6512346267700195,0,0,0,-1,-1,5083.191550875001,unknown,2,2022-05-05T13:00:51.113+02:00,2022-05-05T12:55:18.700+02:00,176,0.9116709,0,0,128.845,0,0,2022-05-05T13:00:51.113+02:00,673441251.112653,0,0.3900003,101.4428,1,0.88
355,2022-05-05T13:00:52.323+02:00,1651748446.990997,53.22871735977083,10.39792010637564,41.3239,-1.0,-1.0,-1.0,-1.0,32.41880035400391,60.9592462111786,-9999,5084.400429125,-0.6800537109375,-0.573577880859375,-0.7696380615234375,5084.390434125,0.523597907425638,-0.5333011522381507,0.6986044543299038,-0.3265082240104675,1.772490501403809,1.973143577575684,-0.2814901173114777,-0.0235830545425415,-0.1277807950973511,XArbitraryZVertical,0.3829783036441489,-0.1537048786716783,0.1474858322395057,0.8988606735790289,-0.3892862796783447,-0.6431496739387512,-0.6594048738479614,0,0,0,-1,-1,5083.191550875001,unknown,2,2022-05-05T13:00:51.113+02:00,2022-05-05T12:55:18.700+02:00,176,0.9116709,0,0,128.845,0,0,2022-05-05T13:00:51.113+02:00,673441251.112653,0,0.3900003,101.4428,1,0.88
356,2022-05-05T13:00:52.333+02:00,1651748446.990997,53.22871735977083,10.39792010637564,41.3239,-1.0,-1.0,-1.0,-1.0,32.41880035400391,60.9592462111786,-9999,5084.410425125,-0.68988037109375,-0.4674835205078125,-0.7719879150390625,5084.400429125,0.5426770240221386,-0.5282675900652122,0.6849032962424171,-0.5292224884033203,1.679779052734375,1.959017157554626,-0.2879926562309265,0.0251305103302002,-0.102412223815918,XArbitraryZVertical,0.3782019751362835,-0.1500370374377991,0.159242652313186,0.8994965066680185,-0.3903673589229584,-0.6325981020927429,-0.6689043045043945,0,0,0,-1,-1,5083.191550875001,unknown,2,2022-05-05T13:00:51.113+02:00,2022-05-05T12:55:18.700+02:00,176,0.9116709,0,0,128.845,0,0,2022-05-05T13:00:51.113+02:00,673441251.112653,0,0.3900003,101.4428,1,0.88
357,2022-05-05T13:00:52.343+02:00,1651748446.990997,53.22871735977083,10.39792010637564,41.3239,-1.0,-1.0,-1.0,-1.0,32.41880035400391,60.9592462111786,-9999,5084.420420125,-0.7162017822265625,-0.294677734375,-0.751800537109375,5084.410425125,0.5614503087408299,-0.5235615180142227,0.6706782272189792,-0.402606725692749,1.61689305305481,2.011707305908203,-0.2913542985916138,0.0927546024322509,-0.0963516235351562,XArbitraryZVertical,0.3731417498380443,-0.1467502282772395,0.1708723522367898,0.9000179784835841,-0.3916749060153961,-0.6215174794197083,-0.6784592270851135,0,0,0,-1,-1,5083.191550875001,unknown,2,2022-05-05T13:00:51.113+02:00,2022-05-05T12:55:18.700+02:00,176,0.9116709,0,0,128.845,0,0,2022-05-05T13:00:51.113+02:00,673441251.112653,0,0.3900003,101.4428,1,0.88
358,2022-05-05T13:00:52.353+02:00,1651748446.990997,53.22871735977083,10.39792010637564,41.3239,-1.0,-1.0,-1.0,-1.0,32.41880035400391,60.9592462111786,-9999,5084.430416125,-0.76751708984375,-0.2452850341796875,-0.796051025390625,5084.420420125,0.5828070559695372,-0.5204721673231005,0.6588942207971885,0.0678972527384758,1.648054838180542,2.074801206588745,-0.3061183094978333,0.2314903736114502,-0.071046233177185,XArbitraryZVertical,0.3693953424783664,-0.143389947498976,0.1829581281497696,0.8997293098608449,-0.3931920230388641,-0.6122429370880127,-0.6859728097915649,0,0,0,-1,-1,5083.191550875001,unknown,2,2022-05-05T13:00:51.113+02:00,2022-05-05T12:55:18.700+02:00,176,0.9116709,0,0,128.845,0,0,2022-05-05T13:00:51.113+02:00,673441251.112653,0,0.3900003,101.4428,1,0.88
359,2022-05-05T13:00:52.363+02:00,1651748446.990997,53.22871735977083,10.39792010637564,41.3239,-1.0,-1.0,-1.0,-1.0,32.41880035400391,60.9592462111786,-9999,5084.440411125001,-0.8420257568359375,-0.298095703125,-0.881988525390625,5084.430416125,0.6079097112456769,-0.5188866838591142,0.6515450216735961,0.6283280849456787,1.72245979309082,2.106253147125244,-0.344124436378479,0.3591927289962769,-0.0744848847389221,XArbitraryZVertical,0.3678940516637493,-0.1393268375666412,0.195724081065718,0.8982951493286796,-0.3943246901035309,-0.6064156293869019,-0.6904839873313904,0,0,0,-1,-1,5083.191550875001,unknown,2,2022-05-05T13:00:51.113+02:00,2022-05-05T12:55:18.700+02:00,176,0.9116709,0,0,128.845,0,0,2022-05-05T13:00:51.113+02:00,673441251.112653,0,0.3900003,101.4428,1,0.88
360,2022-05-05T13:00:52.373+02:00,1651748446.990997,53.22871735977083,10.39792010637564,41.3239,-1.0,-1.0,-1.0,-1.0,32.41880035400391,60.9592462111786,-9999,5084.450406125,-0.8864288330078125,-0.3796539306640625,-0.877655029296875,5084.440411125001,0.6364467382108951,-0.5185904337092024,0.6486494453155602,1.094266772270203,1.801491856575012,2.135432481765747,-0.4095003604888916,0.333404541015625,-0.1503300666809082,XArbitraryZVertical,0.3685912067254385,-0.1344584035114836,0.2090497767679654,0.8957453214550357,-0.3949888050556183,-0.6041107177734375,-0.6921229362487793,0,0,0,-1,-1,5083.191550875001,unknown,2,2022-05-05T13:00:51.113+02:00,2022-05-05T12:55:18.700+02:00,176,0.9116709,0,0,128.845,0,0,2022-05-05T13:00:51.113+02:00,673441251.112653,0,0.3900003,101.4428,1,0.88
361,2022-05-05T13:00:52.383+02:00,1651748446.990997,53.22871735977083,10.39792010637564,41.3239,-1.0,-1.0,-1.0,-1.0,32.41880035400391,60.9592462111786,-9999,5084.460402125001,-0.8358001708984375,-0.5102386474609375,-0.8533782958984375,5084.450406125,0.6673121625678727,-0.5185561481354278,0.6484925612284178,1.27613890171051,1.933877110481262,2.148933410644531,-0.4789503812789917,0.2747162580490112,-0.1991233825683594,XArbitraryZVertical,0.3705526357206659,-0.1287685569602247,0.2228803909945583,0.8924314387387842,-0.3950120508670807,-0.6039856672286987,-0.6922187805175781,0,0,0,-1,-1,5083.191550875001,unknown,2,2022-05-05T13:00:51.113+02:00,2022-05-05T12:55:18.700+02:00,176,0.9116709,0,0,128.845,0,0,2022-05-05T13:00:51.113+02:00,673441251.112653,0,0.3900003,101.4428,1,0.88
362,2022-05-05T13:00:52.393+02:00,1651748446.990997,53.22871735977083,10.39792010637564,41.3239,-1.0,-1.0,-1.0,-1.0,32.41880035400391,60.9592462111786,-9999,5084.470397125,-0.7742156982421875,-0.6200103759765625,-0.8046875,5084.460402125001,0.6984516320679396,-0.5177895903155922,0.6485959127663194,1.168029546737671,1.960856318473816,2.153021335601807,-0.4757278263568878,0.1619446873664856,-0.1702037453651428,XArbitraryZVertical,0.37246484495978,-0.122622917092609,0.2368732634479269,0.888889553611706,-0.3944503962993622,-0.6040680408477783,-0.6924670934677124,0,0,0,-1,-1,5083.191550875001,unknown,2,2022-05-05T13:00:51.113+02:00,2022-05-05T12:55:18.700+02:00,176,0.9116709,0,0,128.845,0,0,2022-05-05T13:00:51.113+02:00,673441251.112653,0,0.3900003,101.4428,1,0.88
363,2022-05-05T13:00:52.403+02:00,1651748446.990997,53.22871735977083,10.39792010637564,41.3239,-1.0,-1.0,-1.0,-1.0,32.41880035400391,60.9592462111786,-9999,5084.480393125,-0.7288818359375,-0.6835479736328125,-0.76605224609375,5084.470397125,0.7281385832708115,-0.5164256807074585,0.6468102410935713,0.8532600998878479,1.893576145172119,2.137593746185303,-0.4061943888664246,0.0299511551856994,-0.1399972438812256,XArbitraryZVertical,0.3733343840295871,-0.1168363983933646,0.2505958387452239,0.8855351592194588,-0.3940375745296478,-0.6026440262794495,-0.6939414143562317,0,0,0,-1,-1,5083.191550875001,unknown,2,2022-05-05T13:00:51.113+02:00,2022-05-05T12:55:18.700+02:00,176,0.9116709,0,0,128.845,0,0,2022-05-05T13:00:51.113+02:00,673441251.112653,0,0.3900003,101.4428,1,0.88
364,2022-05-05T13:00:52.413+02:00,1651748446.990997,53.22871735977083,10.39792010637564,41.3239,-1.0,-1.0,-1.0,-1.0,32.41880035400391,60.9592462111786,-9999,5084.490388125,-0.6654510498046875,-0.703460693359375,-0.7357940673828125,5084.480393125,0.7554293128386688,-0.5142646669260714,0.642157109717299,0.4835025370121002,1.8145352602005,2.120458126068115,-0.3592464625835419,-0.0576766729354858,-0.0847114324569702,XArbitraryZVertical,0.3726951298564423,-0.1117395620879759,0.2638449552218171,0.8826089288147642,-0.393912136554718,-0.5989242792129517,-0.6972252130508423,0,0,0,-1,-1,5083.191550875001,unknown,2,2022-05-05T13:00:51.113+02:00,2022-05-05T12:55:18.700+02:00,176,0.9116709,0,0,128.845,0,0,2022-05-05T13:00:51.113+02:00,673441251.112653,0,0.3900003,101.4428,1,0.88
