,loggingTime(txt),locationTimestamp_since1970(s),locationLatitude(WGS84),locationLongitude(WGS84),locationAltitude(m),locationSpeed(m/s),locationSpeedAccuracy(m/s),locationCourse(°),locationCourseAccuracy(°),locationVerticalAccuracy(m),locationHorizontalAccuracy(m),locationFloor(Z),accelerometerTimestamp_sinceReboot(s),accelerometerAccelerationX(G),accelerometerAccelerationY(G),accelerometerAccelerationZ(G),motionTimestamp_sinceReboot(s),motionYaw(rad),motionRoll(rad),motionPitch(rad),motionRotationRateX(rad/s),motionRotationRateY(rad/s),motionRotationRateZ(rad/s),motionUserAccelerationX(G),motionUserAccelerationY(G),motionUserAccelerationZ(G),motionAttitudeReferenceFrame(txt),motionQuaternionX(R),motionQuaternionY(R),motionQuaternionZ(R),motionQuaternionW(R),motionGravityX(G),motionGravityY(G),motionGravityZ(G),motionMagneticFieldX(µT),motionMagneticFieldY(µT),motionMagneticFieldZ(µT),motionHeading(°),motionMagneticFieldCalibrationAccuracy(Z),activityTimestamp_sinceReboot(s),activity(txt),activityActivityConfidence(Z),activityActivityStartDate(txt),pedometerStartDate(txt),pedometerNumberofSteps(N),pedometerAverageActivePace(s/m),pedometerCurrentPace(s/m),pedometerCurrentCadence(steps/s),pedometerDistance(m),pedometerFloorAscended(N),pedometerFloorDescended(N),pedometerEndDate(txt),altimeterTimestamp_sinceReboot(s),altimeterReset(bool),altimeterRelativeAltitude(m),altimeterPressure(kPa),batteryState(N),batteryLevel(R)
188,2022-06-02T10:42:47.532+02:00,1654159367.000566,53.2291015887867,10.39853748371565,36.75075,0,20,-1,-1,2.400000095367432,7.999579855010836,-9999,2511.80958525,0.074798583984375,0.9105377197265624,1.49139404296875,2511.79959025,-1.419395705611971,1.19052270224686,-0.2446850341753431,-0.2907464504241943,7.920090675354004,1.013460516929626,-0.6634625792503357,1.111997246742249,1.77871298789978,XArbitraryZVertical,-0.2859898347384914,-0.4880066751056457,0.5874049831221099,-0.5788044060214991,0.9009045362472534,0.2422507554292679,-0.3601185977458954,0,0,0,-1,-1,2494.785221666667,unknown,2,2022-06-02T10:42:30.507+02:00,2022-06-02T10:17:13.754+02:00,441,1.235643,0,0,340.1827,0,0,2022-06-02T10:42:45.859+02:00,675852165.8588929,0,6.183594,101.3077,1,0.82
189,2022-06-02T10:42:47.543+02:00,1654159367.000566,53.2291015887867,10.39853748371565,36.75075,0,20,-1,-1,2.400000095367432,7.999579855010836,-9999,2511.81958025,0.0727081298828125,0.8613433837890625,1.756332397460938,2511.80958525,-1.411424171344572,1.27256738072854,-0.2373118534205928,-0.6633759140968323,8.279800415039062,0.979330837726593,-0.8014902472496033,0.8564315438270569,1.687463521957397,XArbitraryZVertical,-0.3102100198447243,-0.510855503812719,0.5715281773213415,-0.5622738398801878,0.929068922996521,0.2350906729698181,-0.285592794418335,0,0,0,-1,-1,2494.785221666667,unknown,2,2022-06-02T10:42:30.507+02:00,2022-06-02T10:17:13.754+02:00,441,1.235643,0,0,340.1827,0,0,2022-06-02T10:42:45.859+02:00,675852165.8588929,0,6.183594,101.3077,1,0.82
190,2022-06-02T10:42:47.552+02:00,1654159367.000566,53.2291015887867,10.39853748371565,36.75075,0,20,-1,-1,2.400000095367432,7.999579855010836,-9999,2511.82957525,0.20806884765625,0.7264556884765625,1.802749633789062,2511.81958025,-1.400271627227982,1.359061264984931,-0.2300408939998687,-1.083981513977051,8.645708084106445,1.037543773651123,-0.8771145939826965,0.68252032995224,1.696014404296875,XArbitraryZVertical,-0.3339619207179811,-0.5349385525498274,0.5530415063363311,-0.5444769040722319,0.9519129991531372,0.2280173450708389,-0.204620361328125,0,0,0,-1,-1,2494.785221666667,unknown,2,2022-06-02T10:42:30.507+02:00,2022-06-02T10:17:13.754+02:00,441,1.235643,0,0,340.1827,0,0,2022-06-02T10:42:45.859+02:00,675852165.8588929,0,6.183594,101.3077,1,0.82
191,2022-06-02T10:42:47.562+02:00,1654159367.000566,53.2291015887867,10.39853748371565,36.75075,0,20,-1,-1,2.400000095367432,7.999579855010836,-9999,2511.83957025,0.2552947998046875,0.8339996337890625,1.878631591796875,2511.82957525,-1.386153740843617,1.449890550411001,-0.2218642173768429,-1.310348629951477,8.976591110229492,1.025778293609619,-0.8956595659255981,0.6412948369979858,1.873987436294556,XArbitraryZVertical,-0.3573039924119542,-0.5599163439020454,0.5317765720444932,-0.5253961166883384,0.9683675169944764,0.2200485318899155,-0.1176550909876823,0,0,0,-1,-1,2494.785221666667,unknown,2,2022-06-02T10:42:30.507+02:00,2022-06-02T10:17:13.754+02:00,441,1.235643,0,0,340.1827,0,0,2022-06-02T10:42:45.859+02:00,675852165.8588929,0,6.183594,101.3077,1,0.82
192,2022-06-02T10:42:47.572+02:00,1654159367.000566,53.2291015887867,10.39853748371565,36.75075,0,20,-1,-1,2.400000095367432,7.999579855010836,-9999,2511.84956425,0.2149505615234375,0.6137237548828125,2.254989624023438,2511.83957025,-1.368957049323065,1.547222711986183,-0.2132917444107363,-1.935592651367188,9.75672435760498,0.9276003837585448,-0.7689990401268005,0.5147774815559387,1.825786948204041,XArbitraryZVertical,-0.3802749033355726,-0.5864063050644804,0.5073722543994673,-0.5040753178667016,0.977067768573761,0.2116781920194626,-0.0230372864753007,0,0,0,-1,-1,2494.785221666667,unknown,2,2022-06-02T10:42:30.507+02:00,2022-06-02T10:17:13.754+02:00,441,1.235643,0,0,340.1827,0,0,2022-06-02T10:42:45.859+02:00,675852165.8588929,0,6.183594,101.3077,1,0.82
193,2022-06-02T10:42:47.582+02:00,1654159367.000566,53.2291015887867,10.39853748371565,36.75075,0,20,-1,-1,2.400000095367432,7.999579855010836,-9999,2511.85955925,0.056396484375,0.6571197509765625,2.714401245117188,2511.84956425,-1.343690484471741,1.653254429886015,-0.2040002764729281,-3.131208419799805,10.44730186462402,0.7790806889533997,-0.7206419110298157,0.6314113140106201,1.797974824905396,XArbitraryZVertical,-0.4015303556270356,-0.6157123962414564,0.4780465645766547,-0.4807732692316546,0.9759365320205688,0.2025882750749588,0.0806567594408989,0,0,0,-1,-1,2494.785221666667,unknown,2,2022-06-02T10:42:30.507+02:00,2022-06-02T10:17:13.754+02:00,441,1.235643,0,0,340.1827,0,0,2022-06-02T10:42:45.859+02:00,675852165.8588929,0,6.183594,101.3077,1,0.82
194,2022-06-02T10:42:47.592+02:00,1654159367.000566,53.2291015887867,10.39853748371565,36.75075,0,20,-1,-1,2.400000095367432,7.999579855010836,-9999,2511.86955425,-0.26385498046875,0.836761474609375,3.313644409179688,2511.85955925,-1.305774269500899,1.770005071714798,-0.191729471083488,-4.609419345855713,11.46456527709961,0.6013540625572205,-0.7473114132881165,0.4231667816638947,2.060721874237061,XArbitraryZVertical,-0.4198319329932897,-0.648748737410259,0.4417869198558816,-0.4557305236171056,0.9622617363929749,0.1905569583177567,0.1942675560712814,0,0,0,-1,-1,2494.785221666667,unknown,2,2022-06-02T10:42:30.507+02:00,2022-06-02T10:17:13.754+02:00,441,1.235643,0,0,340.1827,0,0,2022-06-02T10:42:45.859+02:00,675852165.8588929,0,6.183594,101.3077,1,0.82
195,2022-06-02T10:42:47.602+02:00,1654159367.000566,53.2291015887867,10.39853748371565,36.75075,0,20,-1,-1,2.400000095367432,7.999579855010836,-9999,2511.87954925,-0.712371826171875,0.8228302001953125,3.835006713867188,2511.86955425,-1.253954724674409,1.899734827652299,-0.1724198989344086,-6.267252922058105,12.65253162384033,0.4650074243545532,-0.8759567141532898,0.4855528473854065,2.396152496337891,XArbitraryZVertical,-0.4348468495955863,-0.685589213505822,0.3967803519377868,-0.4282999776556575,0.9323530793190002,0.1715668737888336,0.3182487189769745,0,0,0,-1,-1,2494.785221666667,unknown,2,2022-06-02T10:42:30.507+02:00,2022-06-02T10:17:13.754+02:00,441,1.235643,0,0,340.1827,0,0,2022-06-02T10:42:45.859+02:00,675852165.8588929,0,6.183594,101.3077,1,0.82
196,2022-06-02T10:42:47.612+02:00,1654159367.000566,53.2291015887867,10.39853748371565,36.75075,0,20,-1,-1,2.400000095367432,7.999579855010836,-9999,2511.88954425,-1.372329711914062,0.716888427734375,4.3768310546875,2511.87954925,-1.189954243601496,2.042729901093059,-0.1406441426667636,-7.828452110290527,13.96956253051758,0.4799171090126038,-1.145751118659973,0.6965805292129517,2.863523721694946,XArbitraryZVertical,-0.4464294251175881,-0.7250938036800701,0.3415914259880106,-0.3978128532093658,0.8818961977958679,0.1401809304952621,0.4501205086708069,0,0,0,-1,-1,2494.785221666667,unknown,2,2022-06-02T10:42:30.507+02:00,2022-06-02T10:17:13.754+02:00,441,1.235643,0,0,340.1827,0,0,2022-06-02T10:42:45.859+02:00,675852165.8588929,0,6.183594,101.3077,1,0.82
197,2022-06-02T10:42:47.622+02:00,1654159367.000566,53.2291015887867,10.39853748371565,36.75075,0,20,-1,-1,2.400000095367432,7.999579855010836,-9999,2511.89953825,-2.242935180664062,0.4606781005859375,4.82183837890625,2511.88954425,-1.120682829090464,2.196837618920331,-0.0916211504238116,-8.9907865524292,15.23405742645264,0.7383774518966675,-1.519326448440552,0.7313371896743774,3.251523017883301,XArbitraryZVertical,-0.4551262468771738,-0.7645927286547234,0.2761134224606732,-0.363344910213697,0.8069546818733215,0.0914930179715156,0.583483874797821,0,0,0,-1,-1,2494.785221666667,unknown,2,2022-06-02T10:42:30.507+02:00,2022-06-02T10:17:13.754+02:00,441,1.235643,0,0,340.1827,0,0,2022-06-02T10:42:45.859+02:00,675852165.8588929,0,6.183594,101.3077,1,0.82
198,2022-06-02T10:42:47.632+02:00,1654159367.000566,53.2291015887867,10.39853748371565,36.75075,0,20,-1,-1,2.400000095367432,7.999579855010836,-9999,2511.90953325,-3.168212890625,-0.048248291015625,5.425003051757812,2511.89953825,-1.056328152016563,2.359006634593906,-0.0238077137007137,-9.553337097167969,16.42804527282715,1.232945799827576,-2.077245473861694,0.6930829882621765,3.667939424514771,XArbitraryZVertical,-0.4619041371478671,-0.8006811747438554,0.2016886736846822,-0.3238455337331041,0.7049157023429871,0.0238054655492305,0.7088915705680847,0,0,0,-1,-1,2494.785221666667,unknown,2,2022-06-02T10:42:30.507+02:00,2022-06-02T10:17:13.754+02:00,441,1.235643,0,0,340.1827,0,0,2022-06-02T10:42:45.859+02:00,675852165.8588929,0,6.183594,101.3077,1,0.82
199,2022-06-02T10:42:47.642+02:00,1654159367.000566,53.2291015887867,10.39853748371565,36.75075,0,20,-1,-1,2.400000095367432,7.999579855010836,-9999,2511.91952825,-4.053314208984375,-0.8338165283203125,6.129898071289062,2511.90953325,-1.005841151445854,2.527137550030665,0.0600661099646928,-9.809431076049805,17.30747604370117,1.850798368453979,-2.818408966064453,0.5207080841064453,4.006224155426025,XArbitraryZVertical,-0.4671673828843284,-0.8303984812026389,0.1206168631236871,-0.2786475755585304,0.5754735469818115,-0.060029998421669,0.8156139850616455,0,0,0,-1,-1,2494.785221666667,unknown,2,2022-06-02T10:42:30.507+02:00,2022-06-02T10:17:13.754+02:00,441,1.235643,0,0,340.1827,0,0,2022-06-02T10:42:45.859+02:00,675852165.8588929,0,6.183594,101.3077,1,0.82
200,2022-06-02T10:42:47.653+02:00,1654159367.000566,53.2291015887867,10.39853748371565,36.75075,0,20,-1,-1,2.400000095367432,7.999579855010836,-9999,2511.92952325,-4.818756103515625,-1.634857177734375,7.072998046875,2511.91952825,-0.974829112555866,2.699330666942197,0.1547281824743527,-9.648823738098145,17.71952438354492,2.361733675003052,-3.591084957122803,0.1058632284402847,4.5320143699646,XArbitraryZVertical,-0.4705497197567006,-0.8515147194988419,0.0357920968222975,-0.2285268912971671,0.4228719472885132,-0.1541115343570709,0.8929887413978577,0,0,0,-1,-1,2494.785221666667,unknown,2,2022-06-02T10:42:30.507+02:00,2022-06-02T10:17:13.754+02:00,441,1.235643,0,0,340.1827,0,0,2022-06-02T10:42:45.859+02:00,675852165.8588929,0,6.183594,101.3077,1,0.82
201,2022-06-02T10:42:47.662+02:00,1654159367.000566,53.2291015887867,10.39853748371565,36.75075,0,20,-1,-1,2.400000095367432,7.999579855010836,-9999,2511.93951825,-5.338577270507812,-2.444488525390625,8.346054077148438,2511.92952325,-0.966038639635902,2.875887858558068,0.2502321810500912,-8.816567420959473,17.92634582519531,2.634649991989136,-4.307725429534912,-0.5861876010894775,5.195042610168457,XArbitraryZVertical,-0.4714027442213415,-0.8632537693758655,-0.0484979836937409,-0.1738394432734058,0.2544109523296356,-0.2476289123296738,0.9348552227020264,0,0,0,-1,-1,2494.785221666667,unknown,2,2022-06-02T10:42:30.507+02:00,2022-06-02T10:17:13.754+02:00,441,1.235643,0,0,340.1827,0,0,2022-06-02T10:42:45.859+02:00,675852165.8588929,0,6.183594,101.3077,1,0.82
202,2022-06-02T10:42:47.672+02:00,1654159367.000566,53.2291015887867,10.39853748371565,36.75075,0,20,-1,-1,2.400000095367432,7.999579855010836,-9999,2511.94951325,-5.590255737304688,-3.668899536132812,9.579605102539062,2511.93951825,-0.9773209195065878,3.059676802176286,0.3322610257801515,-6.9491286277771,18.09847831726074,2.287903070449829,-4.896105289459229,-1.30867600440979,6.130860328674316,XArbitraryZVertical,-0.4685707174241056,-0.8668968322816455,-0.1269333367011194,-0.1132219806618111,0.0773490667343139,-0.3261812329292297,0.9421372413635254,0,0,0,-1,-1,2494.785221666667,unknown,2,2022-06-02T10:42:30.507+02:00,2022-06-02T10:17:13.754+02:00,441,1.235643,0,0,340.1827,0,0,2022-06-02T10:42:45.859+02:00,675852165.8588929,0,6.183594,101.3077,1,0.82
203,2022-06-02T10:42:47.682+02:00,1654159367.000566,53.2291015887867,10.39853748371565,36.75075,0,20,-1,-1,2.400000095367432,7.999579855010836,-9999,2511.95950725,-5.601654052734375,-5.150604248046875,10.36793518066406,2511.94951325,-0.9959233667464084,-3.035820509797202,0.3888693306371088,-4.355914115905762,18.08682441711426,0.9680380821228028,-5.240884780883789,-2.065346002578735,7.425887107849121,XArbitraryZVertical,-0.4590073811137942,-0.8656763386566952,-0.1942832606723212,-0.0465891881342304,-0.0976925864815712,-0.3791424036026001,0.9201666116714478,0,0,0,-1,-1,2494.785221666667,unknown,2,2022-06-02T10:42:30.507+02:00,2022-06-02T10:17:13.754+02:00,441,1.235643,0,0,340.1827,0,0,2022-06-02T10:42:45.859+02:00,675852165.8588929,0,6.183594,101.3077,1,0.82
204,2022-06-02T10:42:47.692+02:00,1654159367.000566,53.2291015887867,10.39853748371565,36.75075,0,20,-1,-1,2.400000095367432,7.999579855010836,-9999,2511.96950225,-6.224319458007812,-6.09814453125,10.76826477050781,2511.95950725,-0.9970008461622116,-2.858962663016637,0.418151370784824,-1.332555770874023,17.10216522216797,-2.139161586761475,-5.33540153503418,-3.262827634811401,8.702020645141602,XArbitraryZVertical,-0.4373596020119196,-0.864585925250973,-0.2463520571705752,0.0227653035366427,-0.2548539936542511,-0.4060717821121216,0.8775845170021057,0,0,0,-1,-1,2494.785221666667,unknown,2,2022-06-02T10:42:30.507+02:00,2022-06-02T10:17:13.754+02:00,441,1.235643,0,0,340.1827,0,0,2022-06-02T10:42:45.859+02:00,675852165.8588929,0,6.183594,101.3077,1,0.82
205,2022-06-02T10:42:47.703+02:00,1654159367.000566,53.2291015887867,10.39853748371565,36.75075,0,20,-1,-1,2.400000095367432,7.999579855010836,-9999,2511.97949725,-7.838607788085938,-4.35125732421875,11.36677551269531,2511.96950225,-0.944072427201928,-2.722661246019072,0.4303433596601277,2.555005788803101,14.2579231262207,-8.133515357971191,-5.231959342956543,-4.733421325683594,9.53770351409912,XArbitraryZVertical,-0.3949630748331999,-0.8712747749991272,-0.2783783528079249,0.0859639770415222,-0.3696948289871216,-0.4171828925609589,0.8302311301231384,0,0,0,-1,-1,2494.785221666667,unknown,2,2022-06-02T10:42:30.507+02:00,2022-06-02T10:17:13.754+02:00,441,1.235643,0,0,340.1827,0,0,2022-06-02T10:42:45.859+02:00,675852165.8588929,0,6.183594,101.3077,1,0.82
206,2022-06-02T10:42:47.712+02:00,1654159367.000566,53.2291015887867,10.39853748371565,36.75075,0,20,-1,-1,2.400000095367432,7.999579855010836,-9999,2511.98949225,-9.525726318359377,-3.067901611328125,12.09721374511719,2511.97949725,-0.8005093528198751,-2.669044978370817,0.4476200733585968,5.358373165130615,8.31843090057373,-16.94449615478516,-5.814005374908447,-5.665323257446289,9.965576171875,XArbitraryZVertical,-0.321531560714736,-0.8932869112404258,-0.2876607245674057,0.1261241879870194,-0.4103141725063324,-0.4328213036060333,0.8026881217956543,0,0,0,-1,-1,2494.785221666667,unknown,2,2022-06-02T10:42:30.507+02:00,2022-06-02T10:17:13.754+02:00,441,1.235643,0,0,340.1827,0,0,2022-06-02T10:42:45.859+02:00,675852165.8588929,0,6.183594,101.3077,1,0.82
207,2022-06-02T10:42:47.722+02:00,1654159367.000566,53.2291015887867,10.39853748371565,36.75075,0,20,-1,-1,2.400000095367432,7.999579855010836,-9999,2511.99948725,-11.94100952148438,-1.356735229492188,11.04121398925781,2511.98949225,-0.5622136131066032,-2.729888965933921,0.4979710722324006,3.448314428329468,1.297416806221008,-25.43278884887695,-7.487035751342773,-3.873613357543945,10.5616340637207,XArbitraryZVertical,-0.2147962279495376,-0.9254369326038548,-0.2867063854106829,0.1234038298576832,-0.3515718281269073,-0.4776439964771271,0.8051418662071228,0,0,0,-1,-1,2494.785221666667,unknown,2,2022-06-02T10:42:30.507+02:00,2022-06-02T10:17:13.754+02:00,441,1.235643,0,0,340.1827,0,0,2022-06-02T10:42:45.859+02:00,675852165.8588929,0,6.183594,101.3077,1,0.82
208,2022-06-02T10:42:47.732+02:00,1654159367.000566,53.2291015887867,10.39853748371565,36.75075,0,20,-1,-1,2.400000095367432,7.999579855010836,-9999,2512.00948125,-15.16087341308594,0.3992156982421875,8.948989868164062,2511.99948725,-0.2396261854830621,-2.912213156350687,0.5691320063053124,1.167219519615173,-4.842433929443359,-31.36626052856445,-9.334194183349608,-2.529000520706177,11.2769079208374,XArbitraryZVertical,-0.0820688019602885,-0.9504826974322398,-0.2900255106075935,0.0757131710909679,-0.1915322095155716,-0.5389010906219482,0.8203052878379822,0,0,0,-1,-1,2494.785221666667,unknown,2,2022-06-02T10:42:30.507+02:00,2022-06-02T10:17:13.754+02:00,441,1.235643,0,0,340.1827,0,0,2022-06-02T10:42:45.859+02:00,675852165.8588929,0,6.183594,101.3077,1,0.82
209,2022-06-02T10:42:47.742+02:00,1654159367.000566,53.2291015887867,10.39853748371565,36.75075,0,20,-1,-1,2.400000095367432,7.999579855010836,-9999,2512.01947625,-18.35447692871094,1.050277709960938,6.710311889648438,2512.00948125,0.1559136872463716,3.072562053632027,0.5804696821364852,2.857317686080933,-11.4542875289917,-34.56621551513672,-11.99868774414062,-0.8083184957504272,10.20700073242188,XArbitraryZVertical,0.0647308135020871,-0.9554667392025152,-0.2877132292892971,-0.0106911535598323,0.0576779060065746,-0.5484167337417603,0.8342135548591614,0,0,0,-1,-1,2494.785221666667,unknown,2,2022-06-02T10:42:30.507+02:00,2022-06-02T10:17:13.754+02:00,441,1.235643,0,0,340.1827,0,0,2022-06-02T10:42:45.859+02:00,675852165.8588929,0,6.183594,101.3077,1,0.82
210,2022-06-02T10:42:47.752+02:00,1654159367.000566,53.2291015887867,10.39853748371565,36.75075,0,20,-1,-1,2.400000095367432,7.999579855010836,-9999,2512.02947125,-23.09037780761719,1.7882080078125,6.925308227539062,2512.01947625,0.5253636684757874,2.727107244368599,0.4396414544331799,9.746295928955078,-20.86503028869629,-34.75112533569336,-15.52529525756836,0.8248308897018433,8.120709419250488,XArbitraryZVertical,0.2046716632331631,-0.9339429709140756,-0.2582137543491806,-0.1385115991220252,0.364421933889389,-0.4256150424480438,0.8282799124717712,0,0,0,-1,-1,2494.785221666667,unknown,2,2022-06-02T10:42:30.507+02:00,2022-06-02T10:17:13.754+02:00,441,1.235643,0,0,340.1827,0,0,2022-06-02T10:42:45.859+02:00,675852165.8588929,0,6.183594,101.3077,1,0.82
211,2022-06-02T10:42:47.762+02:00,1654159367.000566,53.2291015887867,10.39853748371565,36.75075,0,20,-1,-1,2.400000095367432,7.999579855010836,-9999,2512.03946625,-31.19398498535156,1.903701782226562,10.99394226074219,2512.02947125,0.7403496677340841,2.395953100107268,0.1355308961863885,18.76793479919434,-32.0012321472168,-32.6958122253418,-19.02669715881348,1.185394048690796,5.982394695281982,XArbitraryZVertical,0.3131588199692945,-0.8751515100844391,-0.1902631743374433,-0.3159768115997491,0.6722203493118286,-0.1351163536310196,0.7279172539710999,0,0,0,-1,-1,2494.785221666667,unknown,2,2022-06-02T10:42:30.507+02:00,2022-06-02T10:17:13.754+02:00,441,1.235643,0,0,340.1827,0,0,2022-06-02T10:42:45.859+02:00,675852165.8588929,0,6.183594,101.3077,1,0.82
212,2022-06-02T10:42:47.772+02:00,1654159367.000566,53.2291015887867,10.39853748371565,36.75075,0,20,-1,-1,2.400000095367432,7.999579855010836,-9999,2512.04946125,-32.06707763671875,1.469833374023438,11.41741943359375,2512.03946625,0.7468758891577244,2.047420593527141,-0.2371832047717085,25.97739601135254,-35.16177368164062,-27.61256217956543,-23.95405006408691,1.553242325782776,6.4793701171875,XArbitraryZVertical,0.3666877741625411,-0.7671434613623411,-0.0943649090809884,-0.5178090184509787,0.8636724948883057,0.2349656224250793,0.4459380209445953,0,0,0,-1,-1,2494.785221666667,unknown,2,2022-06-02T10:42:30.507+02:00,2022-06-02T10:17:13.754+02:00,441,1.235643,0,0,340.1827,0,0,2022-06-02T10:42:45.859+02:00,675852165.8588929,0,6.183594,101.3077,1,0.82
213,2022-06-02T10:42:47.782+02:00,1654159367.000566,53.2291015887867,10.39853748371565,36.75075,0,20,-1,-1,2.400000095367432,7.999579855010836,-9999,2512.05945625,-32.05177307128906,2.566329956054688,16.63833618164062,2512.04946125,0.4962834935146166,1.592847163214119,-0.5353570416572337,34.83397674560547,-35.15878677368164,-18.82228088378906,-32.05386352539062,1.393553495407104,10.97497844696045,XArbitraryZVertical,0.3486059353141043,-0.6228610957235428,0.0176582704917286,-0.7001470855743244,0.8598772287368774,0.5101481676101685,0.01896408572793,0,0,0,-1,-1,2494.785221666667,unknown,2,2022-06-02T10:42:30.507+02:00,2022-06-02T10:17:13.754+02:00,441,1.235643,0,0,340.1827,0,0,2022-06-02T10:42:45.859+02:00,675852165.8588929,0,6.183594,101.3077,1,0.82
214,2022-06-02T10:42:47.792+02:00,1654159367.000566,53.2291015887867,10.39853748371565,36.75075,0,20,-1,-1,2.400000095367432,7.999579855010836,-9999,2512.06945025,-32.17617797851562,3.738357543945312,23.67518615722656,2512.05945625,0.0671198666095234,1.008651914217005,-0.557977109646584,35.28147125244141,-35.13356018066406,-4.308717727661133,-32.78485870361328,0.94036203622818,11.86957931518555,XArbitraryZVertical,0.2565493659231784,-0.4561822926629413,0.1047548134502204,-0.8456396385425053,0.7177820801734924,0.529471218585968,-0.4521602690219879,0,0,0,-1,-1,2494.785221666667,unknown,2,2022-06-02T10:42:30.507+02:00,2022-06-02T10:17:13.754+02:00,441,1.235643,0,0,340.1827,0,0,2022-06-02T10:42:45.859+02:00,675852165.8588929,0,6.183594,101.3077,1,0.82
215,2022-06-02T10:42:47.802+02:00,1654159367.000566,53.2291015887867,10.39853748371565,36.75075,0,20,-1,-1,2.400000095367432,7.999579855010836,-9999,2512.07944525,-31.20321655273438,-23.11604309082031,25.0550537109375,2512.06945025,-0.2080029046905393,0.5905525050839242,-0.3122023932327124,35.13520812988281,-18.55179214477539,2.693319320678711,-32.5816764831543,2.259174585342407,17.4288158416748,XArbitraryZVertical,0.118092945926974,-0.3013538271636212,0.1431109095769549,-0.9352856157286564,0.529902994632721,0.3071553111076355,-0.790479838848114,0,0,0,-1,-1,2494.785221666667,unknown,2,2022-06-02T10:42:30.507+02:00,2022-06-02T10:17:13.754+02:00,441,1.235643,0,0,340.1827,0,0,2022-06-02T10:42:45.859+02:00,675852165.8588929,0,6.183594,101.3077,1,0.82
216,2022-06-02T10:42:47.812+02:00,1654159367.000566,53.2291015887867,10.39853748371565,36.75075,0,20,-1,-1,2.400000095367432,7.999579855010836,-9999,2512.08944025,-6.773818969726562,-31.96672058105469,2.722579956054688,2512.07944525,-0.3001388962135776,0.5466123917109683,0.0415458744491231,34.82832336425781,10.43655490875244,20.7346363067627,-32.69552612304688,3.779891490936279,24.52873992919922,XArbitraryZVertical,-0.0601213330045698,-0.2638349437834686,0.1383830803794502,-0.9526943469496342,0.5193476676940918,-0.041533924639225,-0.8535531163215637,0,0,0,-1,-1,2494.785221666667,unknown,2,2022-06-02T10:42:30.507+02:00,2022-06-02T10:17:13.754+02:00,441,1.235643,0,0,340.1827,0,0,2022-06-02T10:42:45.859+02:00,675852165.8588929,0,6.183594,101.3077,1,0.82
217,2022-06-02T10:42:47.822+02:00,1654159367.000566,53.2291015887867,10.39853748371565,36.75075,0,20,-1,-1,2.400000095367432,7.999579855010836,-9999,2512.09943525,5.748199462890625,-14.05754089355469,-3.765045166015625,2512.08944025,-0.2174874059995853,0.6174920277177774,0.3816745767777676,8.966692924499512,7.057155132293701,25.10272789001465,-31.74054527282715,-22.74356842041016,25.81171798706055,XArbitraryZVertical,-0.2120241574404036,-0.2769728957653518,0.0442237987772681,-0.9361495898884832,0.5373291373252869,-0.3724750578403473,-0.7566635608673096,0,0,0,-1,-1,2494.785221666667,unknown,2,2022-06-02T10:42:30.507+02:00,2022-06-02T10:17:13.754+02:00,441,1.235643,0,0,340.1827,0,0,2022-06-02T10:42:45.859+02:00,675852165.8588929,0,6.183594,101.3077,1,0.82
218,2022-06-02T10:42:47.832+02:00,1654159367.000566,53.2291015887867,10.39853748371565,36.75075,0,20,-1,-1,2.400000095367432,7.999579855010836,-9999,2512.10943025,-5.0247802734375,0.301055908203125,-1.746780395507812,2512.09943525,-0.083271139330655,0.6016224056608185,0.4527965666781875,-7.802234172821045,0.0727484375238418,5.72670316696167,-7.282764434814453,-31.52923774719238,3.463919401168823,XArbitraryZVertical,-0.2262220693834158,-0.2795601142951769,-0.0277114795475395,-0.9326851767311566,0.5089452266693115,-0.4374819993972778,-0.7413394451141357,0,0,0,-1,-1,2494.785221666667,unknown,2,2022-06-02T10:42:30.507+02:00,2022-06-02T10:17:13.754+02:00,441,1.235643,0,0,340.1827,0,0,2022-06-02T10:42:45.859+02:00,675852165.8588929,0,6.183594,101.3077,1,0.82
219,2022-06-02T10:42:47.842+02:00,1654159367.000566,53.2291015887867,10.39853748371565,36.75075,0,20,-1,-1,2.400000095367432,7.999579855010836,-9999,2512.11942525,-11.08258056640625,2.38861083984375,2.106521606445312,2512.10943025,0.0216942998592055,0.546490792898593,0.3570533149903499,-14.4542407989502,-1.470778703689575,1.394939661026001,5.261283874511719,-13.70802593231201,-2.964575052261353,XArbitraryZVertical,-0.1681009907536546,-0.2674079424622269,-0.0581970097025513,-0.9470206810338924,0.4869157671928406,-0.349514901638031,-0.8004701137542725,0,0,0,-1,-1,2494.785221666667,unknown,2,2022-06-02T10:42:30.507+02:00,2022-06-02T10:17:13.754+02:00,441,1.235643,0,0,340.1827,0,0,2022-06-02T10:42:45.859+02:00,675852165.8588929,0,6.183594,101.3077,1,0.82
220,2022-06-02T10:42:47.852+02:00,1654159367.000566,53.2291015887867,10.39853748371565,36.75075,0,20,-1,-1,2.400000095367432,7.999579855010836,-9999,2512.12941925,-8.73297119140625,1.924545288085938,5.79736328125,2512.11942525,0.0882556182839274,0.5178595107557732,0.3181702025361887,0.7924500703811646,0.4396716356277466,5.785897254943848,-5.494956493377686,0.6138850450515747,-0.9215092658996582,XArbitraryZVertical,-0.1418325632633935,-0.2593221142760855,-0.0826265219165805,-0.951739683350458,0.4701760411262512,-0.3128291368484497,-0.8252711296081543,0,0,0,-1,-1,2494.785221666667,unknown,2,2022-06-02T10:42:30.507+02:00,2022-06-02T10:17:13.754+02:00,441,1.235643,0,0,340.1827,0,0,2022-06-02T10:42:45.859+02:00,675852165.8588929,0,6.183594,101.3077,1,0.82
221,2022-06-02T10:42:47.862+02:00,1654159367.000566,53.2291015887867,10.39853748371565,36.75075,0,20,-1,-1,2.400000095367432,7.999579855010836,-9999,2512.13941425,-7.091873168945312,-2.247711181640625,6.285964965820312,2512.12941925,0.1374594795503618,0.5134526903770466,0.3959981258465871,6.5570387840271,1.344203948974609,9.10227870941162,-11.53575611114502,2.774340152740479,2.910166263580322,XArbitraryZVertical,-0.1727147421484424,-0.2614331172621103,-0.1149563624114132,-0.9426597269571644,0.4531756341457367,-0.3857292532920837,-0.8036446571350098,0,0,0,-1,-1,2494.785221666667,unknown,2,2022-06-02T10:42:30.507+02:00,2022-06-02T10:17:13.754+02:00,441,1.235643,0,0,340.1827,0,0,2022-06-02T10:42:45.859+02:00,675852165.8588929,0,6.183594,101.3077,1,0.82
222,2022-06-02T10:42:47.872+02:00,1654159367.000566,53.2291015887867,10.39853748371565,36.75075,0,20,-1,-1,2.400000095367432,7.999579855010836,-9999,2512.14940925,-7.433425903320312,-0.0326080322265625,4.2186279296875,2512.13941425,0.1909754186777122,0.5043730722526547,0.5000768351264031,6.624265193939209,1.227794051170349,9.677873611450195,-9.157052993774414,2.404038190841675,6.565634727478027,XArbitraryZVertical,-0.2154725670166479,-0.2635066633160684,-0.1509165448552509,-0.928094795420375,0.424081563949585,-0.4794929623603821,-0.7682716250419617,0,0,0,-1,-1,2494.785221666667,unknown,2,2022-06-02T10:42:30.507+02:00,2022-06-02T10:17:13.754+02:00,441,1.235643,0,0,340.1827,0,0,2022-06-02T10:42:45.859+02:00,675852165.8588929,0,6.183594,101.3077,1,0.82
223,2022-06-02T10:42:47.882+02:00,1654159367.000566,53.2291015887867,10.39853748371565,36.75075,0,20,-1,-1,2.400000095367432,7.999579855010836,-9999,2512.15940425,-8.379364013671875,0.5674896240234375,4.096435546875,2512.14940925,0.2621147649520693,0.466660982654207,0.6065343608461699,6.819741725921631,-0.9408074021339417,10.90123462677002,-7.46152925491333,-1.677687644958496,7.019741058349609,XArbitraryZVertical,-0.2592182288894476,-0.2567446739775552,-0.189798388530466,-0.911517628458591,0.3696561753749847,-0.5700234174728394,-0.7337761521339417,0,0,0,-1,-1,2494.785221666667,unknown,2,2022-06-02T10:42:30.507+02:00,2022-06-02T10:17:13.754+02:00,441,1.235643,0,0,340.1827,0,0,2022-06-02T10:42:45.859+02:00,675852165.8588929,0,6.183594,101.3077,1,0.82
224,2022-06-02T10:42:47.892+02:00,1654159367.000566,53.2291015887867,10.39853748371565,36.75075,0,20,-1,-1,2.400000095367432,7.999579855010836,-9999,2512.16939925,-8.448272705078125,0.0538482666015625,3.706619262695312,2512.15940425,0.3526954712186282,0.3986770945842504,0.7171745954387809,7.614919185638428,-1.393586754798889,11.17067337036133,-7.725998401641846,0.6246498823165894,4.913187503814697,XArbitraryZVertical,-0.3061368293525868,-0.2428999149959997,-0.2294413186201703,-0.8914238367431662,0.2925726771354675,-0.6572579145431519,-0.6945597529411316,0,0,0,-1,-1,2494.785221666667,unknown,2,2022-06-02T10:42:30.507+02:00,2022-06-02T10:17:13.754+02:00,441,1.235643,0,0,340.1827,0,0,2022-06-02T10:42:45.859+02:00,675852165.8588929,0,6.183594,101.3077,1,0.82
225,2022-06-02T10:42:47.902+02:00,1654159367.000566,53.2291015887867,10.39853748371565,36.75075,0,20,-1,-1,2.400000095367432,7.999579855010836,-9999,2512.17939425,-7.87548828125,-0.9188690185546876,3.140792846679688,2512.16939925,0.4635801232900954,0.3078693576704205,0.8370501972822649,9.078892707824709,-1.134507536888123,11.99987697601318,-8.582289695739746,1.310160636901855,4.73460578918457,XArbitraryZVertical,-0.3586850192165935,-0.2286044649772575,-0.2680587486767121,-0.8644243732046822,0.2029252350330353,-0.742671012878418,-0.6381701231002808,0,0,0,-1,-1,2494.785221666667,unknown,2,2022-06-02T10:42:30.507+02:00,2022-06-02T10:17:13.754+02:00,441,1.235643,0,0,340.1827,0,0,2022-06-02T10:42:45.859+02:00,675852165.8588929,0,6.183594,101.3077,1,0.82
226,2022-06-02T10:42:47.912+02:00,1654159367.000566,53.2291015887867,10.39853748371565,36.75075,0,20,-1,-1,2.400000095367432,7.999579855010836,-9999,2512.18938825,-8.328048706054688,-1.134857177734375,2.41107177734375,2512.17939425,0.6183522350092882,0.1769010003908413,0.9520860989925656,8.425772666931152,-0.7034876346588135,12.32583999633789,-8.550338745117188,0.8684754967689514,4.277552604675293,XArbitraryZVertical,-0.4109407622062676,-0.2136841968929561,-0.3079476858522294,-0.831044444170729,0.1020656153559685,-0.8146271705627441,-0.5709335207939148,0,0,0,-1,-1,2494.785221666667,unknown,2,2022-06-02T10:42:30.507+02:00,2022-06-02T10:17:13.754+02:00,441,1.235643,0,0,340.1827,0,0,2022-06-02T10:42:45.859+02:00,675852165.8588929,0,6.183594,101.3077,1,0.82
227,2022-06-02T10:42:47.922+02:00,1654159367.000566,53.2291015887867,10.39853748371565,36.75075,0,20,-1,-1,2.400000095367432,7.999579855010836,-9999,2512.19938325,-7.233474731445312,-2.073150634765625,1.946792602539062,2512.18938825,0.8403460702054888,-0.0104976425680039,1.041784396222812,7.316743850708008,0.6385761499404907,13.27035045623779,-7.870190620422363,-0.0555627942085266,3.645445585250854,XArbitraryZVertical,-0.4562183028928922,-0.1988428681084777,-0.3514287210709797,-0.7929843641154521,-0.0052978587336838,-0.8633061647415161,-0.504652738571167,0,0,0,-1,-1,2494.785221666667,unknown,2,2022-06-02T10:42:30.507+02:00,2022-06-02T10:17:13.754+02:00,441,1.235643,0,0,340.1827,0,0,2022-06-02T10:42:45.859+02:00,675852165.8588929,0,6.183594,101.3077,1,0.82
228,2022-06-02T10:42:47.932+02:00,1654159367.000566,53.2291015887867,10.39853748371565,36.75075,0,20,-1,-1,2.400000095367432,7.999579855010836,-9999,2512.20937825,-6.349136352539062,-2.284820556640625,1.474624633789062,2512.19938325,1.139346678999634,-0.262597392398631,1.087801715118746,5.601619243621826,1.289167523384094,14.04056739807129,-8.207486152648926,-0.2492489814758301,2.859583854675293,XArbitraryZVertical,-0.4924294633213975,-0.1823657079645063,-0.4005034729603627,-0.7509013520647402,-0.1205621063709259,-0.8856080770492554,-0.4485119581222534,0,0,0,-1,-1,2494.785221666667,unknown,2,2022-06-02T10:42:30.507+02:00,2022-06-02T10:17:13.754+02:00,441,1.235643,0,0,340.1827,0,0,2022-06-02T10:42:45.859+02:00,675852165.8588929,0,6.183594,101.3077,1,0.82
229,2022-06-02T10:42:47.942+02:00,1654159367.000566,53.2291015887867,10.39853748371565,36.75075,0,20,-1,-1,2.400000095367432,7.999579855010836,-9999,2512.21937325,-5.683380126953125,-2.235748291015625,1.073165893554688,2512.20937825,1.458808442025286,-0.5313201737393852,1.076313185242262,3.916414976119995,1.511565685272217,14.40393161773682,-6.993020057678223,-1.192936420440674,2.35594367980957,XArbitraryZVertical,-0.5189765876444185,-0.161517218116534,-0.4518245231535372,-0.7074107520225161,-0.2404546588659286,-0.8802140951156616,-0.4091509878635406,0,0,0,-1,-1,2494.785221666667,unknown,2,2022-06-02T10:42:30.507+02:00,2022-06-02T10:17:13.754+02:00,441,1.235643,0,0,340.1827,0,0,2022-06-02T10:42:45.859+02:00,675852165.8588929,0,6.183594,101.3077,1,0.82
230,2022-06-02T10:42:47.952+02:00,1654159367.000566,53.2291015887867,10.39853748371565,36.75075,0,20,-1,-1,2.400000095367432,7.999579855010836,-9999,2512.22936825,-4.683700561523438,-2.338516235351562,0.75677490234375,2512.21937325,1.728331622601866,-0.7492820206013191,1.015652896364665,2.496157646179199,1.572683453559875,14.43510627746582,-5.990145206451416,-1.434995651245117,1.860530138015747,XArbitraryZVertical,-0.537023003895964,-0.1365779978219943,-0.5029418011056365,-0.6633265970201019,-0.3589909970760345,-0.849824845790863,-0.3859054744243622,0,0,0,-1,-1,2494.785221666667,unknown,2,2022-06-02T10:42:30.507+02:00,2022-06-02T10:17:13.754+02:00,441,1.235643,0,0,340.1827,0,0,2022-06-02T10:42:45.859+02:00,675852165.8588929,0,6.183594,101.3077,1,0.82
231,2022-06-02T10:42:47.962+02:00,1654159367.000566,53.2291015887867,10.39853748371565,36.75075,0,20,-1,-1,2.400000095367432,7.999579855010836,-9999,2512.23936225,-4.304824829101562,-2.2431640625,0.479736328125,2512.22936825,1.925599444070036,-0.8991674696413152,0.9231923375139844,1.376753568649292,1.080124139785767,14.17197513580322,-5.211129188537598,-1.438216686248779,1.448562264442444,XArbitraryZVertical,-0.5485065304073599,-0.1069690214040983,-0.551299892447178,-0.6194890010488597,-0.472250908613205,-0.7975315451622009,-0.3753964304924011,0,0,0,-1,-1,2494.785221666667,unknown,2,2022-06-02T10:42:30.507+02:00,2022-06-02T10:17:13.754+02:00,441,1.235643,0,0,340.1827,0,0,2022-06-02T10:42:45.859+02:00,675852165.8588929,0,6.183594,101.3077,1,0.82
232,2022-06-02T10:42:47.972+02:00,1654159367.000566,53.2291015887867,10.39853748371565,36.75075,0,20,-1,-1,2.400000095367432,7.999579855010836,-9999,2512.24935725,-3.933029174804688,-2.414047241210938,0.2402191162109375,2512.23936225,2.062926913708206,-0.9951056608212728,0.8147647200869325,0.4045159816741943,0.8209688067436218,13.77716732025146,-4.10823917388916,-1.610951900482178,1.130264639854431,XArbitraryZVertical,-0.5548191487988506,-0.0736942097034803,-0.5951925662650849,-0.5766200726880645,-0.5754613280296326,-0.7275642156600952,-0.3734897375106812,0,0,0,-1,-1,2494.785221666667,unknown,2,2022-06-02T10:42:30.507+02:00,2022-06-02T10:17:13.754+02:00,441,1.235643,0,0,340.1827,0,0,2022-06-02T10:42:45.859+02:00,675852165.8588929,0,6.183594,101.3077,1,0.82
233,2022-06-02T10:42:47.982+02:00,1654159367.000566,53.2291015887867,10.39853748371565,36.75075,0,20,-1,-1,2.400000095367432,7.999579855010836,-9999,2512.25935225,-3.516281127929688,-2.52349853515625,0.048126220703125,2512.24935725,2.15885467272273,-1.054221735063204,0.6982631919537821,-0.6236721873283386,0.5710079669952393,13.37199687957764,-3.638810396194458,-1.60027551651001,0.858047366142273,XArbitraryZVertical,-0.5562623178997991,-0.0376392347726102,-0.6348456144439589,-0.5349078184846113,-0.6660143733024597,-0.6428883075714111,-0.3783110380172729,0,0,0,-1,-1,2494.785221666667,unknown,2,2022-06-02T10:42:30.507+02:00,2022-06-02T10:17:13.754+02:00,441,1.235643,0,0,340.1827,0,0,2022-06-02T10:42:45.859+02:00,675852165.8588929,0,6.183594,101.3077,1,0.82
234,2022-06-02T10:42:47.992+02:00,1654159367.000566,53.2291015887867,10.39853748371565,36.75075,0,20,-1,-1,2.400000095367432,7.999579855010836,-9999,2512.26934725,-3.081207275390625,-2.142547607421875,-0.068756103515625,2512.25935225,2.222247442896063,-1.087491875871279,0.5768868707299158,-2.037443399429321,0.3698042333126068,12.79247951507568,-3.190864562988281,-1.868629932403564,0.6297206282615662,XArbitraryZVertical,-0.5524904744907364,0.0018750933703134,-0.6699708999455366,-0.4958726080524881,-0.742164671421051,-0.5454172492027283,-0.3895015120506287,0,0,0,-1,-1,2494.785221666667,unknown,2,2022-06-02T10:42:30.507+02:00,2022-06-02T10:17:13.754+02:00,441,1.235643,0,0,340.1827,0,0,2022-06-02T10:42:45.859+02:00,675852165.8588929,0,6.183594,101.3077,1,0.82
235,2022-06-02T10:42:48.002+02:00,1654159367.000566,53.2291015887867,10.39853748371565,36.75075,0,20,-1,-1,2.400000095367432,7.999579855010836,-9999,2512.27934225,-2.702911376953125,-1.768341064453125,-0.1025543212890625,2512.26934725,2.261791986614373,-1.104679518327836,0.4543317273818211,-2.981139898300171,0.1191469579935074,12.16219425201416,-2.713584184646606,-2.084636688232422,0.451955258846283,XArbitraryZVertical,-0.5441782734050197,0.0442208703708469,-0.700140376317264,-0.4601282250608958,-0.8026968836784363,-0.4388619363307953,-0.403829038143158,0,0,0,-1,-1,2494.785221666667,unknown,2,2022-06-02T10:42:30.507+02:00,2022-06-02T10:17:13.754+02:00,441,1.235643,0,0,340.1827,0,0,2022-06-02T10:42:45.859+02:00,675852165.8588929,0,6.183594,101.3077,1,0.82
236,2022-06-02T10:42:48.012+02:00,1654159367.000566,53.2291015887867,10.39853748371565,36.75075,0,20,-1,-1,2.400000095367432,7.999579855010836,-9999,2512.28933625,-2.288543701171875,-1.35394287109375,-0.0223236083984375,2512.27934225,2.286538345969908,-1.113546603970862,0.3335275439896257,-3.702064990997314,0.0777014568448066,11.51883983612061,-2.233382701873779,-1.815169334411621,0.3483973145484924,XArbitraryZVertical,-0.5326436393910563,0.0878295940710277,-0.7254650950536815,-0.4269391271391829,-0.8478245139122009,-0.3273782134056091,-0.4171534180641174,0,0,0,-1,-1,2494.785221666667,unknown,2,2022-06-02T10:42:30.507+02:00,2022-06-02T10:17:13.754+02:00,441,1.235643,0,0,340.1827,0,0,2022-06-02T10:42:45.859+02:00,675852165.8588929,0,6.183594,101.3077,1,0.82
237,2022-06-02T10:42:48.022+02:00,1654159367.000566,53.2291015887867,10.39853748371565,36.75075,0,20,-1,-1,2.400000095367432,7.999579855010836,-9999,2512.299330916667,-1.81451416015625,-0.82623291015625,-0.0405731201171875,2512.28933625,2.299533040412339,-1.11496255351892,0.2152291695488476,-4.439853668212891,0.3796370625495911,10.81414127349854,-1.825733661651611,-1.55476975440979,0.3274999856948853,XArbitraryZVertical,-0.5173053902185017,0.1317876430800909,-0.7467774964524219,-0.396674204465604,-0.8771775364875793,-0.213571310043335,-0.4300543069839478,0,0,0,-1,-1,2494.785221666667,unknown,2,2022-06-02T10:42:30.507+02:00,2022-06-02T10:17:13.754+02:00,441,1.235643,0,0,340.1827,0,0,2022-06-02T10:42:45.859+02:00,675852165.8588929,0,6.183594,101.3077,1,0.82
238,2022-06-02T10:42:48.032+02:00,1654159367.000566,53.2291015887867,10.39853748371565,36.75075,0,20,-1,-1,2.400000095367432,7.999579855010836,-9999,2512.309325916667,-1.618316650390625,-0.29864501953125,-0.0625,2512.299330916667,2.304170129605724,-1.111071774617346,0.1019670807223139,-4.673200607299805,0.5022640228271484,9.89273166656494,-1.397023797035217,-1.252152323722839,0.4190729856491089,XArbitraryZVertical,-0.4988167069568826,0.1745954756589777,-0.7642862122264229,-0.3695468697554734,-0.8915199041366577,-0.1017904728651047,-0.4413966238498688,0,0,0,-1,-1,2494.785221666667,unknown,2,2022-06-02T10:42:30.507+02:00,2022-06-02T10:17:13.754+02:00,441,1.235643,0,0,340.1827,0,0,2022-06-02T10:42:45.859+02:00,675852165.8588929,0,6.183594,101.3077,1,0.82
239,2022-06-02T10:42:48.042+02:00,1654159367.000566,53.2291015887867,10.39853748371565,36.75075,0,20,-1,-1,2.400000095367432,7.999579855010836,-9999,2512.319320916667,-1.44140625,0.167999267578125,-0.012176513671875,2512.309325916667,2.305583473520123,-1.105456551259911,-0.0026304360987162,-4.350931167602539,0.6872530579566956,8.968076705932617,-0.92084801197052,-0.8288633227348328,0.4081518054008484,XArbitraryZVertical,-0.4793533235887964,0.2141446360524622,-0.7780963142074635,-0.3448603094048365,-0.8936660885810852,0.0026304330676794,-0.4487249255180359,0,0,0,-1,-1,2494.785221666667,unknown,2,2022-06-02T10:42:30.507+02:00,2022-06-02T10:17:13.754+02:00,441,1.235643,0,0,340.1827,0,0,2022-06-02T10:42:45.859+02:00,675852165.8588929,0,6.183594,101.3077,1,0.82
240,2022-06-02T10:42:48.053+02:00,1654159367.000566,53.2291015887867,10.39853748371565,36.75075,0,20,-1,-1,2.400000095367432,7.999579855010836,-9999,2512.329315916667,-1.237747192382812,0.697052001953125,0.100006103515625,2512.319320916667,2.307980275761024,-1.096955304751396,-0.0960388804824139,-3.611933946609497,0.9245484471321106,7.894125938415527,-0.732594907283783,-0.3945363163948059,0.3917046785354614,XArbitraryZVertical,-0.4596189683270589,0.2482902593964577,-0.7894962823238254,-0.3221768253172262,-0.8857216835021973,0.0958913117647171,-0.4542047083377838,0,0,0,-1,-1,2494.785221666667,unknown,2,2022-06-02T10:42:30.507+02:00,2022-06-02T10:17:13.754+02:00,441,1.235643,0,0,340.1827,0,0,2022-06-02T10:42:45.859+02:00,675852165.8588929,0,6.183594,101.3077,1,0.82
241,2022-06-02T10:42:48.062+02:00,1654159367.000566,53.2291015887867,10.39853748371565,36.75075,0,20,-1,-1,2.400000095367432,7.999579855010836,-9999,2512.339310916667,-1.324295043945312,0.930511474609375,0.1558990478515625,2512.329315916667,2.314902494443145,-1.086824035544444,-0.1748231762083668,-2.350886821746826,0.9246445894241332,6.727928638458252,-0.5697447061538696,-0.0059347450733184,0.4460299611091614,XArbitraryZVertical,-0.4416910884506042,0.2753284061733197,-0.7990019693685884,-0.3011628179460807,-0.8716614842414856,0.1739340126514435,-0.4582065045833588,0,0,0,-1,-1,2494.785221666667,unknown,2,2022-06-02T10:42:30.507+02:00,2022-06-02T10:17:13.754+02:00,441,1.235643,0,0,340.1827,0,0,2022-06-02T10:42:45.859+02:00,675852165.8588929,0,6.183594,101.3077,1,0.82
242,2022-06-02T10:42:48.100+02:00,1654159367.000566,53.2291015887867,10.39853748371565,36.75075,0,20,-1,-1,2.400000095367432,7.999579855010836,-9999,2512.349304916667,-1.048507690429688,0.7729949951171875,0.299652099609375,2512.339310916667,2.329092850954607,-1.073632739769925,-0.2374311554557757,-1.198301672935486,1.130341529846191,5.65093469619751,-0.3834665417671204,0.461845338344574,0.5635603070259094,XArbitraryZVertical,-0.42625355576565,0.2941611771290987,-0.807777431294304,-0.2815541222234732,-0.8542805910110474,0.2352066338062286,-0.4635542035102844,0,0,0,-1,-1,2494.785221666667,unknown,2,2022-06-02T10:42:30.507+02:00,2022-06-02T10:17:13.754+02:00,441,1.235643,0,0,340.1827,0,0,2022-06-02T10:42:45.859+02:00,675852165.8588929,0,6.183594,101.3077,1,0.82
243,2022-06-02T10:42:48.103+02:00,1654159368.000567,53.22910204941705,10.39853729621914,36.75382,0,20,-1,-1,2.400000095367432,7.999579855010836,-9999,2512.359299916667,-0.809173583984375,0.873260498046875,0.424468994140625,2512.349304916667,2.345479357484301,-1.057527217772063,-0.28828302511054,-1.019557476043701,1.227773308753967,4.811433792114258,-0.4891001582145691,0.646204948425293,0.6266636848449707,XArbitraryZVertical,-0.4121267002636846,0.3078461287039976,-0.8157595104803355,-0.2644214638642927,-0.8351948261260986,0.284306526184082,-0.470764696598053,0,0,0,-1,-1,2494.785221666667,unknown,2,2022-06-02T10:42:30.507+02:00,2022-06-02T10:17:13.754+02:00,441,1.235643,0,0,340.1827,0,0,2022-06-02T10:42:45.859+02:00,675852165.8588929,0,6.183594,101.3077,1,0.82
244,2022-06-02T10:42:48.105+02:00,1654159368.000567,53.22910204941705,10.39853729621914,36.75382,0,20,-1,-1,2.400000095367432,7.999579855010836,-9999,2512.369294916667,-0.7070770263671875,1.024749755859375,0.4954833984375,2512.359299916667,2.359964288454905,-1.040902238485393,-0.3315124700347858,-0.8600991368293762,1.192982792854309,4.071225166320801,-0.2326288223266602,0.4475215077400208,0.77757328748703,XArbitraryZVertical,-0.3989427744073413,0.3191928205904681,-0.8224386435848721,-0.2501104365188448,-0.8158788084983826,0.3254735171794891,-0.4779212176799774,0,0,0,-1,-1,2494.785221666667,unknown,2,2022-06-02T10:42:30.507+02:00,2022-06-02T10:17:13.754+02:00,441,1.235643,0,0,340.1827,0,0,2022-06-02T10:42:45.859+02:00,675852165.8588929,0,6.183594,101.3077,1,0.82
245,2022-06-02T10:42:48.107+02:00,1654159368.000567,53.22910204941705,10.39853729621914,36.75382,0,20,-1,-1,2.400000095367432,7.999579855010836,-9999,2512.379289916667,-0.6918792724609375,1.109283447265625,0.5569610595703125,2512.369294916667,2.373101896426176,-1.024999129579652,-0.3677837009239331,-0.7826104760169983,1.08519446849823,3.443755626678467,-0.0116175413131713,0.5137122869491577,0.908854603767395,XArbitraryZVertical,-0.3871971946702864,0.3284593139350235,-0.8279606725915826,-0.2380628814060718,-0.7975560426712036,0.3595482409000397,-0.48438560962677,0,0,0,-1,-1,2494.785221666667,unknown,2,2022-06-02T10:42:30.507+02:00,2022-06-02T10:17:13.754+02:00,441,1.235643,0,0,340.1827,0,0,2022-06-02T10:42:45.859+02:00,675852165.8588929,0,6.183594,101.3077,1,0.82
246,2022-06-02T10:42:48.112+02:00,1654159368.000567,53.22910204941705,10.39853729621914,36.75382,0,20,-1,-1,2.400000095367432,7.999579855010836,-9999,2512.389284916667,-0.649383544921875,1.258926391601562,0.5593719482421875,2512.379289916667,2.384073064896876,-1.010362229615112,-0.399890052179956,-0.846520185470581,1.028059482574463,3.133146524429321,0.0731203556060791,0.6354327201843262,0.985099732875824,XArbitraryZVertical,-0.3764379993339338,0.336877198769605,-0.8324091776882747,-0.2278227397556474,-0.7801974415779114,0.3893170654773712,-0.4896163642406464,0,0,0,-1,-1,2494.785221666667,unknown,2,2022-06-02T10:42:30.507+02:00,2022-06-02T10:17:13.754+02:00,441,1.235643,0,0,340.1827,0,0,2022-06-02T10:42:45.859+02:00,675852165.8588929,0,6.183594,101.3077,1,0.82
247,2022-06-02T10:42:48.122+02:00,1654159368.000567,53.22910204941705,10.39853729621914,36.75382,0,20,-1,-1,2.400000095367432,7.999579855010836,-9999,2512.399278916667,-0.6100616455078125,1.438278198242188,0.58746337890625,2512.389284916667,2.394487157017309,-0.9958425967405404,-0.4298568379272117,-0.7380608320236206,1.036079049110413,2.956482172012329,0.0709907412528991,0.6925428509712219,1.05128538608551,XArbitraryZVertical,-0.3660523957365608,0.3447367836369031,-0.8363390310066449,-0.21840177565272,-0.7628700733184814,0.4167406558990479,-0.4943243861198425,0,0,0,-1,-1,2494.785221666667,unknown,2,2022-06-02T10:42:30.507+02:00,2022-06-02T10:17:13.754+02:00,441,1.235643,0,0,340.1827,0,0,2022-06-02T10:42:45.859+02:00,675852165.8588929,0,6.183594,101.3077,1,0.82
