loggingTime(txt),locationTimestamp_since1970(s),locationLatitude(WGS84),locationLongitude(WGS84),locationAltitude(m),locationSpeed(m/s),locationSpeedAccuracy(m/s),locationCourse(°),locationCourseAccuracy(°),locationVerticalAccuracy(m),locationHorizontalAccuracy(m),locationFloor(Z),accelerometerTimestamp_sinceReboot(s),accelerometerAccelerationX(G),accelerometerAccelerationY(G),accelerometerAccelerationZ(G),motionTimestamp_sinceReboot(s),motionYaw(rad),motionRoll(rad),motionPitch(rad),motionRotationRateX(rad/s),motionRotationRateY(rad/s),motionRotationRateZ(rad/s),motionUserAccelerationX(G),motionUserAccelerationY(G),motionUserAccelerationZ(G),motionAttitudeReferenceFrame(txt),motionQuaternionX(R),motionQuaternionY(R),motionQuaternionZ(R),motionQuaternionW(R),motionGravityX(G),motionGravityY(G),motionGravityZ(G),motionMagneticFieldX(µT),motionMagneticFieldY(µT),motionMagneticFieldZ(µT),motionHeading(°),motionMagneticFieldCalibrationAccuracy(Z),activityTimestamp_sinceReboot(s),activity(txt),activityActivityConfidence(Z),activityActivityStartDate(txt),pedometerStartDate(txt),pedometerNumberofSteps(N),pedometerAverageActivePace(s/m),pedometerCurrentPace(s/m),pedometerCurrentCadence(steps/s),pedometerDistance(m),pedometerFloorAscended(N),pedometerFloorDescended(N),pedometerEndDate(txt),altimeterTimestamp_sinceReboot(s),altimeterReset(bool),altimeterRelativeAltitude(m),altimeterPressure(kPa),batteryState(N),batteryLevel(R)
2022-06-02T10:43:42.094+02:00,1654159421.219344,53.22911844801153,10.39853945222418,36.8408,0,20,-1,-1,2.400000095367432,7.999579855010837,-9999,2566.32696675,0.026519775390625,-0.4550323486328125,-0.8856658935546875,2566.32196875,-0.6528565357728966,0.001230717664579633,0.4323934859455109,-0.08944928646087646,-0.03154055029153824,0.03978303074836731,-0.02278488874435425,-0.04483723640441895,0.03294944763183594,XArbitraryZVertical,0.2033813423773544,-0.06821797101000748,-0.3130719867594557,0.9251854845366519,0.001117448671720922,-0.4190452098846436,-0.9079646468162537,0,0,0,-1,-1,2563.842093625,unknown,2,2022-06-02T10:43:39.564+02:00,2022-06-02T10:17:13.754+02:00,441,1.292008,0,0,340.1827,0,0,2022-06-02T10:43:39.564+02:00,675852216.998373,0,6.441406,101.3041,1,0.82
2022-06-02T10:43:42.098+02:00,1654159421.219344,53.22911844801153,10.39853945222418,36.8408,0,20,-1,-1,2.400000095367432,7.999579855010837,-9999,2566.33696075,0.007476806640625,-0.45733642578125,-0.9151611328125,2566.33196375,-0.6527161432156305,0.0005557205267286165,0.4311502426915024,-0.1499994546175003,-0.07572505623102188,-0.01221811678260565,0.02601493895053864,-0.03711628913879395,0.0228196382522583,XArbitraryZVertical,0.2027053474853035,-0.06832124631250978,-0.3131185133414444,0.9253104768587471,0.0005048640887252986,-0.4179160594940186,-0.908485472202301,0,0,0,-1,-1,2563.842093625,unknown,2,2022-06-02T10:43:39.564+02:00,2022-06-02T10:17:13.754+02:00,441,1.292008,0,0,340.1827,0,0,2022-06-02T10:43:39.564+02:00,675852216.998373,0,6.441406,101.3041,1,0.82
2022-06-02T10:43:42.101+02:00,1654159421.219344,53.22911844801153,10.39853945222418,36.8408,0,20,-1,-1,2.400000095367432,7.999579855010837,-9999,2566.34695575,-0.02093505859375,-0.4293365478515625,-0.9398956298828125,2566.34195875,-0.6528866986991426,-6.255836319579352e-05,0.4293009025373876,-0.1781109869480133,-0.05210148543119431,-0.009873469360172749,0.007533729076385498,-0.04110115766525269,-0.005904197692871094,XArbitraryZVertical,0.201747041206995,-0.06833489725548297,-0.3133233438711525,0.925449527550057,-5.688162491424009e-05,-0.4162352383136749,-0.9092569351196289,0,0,0,-1,-1,2563.842093625,unknown,2,2022-06-02T10:43:39.564+02:00,2022-06-02T10:17:13.754+02:00,441,1.292008,0,0,340.1827,0,0,2022-06-02T10:43:39.564+02:00,675852216.998373,0,6.441406,101.3041,1,0.82
2022-06-02T10:43:42.112+02:00,1654159421.219344,53.22911844801153,10.39853945222418,36.8408,0,20,-1,-1,2.400000095367432,7.999579855010837,-9999,2566.356950875,-0.0146636962890625,-0.3795623779296875,-0.950164794921875,2566.351952875,-0.6527966340644692,-0.000372039221469086,0.4277725899713459,-0.1022010371088982,-0.01243316661566496,0.03042415343225002,-0.02059650421142578,-0.01449140906333923,-0.03000366687774658,XArbitraryZVertical,0.2009943625155848,-0.06822962700680803,-0.3133648392272635,0.9256070511212908,-0.000338515528710559,-0.4148451387882233,-0.9098919630050659,0,0,0,-1,-1,2563.842093625,unknown,2,2022-06-02T10:43:39.564+02:00,2022-06-02T10:17:13.754+02:00,441,1.292008,0,0,340.1827,0,0,2022-06-02T10:43:39.564+02:00,675852216.998373,0,6.441406,101.3041,1,0.82
2022-06-02T10:43:42.114+02:00,1654159421.219344,53.22911844801153,10.39853945222418,36.8408,0,20,-1,-1,2.400000095367432,7.999579855010837,-9999,2566.366945875,0.00885009765625,-0.3681488037109375,-0.9607086181640625,2566.361947875,-0.6523581747801273,-0.0005799107951392292,0.4272352407315237,0.01508218050003052,-0.01035456918179989,0.0477600023150444,-0.01413588225841522,0.03479379415512085,-0.04005008935928345,XArbitraryZVertical,0.2007280400109344,-0.06819765139396201,-0.313200984907068,0.9257226785617447,-0.0005277853924781084,-0.414356142282486,-0.9101146459579468,0,0,0,-1,-1,2563.842093625,unknown,2,2022-06-02T10:43:39.564+02:00,2022-06-02T10:17:13.754+02:00,441,1.292008,0,0,340.1827,0,0,2022-06-02T10:43:39.564+02:00,675852216.998373,0,6.441406,101.3041,1,0.82
2022-06-02T10:43:42.116+02:00,1654159421.219344,53.22911844801153,10.39853945222418,36.8408,0,20,-1,-1,2.400000095367432,7.999579855010837,-9999,2566.376939875,0.004974365234375,-0.3785400390625,-0.95184326171875,2566.371942875,-0.6520239751995677,-0.0006229380565118862,0.4273977202301929,0.09368244558572769,-0.02875461615622044,0.04125496000051498,0.009417027235031128,0.04635521769523621,-0.05066132545471191,XArbitraryZVertical,0.2008079111648324,-0.06820944803669458,-0.3130451184848422,0.9257572044371367,-0.0005669031525030732,-0.4145040214061737,-0.9100472927093506,0,0,0,-1,-1,2563.842093625,unknown,2,2022-06-02T10:43:39.564+02:00,2022-06-02T10:17:13.754+02:00,441,1.292008,0,0,340.1827,0,0,2022-06-02T10:43:39.564+02:00,675852216.998373,0,6.441406,101.3041,1,0.82
2022-06-02T10:43:42.117+02:00,1654159421.219344,53.22911844801153,10.39853945222418,36.8408,0,20,-1,-1,2.400000095367432,7.999579855010837,-9999,2566.386934875,-0.0160064697265625,-0.4006500244140625,-0.9276885986328125,2566.381937875,-0.6515391439228471,-0.001103997643350634,0.4289665975090149,0.1522810459136963,-0.03398213535547256,0.05503629148006439,0.005978375673294067,0.03739124536514282,-0.04244774580001831,XArbitraryZVertical,0.2014754506201651,-0.06862870551413135,-0.312816073592131,0.9256585032980403,-0.001003970857709646,-0.4159312546253204,-0.9093955159187317,0,0,0,-1,-1,2563.842093625,unknown,2,2022-06-02T10:43:39.564+02:00,2022-06-02T10:17:13.754+02:00,441,1.292008,0,0,340.1827,0,0,2022-06-02T10:43:39.564+02:00,675852216.998373,0,6.441406,101.3041,1,0.82
2022-06-02T10:43:42.120+02:00,1654159421.219344,53.22911844801153,10.39853945222418,36.8408,0,20,-1,-1,2.400000095367432,7.999579855010837,-9999,2566.396929875,-0.026123046875,-0.433929443359375,-0.8978271484375,2566.391931875,-0.6506600670836328,-0.002183154022503607,0.4312230337315998,0.1560843139886856,-0.02177340537309647,0.06115170568227768,-0.01402314007282257,0.01733216643333435,-0.01923555135726929,XArbitraryZVertical,0.2023814776491833,-0.06939169911547055,-0.3124420264623187,0.9255304000980069,-0.001983296126127243,-0.4179821908473969,-0.9084530472755432,0,0,0,-1,-1,2563.842093625,unknown,2,2022-06-02T10:43:39.564+02:00,2022-06-02T10:17:13.754+02:00,441,1.292008,0,0,340.1827,0,0,2022-06-02T10:43:39.564+02:00,675852216.998373,0,6.441406,101.3041,1,0.82
2022-06-02T10:43:42.129+02:00,1654159421.219344,53.22911844801153,10.39853945222418,36.8408,0,20,-1,-1,2.400000095367432,7.999579855010837,-9999,2566.406923875,-0.0150909423828125,-0.4560546875,-0.8683624267578125,2566.401926875,-0.6499915231834417,-0.002691542557609469,0.4328717563058054,0.09394856542348862,-0.006556502543389797,0.05045285075902939,-0.02367971837520599,-0.01445001363754272,0.009934425354003906,XArbitraryZVertical,0.2030884443984927,-0.06981621920041814,-0.3121286846604823,0.9254493030899849,-0.002443284727632999,-0.4194793999195099,-0.9077615737915039,0,0,0,-1,-1,2563.842093625,unknown,2,2022-06-02T10:43:39.564+02:00,2022-06-02T10:17:13.754+02:00,441,1.292008,0,0,340.1827,0,0,2022-06-02T10:43:39.564+02:00,675852216.998373,0,6.441406,101.3041,1,0.82
2022-06-02T10:43:42.139+02:00,1654159421.219344,53.22911844801153,10.39853945222418,36.8408,0,20,-1,-1,2.400000095367432,7.999579855010837,-9999,2566.416918875,-0.00933837890625,-0.45831298828125,-0.8585052490234375,2566.411921875,-0.6496604339574078,-0.00269541282914798,0.4336992750228942,0.008216883987188339,-0.006862499751150608,0.02761890925467014,-0.01264505088329315,-0.03582417964935303,0.03905171155929565,XArbitraryZVertical,0.2034823998838327,-0.06991325168977189,-0.311948018242478,0.925416292227799,-0.002445861464366317,-0.4202304482460022,-0.9074140787124634,0,0,0,-1,-1,2563.842093625,unknown,2,2022-06-02T10:43:39.564+02:00,2022-06-02T10:17:13.754+02:00,441,1.292008,0,0,340.1827,0,0,2022-06-02T10:43:39.564+02:00,675852216.998373,0,6.441406,101.3041,1,0.82
2022-06-02T10:43:42.149+02:00,1654159421.219344,53.22911844801153,10.39853945222418,36.8408,0,20,-1,-1,2.400000095367432,7.999579855010837,-9999,2566.426913875,-0.0117340087890625,-0.4432220458984375,-0.8760986328125,2566.421916875,-0.6495378620779824,-0.002703764248912476,0.4336708530792432,-0.05124124884605408,0.001762679778039455,0.0007952861487865448,-0.006884872913360596,-0.03810831904411316,0.04892081022262573,XArbitraryZVertical,0.2034722184764091,-0.06990020962511154,-0.3118930957012995,0.9254380849596899,-0.002453471999615431,-0.4202046692371368,-0.9074260592460632,0,0,0,-1,-1,2563.842093625,unknown,2,2022-06-02T10:43:39.564+02:00,2022-06-02T10:17:13.754+02:00,441,1.292008,0,0,340.1827,0,0,2022-06-02T10:43:39.564+02:00,675852216.998373,0,6.441406,101.3041,1,0.82
2022-06-02T10:43:42.159+02:00,1654159421.219344,53.22911844801153,10.39853945222418,36.8408,0,20,-1,-1,2.400000095367432,7.999579855010837,-9999,2566.436908875,-0.008056640625,-0.4257965087890625,-0.88885498046875,2566.431910875,-0.6495621900193026,-0.002756283998350188,0.4328419082901766,-0.1044951528310776,0.005499627441167831,-0.01387766655534506,-0.009231880307197571,-0.02376973628997803,0.03167527914047241,XArbitraryZVertical,0.2030795160597408,-0.06979793612651837,-0.3119375953641014,0.9255170571022266,-0.002502089133486152,-0.4194523096084595,-0.9077739119529724,0,0,0,-1,-1,2563.842093625,unknown,2,2022-06-02T10:43:39.564+02:00,2022-06-02T10:17:13.754+02:00,441,1.292008,0,0,340.1827,0,0,2022-06-02T10:43:39.564+02:00,675852216.998373,0,6.441406,101.3041,1,0.82
2022-06-02T10:43:42.171+02:00,1654159422.000438,53.22911774647757,10.39853945592058,36.8442,0,20,-1,-1,2.400000095367432,7.999579855010837,-9999,2566.446902875,-0.00732421875,-0.4188079833984375,-0.9046630859375,2566.441905875,-0.6497829426967819,-0.002697671911804945,0.4312794090215197,-0.1253782361745834,0.006841794122010469,-0.0295588243752718,-0.005605950951576233,-0.007763087749481201,0.0195733904838562,XArbitraryZVertical,0.2023577163827886,-0.0695498623318592,-0.3120862804140316,0.9256436841813297,-0.002450647531077266,-0.4180333912372589,-0.9084283709526062,0,0,0,-1,-1,2563.842093625,unknown,2,2022-06-02T10:43:39.564+02:00,2022-06-02T10:17:13.754+02:00,441,1.292008,0,0,340.1827,0,0,2022-06-02T10:43:42.115+02:00,675852222.1151092,0,6.339844,101.3048,1,0.82
2022-06-02T10:43:42.181+02:00,1654159422.000438,53.22911774647757,10.39853945592058,36.8442,0,20,-1,-1,2.400000095367432,7.999579855010837,-9999,2566.456897875,-0.01751708984375,-0.395599365234375,-0.9305419921875,2566.451900875,-0.6501574810151206,-0.002378230229232169,0.4293680377415561,-0.07234856486320496,0.01231405697762966,-0.0284847728908062,-0.005161836743354797,-0.002511680126190186,0.004563331604003906,XArbitraryZVertical,0.201509737707633,-0.06914196366397392,-0.3122914199793259,0.9257900074562554,-0.002162353834137321,-0.4162962734699249,-0.9092264175415039,0,0,0,-1,-1,2563.842093625,unknown,2,2022-06-02T10:43:39.564+02:00,2022-06-02T10:17:13.754+02:00,441,1.292008,0,0,340.1827,0,0,2022-06-02T10:43:42.115+02:00,675852222.1151092,0,6.339844,101.3048,1,0.82
2022-06-02T10:43:42.189+02:00,1654159422.000438,53.22911774647757,10.39853945592058,36.8442,0,20,-1,-1,2.400000095367432,7.999579855010837,-9999,2566.466892875,-0.0123291015625,-0.3835296630859375,-0.9410552978515625,2566.461895875,-0.6504831821824894,-0.002039086233815863,0.4282311256285254,-0.0184589009732008,0.01315308641642332,-0.02176068909466267,-0.01566208899021149,0.01966294646263123,-0.02084219455718994,XArbitraryZVertical,0.2010250868112955,-0.06884042278688889,-0.3124461076877174,0.92586568789416,-0.001854958944022655,-0.4152623116970062,-0.9096997976303101,0,0,0,-1,-1,2563.842093625,unknown,2,2022-06-02T10:43:39.564+02:00,2022-06-02T10:17:13.754+02:00,441,1.292008,0,0,340.1827,0,0,2022-06-02T10:43:42.115+02:00,675852222.1151092,0,6.339844,101.3048,1,0.82
2022-06-02T10:43:42.199+02:00,1654159422.000438,53.22911774647757,10.39853945592058,36.8442,0,20,-1,-1,2.400000095367432,7.999579855010837,-9999,2566.476887875,-0.0117645263671875,-0.3925933837890625,-0.935516357421875,2566.471889875,-0.6506081416470392,-0.002116041025780132,0.4278850749057144,0.02480894327163696,0.004281031433492899,-0.02181155607104301,-0.01040379703044891,0.0314178466796875,-0.0312119722366333,XArbitraryZVertical,0.2008485371480865,-0.06883460535470137,-0.3125232631129496,0.925878404185556,-0.001925268676131964,-0.4149474799633026,-0.9098433256149292,0,0,0,-1,-1,2563.842093625,unknown,2,2022-06-02T10:43:39.564+02:00,2022-06-02T10:17:13.754+02:00,441,1.292008,0,0,340.1827,0,0,2022-06-02T10:43:42.115+02:00,675852222.1151092,0,6.339844,101.3048,1,0.82
2022-06-02T10:43:42.209+02:00,1654159422.000438,53.22911774647757,10.39853945592058,36.8442,0,20,-1,-1,2.400000095367432,7.999579855010837,-9999,2566.486881875,-0.0213775634765625,-0.397674560546875,-0.9239349365234375,2566.481884875,-0.6506183529986705,-0.002452188522429576,0.4287743257227805,0.07052982598543167,0.008301072753965855,-0.01333631202578545,-0.009534284472465515,0.02316302061080933,-0.02604305744171143,XArbitraryZVertical,0.2012073761427817,-0.06912999659012216,-0.312532052414453,0.9257754893199079,-0.002230204408988357,-0.4157564043998718,-0.9094732999801636,0,0,0,-1,-1,2563.842093625,unknown,2,2022-06-02T10:43:39.564+02:00,2022-06-02T10:17:13.754+02:00,441,1.292008,0,0,340.1827,0,0,2022-06-02T10:43:42.115+02:00,675852222.1151092,0,6.339844,101.3048,1,0.82
2022-06-02T10:43:42.219+02:00,1654159422.000438,53.22911774647757,10.39853945592058,36.8442,0,20,-1,-1,2.400000095367432,7.999579855010837,-9999,2566.496876875,-0.0190277099609375,-0.407257080078125,-0.905853271484375,2566.491879875,-0.6506147012260112,-0.002526049061751314,0.4307521132920445,0.09357868880033493,0.01627244800329208,-0.00567093538120389,-0.01908223330974579,0.0198797881603241,-0.01528584957122803,XArbitraryZVertical,0.2021115120637665,-0.0694723339036341,-0.3124715390324487,0.9255733918125473,-0.002295297104865313,-0.4175543189048767,-0.9086490869522095,0,0,0,-1,-1,2563.842093625,unknown,2,2022-06-02T10:43:39.564+02:00,2022-06-02T10:17:13.754+02:00,441,1.292008,0,0,340.1827,0,0,2022-06-02T10:43:42.115+02:00,675852222.1151092,0,6.339844,101.3048,1,0.82
2022-06-02T10:43:42.229+02:00,1654159422.000438,53.22911774647757,10.39853945592058,36.8442,0,20,-1,-1,2.400000095367432,7.999579855010837,-9999,2566.506871875,-0.0159454345703125,-0.4273834228515625,-0.892486572265625,2566.501873875,-0.6506621428190418,-0.002442486352352222,0.4328480533964342,0.07601843774318695,0.01415570080280304,-0.01353651471436024,-0.01681044697761536,0.01220083236694336,0.001918792724609375,XArbitraryZVertical,0.2030929622865501,-0.06976538694904671,-0.3124144932382145,0.9253556867907061,-0.002217225264757872,-0.419457882642746,-0.9077720642089844,0,0,0,-1,-1,2563.842093625,unknown,2,2022-06-02T10:43:39.564+02:00,2022-06-02T10:17:13.754+02:00,441,1.292008,0,0,340.1827,0,0,2022-06-02T10:43:42.115+02:00,675852222.1151092,0,6.339844,101.3048,1,0.82
2022-06-02T10:43:42.239+02:00,1654159422.000438,53.22911774647757,10.39853945592058,36.8442,0,20,-1,-1,2.400000095367432,7.999579855010837,-9999,2566.516866875,-0.025909423828125,-0.4277191162109375,-0.8935546875,2566.511868875,-0.6507496130048075,-0.002362822700651266,0.4341662084963576,0.04314730316400528,0.02718468382954597,-0.01541484147310257,-0.01380179822444916,-0.006729304790496826,0.0147320032119751,XArbitraryZVertical,0.2037122981043912,-0.06994301168350232,-0.312402292326585,0.9252102194552425,-0.00214360048994422,-0.4206541180610657,-0.9072185754776001,0,0,0,-1,-1,2563.842093625,unknown,2,2022-06-02T10:43:39.564+02:00,2022-06-02T10:17:13.754+02:00,441,1.292008,0,0,340.1827,0,0,2022-06-02T10:43:42.115+02:00,675852222.1151092,0,6.339844,101.3048,1,0.82
2022-06-02T10:43:42.249+02:00,1654159422.000438,53.22911774647757,10.39853945592058,36.8442,0,20,-1,-1,2.400000095367432,7.999579855010837,-9999,2566.526860875,-0.0209197998046875,-0.4244384765625,-0.889373779296875,2566.521863875,-0.6508314226061191,-0.002098741526988887,0.4347647127867365,0.02303800731897354,0.03820317983627319,-0.006965364795178175,-0.02400588989257812,-0.006522089242935181,0.0134124755859375,XArbitraryZVertical,0.20402758461071,-0.06992252778860536,-0.3123928928420125,0.9251455239197186,-0.001903492491692305,-0.4211970269680023,-0.9069671630859375,0,0,0,-1,-1,2563.842093625,unknown,2,2022-06-02T10:43:39.564+02:00,2022-06-02T10:17:13.754+02:00,441,1.292008,0,0,340.1827,0,0,2022-06-02T10:43:42.115+02:00,675852222.1151092,0,6.339844,101.3048,1,0.82
2022-06-02T10:43:42.259+02:00,1654159422.000438,53.22911774647757,10.39853945592058,36.8442,0,20,-1,-1,2.400000095367432,7.999579855010837,-9999,2566.536855875,-0.01458740234375,-0.4180450439453125,-0.9071044921875,2566.531858875,-0.6509114841480909,-0.001825555722838295,0.434909088199235,0.01952077075839043,0.03627904504537582,-0.01912003196775913,-0.01926414668560028,-0.003110498189926147,0.0175330638885498,XArbitraryZVertical,0.204134253696984,-0.06982685474366936,-0.3123971408286967,0.9251277726455902,-0.001655610743910074,-0.4213279485702515,-0.9069068431854248,0,0,0,-1,-1,2563.842093625,unknown,2,2022-06-02T10:43:39.564+02:00,2022-06-02T10:17:13.754+02:00,441,1.292008,0,0,340.1827,0,0,2022-06-02T10:43:42.115+02:00,675852222.1151092,0,6.339844,101.3048,1,0.82
2022-06-02T10:43:42.269+02:00,1654159422.000438,53.22911774647757,10.39853945592058,36.8442,0,20,-1,-1,2.400000095367432,7.999579855010837,-9999,2566.546850875,-0.0104827880859375,-0.390533447265625,-0.935821533203125,2566.541852875,-0.6509177497485937,-0.001945206198048469,0.4340625806634145,0.04312662780284882,0.04699214175343513,-0.02833962813019753,-0.01282255351543427,0.002515047788619995,0.0001584887504577637,XArbitraryZVertical,0.2037237076678244,-0.06975077150362215,-0.3124410381358678,0.9252091870314411,-0.001764815766364336,-0.4205600917339325,-0.9072629809379578,0,0,0,-1,-1,2563.842093625,unknown,2,2022-06-02T10:43:39.564+02:00,2022-06-02T10:17:13.754+02:00,441,1.292008,0,0,340.1827,0,0,2022-06-02T10:43:42.115+02:00,675852222.1151092,0,6.339844,101.3048,1,0.82
2022-06-02T10:43:42.279+02:00,1654159422.000438,53.22911774647757,10.39853945592058,36.8442,0,20,-1,-1,2.400000095367432,7.999579855010837,-9999,2566.556845875,0.004302978515625,-0.3955078125,-0.943817138671875,2566.551847875,-0.6510688148637179,-0.001798915611763308,0.4329726128274716,0.04274659603834152,0.03539141267538071,-0.02980836294591427,-0.008849844336509705,0.02903753519058228,-0.02810049057006836,XArbitraryZVertical,0.2032369962189023,-0.06952838372793022,-0.3125330671966719,0.9253018122293413,-0.00163291534408927,-0.4195709526538849,-0.9077210426330566,0,0,0,-1,-1,2563.842093625,unknown,2,2022-06-02T10:43:39.564+02:00,2022-06-02T10:17:13.754+02:00,441,1.292008,0,0,340.1827,0,0,2022-06-02T10:43:42.115+02:00,675852222.1151092,0,6.339844,101.3048,1,0.82
2022-06-02T10:43:42.289+02:00,1654159422.000438,53.22911774647757,10.39853945592058,36.8442,0,20,-1,-1,2.400000095367432,7.999579855010837,-9999,2566.566839875,0.0078277587890625,-0.40496826171875,-0.9514312744140625,2566.561842875,-0.6513264503930898,-0.001701231651018585,0.4324099632505671,0.03919453918933868,0.01448280271142721,-0.04105635732412338,0.005847662687301636,0.02355235815048218,-0.03586000204086304,XArbitraryZVertical,0.202982967490274,-0.06942151267784161,-0.312661433087871,0.925322230598961,-0.001544646918773651,-0.4190601706504822,-0.907957136631012,0,0,0,-1,-1,2563.842093625,unknown,2,2022-06-02T10:43:39.564+02:00,2022-06-02T10:17:13.754+02:00,441,1.292008,0,0,340.1827,0,0,2022-06-02T10:43:42.115+02:00,675852222.1151092,0,6.339844,101.3048,1,0.82
2022-06-02T10:43:42.299+02:00,1654159422.000438,53.22911774647757,10.39853945592058,36.8442,0,20,-1,-1,2.400000095367432,7.999579855010837,-9999,2566.576834875,0.0012359619140625,-0.405792236328125,-0.9427947998046875,2566.571837875,-0.6515426904909162,-0.001996844881237374,0.4320121816969513,0.02293753996491432,-0.001638909336179495,-0.04012185335159302,0.009641185402870178,0.0137307345867157,-0.04330796003341675,XArbitraryZVertical,0.2027451700892694,-0.06951809063408007,-0.3128049411000863,0.925318607721743,-0.001813383656553924,-0.4186989665031433,-0.908123254776001,0,0,0,-1,-1,2563.842093625,unknown,2,2022-06-02T10:43:39.564+02:00,2022-06-02T10:17:13.754+02:00,441,1.292008,0,0,340.1827,0,0,2022-06-02T10:43:42.115+02:00,675852222.1151092,0,6.339844,101.3048,1,0.82
2022-06-02T10:43:42.309+02:00,1654159422.000438,53.22911774647757,10.39853945592058,36.8442,0,20,-1,-1,2.400000095367432,7.999579855010837,-9999,2566.586829875,-0.0005645751953125,-0.420623779296875,-0.924346923828125,2566.581831875,-0.6517709237601735,-0.002431289446425731,0.4318052358742377,-0.001071356236934662,-0.0119988052174449,-0.04528925195336342,0.003444120287895203,0.0127187967300415,-0.03458577394485474,XArbitraryZVertical,0.2025734968442155,-0.06970988045676244,-0.3129615402660865,0.9252888521293984,-0.002208123449236155,-0.4185110330581665,-0.9082090258598328,0,0,0,-1,-1,2563.842093625,unknown,2,2022-06-02T10:43:39.564+02:00,2022-06-02T10:17:13.754+02:00,441,1.292008,0,0,340.1827,0,0,2022-06-02T10:43:42.115+02:00,675852222.1151092,0,6.339844,101.3048,1,0.82
2022-06-02T10:43:42.319+02:00,1654159422.000438,53.22911774647757,10.39853945592058,36.8442,0,20,-1,-1,2.400000095367432,7.999579855010837,-9999,2566.596823875,-0.004150390625,-0.426239013671875,-0.9115447998046875,2566.591826875,-0.6520940470131819,-0.002896509083676193,0.4322450384832947,-0.02912429720163345,-0.01579407602548599,-0.05318126082420349,0.002065569162368774,-0.001713365316390991,-0.01632314920425415,XArbitraryZVertical,0.202692883642493,-0.07002655065560172,-0.3131433250606082,0.9251773241325794,-0.002630106406286359,-0.418910413980484,-0.9080237746238708,0,0,0,-1,-1,2563.842093625,unknown,2,2022-06-02T10:43:39.564+02:00,2022-06-02T10:17:13.754+02:00,441,1.292008,0,0,340.1827,0,0,2022-06-02T10:43:42.115+02:00,675852222.1151092,0,6.339844,101.3048,1,0.82
2022-06-02T10:43:42.329+02:00,1654159422.000438,53.22911774647757,10.39853945592058,36.8442,0,20,-1,-1,2.400000095367432,7.999579855010837,-9999,2566.606818875,-0.0032806396484375,-0.4302825927734375,-0.9034423828125,2566.601821875,-0.6522711602835987,-0.003788315311448113,0.4324086103388925,-0.05447889119386673,-0.01676633022725582,-0.05438907444477081,-0.0007107257843017578,-0.007180064916610718,-0.003592252731323242,XArbitraryZVertical,0.2026226697260927,-0.07048257491933951,-0.3133101160728569,0.9251016395301727,-0.003439626889303327,-0.4190589487552643,-0.9079525470733643,0,0,0,-1,-1,2563.842093625,unknown,2,2022-06-02T10:43:39.564+02:00,2022-06-02T10:17:13.754+02:00,441,1.292008,0,0,340.1827,0,0,2022-06-02T10:43:42.115+02:00,675852222.1151092,0,6.339844,101.3048,1,0.82
2022-06-02T10:43:42.339+02:00,1654159422.000438,53.22911774647757,10.39853945592058,36.8442,0,20,-1,-1,2.400000095367432,7.999579855010837,-9999,2566.616813875,-0.0004730224609375,-0.42608642578125,-0.9110107421875,2566.611816875,-0.6525743815381931,-0.004388583579289116,0.4323917996584799,-0.0503014549612999,-0.009030645713210106,-0.05358879268169403,0.0007040649652481079,-0.01123890280723572,0.004514932632446289,XArbitraryZVertical,0.2025101356884193,-0.07078832546939025,-0.313511753821426,0.9250345088145497,-0.003984672017395496,-0.4190436601638794,-0.9079573154449463,0,0,0,-1,-1,2563.842093625,unknown,2,2022-06-02T10:43:39.564+02:00,2022-06-02T10:17:13.754+02:00,441,1.292008,0,0,340.1827,0,0,2022-06-02T10:43:42.115+02:00,675852222.1151092,0,6.339844,101.3048,1,0.82
2022-06-02T10:43:42.349+02:00,1654159422.000438,53.22911774647757,10.39853945592058,36.8442,0,20,-1,-1,2.400000095367432,7.999579855010837,-9999,2566.626808875,0.0033111572265625,-0.4101104736328125,-0.911041259765625,2566.621810875,-0.6529473236813949,-0.004667844058123671,0.4319666290502779,-0.02371604926884174,-0.008586697280406952,-0.04589331895112991,0.003766075242310762,-0.007428765296936035,-0.002876460552215576,XArbitraryZVertical,0.2022564188127454,-0.07088874434852449,-0.3137266640794302,0.9250094933974901,-0.00423905998468399,-0.4186576008796692,-0.9081342816352844,0,0,0,-1,-1,2563.842093625,unknown,2,2022-06-02T10:43:39.564+02:00,2022-06-02T10:17:13.754+02:00,441,1.292008,0,0,340.1827,0,0,2022-06-02T10:43:42.115+02:00,675852222.1151092,0,6.339844,101.3048,1,0.82
2022-06-02T10:43:42.359+02:00,1654159422.000438,53.22911774647757,10.39853945592058,36.8442,0,20,-1,-1,2.400000095367432,7.999579855010837,-9999,2566.636802875,-6.103515625e-05,-0.416534423828125,-0.908111572265625,2566.631805875,-0.6533064488258048,-0.004911572021669662,0.4304477293382428,0.02259951829910278,-0.02245350927114487,-0.04187221825122833,0.007774695754051208,0.007167279720306396,-0.002273201942443848,XArbitraryZVertical,0.2015026654850103,-0.07080010662234036,-0.3139678027391724,0.9250989870251104,-0.00446351571008563,-0.4172777235507965,-0.9087680578231812,0,0,0,-1,-1,2563.842093625,unknown,2,2022-06-02T10:43:39.564+02:00,2022-06-02T10:17:13.754+02:00,441,1.292008,0,0,340.1827,0,0,2022-06-02T10:43:42.115+02:00,675852222.1151092,0,6.339844,101.3048,1,0.82
2022-06-02T10:43:42.369+02:00,1654159422.000438,53.22911774647757,10.39853945592058,36.8442,0,20,-1,-1,2.400000095367432,7.999579855010837,-9999,2566.646797875,-0.00689697265625,-0.4265899658203125,-0.90948486328125,2566.641800875,-0.6538980431089193,-0.004641286796763765,0.4294420349601917,0.04141777753829956,-0.02309113740921021,-0.04022125527262688,0.004158825147897005,-0.0001707971096038818,0.001076877117156982,XArbitraryZVertical,0.2010588531769232,-0.07057716101032968,-0.3142475696090337,0.9251175910456566,-0.004219834227114916,-0.4163635671138763,-0.9091883897781372,0,0,0,-1,-1,2563.842093625,unknown,2,2022-06-02T10:43:39.564+02:00,2022-06-02T10:17:13.754+02:00,441,1.292008,0,0,340.1827,0,0,2022-06-02T10:43:42.115+02:00,675852222.1151092,0,6.339844,101.3048,1,0.82
2022-06-02T10:43:42.379+02:00,1654159422.000438,53.22911774647757,10.39853945592058,36.8442,0,20,-1,-1,2.400000095367432,7.999579855010837,-9999,2566.656792875,-0.0092010498046875,-0.4332427978515625,-0.90045166015625,2566.651795875,-0.6544733133835556,-0.004223684082544963,0.4287427031490141,0.0273059569299221,-0.01755575835704803,-0.03088288009166718,-0.003055557608604431,-0.0108623206615448,-3.814697265625e-06,XArbitraryZVertical,0.2007806406950462,-0.070332173495031,-0.3144949127109387,0.9251126270135978,-0.003841383382678032,-0.4157276451587677,-0.9094810485839844,0,0,0,-1,-1,2563.842093625,unknown,2,2022-06-02T10:43:39.564+02:00,2022-06-02T10:17:13.754+02:00,441,1.292008,0,0,340.1827,0,0,2022-06-02T10:43:42.115+02:00,675852222.1151092,0,6.339844,101.3048,1,0.82
2022-06-02T10:43:42.389+02:00,1654159422.000438,53.22911774647757,10.39853945592058,36.8442,0,20,-1,-1,2.400000095367432,7.999579855010837,-9999,2566.666787875,-0.0085601806640625,-0.4357452392578125,-0.8997344970703125,2566.661789875,-0.6548401067079614,-0.004007911985024208,0.4280721156956989,0.01055024564266205,-0.001394431106746197,-0.01979740709066391,-0.005554765462875366,-0.01812514662742615,0.009308755397796631,XArbitraryZVertical,0.2004914208173564,-0.07016397054436083,-0.3146652180237294,0.9251301734594155,-0.003646259196102619,-0.4151176512241364,-0.9097604155540466,0,0,0,-1,-1,2563.842093625,unknown,2,2022-06-02T10:43:39.564+02:00,2022-06-02T10:17:13.754+02:00,441,1.292008,0,0,340.1827,0,0,2022-06-02T10:43:42.115+02:00,675852222.1151092,0,6.339844,101.3048,1,0.82
2022-06-02T10:43:42.399+02:00,1654159422.000438,53.22911774647757,10.39853945592058,36.8442,0,20,-1,-1,2.400000095367432,7.999579855010837,-9999,2566.676781875,-0.00445556640625,-0.4254150390625,-0.9092254638671875,2566.671784875,-0.6550847271815678,-0.003770668156610748,0.4281322317722439,0.01017979998141527,0.01172509882599115,-0.01414324995130301,-0.005129814147949219,-0.02057287096977234,0.01000183820724487,XArbitraryZVertical,0.2005479837951773,-0.07008818591289612,-0.3147525729863001,0.9250939805135606,-0.003430329961702228,-0.4151723384857178,-0.9097362756729126,0,0,0,-1,-1,2563.842093625,unknown,2,2022-06-02T10:43:39.564+02:00,2022-06-02T10:17:13.754+02:00,441,1.292008,0,0,340.1827,0,0,2022-06-02T10:43:42.115+02:00,675852222.1151092,0,6.339844,101.3048,1,0.82
2022-06-02T10:43:42.409+02:00,1654159422.000438,53.22911774647757,10.39853945592058,36.8442,0,20,-1,-1,2.400000095367432,7.999579855010837,-9999,2566.686776875,0.0032196044921875,-0.4138031005859375,-0.9176483154296875,2566.681779875,-0.6551985645937445,-0.003631024875074377,0.428628342163709,0.02343365363776684,0.009776663966476917,-0.009991315193474293,-0.001152992248535156,-0.009791404008865356,0.0003052353858947754,XArbitraryZVertical,0.2007954971431975,-0.0701129085141374,-0.3147746704481044,0.9250309160535279,-0.003302543191239238,-0.4156236350536346,-0.9095306992530823,0,0,0,-1,-1,2563.842093625,unknown,2,2022-06-02T10:43:39.564+02:00,2022-06-02T10:17:13.754+02:00,441,1.292008,0,0,340.1827,0,0,2022-06-02T10:43:42.115+02:00,675852222.1151092,0,6.339844,101.3048,1,0.82
2022-06-02T10:43:42.419+02:00,1654159422.000438,53.22911774647757,10.39853945592058,36.8442,0,20,-1,-1,2.400000095367432,7.999579855010837,-9999,2566.696771875,-0.0004730224609375,-0.4069366455078125,-0.92376708984375,2566.691773875,-0.6553530085411872,-0.003539043035167671,0.4294653380739895,0.03427325189113617,-0.001585446298122406,-0.01552349980920553,0.006437286734580994,0.002581655979156494,-0.00846552848815918,XArbitraryZVertical,0.2011917665046638,-0.07021733347434157,-0.3148088884302837,0.9249252058286919,-0.003217650577425957,-0.416384756565094,-0.9091827869415283,0,0,0,-1,-1,2563.842093625,unknown,2,2022-06-02T10:43:39.564+02:00,2022-06-02T10:17:13.754+02:00,441,1.292008,0,0,340.1827,0,0,2022-06-02T10:43:42.115+02:00,675852222.1151092,0,6.339844,101.3048,1,0.82
2022-06-02T10:43:42.429+02:00,1654159422.000438,53.22911774647757,10.39853945592058,36.8442,0,20,-1,-1,2.400000095367432,7.999579855010837,-9999,2566.706766875,-0.0109405517578125,-0.4089508056640625,-0.926788330078125,2566.701768875,-0.655543524830044,-0.003424131530120797,0.4301328821230412,0.04370773583650589,-0.005770404357463121,-0.01075584162026644,0.002639234066009521,0.01005494594573975,-0.014862060546875,XArbitraryZVertical,0.2015119381685915,-0.07028821863332409,-0.3148630424956931,0.924831706482182,-0.003112222533673048,-0.4169915914535522,-0.908905029296875,0,0,0,-1,-1,2563.842093625,unknown,2,2022-06-02T10:43:39.564+02:00,2022-06-02T10:17:13.754+02:00,441,1.292008,0,0,340.1827,0,0,2022-06-02T10:43:42.115+02:00,675852222.1151092,0,6.339844,101.3048,1,0.82
2022-06-02T10:43:42.439+02:00,1654159422.000438,53.22911774647757,10.39853945592058,36.8442,0,20,-1,-1,2.400000095367432,7.999579855010837,-9999,2566.716760875,-0.0069732666015625,-0.4189910888671875,-0.9171905517578125,2566.711763875,-0.6556859096363458,-0.003181439545395739,0.4303073491654282,0.0373355895280838,0.004431100562214851,0.001272858120501041,-0.008049115538597107,0.008199363946914673,-0.01795536279678345,XArbitraryZVertical,0.2016258398445713,-0.07021775465704913,-0.3148985590797901,0.9248001480382511,-0.002891406882554293,-0.4171501398086548,-0.9088329672813416,0,0,0,-1,-1,2563.842093625,unknown,2,2022-06-02T10:43:39.564+02:00,2022-06-02T10:17:13.754+02:00,441,1.292008,0,0,340.1827,0,0,2022-06-02T10:43:42.115+02:00,675852222.1151092,0,6.339844,101.3048,1,0.82
2022-06-02T10:43:42.449+02:00,1654159422.000438,53.22911774647757,10.39853945592058,36.8442,0,20,-1,-1,2.400000095367432,7.999579855010837,-9999,2566.726755875,0.003387451171875,-0.420440673828125,-0.90869140625,2566.721758875,-0.6557095638397027,-0.003027510718075309,0.4306096498130335,0.02155932039022446,0.007664776872843504,0.003542602993547916,-0.004222095012664795,-0.001566201448440552,-0.008483290672302246,XArbitraryZVertical,0.2017890574170813,-0.07019646396664979,-0.3148837922358172,0.9247712015481185,-0.002751129446551204,-0.4174248874187469,-0.9087072610855103,0,0,0,-1,-1,2563.842093625,unknown,2,2022-06-02T10:43:39.564+02:00,2022-06-02T10:17:13.754+02:00,441,1.292008,0,0,340.1827,0,0,2022-06-02T10:43:42.115+02:00,675852222.1151092,0,6.339844,101.3048,1,0.82
2022-06-02T10:43:42.459+02:00,1654159422.000438,53.22911774647757,10.39853945592058,36.8442,0,20,-1,-1,2.400000095367432,7.999579855010837,-9999,2566.736750875,0.014678955078125,-0.4266510009765625,-0.897369384765625,2566.731752875,-0.6556822019913815,-0.003132710368016802,0.4309539813463349,-0.005518102552741766,-0.003677359316498041,-0.00897957943379879,0.006233751773834229,-0.002702891826629639,-0.0001282095909118652,XArbitraryZVertical,0.201932695066378,-0.07029643774077797,-0.3148701417772417,0.9247369531116738,-0.002846274757757783,-0.417737752199173,-0.9085631966590881,0,0,0,-1,-1,2563.842093625,unknown,2,2022-06-02T10:43:39.564+02:00,2022-06-02T10:17:13.754+02:00,441,1.292008,0,0,340.1827,0,0,2022-06-02T10:43:42.115+02:00,675852222.1151092,0,6.339844,101.3048,1,0.82
2022-06-02T10:43:42.469+02:00,1654159422.000438,53.22911774647757,10.39853945592058,36.8442,0,20,-1,-1,2.400000095367432,7.999579855010837,-9999,2566.746745875,0.017303466796875,-0.4256744384765625,-0.8957366943359375,2566.741747875,-0.6556838063224746,-0.003425790054026744,0.4313494419425459,-0.0244030449539423,-0.01801488734781742,-0.007200987543910742,0.01779098808765411,-0.008553981781005859,0.01102769374847412,XArbitraryZVertical,0.2020693880970893,-0.07049424099465983,-0.3148871708004285,0.9246862137668418,-0.003111989703029394,-0.4180970191955566,-0.9083970785140991,0,0,0,-1,-1,2563.842093625,unknown,2,2022-06-02T10:43:39.564+02:00,2022-06-02T10:17:13.754+02:00,441,1.292008,0,0,340.1827,0,0,2022-06-02T10:43:42.115+02:00,675852222.1151092,0,6.339844,101.3048,1,0.82
2022-06-02T10:43:42.479+02:00,1654159422.000438,53.22911774647757,10.39853945592058,36.8442,0,20,-1,-1,2.400000095367432,7.999579855010837,-9999,2566.756739875,0.014129638671875,-0.4232330322265625,-0.9055328369140625,2566.751742875,-0.6556764745550571,-0.003802587645217838,0.431638628119136,-0.03913458809256554,-0.02543738298118114,-0.004866993054747581,0.02075730264186859,-0.007314711809158325,0.01253819465637207,XArbitraryZVertical,0.2021440571528407,-0.07071313318894334,-0.3149121333097942,0.9246446740589687,-0.003453811397776008,-0.4183596968650818,-0.9082748889923096,0,0,0,-1,-1,2563.842093625,unknown,2,2022-06-02T10:43:39.564+02:00,2022-06-02T10:17:13.754+02:00,441,1.292008,0,0,340.1827,0,0,2022-06-02T10:43:42.115+02:00,675852222.1151092,0,6.339844,101.3048,1,0.82
2022-06-02T10:43:42.489+02:00,1654159422.000438,53.22911774647757,10.39853945592058,36.8442,0,20,-1,-1,2.400000095367432,7.999579855010837,-9999,2566.766734875,0.02020263671875,-0.417388916015625,-0.9140472412109375,2566.761737875,-0.6556891841851576,-0.004078968862958506,0.4313766822439996,-0.05193959549069405,-0.02815620414912701,-0.0003452124074101448,0.01783497631549835,-0.005111277103424072,0.002850592136383057,XArbitraryZVertical,0.2019789403746594,-0.07080104464452062,-0.3149547123100165,0.9246595660333721,-0.003705288283526897,-0.4181217551231384,-0.9083834290504456,0,0,0,-1,-1,2563.842093625,unknown,2,2022-06-02T10:43:39.564+02:00,2022-06-02T10:17:13.754+02:00,441,1.292008,0,0,340.1827,0,0,2022-06-02T10:43:42.115+02:00,675852222.1151092,0,6.339844,101.3048,1,0.82
2022-06-02T10:43:42.499+02:00,1654159422.000438,53.22911774647757,10.39853945592058,36.8442,0,20,-1,-1,2.400000095367432,7.999579855010837,-9999,2566.776729875,0.0236358642578125,-0.431640625,-0.9089202880859375,2566.771731875,-0.6557810173214096,-0.004254213773828253,0.4304928972429898,-0.0764598548412323,-0.05542511120438576,0.001882521435618401,0.02406872808933258,-7.009506225585938e-05,-0.005295276641845703,XArbitraryZVertical,0.2015393634810466,-0.07075252911527256,-0.3150444481141185,0.9247285221867168,-0.003866048296913505,-0.4173187911510468,-0.908751904964447,0,0,0,-1,-1,2563.842093625,unknown,2,2022-06-02T10:43:39.564+02:00,2022-06-02T10:17:13.754+02:00,441,1.292008,0,0,340.1827,0,0,2022-06-02T10:43:42.115+02:00,675852222.1151092,0,6.339844,101.3048,1,0.82
2022-06-02T10:43:42.509+02:00,1654159422.000438,53.22911774647757,10.39853945592058,36.8442,0,20,-1,-1,2.400000095367432,7.999579855010837,-9999,2566.786724875,0.01031494140625,-0.430694580078125,-0.9058685302734375,2566.781726875,-0.6557675425222819,-0.004767559853378882,0.4291764180103313,-0.09791284799575806,-0.06594359874725342,0.01126943249255419,0.02797107398509979,-0.01551854610443115,0.0003781318664550781,XArbitraryZVertical,0.2008500344398297,-0.07078174258727694,-0.3151337014446383,0.9248458166257902,-0.004335167352110147,-0.4161220490932465,-0.9092984199523926,0,0,0,-1,-1,2563.842093625,unknown,2,2022-06-02T10:43:39.564+02:00,2022-06-02T10:17:13.754+02:00,441,1.292008,0,0,340.1827,0,0,2022-06-02T10:43:42.115+02:00,675852222.1151092,0,6.339844,101.3048,1,0.82
2022-06-02T10:43:42.519+02:00,1654159422.000438,53.22911774647757,10.39853945592058,36.8442,0,20,-1,-1,2.400000095367432,7.999579855010837,-9999,2566.796718875,0.0060882568359375,-0.4271087646484375,-0.9009857177734375,2566.791721875,-0.6554665347481493,-0.005711264832710915,0.4277647998540266,-0.1046120300889015,-0.06502080708742142,0.02980609610676765,0.01551160216331482,-0.01585650444030762,0.004011929035186768,XArbitraryZVertical,0.2000589290585852,-0.07096631816814074,-0.3151356810616701,0.9250024632786177,-0.005196624435484409,-0.414838045835495,-0.9098803997039795,0,0,0,-1,-1,2563.842093625,unknown,2,2022-06-02T10:43:39.564+02:00,2022-06-02T10:17:13.754+02:00,441,1.292008,0,0,340.1827,0,0,2022-06-02T10:43:42.115+02:00,675852222.1151092,0,6.339844,101.3048,1,0.82
2022-06-02T10:43:42.529+02:00,1654159422.000438,53.22911774647757,10.39853945592058,36.8442,0,20,-1,-1,2.400000095367432,7.999579855010837,-9999,2566.806713875,0.0032196044921875,-0.4211578369140625,-0.90740966796875,2566.801716875,-0.6550977009809769,-0.006558623647403964,0.4267336500340496,-0.1087876707315445,-0.0677269846200943,0.03470271825790405,0.01205871999263763,-0.01320913434028625,0.009317278861999512,XArbitraryZVertical,0.1994613681304526,-0.07115958047455941,-0.3150834243022584,0.9251344722602294,-0.005970420315861702,-0.4138995707035065,-0.9103029370307922,0,0,0,-1,-1,2563.842093625,unknown,2,2022-06-02T10:43:39.564+02:00,2022-06-02T10:17:13.754+02:00,441,1.292008,0,0,340.1827,0,0,2022-06-02T10:43:42.115+02:00,675852222.1151092,0,6.339844,101.3048,1,0.82
2022-06-02T10:43:42.539+02:00,1654159422.000438,53.22911774647757,10.39853945592058,36.8442,0,20,-1,-1,2.400000095367432,7.999579855010837,-9999,2566.816708875,-0.00286865234375,-0.4229278564453125,-0.91827392578125,2566.811710875,-0.6548121150184316,-0.007126536232317768,0.4258058617125806,-0.1158386543393135,-0.06571895629167557,0.0421459898352623,0.009709760546684265,-0.008103013038635254,0.003273367881774902,XArbitraryZVertical,0.1989526614056969,-0.07124832717495587,-0.3150379683601369,0.9252526704807897,-0.006490125320851803,-0.4130548238754272,-0.9106830358505249,0,0,0,-1,-1,2563.842093625,unknown,2,2022-06-02T10:43:39.564+02:00,2022-06-02T10:17:13.754+02:00,441,1.292008,0,0,340.1827,0,0,2022-06-02T10:43:42.115+02:00,675852222.1151092,0,6.339844,101.3048,1,0.82
2022-06-02T10:43:42.549+02:00,1654159422.000438,53.22911774647757,10.39853945592058,36.8442,0,20,-1,-1,2.400000095367432,7.999579855010837,-9999,2566.826702875,-0.00921630859375,-0.4288177490234375,-0.9259796142578125,2566.821705875,-0.6545714802897722,-0.007287709963552963,0.4251508714887917,-0.1194679364562035,-0.05425311625003815,0.05076011642813683,0.003770262002944946,-0.01046961545944214,-0.007321596145629883,XArbitraryZVertical,0.1986326576349853,-0.07119629161373243,-0.3149638053047424,0.9253506481176531,-0.006638873834162951,-0.4124582409858704,-0.9109523296356201,0,0,0,-1,-1,2563.842093625,unknown,2,2022-06-02T10:43:39.564+02:00,2022-06-02T10:17:13.754+02:00,441,1.292008,0,0,340.1827,0,0,2022-06-02T10:43:42.115+02:00,675852222.1151092,0,6.339844,101.3048,1,0.82
2022-06-02T10:43:42.559+02:00,1654159422.000438,53.22911774647757,10.39853945592058,36.8442,0,20,-1,-1,2.400000095367432,7.999579855010837,-9999,2566.836697875,-0.0026092529296875,-0.425262451171875,-0.9312591552734375,2566.831700875,-0.654300953686632,-0.007269078855531103,0.4244915082426668,-0.1147520169615746,-0.04161854833364487,0.05426856502890587,-0.002592399716377258,-0.0169602632522583,-0.01475542783737183,XArbitraryZVertical,0.1983399672092572,-0.0710574902688795,-0.314858022181912,0.9254600478217916,-0.006623877212405205,-0.4118574857711792,-0.9112241864204407,0,0,0,-1,-1,2563.842093625,unknown,2,2022-06-02T10:43:39.564+02:00,2022-06-02T10:17:13.754+02:00,441,1.292008,0,0,340.1827,0,0,2022-06-02T10:43:42.115+02:00,675852222.1151092,0,6.339844,101.3048,1,0.82
2022-06-02T10:43:42.569+02:00,1654159422.000438,53.22911774647757,10.39853945592058,36.8442,0,20,-1,-1,2.400000095367432,7.999579855010837,-9999,2566.846692875,0.009765625,-0.40960693359375,-0.9329986572265625,2566.841695875,-0.6538363999008928,-0.007308467436487951,0.4239084124871347,-0.0715988501906395,-0.03417454659938812,0.0765523687005043,0.004052311182022095,-0.01393640041351318,-0.01979523897171021,XArbitraryZVertical,0.1980802740762018,-0.07093832545457983,-0.3146656688684979,0.9255902644473964,-0.006661523133516312,-0.4113260507583618,-0.9114639163017273,0,0,0,-1,-1,2563.842093625,unknown,2,2022-06-02T10:43:39.564+02:00,2022-06-02T10:17:13.754+02:00,441,1.292008,0,0,340.1827,0,0,2022-06-02T10:43:42.115+02:00,675852222.1151092,0,6.339844,101.3048,1,0.82
2022-06-02T10:43:42.579+02:00,1654159422.000438,53.22911774647757,10.39853945592058,36.8442,0,20,-1,-1,2.400000095367432,7.999579855010837,-9999,2566.856687875,0.02252197265625,-0.39398193359375,-0.9244384765625,2566.851689875,-0.6532516793490409,-0.007252974857377076,0.423535523859049,-0.03407092019915581,-0.03993496671319008,0.09004473686218262,0.01637771725654602,0.001379221677780151,-0.02138102054595947,XArbitraryZVertical,0.1979370346358212,-0.07079636649712213,-0.3144014888142626,0.9257216068683082,-0.006612055469304323,-0.4109861552715302,-0.911617636680603,0,0,0,-1,-1,2563.842093625,unknown,2,2022-06-02T10:43:39.564+02:00,2022-06-02T10:17:13.754+02:00,441,1.292008,0,0,340.1827,0,0,2022-06-02T10:43:42.115+02:00,675852222.1151092,0,6.339844,101.3048,1,0.82
2022-06-02T10:43:42.589+02:00,1654159422.000438,53.22911774647757,10.39853945592058,36.8442,0,20,-1,-1,2.400000095367432,7.999579855010837,-9999,2566.866681875,0.02569580078125,-0.4005279541015625,-0.9101104736328125,2566.861684875,-0.6525461348416309,-0.007338282149898886,0.423843101758516,-0.01449069287627935,-0.06949552148580551,0.1060724407434464,0.02921091020107269,0.01728463172912598,-0.01294785737991333,XArbitraryZVertical,0.1980910695947528,-0.07081411834773706,-0.3140735230867549,0.9257985441379829,-0.006688895169645548,-0.4112665355205536,-0.9114905595779419,0,0,0,-1,-1,2563.842093625,unknown,2,2022-06-02T10:43:39.564+02:00,2022-06-02T10:17:13.754+02:00,441,1.292008,0,0,340.1827,0,0,2022-06-02T10:43:42.115+02:00,675852222.1151092,0,6.339844,101.3048,1,0.82
2022-06-02T10:43:42.599+02:00,1654159422.000438,53.22911774647757,10.39853945592058,36.8442,0,20,-1,-1,2.400000095367432,7.999579855010837,-9999,2566.876676875,0.017608642578125,-0.4088592529296875,-0.901702880859375,2566.871679875,-0.6515538524029698,-0.008109209990722729,0.4242253152136704,-0.02103860676288605,-0.0847514346241951,0.113802008330822,0.0330861508846283,0.01108694076538086,0.001217424869537354,XArbitraryZVertical,0.1981823270293343,-0.07113238113095884,-0.3136783488281639,0.9258885997094936,-0.007390311453491449,-0.4116148948669434,-0.9113278985023499,0,0,0,-1,-1,2563.842093625,unknown,2,2022-06-02T10:43:39.564+02:00,2022-06-02T10:17:13.754+02:00,441,1.292008,0,0,340.1827,0,0,2022-06-02T10:43:42.115+02:00,675852222.1151092,0,6.339844,101.3048,1,0.82
2022-06-02T10:43:42.609+02:00,1654159422.000438,53.22911774647757,10.39853945592058,36.8442,0,20,-1,-1,2.400000095367432,7.999579855010837,-9999,2566.886671875,0.014129638671875,-0.4149627685546875,-0.892822265625,2566.881674875,-0.6504854814628195,-0.009090175201050345,0.4242753773051917,-0.06773703545331955,-0.09061764925718307,0.1112102717161179,0.02589277923107147,0.002801299095153809,0.009596765041351318,XArbitraryZVertical,0.1980898609401757,-0.07148851300831101,-0.3132793229676346,0.9260160175728058,-0.008284101262688637,-0.4116605222225189,-0.9112995862960815,0,0,0,-1,-1,2563.842093625,unknown,2,2022-06-02T10:43:39.564+02:00,2022-06-02T10:17:13.754+02:00,441,1.292008,0,0,340.1827,0,0,2022-06-02T10:43:42.115+02:00,675852222.1151092,0,6.339844,101.3048,1,0.82
2022-06-02T10:43:42.619+02:00,1654159422.000438,53.22911774647757,10.39853945592058,36.8442,0,20,-1,-1,2.400000095367432,7.999579855010837,-9999,2566.896666875,0.010284423828125,-0.423126220703125,-0.8892974853515625,2566.891668875,-0.6494519461053588,-0.01016084838744078,0.4235085964631795,-0.1412879526615143,-0.09767981618642807,0.1058336198329926,0.0233926847577095,-0.00400117039680481,0.0187833309173584,XArbitraryZVertical,0.197603940383815,-0.0717627432837729,-0.3129306830482484,0.9262165219021716,-0.00926300510764122,-0.4109615981578827,-0.9116055965423584,0,0,0,-1,-1,2563.842093625,unknown,2,2022-06-02T10:43:39.564+02:00,2022-06-02T10:17:13.754+02:00,441,1.292008,0,0,340.1827,0,0,2022-06-02T10:43:42.115+02:00,675852222.1151092,0,6.339844,101.3048,1,0.82
2022-06-02T10:43:42.629+02:00,1654159422.000438,53.22911774647757,10.39853945592058,36.8442,0,20,-1,-1,2.400000095367432,7.999579855010837,-9999,2566.906660875,0.00732421875,-0.420440673828125,-0.896392822265625,2566.901663875,-0.6483762188988755,-0.011410276386079,0.4220054900887254,-0.2049570977687836,-0.0992056131362915,0.1090896725654602,0.02069348096847534,-0.01353538036346436,0.02291244268417358,XArbitraryZVertical,0.1967504655114676,-0.07200194387739635,-0.3126021188261505,0.9264905708579556,-0.01040901895612478,-0.4095908105373383,-0.9122099280357361,0,0,0,-1,-1,2563.842093625,unknown,2,2022-06-02T10:43:39.564+02:00,2022-06-02T10:17:13.754+02:00,441,1.292008,0,0,340.1827,0,0,2022-06-02T10:43:42.115+02:00,675852222.1151092,0,6.339844,101.3048,1,0.82
2022-06-02T10:43:42.639+02:00,1654159422.000438,53.22911774647757,10.39853945592058,36.8442,0,20,-1,-1,2.400000095367432,7.999579855010837,-9999,2566.916655875,0.0093841552734375,-0.4244842529296875,-0.9001617431640625,2566.911658875,-0.6472546916953994,-0.01283062998920467,0.419954520978459,-0.2690692543983459,-0.1024474799633026,0.1077024266123772,0.01903968304395676,-0.0127217173576355,0.01663953065872192,XArbitraryZVertical,0.1956179122325949,-0.07223206770711595,-0.3122842307201505,0.9268196626612422,-0.0117154223844409,-0.4077189266681671,-0.9130322933197021,0,0,0,-1,-1,2563.842093625,unknown,2,2022-06-02T10:43:39.564+02:00,2022-06-02T10:17:13.754+02:00,441,1.292008,0,0,340.1827,0,0,2022-06-02T10:43:42.115+02:00,675852222.1151092,0,6.339844,101.3048,1,0.82
2022-06-02T10:43:42.649+02:00,1654159422.000438,53.22911774647757,10.39853945592058,36.8442,0,20,-1,-1,2.400000095367432,7.999579855010837,-9999,2566.926650875,0.0085906982421875,-0.417755126953125,-0.895751953125,2566.921653875,-0.6461773946616726,-0.01405717118686927,0.4172589251352989,-0.3165531158447266,-0.1059566587209702,0.1140750348567963,0.02223487943410873,-0.01922816038131714,0.01395112276077271,XArbitraryZVertical,0.1942147851039097,-0.07227846552458006,-0.3119850148961477,0.9272118050112614,-0.01285068783909082,-0.4052560925483704,-0.9141128659248352,0,0,0,-1,-1,2563.842093625,unknown,2,2022-06-02T10:43:39.564+02:00,2022-06-02T10:17:13.754+02:00,441,1.292008,0,0,340.1827,0,0,2022-06-02T10:43:42.115+02:00,675852222.1151092,0,6.339844,101.3048,1,0.82
2022-06-02T10:43:42.659+02:00,1654159422.000438,53.22911774647757,10.39853945592058,36.8442,0,20,-1,-1,2.400000095367432,7.999579855010837,-9999,2566.936645875,0.01129150390625,-0.408935546875,-0.89178466796875,2566.931647875,-0.6451861900212832,-0.01500313982054988,0.4138779653579812,-0.3464609384536743,-0.1085708141326904,0.1262358278036118,0.02232661098241806,-0.01559221744537354,0.01971316337585449,XArbitraryZVertical,0.1925336287714035,-0.07209891165354169,-0.3117160650332484,0.9276667894317869,-0.01373588107526302,-0.4021628797054291,-0.9154651165008545,0,0,0,-1,-1,2563.842093625,unknown,2,2022-06-02T10:43:39.564+02:00,2022-06-02T10:17:13.754+02:00,441,1.292008,0,0,340.1827,0,0,2022-06-02T10:43:42.115+02:00,675852222.1151092,0,6.339844,101.3048,1,0.82
2022-06-02T10:43:42.675+02:00,1654159422.000438,53.22911774647757,10.39853945592058,36.8442,0,20,-1,-1,2.400000095367432,7.999579855010837,-9999,2566.946639875,0.0129241943359375,-0.4064788818359375,-0.892425537109375,2566.941642875,-0.6442025651205502,-0.01560998529300743,0.4100678362553304,-0.3607581257820129,-0.1089881360530853,0.1433714032173157,0.02560678869485855,-0.01026397943496704,0.02519738674163818,XArbitraryZVertical,0.1907048266395932,-0.07169832947801404,-0.3114277623430196,0.9281722091712631,-0.01431523915380239,-0.3986715376377106,-0.9169820547103882,0,0,0,-1,-1,2563.842093625,unknown,2,2022-06-02T10:43:39.564+02:00,2022-06-02T10:17:13.754+02:00,441,1.292008,0,0,340.1827,0,0,2022-06-02T10:43:42.115+02:00,675852222.1151092,0,6.339844,101.3048,1,0.82
2022-06-02T10:43:42.692+02:00,1654159422.000438,53.22911774647757,10.39853945592058,36.8442,0,20,-1,-1,2.400000095367432,7.999579855010837,-9999,2566.956634875,0.016326904296875,-0.410430908203125,-0.888092041015625,2566.951637875,-0.6430548021938671,-0.01614723222020484,0.4065882472748128,-0.3617304563522339,-0.09960635006427765,0.1639946550130844,0.02775442600250244,-0.01100084185600281,0.02593016624450684,XArbitraryZVertical,0.1890452253642821,-0.07130259278445475,-0.3110447064461218,0.9286704700243424,-0.01483019161969423,-0.3954780101776123,-0.9183557033538818,0,0,0,-1,-1,2563.842093625,unknown,2,2022-06-02T10:43:39.564+02:00,2022-06-02T10:17:13.754+02:00,441,1.292008,0,0,340.1827,0,0,2022-06-02T10:43:42.115+02:00,675852222.1151092,0,6.339844,101.3048,1,0.82
2022-06-02T10:43:42.694+02:00,1654159422.000438,53.22911774647757,10.39853945592058,36.8442,0,20,-1,-1,2.400000095367432,7.999579855010837,-9999,2566.966629875,0.0260162353515625,-0.40765380859375,-0.8762054443359375,2566.961631875,-0.6415661462953052,-0.01695151274424952,0.4033701938462541,-0.381201297044754,-0.09851272404193878,0.1922938078641891,0.03191722929477692,-0.01791062951087952,0.03151917457580566,XArbitraryZVertical,0.1874768531235549,-0.07104103684162733,-0.31051873729118,0.9291843954732296,-0.01559029426425695,-0.3925202786922455,-0.9196112155914307,0,0,0,-1,-1,2563.842093625,unknown,2,2022-06-02T10:43:39.564+02:00,2022-06-02T10:17:13.754+02:00,441,1.292008,0,0,340.1827,0,0,2022-06-02T10:43:42.115+02:00,675852222.1151092,0,6.339844,101.3048,1,0.82
2022-06-02T10:43:42.699+02:00,1654159422.000438,53.22911774647757,10.39853945592058,36.8442,0,20,-1,-1,2.400000095367432,7.999579855010837,-9999,2566.976624875,0.02825927734375,-0.412567138671875,-0.85736083984375,2566.971626875,-0.6396908636033054,-0.01803587269146384,0.4001893028491685,-0.4133456349372864,-0.1087086349725723,0.2261215448379517,0.04262617975473404,-0.01806110143661499,0.04463201761245728,XArbitraryZVertical,0.1858952150712061,-0.07088188647826957,-0.3098354470397359,0.9297422010030824,-0.0166099090129137,-0.389592707157135,-0.9208374619483948,0,0,0,-1,-1,2563.842093625,unknown,2,2022-06-02T10:43:39.564+02:00,2022-06-02T10:17:13.754+02:00,441,1.292008,0,0,340.1827,0,0,2022-06-02T10:43:42.115+02:00,675852222.1151092,0,6.339844,101.3048,1,0.82
2022-06-02T10:43:42.711+02:00,1654159422.000438,53.22911774647757,10.39853945592058,36.8442,0,20,-1,-1,2.400000095367432,7.999579855010837,-9999,2566.986618875,0.0352325439453125,-0.4113006591796875,-0.8498992919921875,2566.981621875,-0.6370983942337511,-0.02013823892577272,0.3957849160592708,-0.4613517224788666,-0.1129962578415871,0.2726876437664032,0.04683949798345566,-0.02703458070755005,0.06514626741409302,XArbitraryZVertical,0.1836110120078844,-0.07094668299094699,-0.3089410563374553,0.9304884682859506,-0.01858018152415752,-0.385532557964325,-0.922507107257843,0,0,0,-1,-1,2563.842093625,unknown,2,2022-06-02T10:43:39.564+02:00,2022-06-02T10:17:13.754+02:00,441,1.292008,0,0,340.1827,0,0,2022-06-02T10:43:42.115+02:00,675852222.1151092,0,6.339844,101.3048,1,0.82
2022-06-02T10:43:42.719+02:00,1654159422.000438,53.22911774647757,10.39853945592058,36.8442,0,20,-1,-1,2.400000095367432,7.999579855010837,-9999,2566.996613875,0.0478363037109375,-0.419891357421875,-0.84271240234375,2566.991616875,-0.6339950039509225,-0.02251530032096643,0.3906122050267024,-0.5660666823387146,-0.1294644474983215,0.3212767541408539,0.05605018883943558,-0.03054606914520264,0.07454246282577515,XArbitraryZVertical,0.1809435058048285,-0.07098289802121729,-0.3078453261519701,0.9313710086825937,-0.02081760205328465,-0.3807545900344849,-0.9244417548179626,0,0,0,-1,-1,2563.842093625,unknown,2,2022-06-02T10:43:39.564+02:00,2022-06-02T10:17:13.754+02:00,441,1.292008,0,0,340.1827,0,0,2022-06-02T10:43:42.115+02:00,675852222.1151092,0,6.339844,101.3048,1,0.82
2022-06-02T10:43:42.729+02:00,1654159422.000438,53.22911774647757,10.39853945592058,36.8442,0,20,-1,-1,2.400000095367432,7.999579855010837,-9999,2567.006608875,0.05517578125,-0.4354705810546875,-0.847076416015625,2567.001610875,-0.6304478859812663,-0.02528383226810322,0.3842835552999893,-0.6848305463790894,-0.1605962663888931,0.3628710806369781,0.07127365469932556,-0.04499632120132446,0.08405852317810059,XArbitraryZVertical,0.1776908005723532,-0.07099653665469589,-0.3065948798090332,0.9324081220889365,-0.02343731559813023,-0.3748950362205505,-0.9267709255218506,0,0,0,-1,-1,2563.842093625,unknown,2,2022-06-02T10:43:39.564+02:00,2022-06-02T10:17:13.754+02:00,441,1.292008,0,0,340.1827,0,0,2022-06-02T10:43:42.115+02:00,675852222.1151092,0,6.339844,101.3048,1,0.82
2022-06-02T10:43:42.739+02:00,1654159422.000438,53.22911774647757,10.39853945592058,36.8442,0,20,-1,-1,2.400000095367432,7.999579855010837,-9999,2567.016603875,0.0667877197265625,-0.43890380859375,-0.845550537109375,2567.011605875,-0.6265271731682932,-0.02852619161217942,0.3766960668793883,-0.8171664476394653,-0.2011785805225372,0.4046036005020142,0.08169830590486526,-0.06762033700942993,0.08243036270141602,XArbitraryZVertical,0.1737885234868355,-0.07102237320880851,-0.3052248188467337,0.9335904815992315,-0.02652248181402683,-0.3678502142429352,-0.9295067191123962,0,0,0,-1,-1,2563.842093625,unknown,2,2022-06-02T10:43:39.564+02:00,2022-06-02T10:17:13.754+02:00,441,1.292008,0,0,340.1827,0,0,2022-06-02T10:43:42.115+02:00,675852222.1151092,0,6.339844,101.3048,1,0.82
2022-06-02T10:43:42.749+02:00,1654159422.000438,53.22911774647757,10.39853945592058,36.8442,0,20,-1,-1,2.400000095367432,7.999579855010837,-9999,2567.026597875,0.0746917724609375,-0.454345703125,-0.858001708984375,2567.021600875,-0.6222926910196022,-0.03235524128971815,0.3676845940144893,-0.9600142240524292,-0.2590422928333282,0.4383603930473328,0.096975177526474,-0.07944804430007935,0.08712321519851685,XArbitraryZVertical,0.1691387123237222,-0.07110014889953016,-0.3037669553208873,0.9349131029660358,-0.03018741868436337,-0.3594557344913483,-0.9326737523078918,0,0,0,-1,-1,2563.842093625,unknown,2,2022-06-02T10:43:39.564+02:00,2022-06-02T10:17:13.754+02:00,441,1.292008,0,0,340.1827,0,0,2022-06-02T10:43:42.115+02:00,675852222.1151092,0,6.339844,101.3048,1,0.82
2022-06-02T10:43:42.759+02:00,1654159422.000438,53.22911774647757,10.39853945592058,36.8442,0,20,-1,-1,2.400000095367432,7.999579855010837,-9999,2567.036592875,0.0687103271484375,-0.45880126953125,-0.875457763671875,2567.031595875,-0.6177522815393283,-0.03663703907817588,0.3571319918310766,-1.129408836364746,-0.2759986221790314,0.4880890548229218,0.1090094968676567,-0.1047570705413818,0.07827287912368774,XArbitraryZVertical,0.1637047481171045,-0.07115803761246713,-0.3022039303279922,0.9363813653969036,-0.03431768342852592,-0.3495886325836182,-0.9362745881080627,0,0,0,-1,-1,2563.842093625,unknown,2,2022-06-02T10:43:39.564+02:00,2022-06-02T10:17:13.754+02:00,441,1.292008,0,0,340.1827,0,0,2022-06-02T10:43:42.115+02:00,675852222.1151092,0,6.339844,101.3048,1,0.82
2022-06-02T10:43:42.769+02:00,1654159422.000438,53.22911774647757,10.39853945592058,36.8442,0,20,-1,-1,2.400000095367432,7.999579855010837,-9999,2567.046587875,0.0627593994140625,-0.4559478759765625,-0.8846588134765625,2567.041589875,-0.6127436125277005,-0.04113820215921835,0.3445596924002075,-1.345004796981812,-0.2805185914039612,0.5491506457328796,0.1074197217822075,-0.1210189759731293,0.06497019529342651,XArbitraryZVertical,0.1573001731731124,-0.07101185766966281,-0.3004354759454144,0.9380578334326031,-0.03870935365557671,-0.3377822935581207,-0.9404279589653015,0,0,0,-1,-1,2563.842093625,unknown,2,2022-06-02T10:43:39.564+02:00,2022-06-02T10:17:13.754+02:00,441,1.292008,0,0,340.1827,0,0,2022-06-02T10:43:42.115+02:00,675852222.1151092,0,6.339844,101.3048,1,0.82
2022-06-02T10:43:42.779+02:00,1654159422.000438,53.22911774647757,10.39853945592058,36.8442,0,20,-1,-1,2.400000095367432,7.999579855010837,-9999,2567.056581875,0.0670318603515625,-0.44989013671875,-0.8940277099609375,2567.051584875,-0.6073674601566781,-0.04579436958824717,0.3298780847963516,-1.54039740562439,-0.2990912199020386,0.5977115035057068,0.1060695201158524,-0.1320201754570007,0.06043118238449097,XArbitraryZVertical,0.1498843350381779,-0.07063777527046153,-0.2984888604066187,0.9399198084508285,-0.04331007972359657,-0.3239277005195618,-0.9450899958610535,0,0,0,-1,-1,2563.842093625,unknown,2,2022-06-02T10:43:39.564+02:00,2022-06-02T10:17:13.754+02:00,441,1.292008,0,0,340.1827,0,0,2022-06-02T10:43:42.115+02:00,675852222.1151092,0,6.339844,101.3048,1,0.82
2022-06-02T10:43:42.789+02:00,1654159422.000438,53.22911774647757,10.39853945592058,36.8442,0,20,-1,-1,2.400000095367432,7.999579855010837,-9999,2567.066576875,0.067718505859375,-0.428558349609375,-0.8944091796875,2567.061579875,-0.6014872190601318,-0.05079855204263224,0.3134662084118023,-1.669333815574646,-0.3307811319828033,0.679418683052063,0.1153342872858047,-0.1415323317050934,0.05601567029953003,XArbitraryZVertical,0.1416071344850628,-0.07018370755958149,-0.2962914015183222,0.9419303861493388,-0.04830238223075867,-0.3083577752113342,-0.9500433206558228,0,0,0,-1,-1,2563.842093625,unknown,2,2022-06-02T10:43:39.564+02:00,2022-06-02T10:17:13.754+02:00,441,1.292008,0,0,340.1827,0,0,2022-06-02T10:43:42.115+02:00,675852222.1151092,0,6.339844,101.3048,1,0.82
