loggingTime(txt),locationTimestamp_since1970(s),locationLatitude(WGS84),locationLongitude(WGS84),locationAltitude(m),locationSpeed(m/s),locationSpeedAccuracy(m/s),locationCourse(°),locationCourseAccuracy(°),locationVerticalAccuracy(m),locationHorizontalAccuracy(m),locationFloor(Z),accelerometerTimestamp_sinceReboot(s),accelerometerAccelerationX(G),accelerometerAccelerationY(G),accelerometerAccelerationZ(G),motionTimestamp_sinceReboot(s),motionYaw(rad),motionRoll(rad),motionPitch(rad),motionRotationRateX(rad/s),motionRotationRateY(rad/s),motionRotationRateZ(rad/s),motionUserAccelerationX(G),motionUserAccelerationY(G),motionUserAccelerationZ(G),motionAttitudeReferenceFrame(txt),motionQuaternionX(R),motionQuaternionY(R),motionQuaternionZ(R),motionQuaternionW(R),motionGravityX(G),motionGravityY(G),motionGravityZ(G),motionMagneticFieldX(µT),motionMagneticFieldY(µT),motionMagneticFieldZ(µT),motionHeading(°),motionMagneticFieldCalibrationAccuracy(Z),activityTimestamp_sinceReboot(s),activity(txt),activityActivityConfidence(Z),activityActivityStartDate(txt),pedometerStartDate(txt),pedometerNumberofSteps(N),pedometerAverageActivePace(s/m),pedometerCurrentPace(s/m),pedometerCurrentCadence(steps/s),pedometerDistance(m),pedometerFloorAscended(N),pedometerFloorDescended(N),pedometerEndDate(txt),altimeterTimestamp_sinceReboot(s),altimeterReset(bool),altimeterRelativeAltitude(m),altimeterPressure(kPa),batteryState(N),batteryLevel(R)
2022-06-30T09:12:32.948+02:00,1656573152.059022,53.2290640287597,10.39857063443437,41.10189,0,0.07,-1,-1,4,5,-9999,2747.355699375,0.107757568359375,-0.1043243408203125,-0.9524688720703125,2747.345747375,-0.6717484704021918,0.09680544020301737,0.04821665847341858,0.1922827064990997,0.004291770048439503,-0.01256798394024372,-0.0509946197271347,-0.02481574937701225,-0.01706922054290771,XArbitraryZVertical,0.03867477486047219,0.03773108066660536,-0.3280118377585751,0.9431271469518354,0.09654197841882706,-0.04819797724485397,-0.9941612482070923,0,0,0,-1,-1,2741.785744125,unknown,2,2022-06-30T09:12:27.366+02:00,2022-06-30T08:20:05.567+02:00,833,1.490593,0,0,651.261,0,0,2022-06-30T09:09:38.916+02:00,678265952.461239,0,-0.8900003,100.9209,1,0.97
2022-06-30T09:12:32.951+02:00,1656573152.059022,53.2290640287597,10.39857063443437,41.10189,0,0.07,-1,-1,4,5,-9999,2747.365651375,0.077392578125,-0.08526611328125,-0.9501953125,2747.355699375,-0.672127750359262,0.09682167509884898,0.04951380249681368,0.08987903594970703,-0.00676401611417532,-0.04059905186295509,0.02327515184879303,-0.05522791668772697,0.02543818950653076,XArbitraryZVertical,0.03929572569616459,0.03751710820336701,-0.3281555079189227,0.9430601367306592,0.09655199944972992,-0.04949357360601425,-0.9940966367721558,0,0,0,-1,-1,2741.785744125,unknown,2,2022-06-30T09:12:27.366+02:00,2022-06-30T08:20:05.567+02:00,833,1.490593,0,0,651.261,0,0,2022-06-30T09:09:38.916+02:00,678265952.461239,0,-0.8900003,100.9209,1,0.97
2022-06-30T09:12:32.957+02:00,1656573152.059022,53.2290640287597,10.39857063443437,41.10189,0,0.07,-1,-1,4,5,-9999,2747.375602375,0.06585693359375,-0.05584716796875,-0.9600372314453125,2747.365651375,-0.6726827383176552,0.09677320331340464,0.05011525592763075,0.04986210912466049,-0.01284720841795206,-0.05188605934381485,0.01125653088092804,-0.05423048138618469,0.04160261154174805,XArbitraryZVertical,0.03958151658390418,0.03738390403576096,-0.3284019637710039,0.942967605416285,0.09650091826915741,-0.05009428039193153,-0.9940714836120605,0,0,0,-1,-1,2741.785744125,unknown,2,2022-06-30T09:12:27.366+02:00,2022-06-30T08:20:05.567+02:00,833,1.490593,0,0,651.261,0,0,2022-06-30T09:09:38.916+02:00,678265952.461239,0,-0.8900003,100.9209,1,0.97
2022-06-30T09:12:32.970+02:00,1656573152.059022,53.2290640287597,10.39857063443437,41.10189,0,0.07,-1,-1,4,5,-9999,2747.385554375,0.0758514404296875,-0.05181884765625,-0.9770050048828125,2747.375602375,-0.6732246978259178,0.09679941793990109,0.05073388195154939,0.08723904192447662,0.0002736535388976336,-0.04061343148350716,-0.01913151890039444,-0.03455441072583199,0.04384267330169678,XArbitraryZVertical,0.03988734535488268,0.03728316747855171,-0.32864025384496,0.9428757305795381,0.0965239629149437,-0.05071211978793144,-0.994037926197052,0,0,0,-1,-1,2741.785744125,unknown,2,2022-06-30T09:12:27.366+02:00,2022-06-30T08:20:05.567+02:00,833,1.490593,0,0,651.261,0,0,2022-06-30T09:09:38.916+02:00,678265952.461239,0,-0.8900003,100.9209,1,0.97
2022-06-30T09:12:32.977+02:00,1656573152.059022,53.2290640287597,10.39857063443437,41.10189,0,0.07,-1,-1,4,5,-9999,2747.395506375,0.088623046875,-0.0562286376953125,-0.98345947265625,2747.385554375,-0.6737371551327304,0.0969103987136341,0.05188671533952761,0.1451433598995209,0.005440718494355679,-0.03808103129267693,-0.03077176213264465,-0.003984156996011734,0.0339311957359314,XArbitraryZVertical,0.04045811565408806,0.03713434796487899,-0.3288484138062146,0.9427846335985737,0.09662856161594391,-0.05186343565583229,-0.9939683675765991,0,0,0,-1,-1,2741.785744125,unknown,2,2022-06-30T09:12:27.366+02:00,2022-06-30T08:20:05.567+02:00,833,1.490593,0,0,651.261,0,0,2022-06-30T09:09:38.916+02:00,678265952.461239,0,-0.8900003,100.9209,1,0.97
2022-06-30T09:12:32.987+02:00,1656573152.059022,53.2290640287597,10.39857063443437,41.10189,0,0.07,-1,-1,4,5,-9999,2747.405458375,0.08758544921875,-0.075531005859375,-0.9914093017578125,2747.395506375,-0.6742870868368491,0.09692969968631304,0.05343910653356897,0.1615632176399231,-0.01061957143247128,-0.03913917392492294,-0.0207885280251503,0.001594405621290207,0.01688021421432495,XArbitraryZVertical,0.04120255530450654,0.03687501510827029,-0.3290650071522282,0.9426870388193107,0.09663983434438705,-0.05341367423534393,-0.9938851594924927,0,0,0,-1,-1,2741.785744125,unknown,2,2022-06-30T09:12:27.366+02:00,2022-06-30T08:20:05.567+02:00,833,1.490593,0,0,651.261,0,0,2022-06-30T09:09:38.916+02:00,678265952.461239,0,-0.8900003,100.9209,1,0.97
2022-06-30T09:12:32.997+02:00,1656573152.059022,53.2290640287597,10.39857063443437,41.10189,0,0.07,-1,-1,4,5,-9999,2747.415410375,0.0857391357421875,-0.0801849365234375,-1.000732421875,2747.405458375,-0.6748004300975766,0.09680203779391638,0.05487063738700952,0.121778778731823,-0.01431284286081791,-0.03804142028093338,-0.007882542908191681,-0.001385949552059174,0.01036089658737183,XArbitraryZVertical,0.04186505971506139,0.03656680724680877,-0.3292705149262031,0.942598087832586,0.09650546312332153,-0.05484310910105705,-0.9938203692436218,0,0,0,-1,-1,2741.785744125,unknown,2,2022-06-30T09:12:27.366+02:00,2022-06-30T08:20:05.567+02:00,833,1.490593,0,0,651.261,0,0,2022-06-30T09:09:38.916+02:00,678265952.461239,0,-0.8900003,100.9209,1,0.97
2022-06-30T09:12:33.006+02:00,1656573152.059022,53.2290640287597,10.39857063443437,41.10189,0,0.07,-1,-1,4,5,-9999,2747.425362375,0.0885467529296875,-0.0471649169921875,-0.9936676025390625,2747.415410375,-0.6752134688498848,0.09654917982197035,0.05569855966416964,0.08153655380010605,-0.01713092625141144,-0.02473986148834229,-0.008664429187774658,-0.01986166834831238,0.002389907836914062,XArbitraryZVertical,0.04222076098589368,0.03630157172640807,-0.3294478319098401,0.9425305378017194,0.09624975919723511,-0.05566976591944695,-0.9937992095947266,0,0,0,-1,-1,2741.785744125,unknown,2,2022-06-30T09:12:27.366+02:00,2022-06-30T08:20:05.567+02:00,833,1.490593,0,0,651.261,0,0,2022-06-30T09:09:38.916+02:00,678265952.461239,0,-0.8900003,100.9209,1,0.97
2022-06-30T09:12:33.016+02:00,1656573152.059022,53.2290640287597,10.39857063443437,41.10189,0,0.07,-1,-1,4,5,-9999,2747.435314375,0.09075927734375,-0.026947021484375,-1.003021240234375,2747.425362375,-0.6754559878790318,0.09631893773450216,0.0562719560121276,0.03641940653324127,-0.01740762963891029,-0.01630696281790733,-0.0102788433432579,-0.02394310012459755,-0.006942987442016602,XArbitraryZVertical,0.04245717668217503,0.03609273793672288,-0.3295513016534117,0.9424917842841621,0.09601785242557526,-0.05624226108193398,-0.9937894344329834,0,0,0,-1,-1,2741.785744125,unknown,2,2022-06-30T09:12:27.366+02:00,2022-06-30T08:20:05.567+02:00,833,1.490593,0,0,651.261,0,0,2022-06-30T09:09:38.916+02:00,678265952.461239,0,-0.8900003,100.9209,1,0.97
2022-06-30T09:12:33.026+02:00,1656573152.059022,53.2290640287597,10.39857063443437,41.10189,0,0.07,-1,-1,4,5,-9999,2747.445266375,0.1022796630859375,-0.0191192626953125,-0.998199462890625,2747.435314375,-0.6756561566556621,0.09616244648054556,0.05675537260765384,0.05637713521718979,-0.02445224858820438,-0.01322115771472454,-0.007313080132007599,0.009559564292430878,0.0001096725463867188,XArbitraryZVertical,0.04266257697721627,0.03593444828512519,-0.3296357283186838,0.9424590527685197,0.09585971385240555,-0.0567249059677124,-0.9937772154808044,0,0,0,-1,-1,2741.785744125,unknown,2,2022-06-30T09:12:27.366+02:00,2022-06-30T08:20:05.567+02:00,833,1.490593,0,0,651.261,0,0,2022-06-30T09:09:38.916+02:00,678265952.461239,0,-0.8900003,100.9209,1,0.97
2022-06-30T09:12:33.036+02:00,1656573152.059022,53.2290640287597,10.39857063443437,41.10189,0,0.07,-1,-1,4,5,-9999,2747.455218375,0.0984954833984375,-0.042022705078125,-0.995758056640625,2747.445266375,-0.6758176926752657,0.09589403561973432,0.05754559554037292,0.0909351110458374,-0.03550436347723007,-0.005211167968809605,-0.004829496145248413,0.03056639432907104,-0.009263217449188232,XArbitraryZVertical,0.04299324096002733,0.03567323112947098,-0.3296959859448664,0.9424328205613123,0.09558864682912827,-0.05751384049654007,-0.9937580227851868,0,0,0,-1,-1,2741.785744125,unknown,2,2022-06-30T09:12:27.366+02:00,2022-06-30T08:20:05.567+02:00,833,1.490593,0,0,651.261,0,0,2022-06-30T09:09:38.916+02:00,678265952.461239,0,-0.8900003,100.9209,1,0.97
2022-06-30T09:12:33.046+02:00,1656573152.059022,53.2290640287597,10.39857063443437,41.10189,0,0.07,-1,-1,4,5,-9999,2747.465170375,0.0951385498046875,-0.0875091552734375,-0.989959716796875,2747.455218375,-0.6759609936497671,0.09551168765868535,0.05856464320626609,0.1018955484032631,-0.03385631740093231,-0.009833849966526031,0.00707649439573288,0.03941148519515991,-0.004463791847229004,XArbitraryZVertical,0.0434124719604712,0.03532063484583604,-0.3297439057530454,0.9424100466396358,0.09520304203033447,-0.05853117257356644,-0.9937356114387512,0,0,0,-1,-1,2741.785744125,unknown,2,2022-06-30T09:12:27.366+02:00,2022-06-30T08:20:05.567+02:00,833,1.490593,0,0,651.261,0,0,2022-06-30T09:09:38.916+02:00,678265952.461239,0,-0.8900003,100.9209,1,0.97
2022-06-30T09:12:33.056+02:00,1656573152.059022,53.2290640287597,10.39857063443437,41.10189,0,0.07,-1,-1,4,5,-9999,2747.475122375,0.100006103515625,-0.0939483642578125,-0.984466552734375,2747.465170375,-0.6761751115875054,0.09516392050370025,0.05941748325203038,0.07244312018156052,-0.03757728263735771,-0.01070710085332394,0.003642693161964417,0.01735939830541611,-0.002039432525634766,XArbitraryZVertical,0.04376034184182365,0.03501034270958898,-0.3298290177205982,0.942375884498028,0.09485266357660294,-0.05938252806663513,-0.9937186241149902,0,0,0,-1,-1,2741.785744125,unknown,2,2022-06-30T09:12:27.366+02:00,2022-06-30T08:20:05.567+02:00,833,1.490593,0,0,651.261,0,0,2022-06-30T09:09:38.916+02:00,678265952.461239,0,-0.8900003,100.9209,1,0.97
2022-06-30T09:12:33.066+02:00,1656573152.059022,53.2290640287597,10.39857063443437,41.10189,0,0.07,-1,-1,4,5,-9999,2747.485074375,0.0923004150390625,-0.08648681640625,-0.9877166748046875,2747.475122375,-0.6761626320395714,0.09470075866941481,0.0598529070287298,0.01006929017603397,-0.04725093767046928,0.01994864642620087,0.0007484778761863708,-0.02769240364432335,0.003776907920837402,XArbitraryZVertical,0.04388871215911595,0.03471999180769345,-0.3298214188800461,0.9423832165668048,0.09438995271921158,-0.05981717631220818,-0.9937366247177124,0,0,0,-1,-1,2741.785744125,unknown,2,2022-06-30T09:12:27.366+02:00,2022-06-30T08:20:05.567+02:00,833,1.490593,0,0,651.261,0,0,2022-06-30T09:09:38.916+02:00,678265952.461239,0,-0.8900003,100.9209,1,0.97
2022-06-30T09:12:33.077+02:00,1656573152.059022,53.2290640287597,10.39857063443437,41.10189,0,0.07,-1,-1,4,5,-9999,2747.495025375,0.093231201171875,-0.0803985595703125,-0.98907470703125,2747.485074375,-0.6758694449440409,0.09424665660823445,0.05968546025503927,-0.04080347716808319,-0.03920313343405724,0.03067266382277012,0.006066352128982544,-0.03429875150322914,0.009322822093963623,XArbitraryZVertical,0.04372994077635045,0.03454026997357635,-0.3296977748605437,0.9424404494781711,0.09393962472677231,-0.05965002998709679,-0.9937893152236938,0,0,0,-1,-1,2741.785744125,unknown,2,2022-06-30T09:12:27.366+02:00,2022-06-30T08:20:05.567+02:00,833,1.490593,0,0,651.261,0,0,2022-06-30T09:09:38.916+02:00,678265952.461239,0,-0.8900003,100.9209,1,0.97
2022-06-30T09:12:33.086+02:00,1656573152.059022,53.2290640287597,10.39857063443437,41.10189,0,0.07,-1,-1,4,5,-9999,2747.504977375,0.09649658203125,-0.06536865234375,-0.9937591552734375,2747.495025375,-0.6755229366802444,0.09383039833619899,0.05928268851006172,-0.0574030913412571,-0.03807366266846657,0.02801023423671722,-0.001227892935276031,-0.02723927050828934,0.006135523319244385,XArbitraryZVertical,0.04346574579649298,0.03441858016033211,-0.3295544622870323,0.9425072807439377,0.09352818876504898,-0.05924797058105469,-0.9938521981239319,0,0,0,-1,-1,2741.785744125,unknown,2,2022-06-30T09:12:27.366+02:00,2022-06-30T08:20:05.567+02:00,833,1.490593,0,0,651.261,0,0,2022-06-30T09:09:38.916+02:00,678265952.461239,0,-0.8900003,100.9209,1,0.97
2022-06-30T09:12:33.096+02:00,1656573152.059022,53.2290640287597,10.39857063443437,41.10189,0,0.07,-1,-1,4,5,-9999,2747.514929375,0.0967559814453125,-0.0472412109375,-0.994049072265625,2747.504977375,-0.6751389269484163,0.09340661126395751,0.05886333827144038,-0.04578318819403648,-0.03576203808188438,0.04087703302502632,0.000121772289276123,-0.0215696319937706,0.00484168529510498,XArbitraryZVertical,0.04319189485335935,0.0342968093607176,-0.3293939544177267,0.942580491441385,0.09310930222272873,-0.05882935225963593,-0.993916392326355,0,0,0,-1,-1,2741.785744125,unknown,2,2022-06-30T09:12:27.366+02:00,2022-06-30T08:20:05.567+02:00,833,1.490593,0,0,651.261,0,0,2022-06-30T09:09:38.916+02:00,678265952.461239,0,-0.8900003,100.9209,1,0.97
2022-06-30T09:12:33.106+02:00,1656573152.059022,53.2290640287597,10.39857063443437,41.10189,0,0.07,-1,-1,4,5,-9999,2747.524881375,0.0962677001953125,-0.0281829833984375,-0.9937744140625,2747.514929375,-0.6746698250697083,0.0930059384314586,0.05855951796541165,-0.009757343679666519,-0.03460938483476639,0.04480868950486183,0.003783740103244781,-0.006843023002147675,0.0002121925354003906,XArbitraryZVertical,0.04297483902133799,0.03416848749310877,-0.3291896384096996,0.9426664619408406,0.09271271526813507,-0.05852605402469635,-0.9939713478088379,0,0,0,-1,-1,2741.785744125,unknown,2,2022-06-30T09:12:27.366+02:00,2022-06-30T08:20:05.567+02:00,833,1.490593,0,0,651.261,0,0,2022-06-30T09:09:38.916+02:00,678265952.461239,0,-0.8900003,100.9209,1,0.97
2022-06-30T09:12:33.116+02:00,1656573152.059022,53.2290640287597,10.39857063443437,41.10189,0,0.07,-1,-1,4,5,-9999,2747.534833375,0.09881591796875,-0.02484130859375,-0.998931884765625,2747.524881375,-0.6742651843767333,0.09267121886620079,0.05857513094493888,0.03798700869083405,-0.02673335373401642,0.03801602870225906,0.004375934600830078,0.01130000501871109,-4.762411117553711e-05,XArbitraryZVertical,0.04292022212683726,0.03401681776279895,-0.3290057057641703,0.9427385424784724,0.09237992763519287,-0.05854164063930511,-0.9940014481544495,0,0,0,-1,-1,2741.785744125,unknown,2,2022-06-30T09:12:27.366+02:00,2022-06-30T08:20:05.567+02:00,833,1.490593,0,0,651.261,0,0,2022-06-30T09:09:38.916+02:00,678265952.461239,0,-0.8900003,100.9209,1,0.97
2022-06-30T09:12:33.126+02:00,1656573152.059022,53.2290640287597,10.39857063443437,41.10189,0,0.07,-1,-1,4,5,-9999,2747.544785375,0.097442626953125,-0.03765869140625,-0.99530029296875,2747.534833375,-0.6739772719008421,0.09246643143911112,0.05908392505247885,0.0896257683634758,-0.02168013900518417,0.03429090231657028,0.004093967378139496,0.03086614608764648,0.0002161264419555664,XArbitraryZVertical,0.0431212621489867,0.03384214468024611,-0.3288608116609872,0.9427862407444528,0.09217360615730286,-0.05904955416917801,-0.9939905405044556,0,0,0,-1,-1,2741.785744125,unknown,2,2022-06-30T09:12:27.366+02:00,2022-06-30T08:20:05.567+02:00,833,1.490593,0,0,651.261,0,0,2022-06-30T09:09:38.916+02:00,678265952.461239,0,-0.8900003,100.9209,1,0.97
2022-06-30T09:12:33.136+02:00,1656573152.059022,53.2290640287597,10.39857063443437,41.10189,0,0.07,-1,-1,4,5,-9999,2747.554737375,0.0978851318359375,-0.0609283447265625,-0.9939422607421875,2747.544785375,-0.6737476714293926,0.09231253085849085,0.0601449783054022,0.1246985346078873,-0.01157983392477036,0.0339614674448967,0.006800994277000427,0.03526699170470238,-0.004990100860595703,XArbitraryZVertical,0.04359179393074997,0.0335987612574182,-0.3287275985921055,0.9428196922763457,0.09201479703187943,-0.0601087249815464,-0.9939417839050293,0,0,0,-1,-1,2741.785744125,unknown,2,2022-06-30T09:12:27.366+02:00,2022-06-30T08:20:05.567+02:00,833,1.490593,0,0,651.261,0,0,2022-06-30T09:09:38.916+02:00,678265952.461239,0,-0.8900003,100.9209,1,0.97
2022-06-30T09:12:33.146+02:00,1656573152.059022,53.2290640287597,10.39857063443437,41.10189,0,0.07,-1,-1,4,5,-9999,2747.564689375,0.098846435546875,-0.079833984375,-0.988189697265625,2747.554737375,-0.6735463419063803,0.09224608084260653,0.06154005694036833,0.1263548880815506,-0.001793104922398925,0.03206643089652061,0.00550156831741333,0.02384210377931595,-0.001436889171600342,XArbitraryZVertical,0.04423451461181823,0.03334075361605387,-0.3285967688204426,0.9428446200794026,0.09194093942642212,-0.06150121986865997,-0.9938634037971497,0,0,0,-1,-1,2741.785744125,unknown,2,2022-06-30T09:12:27.366+02:00,2022-06-30T08:20:05.567+02:00,833,1.490593,0,0,651.261,0,0,2022-06-30T09:09:38.916+02:00,678265952.461239,0,-0.8900003,100.9209,1,0.97
2022-06-30T09:12:33.156+02:00,1656573152.059022,53.2290640287597,10.39857063443437,41.10189,0,0.07,-1,-1,4,5,-9999,2747.574641375,0.099578857421875,-0.08050537109375,-0.990478515625,2747.564689375,-0.6733528262131597,0.09226190241631521,0.06277774801096181,0.09002910554409027,0.002371013863012195,0.02777048386633396,0.005935423076152802,0.001807756721973419,-0.0001568198204040527,XArbitraryZVertical,0.04481679526197493,0.03314753486867613,-0.3284719291023427,0.9428674015306778,0.09194958209991455,-0.06273651868104935,-0.9937853813171387,0,0,0,-1,-1,2741.785744125,unknown,2,2022-06-30T09:12:27.366+02:00,2022-06-30T08:20:05.567+02:00,833,1.490593,0,0,651.261,0,0,2022-06-30T09:09:38.916+02:00,678265952.461239,0,-0.8900003,100.9209,1,0.97
2022-06-30T09:12:33.166+02:00,1656573152.059022,53.2290640287597,10.39857063443437,41.10189,0,0.07,-1,-1,4,5,-9999,2747.584593375,0.1011505126953125,-0.07220458984375,-0.99017333984375,2747.574641375,-0.6730961130744367,0.09231756143846293,0.06355440235221144,0.04408198595046997,0.01344465557485819,0.03655658662319183,0.006845936179161072,-0.0163227841258049,0.005541801452636719,XArbitraryZVertical,0.04518745935323654,0.03305095658008556,-0.3283287026690536,0.9429029998783143,0.09200037270784378,-0.06351162493228912,-0.9937314391136169,0,0,0,-1,-1,2741.785744125,unknown,2,2022-06-30T09:12:27.366+02:00,2022-06-30T08:20:05.567+02:00,833,1.490593,0,0,651.261,0,0,2022-06-30T09:09:38.916+02:00,678265952.461239,0,-0.8900003,100.9209,1,0.97
2022-06-30T09:12:33.176+02:00,1656573152.059022,53.2290640287597,10.39857063443437,41.10189,0,0.07,-1,-1,4,5,-9999,2747.594545375,0.1027984619140625,-0.0663299560546875,-0.9925994873046875,2747.584593375,-0.672764562541875,0.09244172066328882,0.06390739366176439,0.01260661892592907,0.01566972583532333,0.0354796014726162,0.007457047700881958,-0.01664189249277115,0.003219187259674072,XArbitraryZVertical,0.04536860606897839,0.03305857513583137,-0.3281600265032307,0.9429527867397602,0.0921216756105423,-0.06386390328407288,-0.9936976432800293,0,0,0,-1,-1,2741.785744125,unknown,2,2022-06-30T09:12:27.366+02:00,2022-06-30T08:20:05.567+02:00,833,1.490593,0,0,651.261,0,0,2022-06-30T09:09:38.916+02:00,678265952.461239,0,-0.8900003,100.9209,1,0.97
2022-06-30T09:12:33.186+02:00,1656573152.059022,53.2290640287597,10.39857063443437,41.10189,0,0.07,-1,-1,4,5,-9999,2747.604497625,0.104736328125,-0.0635986328125,-0.9951324462890625,2747.594545375,-0.6724552574804927,0.09262101268885327,0.06403190322988955,0.005877275951206684,0.0201135128736496,0.0287929717451334,0.008851289749145508,-0.00821685791015625,0.003499865531921387,XArbitraryZVertical,0.045451545615016,0.03312953353054631,-0.3280067578479998,0.9429995918395314,0.09229910373687744,-0.06398815661668777,-0.9936732053756714,0,0,0,-1,-1,2741.785744125,unknown,2,2022-06-30T09:12:27.366+02:00,2022-06-30T08:20:05.567+02:00,833,1.490593,0,0,651.261,0,0,2022-06-30T09:09:38.916+02:00,678265952.461239,0,-0.8900003,100.9209,1,0.97
2022-06-30T09:12:33.196+02:00,1656573152.059022,53.2290640287597,10.39857063443437,41.10189,0,0.07,-1,-1,4,5,-9999,2747.614449625,0.096954345703125,-0.0691986083984375,-0.9921112060546875,2747.604497625,-0.6721752556741568,0.09283610097745576,0.06403281110907401,0.00302502978593111,0.0182676762342453,0.03082682751119137,0.01028550416231155,-0.002341307699680328,0.001053810119628906,XArbitraryZVertical,0.04548259556449618,0.03323716519223342,-0.3278698204200791,0.9430419249577324,0.0925128236413002,-0.0639890655875206,-0.9936532378196716,0,0,0,-1,-1,2741.785744125,unknown,2,2022-06-30T09:12:27.366+02:00,2022-06-30T08:20:05.567+02:00,833,1.490593,0,0,651.261,0,0,2022-06-30T09:09:38.916+02:00,678265952.461239,0,-0.8900003,100.9209,1,0.97
2022-06-30T09:12:33.206+02:00,1656573152.059022,53.2290640287597,10.39857063443437,41.10189,0,0.07,-1,-1,4,5,-9999,2747.624400625,0.0933685302734375,-0.0690155029296875,-0.9865875244140625,2747.614449625,-0.6718304489068374,0.09307062653712925,0.06388772749851804,-0.004290873184800148,0.02429686859250069,0.03861507400870323,0.01198948919773102,0.000245220959186554,-0.001491665840148926,XArbitraryZVertical,0.04544694396542621,0.03337957170752168,-0.3277058236441334,0.9430957049103271,0.09274671971797943,-0.06384427845478058,-0.9936407804489136,0,0,0,-1,-1,2741.785744125,unknown,2,2022-06-30T09:12:27.366+02:00,2022-06-30T08:20:05.567+02:00,833,1.490593,0,0,651.261,0,0,2022-06-30T09:09:38.916+02:00,678265952.461239,0,-0.8900003,100.9209,1,0.97
2022-06-30T09:12:33.216+02:00,1656573152.059022,53.2290640287597,10.39857063443437,41.10189,0,0.07,-1,-1,4,5,-9999,2747.634352625,0.0946807861328125,-0.066864013671875,-0.97900390625,2747.624400625,-0.6714024802999204,0.0933586163281066,0.06353348805669311,-0.03188175335526466,0.02859867177903652,0.04464340582489967,0.003919243812561035,-0.005708277225494385,0.001525282859802246,XArbitraryZVertical,0.04532008483832155,0.0335836111638735,-0.3275071383849061,0.9431634954740771,0.09303497523069382,-0.06349075585603714,-0.9936364889144897,0,0,0,-1,-1,2741.785744125,unknown,2,2022-06-30T09:12:27.366+02:00,2022-06-30T08:20:05.567+02:00,833,1.490593,0,0,651.261,0,0,2022-06-30T09:09:38.916+02:00,678265952.461239,0,-0.8900003,100.9209,1,0.97
2022-06-30T09:12:33.226+02:00,1656573152.059022,53.2290640287597,10.39857063443437,41.10189,0,0.07,-1,-1,4,5,-9999,2747.644304625,0.0899505615234375,-0.0715484619140625,-0.9743804931640625,2747.634352625,-0.6709011881496322,0.09365207040918931,0.06300960905527725,-0.05532995238900185,0.03254409506917,0.04743073880672455,3.874301910400391e-05,-0.006047993898391724,0.007054626941680908,XArbitraryZVertical,0.04511287071094391,0.03381982659670852,-0.3272783839080449,0.9432443425023075,0.09332965314388275,-0.0629679262638092,-0.9936420917510986,0,0,0,-1,-1,2741.785744125,unknown,2,2022-06-30T09:12:27.366+02:00,2022-06-30T08:20:05.567+02:00,833,1.490593,0,0,651.261,0,0,2022-06-30T09:09:38.916+02:00,678265952.461239,0,-0.8900003,100.9209,1,0.97
2022-06-30T09:12:33.236+02:00,1656573152.059022,53.2290640287597,10.39857063443437,41.10189,0,0.07,-1,-1,4,5,-9999,2747.654256625,0.0936737060546875,-0.0680999755859375,-0.9765777587890625,2747.644304625,-0.6703961849766505,0.09398198617313962,0.06237613596028078,-0.07457342743873596,0.03396063297986984,0.0420018844306469,0.001019470393657684,-0.004528746008872986,0.01464688777923584,XArbitraryZVertical,0.04485979436116639,0.03409129162508968,-0.3270500467397477,0.9433259047563521,0.09366118907928467,-0.06233569607138634,-0.9936507940292358,0,0,0,-1,-1,2741.785744125,unknown,2,2022-06-30T09:12:27.366+02:00,2022-06-30T08:20:05.567+02:00,833,1.490593,0,0,651.261,0,0,2022-06-30T09:09:38.916+02:00,678265952.461239,0,-0.8900003,100.9209,1,0.97
2022-06-30T09:12:33.245+02:00,1656573152.059022,53.2290640287597,10.39857063443437,41.10189,0,0.07,-1,-1,4,5,-9999,2747.664208625,0.0989532470703125,-0.0359039306640625,-0.96588134765625,2747.654256625,-0.6698732276887458,0.09430652940115627,0.06183205225335078,-0.05638370290398598,0.03365263715386391,0.05106551945209503,-0.004036419093608856,-0.009756229817867279,0.01927345991134644,XArbitraryZVertical,0.04464752685357706,0.03434576521388731,-0.3268109809401199,0.9434095542463098,0.09398684650659561,-0.06179266050457954,-0.9936539530754089,0,0,0,-1,-1,2741.785744125,unknown,2,2022-06-30T09:12:27.366+02:00,2022-06-30T08:20:05.567+02:00,833,1.490593,0,0,651.261,0,0,2022-06-30T09:09:38.916+02:00,678265952.461239,0,-0.8900003,100.9209,1,0.97
2022-06-30T09:12:33.255+02:00,1656573152.059022,53.2290640287597,10.39857063443437,41.10189,0,0.07,-1,-1,4,5,-9999,2747.674160625,0.1016082763671875,-0.02203369140625,-0.9694061279296875,2747.664208625,-0.6692904257129217,0.09465559243358038,0.06156837273219064,-0.0237575825303793,0.03469686210155487,0.05503123253583908,-0.0006616488099098206,-0.006570916622877121,0.01705950498580933,XArbitraryZVertical,0.04457023814876392,0.03456685776460977,-0.3265354676239798,0.9435005983634992,0.09433522820472717,-0.0615294836461544,-0.9936372637748718,0,0,0,-1,-1,2741.785744125,unknown,2,2022-06-30T09:12:27.366+02:00,2022-06-30T08:20:05.567+02:00,833,1.490593,0,0,651.261,0,0,2022-06-30T09:09:38.916+02:00,678265952.461239,0,-0.8900003,100.9209,1,0.97
2022-06-30T09:12:33.265+02:00,1656573152.059022,53.2290640287597,10.39857063443437,41.10189,0,0.07,-1,-1,4,5,-9999,2747.684112625,0.0983123779296875,-0.03448486328125,-0.9690704345703125,2747.674160625,-0.6688076008017307,0.09495563685913108,0.06171448403454689,0.03486219048500061,0.02156125567853451,0.04567974433302879,0.004320614039897919,0.02577096223831177,0.02771860361099243,XArbitraryZVertical,0.04467971125333497,0.0346951345132309,-0.3262969967105572,0.9435731612661798,0.09463250637054443,-0.06167531758546829,-0.9935999512672424,0,0,0,-1,-1,2741.785744125,unknown,2,2022-06-30T09:12:27.366+02:00,2022-06-30T08:20:05.567+02:00,833,1.490593,0,0,651.261,0,0,2022-06-30T09:09:38.916+02:00,678265952.461239,0,-0.8900003,100.9209,1,0.97
2022-06-30T09:12:33.275+02:00,1656573152.059022,53.2290640287597,10.39857063443437,41.10189,0,0.07,-1,-1,4,5,-9999,2747.694064625,0.0952606201171875,-0.0664520263671875,-0.9722442626953125,2747.684112625,-0.6684071091231366,0.09518722342422502,0.06234414706079189,0.07686369866132736,0.02069013565778732,0.04562275111675262,0.006749249994754791,0.04026965424418449,0.02413302659988403,XArbitraryZVertical,0.04500730356497402,0.03470980517657142,-0.3260855251082574,0.9436301645867046,0.09485889971256256,-0.06230376660823822,-0.9935391545295715,0,0,0,-1,-1,2741.785744125,unknown,2,2022-06-30T09:12:27.366+02:00,2022-06-30T08:20:05.567+02:00,833,1.490593,0,0,651.261,0,0,2022-06-30T09:09:38.916+02:00,678265952.461239,0,-0.8900003,100.9209,1,0.97
2022-06-30T09:12:33.285+02:00,1656573152.059022,53.2290640287597,10.39857063443437,41.10189,0,0.07,-1,-1,4,5,-9999,2747.704016625,0.095977783203125,-0.089996337890625,-0.9734649658203125,2747.694064625,-0.66802379401562,0.09542185032184332,0.0632063311202852,0.08184447884559631,0.02008775435388088,0.04912900552153587,0.003225401043891907,0.02867896854877472,0.02439260482788086,XArbitraryZVertical,0.04544527622285113,0.03468743160249367,-0.3258755431380354,0.9436825185741435,0.09508685022592545,-0.06316425651311874,-0.9934630393981934,0,0,0,-1,-1,2741.785744125,unknown,2,2022-06-30T09:12:27.366+02:00,2022-06-30T08:20:05.567+02:00,833,1.490593,0,0,651.261,0,0,2022-06-30T09:09:38.916+02:00,678265952.461239,0,-0.8900003,100.9209,1,0.97
2022-06-30T09:12:33.295+02:00,1656573152.059022,53.2290640287597,10.39857063443437,41.10189,0,0.07,-1,-1,4,5,-9999,2747.713968625,0.0977325439453125,-0.092926025390625,-0.97503662109375,2747.704016625,-0.6675936381221356,0.09556652051330318,0.06399285172444441,0.05771863460540771,0.01360428705811501,0.05179669335484505,3.468245267868042e-05,-0.002503260970115662,0.02115523815155029,XArbitraryZVertical,0.04583211636612661,0.03463627413415796,-0.3256474423355538,0.9437444707372349,0.09522581100463867,-0.06394918262958527,-0.9933995008468628,0,0,0,-1,-1,2741.785744125,unknown,2,2022-06-30T09:12:27.366+02:00,2022-06-30T08:20:05.567+02:00,833,1.490593,0,0,651.261,0,0,2022-06-30T09:09:38.916+02:00,678265952.461239,0,-0.8900003,100.9209,1,0.97
2022-06-30T09:12:33.305+02:00,1656573152.059022,53.2290640287597,10.39857063443437,41.10189,0,0.07,-1,-1,4,5,-9999,2747.723920625,0.0949859619140625,-0.0848236083984375,-0.975494384765625,2747.713968625,-0.6670819774598371,0.09564203563795967,0.06439621740860416,0.007877776399254799,0.008962530642747879,0.05418651178479195,0.0006792992353439331,-0.02564503997564316,0.01990163326263428,XArbitraryZVertical,0.0460256954212503,0.03461742323227777,-0.325393057627508,0.9438234129040254,0.09529834985733032,-0.06435172259807587,-0.993366539478302,0,0,0,-1,-1,2741.785744125,unknown,2,2022-06-30T09:12:27.366+02:00,2022-06-30T08:20:05.567+02:00,833,1.490593,0,0,651.261,0,0,2022-06-30T09:09:38.916+02:00,678265952.461239,0,-0.8900003,100.9209,1,0.97
2022-06-30T09:12:33.329+02:00,1656573152.059022,53.2290640287597,10.39857063443437,41.10189,0,0.07,-1,-1,4,5,-9999,2747.733872625,0.097442626953125,-0.08251953125,-0.9819488525390625,2747.723920625,-0.6665492084149316,0.09568143840192973,0.06434309355076083,-0.02731616422533989,0.00613904744386673,0.04974089562892914,0.002394586801528931,-0.02862773090600967,0.01832962036132812,XArbitraryZVertical,0.04599783047731679,0.03465699230372627,-0.3251421903775663,0.9439098053353059,0.09533782303333282,-0.06429870426654816,-0.9933661818504333,0,0,0,-1,-1,2741.785744125,unknown,2,2022-06-30T09:12:27.366+02:00,2022-06-30T08:20:05.567+02:00,833,1.490593,0,0,651.261,0,0,2022-06-30T09:09:38.916+02:00,678265952.461239,0,-0.8900003,100.9209,1,0.97
2022-06-30T09:12:33.331+02:00,1656573152.059022,53.2290640287597,10.39857063443437,41.10189,0,0.07,-1,-1,4,5,-9999,2747.743823625,0.1010589599609375,-0.0717315673828125,-0.9865875244140625,2747.733872625,-0.666054028176337,0.0956829925789633,0.06406733397312489,-0.04020293429493904,0.005552450660616159,0.04332241415977478,-0.0003552213311195374,-0.02080050855875015,0.01788932085037231,XArbitraryZVertical,0.04585948266325084,0.03471431234864717,-0.3249161182817719,0.9439922613775354,0.09534105658531189,-0.06402351707220078,-0.9933836460113525,0,0,0,-1,-1,2741.785744125,unknown,2,2022-06-30T09:12:27.366+02:00,2022-06-30T08:20:05.567+02:00,833,1.490593,0,0,651.261,0,0,2022-06-30T09:09:38.916+02:00,678265952.461239,0,-0.8900003,100.9209,1,0.97
2022-06-30T09:12:33.336+02:00,1656573152.059022,53.2290640287597,10.39857063443437,41.10189,0,0.07,-1,-1,4,5,-9999,2747.753775625,0.09765625,-0.059478759765625,-0.98388671875,2747.743823625,-0.6655738177223416,0.0956673820559201,0.06373203820947668,-0.03876802325248718,-0.003621340729296207,0.04372242093086243,0.002114906907081604,-0.0188310518860817,0.01145762205123901,XArbitraryZVertical,0.04569050936300464,0.03477287227849248,-0.3246991357196897,0.9440729283681767,0.09532759338617325,-0.06368890404701233,-0.9934064745903015,0,0,0,-1,-1,2741.785744125,unknown,2,2022-06-30T09:12:27.366+02:00,2022-06-30T08:20:05.567+02:00,833,1.490593,0,0,651.261,0,0,2022-06-30T09:09:38.916+02:00,678265952.461239,0,-0.8900003,100.9209,1,0.97
2022-06-30T09:12:33.345+02:00,1656573152.059022,53.2290640287597,10.39857063443437,41.10189,0,0.07,-1,-1,4,5,-9999,2747.763727625,0.0882720947265625,-0.05859375,-0.983367919921875,2747.753775625,-0.6651338282395383,0.09560112139406589,0.06334763617424255,-0.02659730985760689,-0.00914424005895853,0.03959261998534203,0.005794733762741089,-0.008426718413829803,0.006849527359008789,XArbitraryZVertical,0.04549083052194042,0.03481456346675241,-0.3245036103031965,0.9441482883831338,0.09526409953832626,-0.06330527365207672,-0.9934370517730713,0,0,0,-1,-1,2741.785744125,unknown,2,2022-06-30T09:12:27.366+02:00,2022-06-30T08:20:05.567+02:00,833,1.490593,0,0,651.261,0,0,2022-06-30T09:09:38.916+02:00,678265952.461239,0,-0.8900003,100.9209,1,0.97
2022-06-30T09:12:33.355+02:00,1656573152.059022,53.2290640287597,10.39857063443437,41.10189,0,0.07,-1,-1,4,5,-9999,2747.773679625,0.0873870849609375,-0.065765380859375,-0.980194091796875,2747.763727625,-0.664708109782317,0.09555232536684506,0.06304098502610574,-0.01809969544410706,-0.001774740871042013,0.0462459959089756,0.002438649535179138,0.00352005660533905,0.009574294090270996,XArbitraryZVertical,0.04533088141129692,0.03485137052090294,-0.3243122270785643,0.9442204293237945,0.09521747380495071,-0.06299924105405807,-0.993461012840271,0,0,0,-1,-1,2741.785744125,unknown,2,2022-06-30T09:12:27.366+02:00,2022-06-30T08:20:05.567+02:00,833,1.490593,0,0,651.261,0,0,2022-06-30T09:09:38.916+02:00,678265952.461239,0,-0.8900003,100.9209,1,0.97
2022-06-30T09:12:33.365+02:00,1656573152.059022,53.2290640287597,10.39857063443437,41.10189,0,0.07,-1,-1,4,5,-9999,2747.783631625,0.09295654296875,-0.0689239501953125,-0.979766845703125,2747.773679625,-0.6642274756049003,0.09553096020617673,0.06283878114076237,-0.01591310650110245,0.0008887106087058783,0.04729361832141876,-0.006925493478775024,0.004203267395496368,0.01010781526565552,XArbitraryZVertical,0.04522367466089739,0.03488522927416009,-0.3240913999065171,0.9443000834107945,0.09519746154546738,-0.0627974346280098,-0.9934756755828857,0,0,0,-1,-1,2741.785744125,unknown,2,2022-06-30T09:12:27.366+02:00,2022-06-30T08:20:05.567+02:00,833,1.490593,0,0,651.261,0,0,2022-06-30T09:09:38.916+02:00,678265952.461239,0,-0.8900003,100.9209,1,0.97
2022-06-30T09:12:33.375+02:00,1656573152.059022,53.2290640287597,10.39857063443437,41.10189,0,0.07,-1,-1,4,5,-9999,2747.793583625,0.0923004150390625,-0.061767578125,-0.975128173828125,2747.783631625,-0.6637543666726425,0.09552590749568592,0.06274453695723732,-0.016291543841362,0.001948382472619414,0.04644087329506874,-0.007806047797203064,-0.003062427043914795,0.01328796148300171,XArbitraryZVertical,0.04517014459656151,0.03490893492611272,-0.3238707215152956,0.9443775321023344,0.09519299864768982,-0.06270337849855423,-0.9934820532798767,0,0,0,-1,-1,2741.785744125,unknown,2,2022-06-30T09:12:27.366+02:00,2022-06-30T08:20:05.567+02:00,833,1.490593,0,0,651.261,0,0,2022-06-30T09:09:38.916+02:00,678265952.461239,0,-0.8900003,100.9209,1,0.97
2022-06-30T09:12:33.385+02:00,1656573152.059022,53.2290640287597,10.39857063443437,41.10189,0,0.07,-1,-1,4,5,-9999,2747.803535625,0.087158203125,-0.06353759765625,-0.9698638916015625,2747.793583625,-0.6632714227562996,0.09548047388109925,0.06268408611948117,-0.02028388902544975,-0.00667207594960928,0.04950737208127975,-0.002191811800003052,-0.006281331181526184,0.01372331380844116,XArbitraryZVertical,0.04512584334312032,0.03490825389573573,-0.3236453643589762,0.9444569482132579,0.0951482281088829,-0.06264304369688034,-0.9934901595115662,0,0,0,-1,-1,2741.785744125,unknown,2,2022-06-30T09:12:27.366+02:00,2022-06-30T08:20:05.567+02:00,833,1.490593,0,0,651.261,0,0,2022-06-30T09:09:38.916+02:00,678265952.461239,0,-0.8900003,100.9209,1,0.97
2022-06-30T09:12:33.395+02:00,1656573152.059022,53.2290640287597,10.39857063443437,41.10189,0,0.07,-1,-1,4,5,-9999,2747.813487625,0.0887451171875,-0.0748291015625,-0.972747802734375,2747.803535625,-0.6627887846260598,0.0954029709722916,0.06265427513909845,-0.01126296259462833,-0.002276262501254678,0.04449929669499397,-0.002771124243736267,0.0008452907204627991,0.01837122440338135,XArbitraryZVertical,0.04509081975505969,0.03488740320776337,-0.3234200072275156,0.9445366027379459,0.09507140517234802,-0.06261329352855682,-0.9934993982315063,0,0,0,-1,-1,2741.785744125,unknown,2,2022-06-30T09:12:27.366+02:00,2022-06-30T08:20:05.567+02:00,833,1.490593,0,0,651.261,0,0,2022-06-30T09:09:38.916+02:00,678265952.461239,0,-0.8900003,100.9209,1,0.97
2022-06-30T09:12:33.405+02:00,1656573152.059022,53.2290640287597,10.39857063443437,41.10189,0,0.07,-1,-1,4,5,-9999,2747.823439625,0.0946044921875,-0.0836334228515625,-0.9768218994140625,2747.813487625,-0.6623439792172139,0.0953714949011079,0.06267416079242362,-0.009628446772694588,-0.0009563032072037458,0.04358457028865814,-0.00788193941116333,-0.0009048804640769958,0.02363723516464233,XArbitraryZVertical,0.04508736184195679,0.03487932336212431,-0.3232101167434013,0.9446088051211345,0.09504001587629318,-0.06263313442468643,-0.9935011267662048,0,0,0,-1,-1,2741.785744125,unknown,2,2022-06-30T09:12:27.366+02:00,2022-06-30T08:20:05.567+02:00,833,1.490593,0,0,651.261,0,0,2022-06-30T09:09:38.916+02:00,678265952.461239,0,-0.8900003,100.9209,1,0.97
2022-06-30T09:12:33.415+02:00,1656573152.059022,53.2290640287597,10.39857063443437,41.10189,0,0.07,-1,-1,4,5,-9999,2747.833391625,0.0988616943359375,-0.0787353515625,-0.9844818115234375,2747.823439625,-0.6618680453682473,0.0953254654751936,0.06265659813241042,-0.01365115214139223,-0.006238949485123158,0.05025951564311981,-0.006249397993087769,-0.01221391558647156,0.02075880765914917,XArbitraryZVertical,0.04506334031666991,0.03487117108080173,-0.3229868455847249,0.9446866116924422,0.09499438852071762,-0.06261561065912247,-0.9935066103935242,0,0,0,-1,-1,2741.785744125,unknown,2,2022-06-30T09:12:27.366+02:00,2022-06-30T08:20:05.567+02:00,833,1.490593,0,0,651.261,0,0,2022-06-30T09:09:38.916+02:00,678265952.461239,0,-0.8900003,100.9209,1,0.97
2022-06-30T09:12:33.425+02:00,1656573152.059022,53.2290640287597,10.39857063443437,41.10189,0,0.07,-1,-1,4,5,-9999,2747.843343625,0.095703125,-0.0618438720703125,-0.9796295166015625,2747.833391625,-0.6613296678441973,0.09522853731188317,0.06254461178963636,-0.02210742048919201,-0.01411073375493288,0.05596104264259338,-0.0002944022417068481,-0.02112998813390732,0.01670092344284058,XArbitraryZVertical,0.04498546153089118,0.03485574128018007,-0.322737796598845,0.9447760437736666,0.09489875286817551,-0.06250384449958801,-0.9935227632522583,0,0,0,-1,-1,2741.785744125,unknown,2,2022-06-30T09:12:27.366+02:00,2022-06-30T08:20:05.567+02:00,833,1.490593,0,0,651.261,0,0,2022-06-30T09:09:38.916+02:00,678265952.461239,0,-0.8900003,100.9209,1,0.97
2022-06-30T09:12:33.435+02:00,1656573152.059022,53.2290640287597,10.39857063443437,41.10189,0,0.07,-1,-1,4,5,-9999,2747.853295625,0.0905609130859375,-0.0540924072265625,-0.9887847900390625,2747.843343625,-0.6607849959836432,0.09503301880311009,0.06236409660717294,-0.02005172707140446,-0.02125226520001888,0.04855053126811981,0.004155993461608887,-0.01641209423542023,0.009070754051208496,XArbitraryZVertical,0.04485924726650609,0.0348049819716568,-0.322489850624526,0.9448685751849438,0.09470557421445847,-0.0623236782848835,-0.9935525059700012,0,0,0,-1,-1,2741.785744125,unknown,2,2022-06-30T09:12:27.366+02:00,2022-06-30T08:20:05.567+02:00,833,1.490593,0,0,651.261,0,0,2022-06-30T09:09:38.916+02:00,678265952.461239,0,-0.8900003,100.9209,1,0.97
2022-06-30T09:12:33.445+02:00,1656573152.059022,53.2290640287597,10.39857063443437,41.10189,0,0.07,-1,-1,4,5,-9999,2747.863247625,0.0875701904296875,-0.0544586181640625,-0.987823486328125,2747.853295625,-0.6603142920330419,0.09476053378352842,0.06230298584650986,-0.00103788822889328,-0.02103898301720619,0.04641617089509964,0.001267790794372559,0.000418398529291153,0.01395261287689209,XArbitraryZVertical,0.04477830439126705,0.03469672942417854,-0.3222752522891216,0.9449495995218631,0.0944352000951767,-0.06226268783211708,-0.9935820698738098,0,0,0,-1,-1,2741.785744125,unknown,2,2022-06-30T09:12:27.366+02:00,2022-06-30T08:20:05.567+02:00,833,1.490593,0,0,651.261,0,0,2022-06-30T09:09:38.916+02:00,678265952.461239,0,-0.8900003,100.9209,1,0.97
2022-06-30T09:12:33.454+02:00,1656573152.059022,53.2290640287597,10.39857063443437,41.10189,0,0.07,-1,-1,4,5,-9999,2747.873198625,0.0894775390625,-0.065673828125,-0.9884490966796875,2747.863247625,-0.6598658126079654,0.09451469930207565,0.06239868717502314,0.001966690178960562,-0.01949568092823029,0.04220731183886528,-0.003629595041275024,0.008265368640422821,0.004814565181732178,XArbitraryZVertical,0.0447761090788209,0.03457506534563916,-0.3220662264527911,0.9450254376805568,0.09419037401676178,-0.06235820427536964,-0.9935993552207947,0,0,0,-1,-1,2741.785744125,unknown,2,2022-06-30T09:12:27.366+02:00,2022-06-30T08:20:05.567+02:00,833,1.490593,0,0,651.261,0,0,2022-06-30T09:09:38.916+02:00,678265952.461239,0,-0.8900003,100.9209,1,0.97
2022-06-30T09:12:33.464+02:00,1656573152.059022,53.2290640287597,10.39857063443437,41.10189,0,0.07,-1,-1,4,5,-9999,2747.883150625,0.09442138671875,-0.07666015625,-0.9860076904296875,2747.873198625,-0.6594671412288683,0.09431312882565475,0.06245336408907935,-0.005848356056958437,-0.01904231496155262,0.03837462514638901,-0.006419718265533447,0.00795372948050499,0.005791425704956055,XArbitraryZVertical,0.04476258782877519,0.03447986315115369,-0.3218808627945934,0.9450926903911833,0.0939897745847702,-0.06241277232766151,-0.9936149120330811,0,0,0,-1,-1,2741.785744125,unknown,2,2022-06-30T09:12:27.366+02:00,2022-06-30T08:20:05.567+02:00,833,1.490593,0,0,651.261,0,0,2022-06-30T09:09:38.916+02:00,678265952.461239,0,-0.8900003,100.9209,1,0.97
2022-06-30T09:12:33.475+02:00,1656573152.059022,53.2290640287597,10.39857063443437,41.10189,0,0.07,-1,-1,4,5,-9999,2747.893102625,0.091461181640625,-0.0767059326171875,-0.9857177734375,2747.883150625,-0.6590621671906381,0.09409673384332755,0.06235019840154644,-0.02489155530929565,-0.02277526818215847,0.04041540622711182,-0.00429796427488327,-0.003364440053701401,0.005192577838897705,XArbitraryZVertical,0.04467209279210028,0.03440339947564898,-0.3216971385161443,0.9451623271354257,0.09377536177635193,-0.06230980902910233,-0.9936416149139404,0,0,0,-1,-1,2741.785744125,unknown,2,2022-06-30T09:12:27.366+02:00,2022-06-30T08:20:05.567+02:00,833,1.490593,0,0,651.261,0,0,2022-06-30T09:09:38.916+02:00,678265952.461239,0,-0.8900003,100.9209,1,0.97
2022-06-30T09:12:33.484+02:00,1656573152.059022,53.2290640287597,10.39857063443437,41.10189,0,0.07,-1,-1,4,5,-9999,2747.903054625,0.0897369384765625,-0.0716400146484375,-0.9872589111328125,2747.893102625,-0.6586169036414464,0.09381472937064207,0.06203708274264563,-0.04676948860287666,-0.02224768325686455,0.04452416300773621,0.0009242817759513855,-0.01466327905654907,0.00767970085144043,XArbitraryZVertical,0.04447126622025147,0.03433082867105846,-0.3215015240375692,0.9452409653943179,0.09349697083234787,-0.06199729815125465,-0.9936873912811279,0,0,0,-1,-1,2741.785744125,unknown,2,2022-06-30T09:12:27.366+02:00,2022-06-30T08:20:05.567+02:00,833,1.490593,0,0,651.261,0,0,2022-06-30T09:09:38.916+02:00,678265952.461239,0,-0.8900003,100.9209,1,0.97
2022-06-30T09:12:33.494+02:00,1656573152.059022,53.2290640287597,10.39857063443437,41.10189,0,0.07,-1,-1,4,5,-9999,2747.913006625,0.0894927978515625,-0.0638275146484375,-0.98419189453125,2747.903054625,-0.658104864674054,0.09354078364704216,0.06162556300936901,-0.05767380073666573,-0.02598969079554081,0.051329605281353,-0.00176607072353363,-0.01511979103088379,0.008020520210266113,XArbitraryZVertical,0.04422414759112536,0.03427939609959473,-0.3212767342320024,0.945330931486581,0.09322712570428848,-0.06158656626939774,-0.9937382936477661,0,0,0,-1,-1,2741.785744125,unknown,2,2022-06-30T09:12:27.366+02:00,2022-06-30T08:20:05.567+02:00,833,1.490593,0,0,651.261,0,0,2022-06-30T09:09:38.916+02:00,678265952.461239,0,-0.8900003,100.9209,1,0.97
2022-06-30T09:12:33.504+02:00,1656573152.059022,53.2290640287597,10.39857063443437,41.10189,0,0.07,-1,-1,4,5,-9999,2747.922958625,0.08917236328125,-0.0660400390625,-0.9874420166015625,2747.913006625,-0.6575479034961982,0.09325587702275071,0.06118388936326941,-0.06044149398803711,-0.02511537447571754,0.04921112582087517,-0.003209717571735382,-0.01049471274018288,0.006532907485961914,XArbitraryZVertical,0.04396028756056902,0.03422852400534805,-0.321031679600716,0.9454283502045748,0.09294652193784714,-0.06114572286605835,-0.9937918186187744,0,0,0,-1,-1,2741.785744125,unknown,2,2022-06-30T09:12:27.366+02:00,2022-06-30T08:20:05.567+02:00,833,1.490593,0,0,651.261,0,0,2022-06-30T09:09:38.916+02:00,678265952.461239,0,-0.8900003,100.9209,1,0.97
2022-06-30T09:12:33.514+02:00,1656573152.059022,53.2290640287597,10.39857063443437,41.10189,0,0.07,-1,-1,4,5,-9999,2747.932910625,0.087738037109375,-0.0614013671875,-0.9883270263671875,2747.922958625,-0.6570214948368159,0.09295693346168861,0.06077884869993153,-0.04532086476683617,-0.03429688885807991,0.05023697391152382,-0.003159061074256897,-0.003086499869823456,0.009652256965637207,XArbitraryZVertical,0.04371203142521699,0.03416427654823781,-0.3208003037178639,0.9455206415397527,0.09265172481536865,-0.06074143573641777,-0.9938440918922424,0,0,0,-1,-1,2741.785744125,unknown,2,2022-06-30T09:12:27.366+02:00,2022-06-30T08:20:05.567+02:00,833,1.490593,0,0,651.261,0,0,2022-06-30T09:09:38.916+02:00,678265952.461239,0,-0.8900003,100.9209,1,0.97
2022-06-30T09:12:33.524+02:00,1656573152.059022,53.2290640287597,10.39857063443437,41.10189,0,0.07,-1,-1,4,5,-9999,2747.942862625,0.0802764892578125,-0.0641632080078125,-0.990203857421875,2747.932910625,-0.6564695488573247,0.09261190010397979,0.06044156957121989,-0.03652025014162064,-0.03409992530941963,0.05175048485398293,-0.003138475120067596,-0.005635678768157959,0.006454408168792725,XArbitraryZVertical,0.04348798269274622,0.03406770975414689,-0.3205559046700536,0.9456174045272877,0.09231069684028625,-0.06040477380156517,-0.9938963651657104,0,0,0,-1,-1,2741.785744125,unknown,2,2022-06-30T09:12:27.366+02:00,2022-06-30T08:20:05.567+02:00,833,1.490593,0,0,651.261,0,0,2022-06-30T09:09:38.916+02:00,678265952.461239,0,-0.8900003,100.9209,1,0.97
2022-06-30T09:12:33.534+02:00,1656573152.059022,53.2290640287597,10.39857063443437,41.10189,0,0.07,-1,-1,4,5,-9999,2747.952814625,0.077056884765625,-0.0754852294921875,-0.9888153076171875,2747.942862625,-0.6559596739710144,0.09227300786924589,0.06014871934390799,-0.02546360343694687,-0.0298662967979908,0.04453198611736298,-0.004237592220306396,-0.001289334148168564,0.005618155002593994,XArbitraryZVertical,0.04328668005147595,0.03396583958262513,-0.3203300121164078,0.9457067746693686,0.09197549521923065,-0.06011245772242546,-0.9939451813697815,0,0,0,-1,-1,2741.785744125,unknown,2,2022-06-30T09:12:27.366+02:00,2022-06-30T08:20:05.567+02:00,833,1.490593,0,0,651.261,0,0,2022-06-30T09:09:38.916+02:00,678265952.461239,0,-0.8900003,100.9209,1,0.97
2022-06-30T09:12:33.544+02:00,1656573152.059022,53.2290640287597,10.39857063443437,41.10189,0,0.07,-1,-1,4,5,-9999,2747.962766625,0.08062744140625,-0.078521728515625,-0.99761962890625,2747.952814625,-0.6554962289128227,0.09196636632693764,0.05993287968716533,-0.02377082966268063,-0.0218970887362957,0.04567551612854004,-0.01139553636312485,-0.004266627132892609,0.003782391548156738,XArbitraryZVertical,0.04312775276464376,0.03386568995305673,-0.3201232219908005,0.9457876790211139,0.0916718915104866,-0.05989700555801392,-0.9939862489700317,0,0,0,-1,-1,2741.785744125,unknown,2,2022-06-30T09:12:27.366+02:00,2022-06-30T08:20:05.567+02:00,833,1.490593,0,0,651.261,0,0,2022-06-30T09:09:38.916+02:00,678265952.461239,0,-0.8900003,100.9209,1,0.97
2022-06-30T09:12:33.554+02:00,1656573153.060952,53.2290640287597,10.39857063443437,41.54483,0,0.07,-1,-1,4,5,-9999,2747.972718625,0.0868072509765625,-0.06689453125,-0.989898681640625,2747.962766625,-0.6550192010550236,0.09174796140833556,0.0597507080419935,-0.02593225240707397,-0.01989172771573067,0.04399026557803154,-0.01439905166625977,-0.01577049493789673,0.005201756954193115,XArbitraryZVertical,0.04299866500837695,0.03380206006177996,-0.319907163368787,0.9458689419379216,0.09145580232143402,-0.05971516296267509,-0.9940170645713806,0,0,0,-1,-1,2741.785744125,unknown,2,2022-06-30T09:12:27.366+02:00,2022-06-30T08:20:05.567+02:00,833,1.490593,0,0,651.261,0,0,2022-06-30T09:09:38.916+02:00,678265952.461239,0,-0.8900003,100.9209,1,0.97
2022-06-30T09:12:33.564+02:00,1656573153.060952,53.2290640287597,10.39857063443437,41.54483,0,0.07,-1,-1,4,5,-9999,2747.982670625,0.084869384765625,-0.0637359619140625,-0.9890289306640625,2747.972718625,-0.6546372540138988,0.09156245203907314,0.05963492824611401,-0.02135474421083927,-0.01748932711780071,0.02852299250662327,-0.01064472645521164,-0.01892256736755371,-0.003578722476959229,XArbitraryZVertical,0.04290784371928996,0.03374119048699016,-0.3197335714096747,0.9459339285012499,0.0912720263004303,-0.05959958583116531,-0.9940409064292908,0,0,0,-1,-1,2741.785744125,unknown,2,2022-06-30T09:12:27.366+02:00,2022-06-30T08:20:05.567+02:00,833,1.490593,0,0,651.261,0,0,2022-06-30T09:09:38.916+02:00,678265952.461239,0,-0.8900003,100.9209,1,0.97
2022-06-30T09:12:33.574+02:00,1656573153.060952,53.2290640287597,10.39857063443437,41.54483,0,0.07,-1,-1,4,5,-9999,2747.992621625,0.0838775634765625,-0.066864013671875,-0.9881134033203125,2747.982670625,-0.6544064183968745,0.09140790131580154,0.05961306618982528,-0.002402625046670437,-0.01307247579097748,0.0148796197026968,-0.004311397671699524,-0.007317189127206802,0.004157602787017822,XArbitraryZVertical,0.04286891908171261,0.03367656432667675,-0.3196282838126905,0.9459735761974644,0.09111851453781128,-0.05957776308059692,-0.9940562844276428,0,0,0,-1,-1,2741.785744125,unknown,2,2022-06-30T09:12:27.366+02:00,2022-06-30T08:20:05.567+02:00,833,1.490593,0,0,651.261,0,0,2022-06-30T09:09:38.916+02:00,678265952.461239,0,-0.8900003,100.9209,1,0.97
2022-06-30T09:12:33.584+02:00,1656573153.060952,53.2290640287597,10.39857063443437,41.54483,0,0.07,-1,-1,4,5,-9999,2748.002573625,0.079376220703125,-0.0752716064453125,-0.9879302978515625,2747.992621625,-0.65428319893896,0.09128107713162203,0.05975954583101584,0.01533409394323826,-0.007987787015736103,0.01180856116116047,-0.006122395396232605,-0.004012398421764374,0.005030214786529541,XArbitraryZVertical,0.04291580114531195,0.03359562392999978,-0.3195688600788288,0.9459943841885616,0.09099165350198746,-0.05972398445010185,-0.994059145450592,0,0,0,-1,-1,2741.785744125,unknown,2,2022-06-30T09:12:27.366+02:00,2022-06-30T08:20:05.567+02:00,833,1.490593,0,0,651.261,0,0,2022-06-30T09:09:38.916+02:00,678265952.461239,0,-0.8900003,100.9209,1,0.97
2022-06-30T09:12:33.594+02:00,1656573153.060952,53.2290640287597,10.39857063443437,41.54483,0,0.07,-1,-1,4,5,-9999,2748.012525625,0.0817413330078125,-0.090911865234375,-0.991455078125,2748.002573625,-0.6542062839425085,0.0912197108392627,0.05995387145535993,0.01659456826746464,-0.001390071585774422,0.003942915238440037,-0.007052168250083923,-0.006946470588445663,0.005939781665802002,XArbitraryZVertical,0.04299653344456779,0.0335369499113736,-0.3195286579512472,0.9460064283588708,0.09092959016561508,-0.05991796031594276,-0.9940531253814697,0,0,0,-1,-1,2741.785744125,unknown,2,2022-06-30T09:12:27.366+02:00,2022-06-30T08:20:05.567+02:00,833,1.490593,0,0,651.261,0,0,2022-06-30T09:09:38.916+02:00,678265952.461239,0,-0.8900003,100.9209,1,0.97
2022-06-30T09:12:33.604+02:00,1656573153.060952,53.2290640287597,10.39857063443437,41.54483,0,0.07,-1,-1,4,5,-9999,2748.022477625,0.0846405029296875,-0.0935821533203125,-0.993255615234375,2748.012525625,-0.6542208662644006,0.09121238271789632,0.06008025154050054,0.0009750621393322945,0.001692549558356404,-0.001972065307199955,-0.01154552400112152,-0.01522791385650635,0.006115972995758057,XArbitraryZVertical,0.04305533099616819,0.03351281527952694,-0.3195323829215341,0.9460033285300511,0.09092161804437637,-0.06004411354660988,-0.9940462708473206,0,0,0,-1,-1,2741.785744125,unknown,2,2022-06-30T09:12:27.366+02:00,2022-06-30T08:20:05.567+02:00,833,1.490593,0,0,651.261,0,0,2022-06-30T09:09:38.916+02:00,678265952.461239,0,-0.8900003,100.9209,1,0.97
2022-06-30T09:12:33.614+02:00,1656573153.060952,53.2290640287597,10.39857063443437,41.54483,0,0.07,-1,-1,4,5,-9999,2748.032429625,0.085113525390625,-0.080718994140625,-0.985107421875,2748.022477625,-0.6542564301643695,0.09118526331168517,0.06000679800545862,-0.01858585700392723,-0.005174145102500916,-0.006595845334231853,-0.009153857827186584,-0.03094149380922318,0.002598047256469727,XArbitraryZVertical,0.0430168820990123,0.03351105337077512,-0.3195517241617897,0.9459986178178273,0.09089505672454834,-0.05997079238295555,-0.9940531253814697,0,0,0,-1,-1,2741.785744125,unknown,2,2022-06-30T09:12:27.366+02:00,2022-06-30T08:20:05.567+02:00,833,1.490593,0,0,651.261,0,0,2022-06-30T09:09:38.916+02:00,678265952.461239,0,-0.8900003,100.9209,1,0.97
2022-06-30T09:12:33.624+02:00,1656573153.060952,53.2290640287597,10.39857063443437,41.54483,0,0.07,-1,-1,4,5,-9999,2748.042381625,0.080352783203125,-0.0672760009765625,-0.982940673828125,2748.032429625,-0.654329640501234,0.09105352254012655,0.05976348262580875,-0.03336127102375031,-0.007717912085354328,-0.01503144111484289,-0.006125055253505707,-0.03385466337203979,0.000823974609375,XArbitraryZVertical,0.04288207625766303,0.03348636083997095,-0.3195955924218991,0.945990805199485,0.09076542407274246,-0.05972791463136673,-0.99407958984375,0,0,0,-1,-1,2741.785744125,unknown,2,2022-06-30T09:12:27.366+02:00,2022-06-30T08:20:05.567+02:00,833,1.490593,0,0,651.261,0,0,2022-06-30T09:09:38.916+02:00,678265952.461239,0,-0.8900003,100.9209,1,0.97
2022-06-30T09:12:33.634+02:00,1656573153.060952,53.2290640287597,10.39857063443437,41.54483,0,0.07,-1,-1,4,5,-9999,2748.052333625,0.084869384765625,-0.054901123046875,-0.9807586669921875,2748.042381625,-0.6544788353599105,0.09095611988772222,0.05956999706663544,-0.01703156903386116,-0.002093049231916666,-0.02229974046349525,-0.005556248128414154,-0.02118464559316635,0.008992493152618408,XArbitraryZVertical,0.04277757632354313,0.03346826647557255,-0.3196733445952559,0.9459698761407732,0.09066964685916901,-0.05953477323055267,-0.9940999150276184,0,0,0,-1,-1,2741.785744125,unknown,2,2022-06-30T09:12:27.366+02:00,2022-06-30T08:20:05.567+02:00,833,1.490593,0,0,651.261,0,0,2022-06-30T09:09:38.916+02:00,678265952.461239,0,-0.8900003,100.9209,1,0.97
2022-06-30T09:12:33.643+02:00,1656573153.060952,53.2290640287597,10.39857063443437,41.54483,0,0.07,-1,-1,4,5,-9999,2748.062285625,0.0886383056640625,-0.0642242431640625,-0.9893646240234375,2748.052333625,-0.6547202344332778,0.09087792614575962,0.05961811415264973,0.0158491488546133,-0.005700978450477123,-0.02901383489370346,-0.01023900508880615,-0.007693618535995483,0.01116347312927246,XArbitraryZVertical,0.04279185034779246,0.03341836479260991,-0.3197879307400678,0.9459322540475202,0.09059165418148041,-0.05958280339837074,-0.9941041469573975,0,0,0,-1,-1,2741.785744125,unknown,2,2022-06-30T09:12:27.366+02:00,2022-06-30T08:20:05.567+02:00,833,1.490593,0,0,651.261,0,0,2022-06-30T09:09:38.916+02:00,678265952.461239,0,-0.8900003,100.9209,1,0.97
2022-06-30T09:12:33.654+02:00,1656573153.060952,53.2290640287597,10.39857063443437,41.54483,0,0.07,-1,-1,4,5,-9999,2748.072237625,0.091400146484375,-0.05780029296875,-0.9821929931640625,2748.062285625,-0.6550605099263832,0.09078394747980553,0.06002912441824787,0.06243795901536942,-0.01694617606699467,-0.03110601380467415,-0.005626760423183441,0.005091536790132523,0.01332956552505493,XArbitraryZVertical,0.04297670228559294,0.03330035879025063,-0.319940065975018,0.9458766275323646,0.0904960036277771,-0.05999307706952095,-0.9940881729125977,0,0,0,-1,-1,2741.785744125,unknown,2,2022-06-30T09:12:27.366+02:00,2022-06-30T08:20:05.567+02:00,833,1.490593,0,0,651.261,0,0,2022-06-30T09:09:38.916+02:00,678265952.461239,0,-0.8900003,100.9209,1,0.97
2022-06-30T09:12:33.664+02:00,1656573153.060952,53.2290640287597,10.39857063443437,41.54483,0,0.07,-1,-1,4,5,-9999,2748.082189625,0.0879364013671875,-0.0691070556640625,-0.987823486328125,2748.072237625,-0.6554278905000264,0.09054194792610738,0.06071713402567418,0.07673460245132446,-0.02983289957046509,-0.0333314873278141,-0.001613505184650421,-0.003544829785823822,0.004704117774963379,XArbitraryZVertical,0.04326914761196139,0.03306701067800453,-0.3201009328889156,0.9458170661960086,0.09025167673826218,-0.0606798343360424,-0.9940686821937561,0,0,0,-1,-1,2741.785744125,unknown,2,2022-06-30T09:12:27.366+02:00,2022-06-30T08:20:05.567+02:00,833,1.490593,0,0,651.261,0,0,2022-06-30T09:09:38.916+02:00,678265952.461239,0,-0.8900003,100.9209,1,0.97
2022-06-30T09:12:33.673+02:00,1656573153.060952,53.2290640287597,10.39857063443437,41.54483,0,0.07,-1,-1,4,5,-9999,2748.092141625,0.0868072509765625,-0.07781982421875,-0.9952850341796875,2748.082189625,-0.6558760238191125,0.09022270954541761,0.06148278046815714,0.07692795246839523,-0.03119031153619289,-0.04118674620985985,0.001469902694225311,0.003643333911895752,0.01185792684555054,XArbitraryZVertical,0.04358714702779683,0.03278273527678358,-0.3202996772954659,0.9457449840533394,0.08993010967969894,-0.06144405156373978,-0.994050920009613,0,0,0,-1,-1,2741.785744125,unknown,2,2022-06-30T09:12:27.366+02:00,2022-06-30T08:20:05.567+02:00,833,1.490593,0,0,651.261,0,0,2022-06-30T09:09:38.916+02:00,678265952.461239,0,-0.8900003,100.9209,1,0.97
2022-06-30T09:12:33.683+02:00,1656573153.060952,53.2290640287597,10.39857063443437,41.54483,0,0.07,-1,-1,4,5,-9999,2748.102093625,0.081512451171875,-0.076385498046875,-1.001007080078125,2748.092141625,-0.6563027035402978,0.08986128984884971,0.06220168075726704,0.0629151239991188,-0.03647582978010178,-0.03430883586406708,-0.001630581915378571,-0.006945900619029999,0.00621563196182251,XArbitraryZVertical,0.0438758197401492,0.03248639288891587,-0.320490435130859,0.9456773134610402,0.08956684917211533,-0.06216157972812653,-0.9940391182899475,0,0,0,-1,-1,2741.785744125,unknown,2,2022-06-30T09:12:27.366+02:00,2022-06-30T08:20:05.567+02:00,833,1.490593,0,0,651.261,0,0,2022-06-30T09:09:38.916+02:00,678265952.461239,0,-0.8900003,100.9209,1,0.97
2022-06-30T09:12:33.693+02:00,1656573153.060952,53.2290640287597,10.39857063443437,41.54483,0,0.07,-1,-1,4,5,-9999,2748.112045625,0.0798492431640625,-0.0821380615234375,-1.006500244140625,2748.102093625,-0.6567071881129681,0.0894861234928547,0.06276274641983563,0.0330837294459343,-0.03287123888731003,-0.03891237080097198,-0.00238366425037384,-0.0150986984372139,-0.001247286796569824,XArbitraryZVertical,0.04408726168469261,0.03220943351982883,-0.3206752329758771,0.9456142330404538,0.0891907811164856,-0.06272155046463013,-0.9940377473831177,0,0,0,-1,-1,2741.785744125,unknown,2,2022-06-30T09:12:27.366+02:00,2022-06-30T08:20:05.567+02:00,833,1.490593,0,0,651.261,0,0,2022-06-30T09:09:38.916+02:00,678265952.461239,0,-0.8900003,100.9209,1,0.97
2022-06-30T09:12:33.703+02:00,1656573153.060952,53.2290640287597,10.39857063443437,41.54483,0,0.07,-1,-1,4,5,-9999,2748.121996625,0.07928466796875,-0.0785369873046875,-1.007415771484375,2748.112045625,-0.6571023092614607,0.08915075513136893,0.063083112450845,0.01308432221412659,-0.03014166653156281,-0.03819085657596588,-0.007343299686908722,-0.01334463059902191,-0.006959497928619385,XArbitraryZVertical,0.04419113425163032,0.03199034620425362,-0.3208610443825846,0.9455538347507209,0.08885561674833298,-0.06304128468036652,-0.9940475225448608,0,0,0,-1,-1,2741.785744125,unknown,2,2022-06-30T09:12:27.366+02:00,2022-06-30T08:20:05.567+02:00,833,1.490593,0,0,651.261,0,0,2022-06-30T09:09:38.916+02:00,678265952.461239,0,-0.8900003,100.9209,1,0.97
