loggingTime(txt),locationTimestamp_since1970(s),locationLatitude(WGS84),locationLongitude(WGS84),locationAltitude(m),locationSpeed(m/s),locationSpeedAccuracy(m/s),locationCourse(°),locationCourseAccuracy(°),locationVerticalAccuracy(m),locationHorizontalAccuracy(m),locationFloor(Z),accelerometerTimestamp_sinceReboot(s),accelerometerAccelerationX(G),accelerometerAccelerationY(G),accelerometerAccelerationZ(G),motionTimestamp_sinceReboot(s),motionYaw(rad),motionRoll(rad),motionPitch(rad),motionRotationRateX(rad/s),motionRotationRateY(rad/s),motionRotationRateZ(rad/s),motionUserAccelerationX(G),motionUserAccelerationY(G),motionUserAccelerationZ(G),motionAttitudeReferenceFrame(txt),motionQuaternionX(R),motionQuaternionY(R),motionQuaternionZ(R),motionQuaternionW(R),motionGravityX(G),motionGravityY(G),motionGravityZ(G),motionMagneticFieldX(µT),motionMagneticFieldY(µT),motionMagneticFieldZ(µT),motionHeading(°),motionMagneticFieldCalibrationAccuracy(Z),activityTimestamp_sinceReboot(s),activity(txt),activityActivityConfidence(Z),activityActivityStartDate(txt),pedometerStartDate(txt),pedometerNumberofSteps(N),pedometerAverageActivePace(s/m),pedometerCurrentPace(s/m),pedometerCurrentCadence(steps/s),pedometerDistance(m),pedometerFloorAscended(N),pedometerFloorDescended(N),pedometerEndDate(txt),altimeterTimestamp_sinceReboot(s),altimeterReset(bool),altimeterRelativeAltitude(m),altimeterPressure(kPa),batteryState(N),batteryLevel(R)
2022-06-30T09:13:01.130+02:00,1656573181.07058,53.2290640287597,10.39857063443437,40.19455,0,0.07,-1,103.9230494294148,4,5,-9999,2775.532002125,0.2246246337890625,-0.18267822265625,-0.93804931640625,2775.527026125,0.2363139822765123,0.1045333011325566,0.3171400278833814,0.01033187843859196,0.07948395609855652,-0.1098044216632843,0.1377679854631424,0.1005161106586456,-0.01445156335830688,XArbitraryZVertical,0.1505099577409083,0.06981666471798201,0.124436307179005,0.9782576500142228,0.09913956373929977,-0.3118504881858826,-0.9449447989463806,0,0,0,-1,-1,2774.907539125,running,2,2022-06-30T09:13:00.488+02:00,2022-06-30T08:20:05.567+02:00,833,1.490593,0,0,651.261,0,0,2022-06-30T09:09:38.916+02:00,678265980.4877707,0,-0.8299999,100.9168,1,0.97
2022-06-30T09:13:01.133+02:00,1656573181.07058,53.2290640287597,10.39857063443437,40.19455,0,0.07,-1,103.9230494294148,4,5,-9999,2775.541954125,0.1285858154296875,-0.243896484375,-0.913360595703125,2775.536978125,0.2348624438774063,0.1051862595103343,0.3185595536659336,0.2788152694702148,-0.01851903833448887,-0.1279512047767639,0.1249142438173294,0.1305205225944519,0.006389379501342773,XArbitraryZVertical,0.1512158994407278,0.07010294182118534,0.1237988703266983,0.9782092463561688,0.09970998018980026,-0.3131989240646362,-0.944438636302948,0,0,0,-1,-1,2774.907539125,running,2,2022-06-30T09:13:00.488+02:00,2022-06-30T08:20:05.567+02:00,833,1.490593,0,0,651.261,0,0,2022-06-30T09:09:38.916+02:00,678265980.4877707,0,-0.8299999,100.9168,1,0.97
2022-06-30T09:13:01.134+02:00,1656573181.07058,53.2290640287597,10.39857063443437,40.19455,0,0.07,-1,103.9230494294148,4,5,-9999,2775.551906125,0.0160675048828125,-0.3152313232421875,-0.885650634765625,2775.546930125,0.2333889620651137,0.1052843302730037,0.3215467649637588,0.3182690143585205,-0.0284927599132061,-0.09465239942073822,0.02888157963752747,0.07213777303695679,0.03013366460800171,XArbitraryZVertical,0.1527253968536819,0.07019849248637254,0.1231349577889015,0.9780516441816652,0.0997038334608078,-0.3160344362258911,-0.9434942603111267,0,0,0,-1,-1,2774.907539125,running,2,2022-06-30T09:13:00.488+02:00,2022-06-30T08:20:05.567+02:00,833,1.490593,0,0,651.261,0,0,2022-06-30T09:09:38.916+02:00,678265980.4877707,0,-0.8299999,100.9168,1,0.97
2022-06-30T09:13:01.143+02:00,1656573181.07058,53.2290640287597,10.39857063443437,40.19455,0,0.07,-1,103.9230494294148,4,5,-9999,2775.561858125,0.019775390625,-0.339630126953125,-0.8758392333984375,2775.556882125,0.2322893934987729,0.1056029393321939,0.3239533215672088,0.1766538023948669,0.02972181141376495,-0.06340660154819489,-0.08385688811540604,0.00308525562286377,0.05705279111862183,XArbitraryZVertical,0.1539236194082434,0.07039763757543771,0.1226614432971327,0.977908962418563,0.09992397576570511,-0.3183167278766632,-0.9427033662796021,0,0,0,-1,-1,2774.907539125,running,2,2022-06-30T09:13:00.488+02:00,2022-06-30T08:20:05.567+02:00,833,1.490593,0,0,651.261,0,0,2022-06-30T09:09:38.916+02:00,678265980.4877707,0,-0.8299999,100.9168,1,0.97
2022-06-30T09:13:01.153+02:00,1656573181.07058,53.2290640287597,10.39857063443437,40.19455,0,0.07,-1,103.9230494294148,4,5,-9999,2775.571810125,0.087799072265625,-0.3425140380859375,-0.894622802734375,2775.566834125,0.2317043349738145,0.106142442353064,0.3250015735214365,0.05206973850727081,0.03767680749297142,-0.03282828256487846,-0.08062217384576797,-0.02031996846199036,0.06647783517837524,XArbitraryZVertical,0.1544247582279866,0.07067164926778682,0.1224343717050383,0.9778386656385409,0.1003971472382545,-0.3193102777004242,-0.942317008972168,0,0,0,-1,-1,2774.907539125,running,2,2022-06-30T09:13:00.488+02:00,2022-06-30T08:20:05.567+02:00,833,1.490593,0,0,651.261,0,0,2022-06-30T09:09:38.916+02:00,678265980.4877707,0,-0.8299999,100.9168,1,0.97
2022-06-30T09:13:01.163+02:00,1656573181.07058,53.2290640287597,10.39857063443437,40.19455,0,0.07,-1,103.9230494294148,4,5,-9999,2775.581762125,0.1207122802734375,-0.3336029052734375,-0.9144439697265625,2775.576786125,0.2313550180651853,0.1064224272361576,0.3250305202730603,-0.03207682818174362,-0.001235438860021532,-0.04226013273000717,-0.01286133378744125,-0.02317649126052856,0.04765689373016357,XArbitraryZVertical,0.1544341572208876,0.07078308667502924,0.1222856795608417,0.9778477701804261,0.1006599962711334,-0.3193376958370209,-0.9422796964645386,0,0,0,-1,-1,2774.907539125,running,2,2022-06-30T09:13:00.488+02:00,2022-06-30T08:20:05.567+02:00,833,1.490593,0,0,651.261,0,0,2022-06-30T09:09:38.916+02:00,678265980.4877707,0,-0.8299999,100.9168,1,0.97
2022-06-30T09:13:01.173+02:00,1656573181.07058,53.2290640287597,10.39857063443437,40.19455,0,0.07,-1,103.9230494294148,4,5,-9999,2775.591714125,0.110626220703125,-0.3375091552734375,-0.9216461181640625,2775.586738125,0.2308021850678916,0.1063877337360762,0.3244509181035503,-0.07306268066167831,-0.03648785874247551,-0.06419190019369125,0.02006493508815765,-0.01481467485427856,0.0280231237411499,XArbitraryZVertical,0.1541718579556912,0.07069302071120522,0.1220029811728042,0.9779310093923613,0.1006469428539276,-0.3187884092330933,-0.9424670934677124,0,0,0,-1,-1,2774.907539125,running,2,2022-06-30T09:13:00.488+02:00,2022-06-30T08:20:05.567+02:00,833,1.490593,0,0,651.261,0,0,2022-06-30T09:09:38.916+02:00,678265980.4877707,0,-0.8299999,100.9168,1,0.97
2022-06-30T09:13:01.183+02:00,1656573181.07058,53.2290640287597,10.39857063443437,40.19455,0,0.07,-1,103.9230494294148,4,5,-9999,2775.601666125,0.0767822265625,-0.311492919921875,-0.9152374267578125,2775.596690125,0.2304161399531539,0.1060661619967361,0.3235194671065017,-0.1089050993323326,-0.04943827539682388,-0.03622337803244591,0.01025055348873138,-0.0196039080619812,0.02114814519882202,XArbitraryZVertical,0.1537487008551619,0.07045722268730605,0.1217738569558048,0.9780431026471832,0.1003752574324608,-0.3179053962230682,-0.9427942037582397,0,0,0,-1,-1,2774.907539125,running,2,2022-06-30T09:13:00.488+02:00,2022-06-30T08:20:05.567+02:00,833,1.490593,0,0,651.261,0,0,2022-06-30T09:09:38.916+02:00,678265980.4877707,0,-0.8299999,100.9168,1,0.97
2022-06-30T09:13:01.193+02:00,1656573181.07058,53.2290640287597,10.39857063443437,40.19455,0,0.07,-1,103.9230494294148,4,5,-9999,2775.611618125,0.0672607421875,-0.293548583984375,-0.92669677734375,2775.606642125,0.2302019917467891,0.1056760432430638,0.322213328981089,-0.137375220656395,-0.03927614167332649,-0.03043133579194546,-0.02326934039592743,0.005173683166503906,0.02800798416137695,XArbitraryZVertical,0.1531399159546256,0.07018156040219896,0.1216173586724101,0.9781779126090062,0.1000511571764946,-0.3166667520999908,-0.9432454109191895,0,0,0,-1,-1,2774.907539125,running,2,2022-06-30T09:13:00.488+02:00,2022-06-30T08:20:05.567+02:00,833,1.490593,0,0,651.261,0,0,2022-06-30T09:09:38.916+02:00,678265980.4877707,0,-0.8299999,100.9168,1,0.97
2022-06-30T09:13:01.203+02:00,1656573181.07058,53.2290640287597,10.39857063443437,40.19455,0,0.07,-1,103.9230494294148,4,5,-9999,2775.621570125,0.0863800048828125,-0.2762298583984375,-0.9307098388671875,2775.616594125,0.2300571862678611,0.1053436719189782,0.3209892845857243,-0.09736922383308411,-0.03936003148555756,-0.02308607287704945,-0.03251799941062927,0.02195671200752258,0.01696664094924927,XArbitraryZVertical,0.1525653032290258,0.0699437957748227,0.121500722370942,0.9782991963367157,0.09977833181619644,-0.3155054748058319,-0.9436633586883545,0,0,0,-1,-1,2774.907539125,running,2,2022-06-30T09:13:00.488+02:00,2022-06-30T08:20:05.567+02:00,833,1.490593,0,0,651.261,0,0,2022-06-30T09:09:38.916+02:00,678265980.4877707,0,-0.8299999,100.9168,1,0.97
2022-06-30T09:13:01.213+02:00,1656573181.07058,53.2290640287597,10.39857063443437,40.19455,0,0.07,-1,103.9230494294148,4,5,-9999,2775.631520791667,0.0960540771484375,-0.276611328125,-0.9240875244140625,2775.626544791667,0.2298630533796495,0.1049587556054661,0.3203236781928215,-0.03138653934001923,-0.0542154461145401,-0.03349673375487328,-0.01305747032165527,0.03864374756813049,0.01320052146911621,XArbitraryZVertical,0.1522692080957146,0.06970583916996217,0.1213653520730482,0.9783791721210725,0.09943707287311554,-0.3148737847805023,-0.9439103603363037,0,0,0,-1,-1,2774.907539125,running,2,2022-06-30T09:13:00.488+02:00,2022-06-30T08:20:05.567+02:00,833,1.490593,0,0,651.261,0,0,2022-06-30T09:09:38.916+02:00,678265980.4877707,0,-0.8299999,100.9168,1,0.97
2022-06-30T09:13:01.223+02:00,1656573181.07058,53.2290640287597,10.39857063443437,40.19455,0,0.07,-1,103.9230494294148,4,5,-9999,2775.641472791667,0.10198974609375,-0.3010406494140625,-0.9204864501953125,2775.636496791667,0.2294066437028095,0.1045269900460693,0.3203606726100653,0.04948300868272781,-0.06819411367177963,-0.04965200275182724,-0.002974629402160645,0.03829741477966309,0.01985412836074829,XArbitraryZVertical,0.152329399142822,0.06946180425272369,0.1211098154893174,0.9784187834013048,0.09902829676866531,-0.314908891916275,-0.9439416527748108,0,0,0,-1,-1,2774.907539125,running,2,2022-06-30T09:13:00.488+02:00,2022-06-30T08:20:05.567+02:00,833,1.490593,0,0,651.261,0,0,2022-06-30T09:09:38.916+02:00,678265980.4877707,0,-0.8299999,100.9168,1,0.97
2022-06-30T09:13:01.233+02:00,1656573181.07058,53.2290640287597,10.39857063443437,40.19455,0,0.07,-1,103.9230494294148,4,5,-9999,2775.651424791667,0.0883331298828125,-0.3128662109375,-0.9129486083984375,2775.646448791667,0.2288959691416739,0.103892561463027,0.3208939836039659,0.05415013432502747,-0.08778893947601318,-0.03764057904481888,0.003577351570129395,0.01437422633171082,0.02335065603256226,XArbitraryZVertical,0.1526468807479612,0.06914035422710028,0.1208203818823423,0.9784278140347925,0.09841198474168777,-0.3154150247573853,-0.9438371062278748,0,0,0,-1,-1,2774.907539125,running,2,2022-06-30T09:13:00.488+02:00,2022-06-30T08:20:05.567+02:00,833,1.490593,0,0,651.261,0,0,2022-06-30T09:09:38.916+02:00,678265980.4877707,0,-0.8299999,100.9168,1,0.97
2022-06-30T09:13:01.242+02:00,1656573181.07058,53.2290640287597,10.39857063443437,40.19455,0,0.07,-1,103.9230494294148,4,5,-9999,2775.661376791667,0.0785369873046875,-0.349456787109375,-0.9206085205078125,2775.656400791667,0.2283619069582868,0.103221734807231,0.321361790398412,0.04618621617555618,-0.07538499683141708,-0.05530479177832603,-0.009430877864360809,0.002992540597915649,0.03080743551254272,XArbitraryZVertical,0.1529350792410232,0.06879575819901507,0.120515480074407,0.9784446513172617,0.09776359796524048,-0.31585893034935,-0.9437559843063354,0,0,0,-1,-1,2774.907539125,running,2,2022-06-30T09:13:00.488+02:00,2022-06-30T08:20:05.567+02:00,833,1.490593,0,0,651.261,0,0,2022-06-30T09:09:38.916+02:00,678265980.4877707,0,-0.8299999,100.9168,1,0.97
2022-06-30T09:13:01.252+02:00,1656573181.07058,53.2290640287597,10.39857063443437,40.19455,0,0.07,-1,103.9230494294148,4,5,-9999,2775.671328791667,0.090728759765625,-0.3525848388671875,-0.9202728271484375,2775.666352791667,0.2277602315233143,0.1027277630997598,0.3215196096538355,-0.01243914663791656,-0.06982923299074173,-0.05350403115153313,-0.018755704164505,-0.03344827890396118,0.02314609289169312,XArbitraryZVertical,0.1530628136936302,0.0685162666188372,0.1201858772149615,0.9784848511632336,0.09729228168725967,-0.3160086572170258,-0.9437546133995056,0,0,0,-1,-1,2774.907539125,running,2,2022-06-30T09:13:00.488+02:00,2022-06-30T08:20:05.567+02:00,833,1.490593,0,0,651.261,0,0,2022-06-30T09:09:38.916+02:00,678265980.4877707,0,-0.8299999,100.9168,1,0.97
2022-06-30T09:13:01.263+02:00,1656573181.07058,53.2290640287597,10.39857063443437,40.19455,0,0.07,-1,103.9230494294148,4,5,-9999,2775.681280791667,0.0946197509765625,-0.3504791259765625,-0.9427490234375,2775.676304791667,0.2271807677580389,0.1022836882007452,0.320945460268242,-0.08529125154018402,-0.05937019735574722,-0.06707869470119476,-0.006163328886032104,-0.03712111711502075,0.02370524406433105,XArbitraryZVertical,0.1528278228774514,0.0682248981118323,0.1198591817214294,0.9785820333876433,0.09689168632030487,-0.3154638707637787,-0.9439780116081238,0,0,0,-1,-1,2774.907539125,running,2,2022-06-30T09:13:00.488+02:00,2022-06-30T08:20:05.567+02:00,833,1.490593,0,0,651.261,0,0,2022-06-30T09:09:38.916+02:00,678265980.4877707,0,-0.8299999,100.9168,1,0.97
2022-06-30T09:13:01.273+02:00,1656573181.07058,53.2290640287597,10.39857063443437,40.19455,0,0.07,-1,103.9230494294148,4,5,-9999,2775.691232791667,0.0986328125,-0.315765380859375,-0.93658447265625,2775.686256791667,0.2265100050405492,0.1019345640273698,0.3198631543389543,-0.1172213554382324,-0.04907805100083351,-0.08493325859308243,-0.001977458596229553,-0.03604263067245483,0.001601934432983398,XArbitraryZVertical,0.1523409441829327,0.06794687663140245,0.1194869885396164,0.9787228416611569,0.09659679979085922,-0.3144366443157196,-0.9443508982658386,0,0,0,-1,-1,2774.907539125,running,2,2022-06-30T09:13:00.488+02:00,2022-06-30T08:20:05.567+02:00,833,1.490593,0,0,651.261,0,0,2022-06-30T09:09:38.916+02:00,678265980.4877707,0,-0.8299999,100.9168,1,0.97
2022-06-30T09:13:01.282+02:00,1656573181.07058,53.2290640287597,10.39857063443437,40.19455,0,0.07,-1,103.9230494294148,4,5,-9999,2775.701184791667,0.0995635986328125,-0.284088134765625,-0.9370574951171875,2775.696208791667,0.2257078668926134,0.1016864357838482,0.3185792780442168,-0.1130577698349953,-0.04533764347434044,-0.09024946391582489,0.002229034900665283,-0.002547889947891235,0.008191227912902832,XArbitraryZVertical,0.1517534409161119,0.06769821313564753,0.119055009834257,0.9788839691107265,0.09640337526798248,-0.3132176399230957,-0.9447757005691528,0,0,0,-1,-1,2774.907539125,running,2,2022-06-30T09:13:00.488+02:00,2022-06-30T08:20:05.567+02:00,833,1.490593,0,0,651.261,0,0,2022-06-30T09:09:38.916+02:00,678265980.4877707,0,-0.8299999,100.9168,1,0.97
2022-06-30T09:13:01.292+02:00,1656573181.07058,53.2290640287597,10.39857063443437,40.19455,0,0.07,-1,103.9230494294148,4,5,-9999,2775.711136791667,0.092864990234375,-0.28271484375,-0.9426116943359375,2775.706160791667,0.2248559109886615,0.1014669016980331,0.3176039413184273,-0.05630234256386757,-0.04715275391936302,-0.09237001091241837,0.003336340188980103,0.02820292115211487,0.008042812347412109,XArbitraryZVertical,0.1513169933969925,0.0674760510372019,0.1186057482034861,0.9790213721547474,0.09622686356306076,-0.3122912347316742,-0.9451003074645996,0,0,0,-1,-1,2774.907539125,running,2,2022-06-30T09:13:00.488+02:00,2022-06-30T08:20:05.567+02:00,833,1.490593,0,0,651.261,0,0,2022-06-30T09:09:38.916+02:00,678265980.4877707,0,-0.8299999,100.9168,1,0.97
2022-06-30T09:13:01.302+02:00,1656573181.07058,53.2290640287597,10.39857063443437,40.19455,0,0.07,-1,103.9230494294148,4,5,-9999,2775.721088791667,0.0950164794921875,-0.297088623046875,-0.9396209716796875,2775.716112791667,0.2239382494026976,0.1012993611545974,0.317183366054904,-0.006427460350096226,-0.04362672567367554,-0.08846394717693329,-0.003217212855815887,0.02917668223381042,0.002635359764099121,XArbitraryZVertical,0.1511515731657629,0.06730310251836569,0.1181371194859927,0.979115440643518,0.09608179330825806,-0.3118916749954224,-0.9452469944953918,0,0,0,-1,-1,2774.907539125,running,2,2022-06-30T09:13:00.488+02:00,2022-06-30T08:20:05.567+02:00,833,1.490593,0,0,651.261,0,0,2022-06-30T09:09:38.916+02:00,678265980.4877707,0,-0.8299999,100.9168,1,0.97
2022-06-30T09:13:01.312+02:00,1656573181.07058,53.2290640287597,10.39857063443437,40.19455,0,0.07,-1,103.9230494294148,4,5,-9999,2775.731040791667,0.106475830078125,-0.3224639892578125,-0.945404052734375,2775.726064791667,0.2230282387312786,0.1011590596865772,0.3170842661614062,-0.003950587473809719,-0.04386905208230019,-0.08605385571718216,-0.0009362176060676575,0.01470872759819031,0.005670249462127686,XArbitraryZVertical,0.1511418135305932,0.06716057393537987,0.1176793937760077,0.9791819728706211,0.09595229476690292,-0.3117974996566772,-0.9452912211418152,0,0,0,-1,-1,2774.907539125,running,2,2022-06-30T09:13:00.488+02:00,2022-06-30T08:20:05.567+02:00,833,1.490593,0,0,651.261,0,0,2022-06-30T09:09:38.916+02:00,678265980.4877707,0,-0.8299999,100.9168,1,0.97
2022-06-30T09:13:01.323+02:00,1656573181.07058,53.2290640287597,10.39857063443437,40.19455,0,0.07,-1,103.9230494294148,4,5,-9999,2775.740992791667,0.1161346435546875,-0.3355560302734375,-0.9485931396484375,2775.736016791667,0.222148401932321,0.100989801438201,0.3168268698654101,-0.03762732446193695,-0.04550742730498314,-0.08525517582893372,0.01067503541707993,-0.01091119647026062,-1.674890518188477e-05,XArbitraryZVertical,0.1510550277865136,0.06699816751297284,0.1172317177174381,0.9792600694181927,0.09580037742853165,-0.3115529417991638,-0.9453872442245483,0,0,0,-1,-1,2774.907539125,running,2,2022-06-30T09:13:00.488+02:00,2022-06-30T08:20:05.567+02:00,833,1.490593,0,0,651.261,0,0,2022-06-30T09:09:38.916+02:00,678265980.4877707,0,-0.8299999,100.9168,1,0.97
2022-06-30T09:13:01.333+02:00,1656573181.07058,53.2290640287597,10.39857063443437,40.19455,0,0.07,-1,103.9230494294148,4,5,-9999,2775.750944791667,0.1170654296875,-0.3229827880859375,-0.94207763671875,2775.745968791667,0.2213410064740312,0.100765420012894,0.3161670610484764,-0.1009473726153374,-0.04596281796693802,-0.08366729319095612,0.02052532881498337,-0.02463027834892273,-0.002980053424835205,XArbitraryZVertical,0.1507714977917545,0.06679397570464901,0.1168088564683677,0.9793682688306492,0.0956089049577713,-0.3109259009361267,-0.9456130266189575,0,0,0,-1,-1,2774.907539125,running,2,2022-06-30T09:13:00.488+02:00,2022-06-30T08:20:05.567+02:00,833,1.490593,0,0,651.261,0,0,2022-06-30T09:09:38.916+02:00,678265980.4877707,0,-0.8299999,100.9168,1,0.97
2022-06-30T09:13:01.342+02:00,1656573181.07058,53.2290640287597,10.39857063443437,40.19455,0,0.07,-1,103.9230494294148,4,5,-9999,2775.760896791667,0.10723876953125,-0.3043670654296875,-0.9492645263671875,2775.755920791667,0.2207036836085396,0.1005291498281764,0.3149755168366717,-0.1416947990655899,-0.04024767503142357,-0.06478468328714371,0.02164242416620255,-0.01318979263305664,0.003925919532775879,XArbitraryZVertical,0.1502219651746572,0.06657018586419719,0.116459864348403,0.9795094966930127,0.09542259573936462,-0.3097932040691376,-0.9460035562515259,0,0,0,-1,-1,2774.907539125,running,2,2022-06-30T09:13:00.488+02:00,2022-06-30T08:20:05.567+02:00,833,1.490593,0,0,651.261,0,0,2022-06-30T09:09:38.916+02:00,678265980.4877707,0,-0.8299999,100.9168,1,0.97
2022-06-30T09:13:01.352+02:00,1656573181.07058,53.2290640287597,10.39857063443437,40.19455,0,0.07,-1,103.9230494294148,4,5,-9999,2775.770848791667,0.1024932861328125,-0.2891693115234375,-0.9506378173828125,2775.765872791667,0.2201897246184083,0.1002758264386756,0.3136818773211777,-0.1225856244564056,-0.04108435660600662,-0.06063757464289665,0.01201537251472473,0.004195719957351685,-0.002838850021362305,XArbitraryZVertical,0.1496190412866214,0.06634244513977539,0.1161683980382585,0.9796518628481941,0.09522299468517303,-0.3085629343986511,-0.9464256167411804,0,0,0,-1,-1,2774.907539125,running,2,2022-06-30T09:13:00.488+02:00,2022-06-30T08:20:05.567+02:00,833,1.490593,0,0,651.261,0,0,2022-06-30T09:09:38.916+02:00,678265980.4877707,0,-0.8299999,100.9168,1,0.97
2022-06-30T09:13:01.362+02:00,1656573181.07058,53.2290640287597,10.39857063443437,40.19455,0,0.07,-1,103.9230494294148,4,5,-9999,2775.780800791667,0.09912109375,-0.28021240234375,-0.9571380615234375,2775.775824791667,0.219695161892836,0.1000120601277982,0.3126779812578775,-0.07315948605537415,-0.04545513540506363,-0.0513673759996891,0.007488638162612915,0.01843836903572083,-0.003879308700561523,XArbitraryZVertical,0.14915809678463,0.06612584362616039,0.1158903452700412,0.9797697328299585,0.09500423073768616,-0.3076078593730927,-0.9467584490776062,0,0,0,-1,-1,2774.907539125,running,2,2022-06-30T09:13:00.488+02:00,2022-06-30T08:20:05.567+02:00,833,1.490593,0,0,651.261,0,0,2022-06-30T09:09:38.916+02:00,678265980.4877707,0,-0.8299999,100.9168,1,0.97
2022-06-30T09:13:01.372+02:00,1656573181.07058,53.2290640287597,10.39857063443437,40.19455,0,0.07,-1,103.9230494294148,4,5,-9999,2775.790752791667,0.0947265625,-0.2808990478515625,-0.9600372314453125,2775.785776791667,0.2192130513387675,0.09969443856647503,0.3121629938869502,-0.008160845376551151,-0.05081996321678162,-0.04843320697546005,0.004401415586471558,0.02690523862838745,-0.01019191741943359,XArbitraryZVertical,0.1489396537040458,0.06590847261605511,0.1156222429283528,0.9798493376011257,0.09471927583217621,-0.3071178197860718,-0.9469460844993591,0,0,0,-1,-1,2774.907539125,running,2,2022-06-30T09:13:00.488+02:00,2022-06-30T08:20:05.567+02:00,833,1.490593,0,0,651.261,0,0,2022-06-30T09:09:38.916+02:00,678265980.4877707,0,-0.8299999,100.9168,1,0.97
2022-06-30T09:13:01.382+02:00,1656573181.07058,53.2290640287597,10.39857063443437,40.19455,0,0.07,-1,103.9230494294148,4,5,-9999,2775.800704791667,0.097320556640625,-0.2813720703125,-0.9453887939453125,2775.795728791667,0.218716566281193,0.09934646585341604,0.312213638410369,0.03289897367358208,-0.05060850828886032,-0.04345549270510674,0.000337943434715271,0.02626678347587585,-0.01307368278503418,XArbitraryZVertical,0.1490009513818253,0.06570355313899362,0.1153538991678383,0.9798853117139094,0.0943882092833519,-0.3071660101413727,-0.9469635486602783,0,0,0,-1,-1,2774.907539125,running,2,2022-06-30T09:13:00.488+02:00,2022-06-30T08:20:05.567+02:00,833,1.490593,0,0,651.261,0,0,2022-06-30T09:09:38.916+02:00,678265980.4877707,0,-0.8299999,100.9168,1,0.97
2022-06-30T09:13:01.392+02:00,1656573181.07058,53.2290640287597,10.39857063443437,40.19455,0,0.07,-1,103.9230494294148,4,5,-9999,2775.810656791667,0.1011962890625,-0.291595458984375,-0.9504547119140625,2775.805680791667,0.2182647301132224,0.09903980952634701,0.3126573078725809,0.07004061341285706,-0.0406334213912487,-0.0356675423681736,0.003235824406147003,0.02621594071388245,0.00146794319152832,XArbitraryZVertical,0.1492511852275048,0.06554177583458901,0.1151166949809075,0.9798860029989508,0.09408432990312576,-0.3075881898403168,-0.9468567371368408,0,0,0,-1,-1,2774.907539125,running,2,2022-06-30T09:13:00.488+02:00,2022-06-30T08:20:05.567+02:00,833,1.490593,0,0,651.261,0,0,2022-06-30T09:09:38.916+02:00,678265980.4877707,0,-0.8299999,100.9168,1,0.97
2022-06-30T09:13:01.402+02:00,1656573181.07058,53.2290640287597,10.39857063443437,40.19455,0,0.07,-1,103.9230494294148,4,5,-9999,2775.820608791667,0.10821533203125,-0.297271728515625,-0.9439239501953125,2775.815632791667,0.2177874029783222,0.09889366123146365,0.3134411505299471,0.0822373628616333,-0.02989901602268219,-0.03876027092337608,0.007273770868778229,0.01673832535743713,-0.003824472427368164,XArbitraryZVertical,0.1496599172562097,0.06547356930473038,0.1148843145084579,0.9798554619325508,0.09392211586236954,-0.3083339333534241,-0.9466302394866943,0,0,0,-1,-1,2774.907539125,running,2,2022-06-30T09:13:00.488+02:00,2022-06-30T08:20:05.567+02:00,833,1.490593,0,0,651.261,0,0,2022-06-30T09:09:38.916+02:00,678265980.4877707,0,-0.8299999,100.9168,1,0.97
2022-06-30T09:13:01.412+02:00,1656573181.07058,53.2290640287597,10.39857063443437,40.19455,0,0.07,-1,103.9230494294148,4,5,-9999,2775.830560791667,0.112884521484375,-0.314178466796875,-0.9520416259765625,2775.825584791667,0.2173399975633056,0.09878260414809982,0.314280828760633,0.07733980566263199,-0.03100415505468845,-0.02636632137000561,0.01442349702119827,0.01186072826385498,0.002458810806274414,XArbitraryZVertical,0.1500929999971782,0.06542736933525511,0.1146700397054759,0.9798174721113143,0.0937914177775383,-0.3091326057910919,-0.9463827013969421,0,0,0,-1,-1,2774.907539125,running,2,2022-06-30T09:13:00.488+02:00,2022-06-30T08:20:05.567+02:00,833,1.490593,0,0,651.261,0,0,2022-06-30T09:09:38.916+02:00,678265980.4877707,0,-0.8299999,100.9168,1,0.97
2022-06-30T09:13:01.422+02:00,1656573181.07058,53.2290640287597,10.39857063443437,40.19455,0,0.07,-1,103.9230494294148,4,5,-9999,2775.840512791667,0.1100006103515625,-0.336700439453125,-0.95477294921875,2775.835536791667,0.2169460668368402,0.09869901648733947,0.3149106592802737,0.04138340428471565,-0.02531804144382477,-0.0311882421374321,0.01919101178646088,-0.004447132349014282,-0.005845010280609131,XArbitraryZVertical,0.1504197636422067,0.06538807186462946,0.1144807007101735,0.9797920613985791,0.09369310736656189,-0.309731513261795,-0.9461966156959534,0,0,0,-1,-1,2774.907539125,running,2,2022-06-30T09:13:00.488+02:00,2022-06-30T08:20:05.567+02:00,833,1.490593,0,0,651.261,0,0,2022-06-30T09:09:38.916+02:00,678265980.4877707,0,-0.8299999,100.9168,1,0.97
2022-06-30T09:13:01.432+02:00,1656573181.07058,53.2290640287597,10.39857063443437,40.19455,0,0.07,-1,103.9230494294148,4,5,-9999,2775.850464791667,0.1086578369140625,-0.356201171875,-0.953399658203125,2775.845488791667,0.2165924568324149,0.09865642477870722,0.3149261186665643,-0.03043545782566071,-0.01305925659835339,-0.03040324151515961,0.01634787023067474,-0.02695441246032715,-0.008577108383178711,XArbitraryZVertical,0.1504413358513129,0.06534136946761453,0.1143044998627226,0.9798124880202357,0.09365233778953552,-0.3097462356090546,-0.9461958408355713,0,0,0,-1,-1,2774.907539125,running,2,2022-06-30T09:13:00.488+02:00,2022-06-30T08:20:05.567+02:00,833,1.490593,0,0,651.261,0,0,2022-06-30T09:09:38.916+02:00,678265980.4877707,0,-0.8299999,100.9168,1,0.97
2022-06-30T09:13:01.442+02:00,1656573181.07058,53.2290640287597,10.39857063443437,40.19455,0,0.07,-1,103.9230494294148,4,5,-9999,2775.860416791667,0.1055145263671875,-0.35089111328125,-0.9473876953125,2775.855440791667,0.2163756782849908,0.09862576153250041,0.3140281246937925,-0.133449986577034,-0.007705769967287779,-0.02547639235854149,0.01500675827264786,-0.04730904102325439,-0.00692451000213623,XArbitraryZVertical,0.1500094776864818,0.0652656703936888,0.114181854599585,0.9798979487611725,0.09365066885948181,-0.3088922798633575,-0.946475088596344,0,0,0,-1,-1,2774.907539125,running,2,2022-06-30T09:13:00.488+02:00,2022-06-30T08:20:05.567+02:00,833,1.490593,0,0,651.261,0,0,2022-06-30T09:09:38.916+02:00,678265980.4877707,0,-0.8299999,100.9168,1,0.97
2022-06-30T09:13:01.452+02:00,1656573181.07058,53.2290640287597,10.39857063443437,40.19455,0,0.07,-1,103.9230494294148,4,5,-9999,2775.870368791667,0.1022491455078125,-0.3384552001953125,-0.944183349609375,2775.865392791667,0.2163014637721843,0.09861336389234038,0.3121360590837425,-0.2248187214136124,5.181226879358292e-05,-0.02771561034023762,0.0118178054690361,-0.04379907250404358,-0.0003314614295959473,XArbitraryZVertical,0.1490839410634013,0.06516050931200579,0.1141146716973029,0.9800540466553216,0.09369631111621857,-0.3070921897888184,-0.9470561742782593,0,0,0,-1,-1,2774.907539125,running,2,2022-06-30T09:13:00.488+02:00,2022-06-30T08:20:05.567+02:00,833,1.490593,0,0,651.261,0,0,2022-06-30T09:09:38.916+02:00,678265980.4877707,0,-0.8299999,100.9168,1,0.97
2022-06-30T09:13:01.462+02:00,1656573181.07058,53.2290640287597,10.39857063443437,40.19455,0,0.07,-1,103.9230494294148,4,5,-9999,2775.880320791667,0.1066741943359375,-0.307586669921875,-0.960845947265625,2775.875344791667,0.2162339092172251,0.09865834259136719,0.3096980350741326,-0.2320904731750488,0.002591669093817472,-0.02593555301427841,0.008436359465122223,-0.03368431329727173,0.003610908985137939,XArbitraryZVertical,0.1478867564319295,0.06505697748017578,0.1140462330108239,0.9802501987796779,0.09381237626075745,-0.3047710657119751,-0.9477941989898682,0,0,0,-1,-1,2774.907539125,running,2,2022-06-30T09:13:00.488+02:00,2022-06-30T08:20:05.567+02:00,833,1.490593,0,0,651.261,0,0,2022-06-30T09:09:38.916+02:00,678265980.4877707,0,-0.8299999,100.9168,1,0.97
2022-06-30T09:13:01.471+02:00,1656573181.07058,53.2290640287597,10.39857063443437,40.19455,0,0.07,-1,103.9230494294148,4,5,-9999,2775.890272791667,0.110687255859375,-0.2410888671875,-0.9315338134765625,2775.885296791667,0.2161644221575167,0.09863630567495289,0.3076863957751946,-0.1562268137931824,-0.01124249678105116,-0.02757649496197701,0.01282212138175964,-0.004732340574264526,-0.01244145631790161,XArbitraryZVertical,0.1469025827020194,0.06494153305566747,0.1139784905520308,0.9804137472037108,0.09385167062282562,-0.3028545081615448,-0.9484044313430786,0,0,0,-1,-1,2774.907539125,running,2,2022-06-30T09:13:00.488+02:00,2022-06-30T08:20:05.567+02:00,833,1.490593,0,0,651.261,0,0,2022-06-30T09:09:38.916+02:00,678265980.4877707,0,-0.8299999,100.9168,1,0.97
2022-06-30T09:13:01.481+02:00,1656573181.07058,53.2290640287597,10.39857063443437,40.19455,0,0.07,-1,103.9230494294148,4,5,-9999,2775.900224791667,0.1064910888671875,-0.2174224853515625,-0.9322509765625,2775.895248791667,0.2160331991667997,0.09850285707030007,0.3066937595178711,-0.02442776598036289,-0.02689043246209621,-0.02016092278063297,0.01693221926689148,0.06081929802894592,0.0171818733215332,XArbitraryZVertical,0.1464270145403428,0.06481737980498568,0.1138885305341844,0.9805035623751753,0.09375462681055069,-0.3019083440303802,-0.9487156867980957,0,0,0,-1,-1,2774.907539125,running,2,2022-06-30T09:13:00.488+02:00,2022-06-30T08:20:05.567+02:00,833,1.490593,0,0,651.261,0,0,2022-06-30T09:09:38.916+02:00,678265980.4877707,0,-0.8299999,100.9168,1,0.97
2022-06-30T09:13:01.491+02:00,1656573181.07058,53.2290640287597,10.39857063443437,40.19455,0,0.07,-1,103.9230494294148,4,5,-9999,2775.910176791667,0.0978546142578125,-0.250335693359375,-0.933349609375,2775.905200791667,0.2157336115695082,0.09834674234246391,0.3072087680869606,0.1278966516256332,-0.02513090521097183,-0.0268097035586834,0.01289943605661392,0.08497664332389832,0.01632452011108398,XArbitraryZVertical,0.1466985063703162,0.06474435166949202,0.1137384330246221,0.9804851889670579,0.09359123557806015,-0.3023992776870728,-0.9485754370689392,0,0,0,-1,-1,2774.907539125,running,2,2022-06-30T09:13:00.488+02:00,2022-06-30T08:20:05.567+02:00,833,1.490593,0,0,651.261,0,0,2022-06-30T09:09:38.916+02:00,678265980.4877707,0,-0.8299999,100.9168,1,0.97
2022-06-30T09:13:01.502+02:00,1656573181.07058,53.2290640287597,10.39857063443437,40.19455,0,0.07,-1,103.9230494294148,4,5,-9999,2775.920128791667,0.0987548828125,-0.30657958984375,-0.94024658203125,2775.915152791667,0.2152469879049065,0.09823888085819511,0.3089152207429574,0.2078945487737656,-0.02676422335207462,-0.03086276724934578,0.004416033625602722,0.05368950963020325,0.01472103595733643,XArbitraryZVertical,0.1475582880708063,0.0647398319540565,0.1135190537788574,0.9803819911021049,0.09343817830085754,-0.3040253818035126,-0.9480705857276917,0,0,0,-1,-1,2774.907539125,running,2,2022-06-30T09:13:00.488+02:00,2022-06-30T08:20:05.567+02:00,833,1.490593,0,0,651.261,0,0,2022-06-30T09:09:38.916+02:00,678265980.4877707,0,-0.8299999,100.9168,1,0.97
2022-06-30T09:13:01.511+02:00,1656573181.07058,53.2290640287597,10.39857063443437,40.19455,0,0.07,-1,103.9230494294148,4,5,-9999,2775.930080791667,0.1043548583984375,-0.3565673828125,-0.9450225830078125,2775.925104791667,0.2147287088230942,0.09817844099235933,0.3108358562746488,0.1649743169546127,-0.0189487524330616,-0.03011937998235226,0.005431011319160461,-0.0007252097129821777,0.007246851921081543,XArbitraryZVertical,0.1485214720534249,0.06476628133514171,0.1132909591486323,0.9802612089805794,0.0933234691619873,-0.3058545291423798,-0.9474933743476868,0,0,0,-1,-1,2774.907539125,running,2,2022-06-30T09:13:00.488+02:00,2022-06-30T08:20:05.567+02:00,833,1.490593,0,0,651.261,0,0,2022-06-30T09:09:38.916+02:00,678265980.4877707,0,-0.8299999,100.9168,1,0.97
2022-06-30T09:13:01.521+02:00,1656573181.07058,53.2290640287597,10.39857063443437,40.19455,0,0.07,-1,103.9230494294148,4,5,-9999,2775.940032791667,0.1114044189453125,-0.383209228515625,-0.9502105712890625,2775.935056791667,0.2143119271702149,0.09816299293058584,0.3118240522627622,0.0249764695763588,-0.01160508580505848,-0.0315106175839901,0.01107528805732727,-0.04977232217788696,0.002171039581298828,XArbitraryZVertical,0.1490209898204813,0.06477617009222295,0.1131011686494073,0.9802065919328132,0.0932791605591774,-0.3067952394485474,-0.9471935629844666,0,0,0,-1,-1,2774.907539125,running,2,2022-06-30T09:13:00.488+02:00,2022-06-30T08:20:05.567+02:00,833,1.490593,0,0,651.261,0,0,2022-06-30T09:09:38.916+02:00,678265980.4877707,0,-0.8299999,100.9168,1,0.97
2022-06-30T09:13:01.531+02:00,1656573181.07058,53.2290640287597,10.39857063443437,40.19455,0,0.07,-1,103.9230494294148,4,5,-9999,2775.949984791667,0.1133880615234375,-0.3753509521484375,-0.9512176513671875,2775.945008791667,0.2140357185470132,0.0981742928232929,0.311252143655789,-0.1378573924303055,-0.003805958200246096,-0.03456556424498558,0.01809696853160858,-0.07695853710174561,-0.002843558788299561,XArbitraryZVertical,0.1487485177758057,0.0647331481080497,0.1129575823181024,0.980267433829843,0.09330704808235168,-0.3062508702278137,-0.9473670125007629,0,0,0,-1,-1,2774.907539125,running,2,2022-06-30T09:13:00.488+02:00,2022-06-30T08:20:05.567+02:00,833,1.490593,0,0,651.261,0,0,2022-06-30T09:09:38.916+02:00,678265980.4877707,0,-0.8299999,100.9168,1,0.97
2022-06-30T09:13:01.541+02:00,1656573181.07058,53.2290640287597,10.39857063443437,40.19455,0,0.07,-1,103.9230494294148,4,5,-9999,2775.959936791667,0.110321044921875,-0.333160400390625,-0.9522705078125,2775.954960791667,0.2138528418447021,0.0982317098719772,0.3092416666854389,-0.2550316751003265,0.005964380688965321,-0.03888174891471863,0.0199660137295723,-0.07101476192474365,-0.003245174884796143,XArbitraryZVertical,0.1477640790301121,0.0646494059371592,0.1128402930624578,0.9804353284045739,0.09342163801193237,-0.3043363690376282,-0.9479724764823914,0,0,0,-1,-1,2774.907539125,running,2,2022-06-30T09:13:00.488+02:00,2022-06-30T08:20:05.567+02:00,833,1.490593,0,0,651.261,0,0,2022-06-30T09:09:38.916+02:00,678265980.4877707,0,-0.8299999,100.9168,1,0.97
2022-06-30T09:13:01.551+02:00,1656573181.07058,53.2290640287597,10.39857063443437,40.19455,0,0.07,-1,103.9230494294148,4,5,-9999,2775.969888791667,0.105865478515625,-0.2772979736328125,-0.9553070068359375,2775.964912791667,0.2137261363782547,0.09836877733090778,0.3066357008215741,-0.2474587112665176,0.008164975792169571,-0.03321613743901253,0.01669150590896606,-0.03130760788917542,-0.0035247802734375,XArbitraryZVertical,0.1464807244105699,0.06457984253978104,0.1127466553167655,0.9806432201211946,0.0936291441321373,-0.3018529713153839,-0.9487456679344177,0,0,0,-1,-1,2774.907539125,running,2,2022-06-30T09:13:00.488+02:00,2022-06-30T08:20:05.567+02:00,833,1.490593,0,0,651.261,0,0,2022-06-30T09:09:38.916+02:00,678265980.4877707,0,-0.8299999,100.9168,1,0.97
2022-06-30T09:13:01.561+02:00,1656573181.07058,53.2290640287597,10.39857063443437,40.19455,0,0.07,-1,103.9230494294148,4,5,-9999,2775.979840791667,0.107330322265625,-0.22491455078125,-0.9436187744140625,2775.974864791667,0.2135888284034928,0.0984671388200309,0.3046113765787846,-0.13894023001194,-0.00322456588037312,-0.03183049708604813,0.01208271831274033,0.02262434363365173,-0.005964338779449463,XArbitraryZVertical,0.1454853505210712,0.06451905670861813,0.1126539907481565,0.9808059911839988,0.09378234297037125,-0.2999224662780762,-0.9493426084518433,0,0,0,-1,-1,2774.907539125,running,2,2022-06-30T09:13:00.488+02:00,2022-06-30T08:20:05.567+02:00,833,1.490593,0,0,651.261,0,0,2022-06-30T09:09:38.916+02:00,678265980.4877707,0,-0.8299999,100.9168,1,0.97
2022-06-30T09:13:01.576+02:00,1656573181.07058,53.2290640287597,10.39857063443437,40.19455,0,0.07,-1,103.9230494294148,4,5,-9999,2775.989792791667,0.1068267822265625,-0.2165679931640625,-0.942047119140625,2775.984816791667,0.2133688793329487,0.09842983161934543,0.3039690750298272,0.02637043222784996,-0.02200224809348583,-0.02260849997401237,0.01356407999992371,0.07439494132995605,0.00591886043548584,XArbitraryZVertical,0.145179035650893,0.06445338091610864,0.1125330613476449,0.9808695771786978,0.09376583993434906,-0.2993096709251404,-0.9495376348495483,0,0,0,-1,-1,2774.907539125,running,2,2022-06-30T09:13:00.488+02:00,2022-06-30T08:20:05.567+02:00,833,1.490593,0,0,651.261,0,0,2022-06-30T09:09:38.916+02:00,678265980.4877707,0,-0.8299999,100.9168,1,0.97
2022-06-30T09:13:01.594+02:00,1656573181.07058,53.2290640287597,10.39857063443437,40.19455,0,0.07,-1,103.9230494294148,4,5,-9999,2775.999744791667,0.1007537841796875,-0.2529296875,-0.9317779541015625,2775.994768791667,0.2130715617177981,0.09826644259744385,0.3049101253590304,0.1615535616874695,-0.03040478751063347,-0.01906809397041798,0.01324336230754852,0.08363929390907288,0.007225096225738525,XArbitraryZVertical,0.145660054445822,0.06439757230944571,0.1123905146331181,0.9808183027436896,0.09358301758766174,-0.3002074360847473,-0.9492722153663635,0,0,0,-1,-1,2774.907539125,running,2,2022-06-30T09:13:00.488+02:00,2022-06-30T08:20:05.567+02:00,833,1.490593,0,0,651.261,0,0,2022-06-30T09:09:38.916+02:00,678265980.4877707,0,-0.8299999,100.9168,1,0.97
2022-06-30T09:13:01.596+02:00,1656573181.07058,53.2290640287597,10.39857063443437,40.19455,0,0.07,-1,103.9230494294148,4,5,-9999,2776.009696791667,0.09552001953125,-0.308135986328125,-0.9344635009765625,2776.004720791667,0.2126787552367596,0.09805308051218266,0.3067546538620448,0.2022028416395187,-0.03398618102073669,-0.01939519681036472,0.00742727518081665,0.04903650283813477,0.01696151494979858,XArbitraryZVertical,0.1465906723353357,0.06435411616592721,0.112211868952144,0.9807028900161817,0.09332610666751862,-0.3019663691520691,-0.9487394690513611,0,0,0,-1,-1,2774.907539125,running,2,2022-06-30T09:13:00.488+02:00,2022-06-30T08:20:05.567+02:00,833,1.490593,0,0,651.261,0,0,2022-06-30T09:09:38.916+02:00,678265980.4877707,0,-0.8299999,100.9168,1,0.97
2022-06-30T09:13:01.601+02:00,1656573181.07058,53.2290640287597,10.39857063443437,40.19455,0,0.07,-1,103.9230494294148,4,5,-9999,2776.019648791667,0.0905914306640625,-0.3491668701171875,-0.94171142578125,2776.014672791667,0.2122868729497992,0.09786933146061834,0.3085491557590127,0.1454817801713943,-0.02707208320498466,-0.02182772755622864,0.002420932054519653,-0.004459530115127563,0.013752281665802,XArbitraryZVertical,0.1474948865516732,0.06432241969988113,0.1120348100192408,0.9805896828259753,0.09309867769479752,-0.3036766350269318,-0.9482157826423645,0,0,0,-1,-1,2774.907539125,running,2,2022-06-30T09:13:00.488+02:00,2022-06-30T08:20:05.567+02:00,833,1.490593,0,0,651.261,0,0,2022-06-30T09:09:38.916+02:00,678265980.4877707,0,-0.8299999,100.9168,1,0.97
2022-06-30T09:13:01.611+02:00,1656573181.07058,53.2290640287597,10.39857063443437,40.19455,0,0.07,-1,103.9230494294148,4,5,-9999,2776.029600791667,0.0911712646484375,-0.359588623046875,-0.9529876708984375,2776.024624791667,0.2119964369781101,0.09776185812047178,0.3094308048405254,0.02635152451694012,-0.01444506831467152,-0.01696566306054592,-0.002379588782787323,-0.04465049505233765,0.006247580051422119,XArbitraryZVertical,0.1479431997578756,0.06429103739294535,0.1118984769479933,0.9805397799326901,0.0929706022143364,-0.3045165240764618,-0.9479589462280273,0,0,0,-1,-1,2774.907539125,running,2,2022-06-30T09:13:00.488+02:00,2022-06-30T08:20:05.567+02:00,833,1.490593,0,0,651.261,0,0,2022-06-30T09:09:38.916+02:00,678265980.4877707,0,-0.8299999,100.9168,1,0.97
2022-06-30T09:13:01.621+02:00,1656573181.07058,53.2290640287597,10.39857063443437,40.19455,0,0.07,-1,103.9230494294148,4,5,-9999,2776.039552791667,0.0925445556640625,-0.3380889892578125,-0.9619903564453125,2776.034576791667,0.2118604844541485,0.09774571962321595,0.3090867088259351,-0.09610994160175323,0.001818856224417686,-0.01590625755488873,-0.001794666051864624,-0.05540004372596741,-0.004922986030578613,XArbitraryZVertical,0.147779492121813,0.06425640124583014,0.111825167086855,0.9805751181127215,0.09296552091836929,-0.3041887581348419,-0.9480646848678589,0,0,0,-1,-1,2774.907539125,running,2,2022-06-30T09:13:00.488+02:00,2022-06-30T08:20:05.567+02:00,833,1.490593,0,0,651.261,0,0,2022-06-30T09:09:38.916+02:00,678265980.4877707,0,-0.8299999,100.9168,1,0.97
2022-06-30T09:13:01.631+02:00,1656573181.07058,53.2290640287597,10.39857063443437,40.19455,0,0.07,-1,103.9230494294148,4,5,-9999,2776.049504791667,0.0943450927734375,-0.307098388671875,-0.97344970703125,2776.044528791667,0.2118159997462863,0.09782416935554221,0.3077870552610264,-0.1534803509712219,0.008375860750675201,-0.01625429838895798,-0.0005342811346054077,-0.03513872623443604,-0.01354032754898071,XArbitraryZVertical,0.1471382625515716,0.06422863049759972,0.1117884699791505,0.9806775748763524,0.09307843446731567,-0.3029504418373108,-0.9484500288963318,0,0,0,-1,-1,2774.907539125,running,2,2022-06-30T09:13:00.488+02:00,2022-06-30T08:20:05.567+02:00,833,1.490593,0,0,651.261,0,0,2022-06-30T09:09:38.916+02:00,678265980.4877707,0,-0.8299999,100.9168,1,0.97
2022-06-30T09:13:01.641+02:00,1656573181.07058,53.2290640287597,10.39857063443437,40.19455,0,0.07,-1,103.9230494294148,4,5,-9999,2776.059456791667,0.0952301025390625,-0.2652587890625,-0.9644775390625,2776.054480791667,0.211829146996579,0.09794833233970783,0.3063175744675645,-0.1323279291391373,0.01481857988983393,-0.01099908258765936,0.001105055212974548,-0.00554889440536499,-0.02456921339035034,XArbitraryZVertical,0.1464091626839557,0.06421928643748923,0.1117805759859461,0.980788140789594,0.09323962777853012,-0.3015496730804443,-0.9488804936408997,0,0,0,-1,-1,2774.907539125,running,2,2022-06-30T09:13:00.488+02:00,2022-06-30T08:20:05.567+02:00,833,1.490593,0,0,651.261,0,0,2022-06-30T09:09:38.916+02:00,678265980.4877707,0,-0.8299999,100.9168,1,0.97
2022-06-30T09:13:01.651+02:00,1656573181.07058,53.2290640287597,10.39857063443437,40.19455,0,0.07,-1,103.9230494294148,4,5,-9999,2776.069408791667,0.092498779296875,-0.238922119140625,-0.959808349609375,2776.064432791667,0.2118527146967112,0.09806195448625107,0.3053494125690819,-0.04631215706467628,0.007395587861537933,-0.004500137642025948,0.001853704452514648,0.03536748886108398,-0.01531749963760376,XArbitraryZVertical,0.1459264853214523,0.0642297956934266,0.1117849124504725,0.9808589516091535,0.09337598085403442,-0.3006264567375183,-0.9491599798202515,0,0,0,-1,-1,2774.907539125,running,2,2022-06-30T09:13:00.488+02:00,2022-06-30T08:20:05.567+02:00,833,1.490593,0,0,651.261,0,0,2022-06-30T09:09:38.916+02:00,678265980.4877707,0,-0.8299999,100.9168,1,0.97
2022-06-30T09:13:01.661+02:00,1656573181.07058,53.2290640287597,10.39857063443437,40.19455,0,0.07,-1,103.9230494294148,4,5,-9999,2776.079360791667,0.091796875,-0.238128662109375,-0.93963623046875,2776.074384791667,0.2117985914743755,0.09814714745406448,0.3053948379169382,0.06153254956007004,0.0003496624995023012,-0.003744598710909486,-0.0009571313858032227,0.06174746155738831,-0.01066988706588745,XArbitraryZVertical,0.1459457714628785,0.06426982572332626,0.1117653103053815,0.9808557309872021,0.09345550835132599,-0.3006697595119476,-0.9491384625434875,0,0,0,-1,-1,2774.907539125,running,2,2022-06-30T09:13:00.488+02:00,2022-06-30T08:20:05.567+02:00,833,1.490593,0,0,651.261,0,0,2022-06-30T09:09:38.916+02:00,678265980.4877707,0,-0.8299999,100.9168,1,0.97
2022-06-30T09:13:01.671+02:00,1656573181.07058,53.2290640287597,10.39857063443437,40.19455,0,0.07,-1,103.9230494294148,4,5,-9999,2776.089312791667,0.0857696533203125,-0.2736968994140625,-0.9330291748046875,2776.084336791667,0.2116987997856309,0.09816946050442561,0.3063363096943453,0.1302042752504349,-0.003801333718001842,0.002559236716479063,-0.001652427017688751,0.06343874335289001,0.009218037128448486,XArbitraryZVertical,0.1464102009331908,0.06431909432006454,0.1117331457335274,0.980786824724404,0.09344889223575592,-0.301567554473877,-0.9488542079925537,0,0,0,-1,-1,2774.907539125,running,2,2022-06-30T09:13:00.488+02:00,2022-06-30T08:20:05.567+02:00,833,1.490593,0,0,651.261,0,0,2022-06-30T09:09:38.916+02:00,678265980.4877707,0,-0.8299999,100.9168,1,0.97
2022-06-30T09:13:01.680+02:00,1656573181.07058,53.2290640287597,10.39857063443437,40.19455,0,0.07,-1,103.9230494294148,4,5,-9999,2776.099264791667,0.08380126953125,-0.318603515625,-0.9333953857421875,2776.094288791667,0.2115533208260426,0.09821707782856517,0.3077239799517586,0.1365367472171783,0.003927159588783979,-0.0005771680735051632,-0.007683716714382172,0.02919328212738037,0.01540327072143555,XArbitraryZVertical,0.1470937848668924,0.0643989180176051,0.1116875660738817,0.9806845384854054,0.09345295280218124,-0.3028903305530548,-0.9484323859214783,0,0,0,-1,-1,2774.907539125,running,2,2022-06-30T09:13:00.488+02:00,2022-06-30T08:20:05.567+02:00,833,1.490593,0,0,651.261,0,0,2022-06-30T09:09:38.916+02:00,678265980.4877707,0,-0.8299999,100.9168,1,0.97
2022-06-30T09:13:01.690+02:00,1656573181.07058,53.2290640287597,10.39857063443437,40.19455,0,0.07,-1,103.9230494294148,4,5,-9999,2776.109216791667,0.0887908935546875,-0.35003662109375,-0.941741943359375,2776.104240791667,0.2114540636746971,0.09832204116193534,0.308795544955876,0.06731612980365753,0.009371798485517502,0.003533554263412952,-0.009719729423522949,-0.0146922767162323,0.01470369100570679,XArbitraryZVertical,0.1476173915531523,0.06449487344086857,0.1116638220267031,0.980602222026974,0.09352058917284012,-0.3039113581180573,-0.9480990171432495,0,0,0,-1,-1,2774.907539125,running,2,2022-06-30T09:13:00.488+02:00,2022-06-30T08:20:05.567+02:00,833,1.490593,0,0,651.261,0,0,2022-06-30T09:09:38.916+02:00,678265980.4877707,0,-0.8299999,100.9168,1,0.97
2022-06-30T09:13:01.700+02:00,1656573181.07058,53.2290640287597,10.39857063443437,40.19455,0,0.07,-1,103.9230494294148,4,5,-9999,2776.119168791667,0.0920257568359375,-0.35614013671875,-0.94891357421875,2776.114192791667,0.2114560568972216,0.09845026166207109,0.3089917834082519,-0.0349564403295517,0.01626006513834,0.001456555095501244,-0.004845805466175079,-0.04593846201896667,0.006285786628723145,XArbitraryZVertical,0.1477065376047783,0.06456736605911069,0.1116774138999592,0.9805824942610057,0.09363628923892975,-0.3040983378887177,-0.9480276703834534,0,0,0,-1,-1,2774.907539125,running,2,2022-06-30T09:13:00.488+02:00,2022-06-30T08:20:05.567+02:00,833,1.490593,0,0,651.261,0,0,2022-06-30T09:09:38.916+02:00,678265980.4877707,0,-0.8299999,100.9168,1,0.97
2022-06-30T09:13:01.710+02:00,1656573181.07058,53.2290640287597,10.39857063443437,40.19455,0,0.07,-1,103.9230494294148,4,5,-9999,2776.129120791667,0.0932464599609375,-0.332611083984375,-0.9483795166015625,2776.124144791667,0.2115792624665952,0.09861639844253975,0.3082068270546696,-0.1182802245020866,0.02113500609993935,0.00795353576540947,-0.001791916787624359,-0.05278986692428589,-0.0006642341613769531,XArbitraryZVertical,0.1473077878161287,0.06461997753503441,0.1117374456091665,0.9806321510422175,0.09381726384162903,-0.3033504486083984,-0.948249340057373,0,0,0,-1,-1,2774.907539125,running,2,2022-06-30T09:13:00.488+02:00,2022-06-30T08:20:05.567+02:00,833,1.490593,0,0,651.261,0,0,2022-06-30T09:09:38.916+02:00,678265980.4877707,0,-0.8299999,100.9168,1,0.97
2022-06-30T09:13:01.720+02:00,1656573181.07058,53.2290640287597,10.39857063443437,40.19455,0,0.07,-1,103.9230494294148,4,5,-9999,2776.139072791667,0.0992431640625,-0.2850494384765625,-0.94378662109375,2776.134096791667,0.2117963029531929,0.09875974930281453,0.3069263948536212,-0.1304902881383896,0.01793335378170013,0.009139974601566792,-0.0007453635334968567,-0.03048112988471985,0.0002421736717224121,XArbitraryZVertical,0.1466638961596139,0.0646442717009324,0.1118337208910964,0.9807160841740845,0.09399141371250153,-0.3021301031112671,-0.9486216306686401,0,0,0,-1,-1,2774.907539125,running,2,2022-06-30T09:13:00.488+02:00,2022-06-30T08:20:05.567+02:00,833,1.490593,0,0,651.261,0,0,2022-06-30T09:09:38.916+02:00,678265980.4877707,0,-0.8299999,100.9168,1,0.97
2022-06-30T09:13:01.730+02:00,1656573181.07058,53.2290640287597,10.39857063443437,40.19455,0,0.07,-1,103.9230494294148,4,5,-9999,2776.149024791667,0.1001739501953125,-0.2539215087890625,-0.9392242431640625,2776.144048791667,0.2120002555607846,0.0988379253785871,0.3059257895793122,-0.06029661744832993,0.01039659511297941,0.00806768611073494,0.005147397518157959,0.01612651348114014,0.005128026008605957,XArbitraryZVertical,0.1461614592638486,0.06464906089307043,0.11192324047819,0.9807805854889543,0.09409535676240921,-0.3011761009693146,-0.948914647102356,0,0,0,-1,-1,2774.907539125,running,2,2022-06-30T09:13:00.488+02:00,2022-06-30T08:20:05.567+02:00,833,1.490593,0,0,651.261,0,0,2022-06-30T09:09:38.916+02:00,678265980.4877707,0,-0.8299999,100.9168,1,0.97
2022-06-30T09:13:01.740+02:00,1656573181.07058,53.2290640287597,10.39857063443437,40.19455,0,0.07,-1,103.9230494294148,4,5,-9999,2776.158976791667,0.0975189208984375,-0.2576751708984375,-0.939453125,2776.154000791667,0.212082080093249,0.09882734378828685,0.3057745305201067,0.04060416296124458,-0.003984474577009678,0.007221865933388472,0.00608372688293457,0.04711019992828369,0.009736776351928711,XArbitraryZVertical,0.1460851050454121,0.06464251207243596,0.1119601349704593,0.9807882186110281,0.0940898135304451,-0.3010318577289581,-0.9489609599113464,0,0,0,-1,-1,2774.907539125,running,2,2022-06-30T09:13:00.488+02:00,2022-06-30T08:20:05.567+02:00,833,1.490593,0,0,651.261,0,0,2022-06-30T09:09:38.916+02:00,678265980.4877707,0,-0.8299999,100.9168,1,0.97
2022-06-30T09:13:01.750+02:00,1656573181.07058,53.2290640287597,10.39857063443437,40.19455,0,0.07,-1,103.9230494294148,4,5,-9999,2776.168928791667,0.0967559814453125,-0.2955780029296875,-0.9385986328125,2776.163952791667,0.2120809165771484,0.09876668788134571,0.3065255990225946,0.1138942167162895,-0.003885477315634489,0.00832674466073513,0.003508582711219788,0.04407268762588501,0.009288311004638672,XArbitraryZVertical,0.1464574559310227,0.06464911301648159,0.1119673082294107,0.9807313564558525,0.09400992840528488,-0.3017480075359344,-0.9487414360046387,0,0,0,-1,-1,2774.907539125,running,2,2022-06-30T09:13:00.488+02:00,2022-06-30T08:20:05.567+02:00,833,1.490593,0,0,651.261,0,0,2022-06-30T09:09:38.916+02:00,678265980.4877707,0,-0.8299999,100.9168,1,0.97
2022-06-30T09:13:01.760+02:00,1656573181.07058,53.2290640287597,10.39857063443437,40.19455,0,0.07,-1,103.9230494294148,4,5,-9999,2776.178880791667,0.101287841796875,-0.3307647705078125,-0.934326171875,2776.173904791667,0.2119947934296015,0.09872240232540326,0.3076936034509433,0.1102422252297401,-0.008959597907960415,-0.001008699997328222,0.002822466194629669,0.007283180952072144,0.009795606136322021,XArbitraryZVertical,0.1470363689376404,0.06467768726315537,0.1119407034732947,0.9806459402482963,0.0939331129193306,-0.302861362695694,-0.9483941793441772,0,0,0,-1,-1,2774.907539125,running,2,2022-06-30T09:13:00.488+02:00,2022-06-30T08:20:05.567+02:00,833,1.490593,0,0,651.261,0,0,2022-06-30T09:09:38.916+02:00,678265980.4877707,0,-0.8299999,100.9168,1,0.97
2022-06-30T09:13:01.770+02:00,1656573181.07058,53.2290640287597,10.39857063443437,40.19455,0,0.07,-1,103.9230494294148,4,5,-9999,2776.188832791667,0.10040283203125,-0.354156494140625,-0.932464599609375,2776.183856791667,0.2118902443642255,0.09867231326070364,0.3084861324964684,0.03673585504293442,-0.006177647970616817,-0.004666451830416918,0.007425494492053986,-0.02714833617210388,0.01383364200592041,XArbitraryZVertical,0.1474317718820582,0.06468381650276238,0.1118985387982196,0.9805909804656029,0.09386193752288818,-0.3036165833473206,-0.9481597542762756,0,0,0,-1,-1,2774.907539125,running,2,2022-06-30T09:13:00.488+02:00,2022-06-30T08:20:05.567+02:00,833,1.490593,0,0,651.261,0,0,2022-06-30T09:09:38.916+02:00,678265980.4877707,0,-0.8299999,100.9168,1,0.97
2022-06-30T09:13:01.780+02:00,1656573181.07058,53.2290640287597,10.39857063443437,40.19455,0,0.07,-1,103.9230494294148,4,5,-9999,2776.198784791667,0.09649658203125,-0.3607330322265625,-0.932342529296875,2776.193808791667,0.2118122395434581,0.09863569311988331,0.308368438640143,-0.06578598916530609,-0.001770649338141084,-0.012123036198318,0.006571680307388306,-0.05065220594406128,0.01573419570922852,XArbitraryZVertical,0.1473785419783628,0.06465441442835211,0.1118556964493991,0.9806058177054431,0.09383073449134827,-0.3035044372081757,-0.9481987357139587,0,0,0,-1,-1,2774.907539125,running,2,2022-06-30T09:13:00.488+02:00,2022-06-30T08:20:05.567+02:00,833,1.490593,0,0,651.261,0,0,2022-06-30T09:09:38.916+02:00,678265980.4877707,0,-0.8299999,100.9168,1,0.97
2022-06-30T09:13:01.790+02:00,1656573181.07058,53.2290640287597,10.39857063443437,40.19455,0,0.07,-1,103.9230494294148,4,5,-9999,2776.208736791667,0.0936279296875,-0.3371124267578125,-0.9376983642578125,2776.203760791667,0.2117614732176987,0.09865382070033596,0.3073286870740897,-0.1454685777425766,0.001620595809072256,-0.01663629710674286,0.002617232501506805,-0.05821964144706726,0.01616805791854858,XArbitraryZVertical,0.1468685302829811,0.06460924825204571,0.1118153727870484,0.9806898562481478,0.09387894719839096,-0.3025135695934296,-0.9485105872154236,0,0,0,-1,-1,2774.907539125,running,2,2022-06-30T09:13:00.488+02:00,2022-06-30T08:20:05.567+02:00,833,1.490593,0,0,651.261,0,0,2022-06-30T09:09:38.916+02:00,678265980.4877707,0,-0.8299999,100.9168,1,0.97
2022-06-30T09:13:01.800+02:00,1656573181.07058,53.2290640287597,10.39857063443437,40.19455,0,0.07,-1,103.9230494294148,4,5,-9999,2776.218688791667,0.09063720703125,-0.2960357666015625,-0.9409332275390625,2776.213712791667,0.2117505369193792,0.09867566404434176,0.3058285288473195,-0.1511163413524628,0.0002288278192281723,-0.01677398197352886,-0.0003167539834976196,-0.03602924942970276,0.01126068830490112,XArbitraryZVertical,0.1461308270693852,0.06454652909917429,0.1117873466134249,0.9808073938671185,0.09394427388906479,-0.3010833561420441,-0.9489590525627136,0,0,0,-1,-1,2774.907539125,running,2,2022-06-30T09:13:00.488+02:00,2022-06-30T08:20:05.567+02:00,833,1.490593,0,0,651.261,0,0,2022-06-30T09:09:38.916+02:00,678265980.4877707,0,-0.8299999,100.9168,1,0.97
2022-06-30T09:13:01.810+02:00,1656573181.07058,53.2290640287597,10.39857063443437,40.19455,0,0.07,-1,103.9230494294148,4,5,-9999,2776.228640791667,0.0876312255859375,-0.258575439453125,-0.9379730224609375,2776.223664791667,0.2117050491142418,0.09866296173456027,0.304595215083289,-0.08555237203836441,-0.003978918306529522,-0.01793758198618889,-0.00333191454410553,0.00387108325958252,0.008395850658416748,XArbitraryZVertical,0.145527174046193,0.06447725482928914,0.1117441156724784,0.9809066313089907,0.0939687192440033,-0.2999070584774017,-0.9493290781974792,0,0,0,-1,-1,2774.907539125,running,2,2022-06-30T09:13:00.488+02:00,2022-06-30T08:20:05.567+02:00,833,1.490593,0,0,651.261,0,0,2022-06-30T09:09:38.916+02:00,678265980.4877707,0,-0.8299999,100.9168,1,0.97
2022-06-30T09:13:01.820+02:00,1656573181.07058,53.2290640287597,10.39857063443437,40.19455,0,0.07,-1,103.9230494294148,4,5,-9999,2776.238592791667,0.0856781005859375,-0.25640869140625,-0.9375762939453125,2776.233616791667,0.2115165052648008,0.09868173772050677,0.3041684084362922,0.01372680999338627,-0.007237828336656094,-0.02358534745872021,-0.006368324160575867,0.04092422127723694,0.01148158311843872,XArbitraryZVertical,0.1453225338793586,0.06445209249809289,0.111646076540422,0.9809497752118663,0.09399914741516113,-0.2994998693466187,-0.9494546055793762,0,0,0,-1,-1,2774.907539125,running,2,2022-06-30T09:13:00.488+02:00,2022-06-30T08:20:05.567+02:00,833,1.490593,0,0,651.261,0,0,2022-06-30T09:09:38.916+02:00,678265980.4877707,0,-0.8299999,100.9168,1,0.97
2022-06-30T09:13:01.830+02:00,1656573181.07058,53.2290640287597,10.39857063443437,40.19455,0,0.07,-1,103.9230494294148,4,5,-9999,2776.248544791667,0.0822296142578125,-0.2861480712890625,-0.9345703125,2776.243568791667,0.2111559298552806,0.09870298797214806,0.304654090332423,0.08882422745227814,-0.01063219644129276,-0.03501643612980843,-0.008327290415763855,0.04355436563491821,0.01173144578933716,XArbitraryZVertical,0.1455715628958832,0.06445977132078649,0.1114786638871077,0.9809314000758457,0.09400498121976852,-0.2999632060527802,-0.9493077397346497,0,0,0,-1,-1,2774.907539125,running,2,2022-06-30T09:13:00.488+02:00,2022-06-30T08:20:05.567+02:00,833,1.490593,0,0,651.261,0,0,2022-06-30T09:09:38.916+02:00,678265980.4877707,0,-0.8299999,100.9168,1,0.97
2022-06-30T09:13:01.840+02:00,1656573181.07058,53.2290640287597,10.39857063443437,40.19455,0,0.07,-1,103.9230494294148,4,5,-9999,2776.258495791667,0.0785369873046875,-0.3207855224609375,-0.936370849609375,2776.253520791667,0.210637685027529,0.09879121727568629,0.30559270810581,0.1017783731222153,-0.004495740868151188,-0.04426160082221031,-0.01183171570301056,0.01471021771430969,0.01444852352142334,XArbitraryZVertical,0.1460444564152473,0.06451052920154318,0.1112461957224513,0.9808841101084746,0.09406092762947083,-0.3008584678173065,-0.9490188360214233,0,0,0,-1,-1,2774.907539125,running,2,2022-06-30T09:13:00.488+02:00,2022-06-30T08:20:05.567+02:00,833,1.490593,0,0,651.261,0,0,2022-06-30T09:09:38.916+02:00,678265980.4877707,0,-0.8299999,100.9168,1,0.97
2022-06-30T09:13:01.850+02:00,1656573181.07058,53.2290640287597,10.39857063443437,40.19455,0,0.07,-1,103.9230494294148,4,5,-9999,2776.268448791667,0.0790557861328125,-0.3329620361328125,-0.930999755859375,2776.263472791667,0.2100074246112204,0.09901171593077666,0.3063703895088481,0.0525214746594429,0.01018931623548269,-0.06173053383827209,-0.01571045070886612,-0.01918566226959229,0.01239413022994995,XArbitraryZVertical,0.1464345490945152,0.06460994772490426,0.1109658784590915,0.9808512992662494,0.09424702823162079,-0.3016000390052795,-0.948764979839325,0,0,0,-1,-1,2774.907539125,running,2,2022-06-30T09:13:00.488+02:00,2022-06-30T08:20:05.567+02:00,833,1.490593,0,0,651.261,0,0,2022-06-30T09:09:38.916+02:00,678265980.4877707,0,-0.8299999,100.9168,1,0.97
2022-06-30T09:13:01.860+02:00,1656573181.07058,53.2290640287597,10.39857063443437,40.19455,0,0.07,-1,103.9230494294148,4,5,-9999,2776.278399791667,0.08404541015625,-0.3386688232421875,-0.9340972900390625,2776.273424791667,0.20927157209437,0.09939110516757257,0.3064992458432143,-0.02398368343710899,0.01948268339037895,-0.07540640234947205,-0.01554772257804871,-0.03123933076858521,0.01769071817398071,XArbitraryZVertical,0.1465006348536535,0.06474829838777349,0.11063489948803,0.9808696241517256,0.09460311383008957,-0.3017228841781616,-0.9486904144287109,0,0,0,-1,-1,2774.907539125,running,2,2022-06-30T09:13:00.488+02:00,2022-06-30T08:20:05.567+02:00,833,1.490593,0,0,651.261,0,0,2022-06-30T09:09:38.916+02:00,678265980.4877707,0,-0.8299999,100.9168,1,0.97
