loggingTime(txt),locationTimestamp_since1970(s),locationLatitude(WGS84),locationLongitude(WGS84),locationAltitude(m),locationSpeed(m/s),locationSpeedAccuracy(m/s),locationCourse(°),locationCourseAccuracy(°),locationVerticalAccuracy(m),locationHorizontalAccuracy(m),locationFloor(Z),accelerometerTimestamp_sinceReboot(s),accelerometerAccelerationX(G),accelerometerAccelerationY(G),accelerometerAccelerationZ(G),motionTimestamp_sinceReboot(s),motionYaw(rad),motionRoll(rad),motionPitch(rad),motionRotationRateX(rad/s),motionRotationRateY(rad/s),motionRotationRateZ(rad/s),motionUserAccelerationX(G),motionUserAccelerationY(G),motionUserAccelerationZ(G),motionAttitudeReferenceFrame(txt),motionQuaternionX(R),motionQuaternionY(R),motionQuaternionZ(R),motionQuaternionW(R),motionGravityX(G),motionGravityY(G),motionGravityZ(G),motionMagneticFieldX(µT),motionMagneticFieldY(µT),motionMagneticFieldZ(µT),motionHeading(°),motionMagneticFieldCalibrationAccuracy(Z),activityTimestamp_sinceReboot(s),activity(txt),activityActivityConfidence(Z),activityActivityStartDate(txt),pedometerStartDate(txt),pedometerNumberofSteps(N),pedometerAverageActivePace(s/m),pedometerCurrentPace(s/m),pedometerCurrentCadence(steps/s),pedometerDistance(m),pedometerFloorAscended(N),pedometerFloorDescended(N),pedometerEndDate(txt),altimeterTimestamp_sinceReboot(s),altimeterReset(bool),altimeterRelativeAltitude(m),altimeterPressure(kPa),batteryState(N),batteryLevel(R)
2022-06-30T09:13:15.336+02:00,1656573195.059504,53.2290640287597,10.39857063443437,39.16378,0,0.07,-1,103.9230494294148,4,5,-9999,2789.743435875,0.1406707763671875,-0.4231719970703125,-0.886444091796875,2789.738459875,-0.007300510527330735,0.1702838515098711,0.4023620397283634,-0.1520266681909561,-0.01470190566033125,-0.08733107149600983,-0.1007989794015884,-0.0940946638584137,0.03358519077301025,XArbitraryZVertical,0.1994056282195691,0.08259662658171625,0.0134292910237793,0.976337558331112,0.1559286266565323,-0.3915928304195404,-0.906830370426178,0,0,0,-1,-1,2785.09797575,unknown,2,2022-06-30T09:13:10.678+02:00,2022-06-30T08:20:05.567+02:00,833,1.490593,0,0,651.261,0,0,2022-06-30T09:09:38.916+02:00,678265993.2254606,0,-1.14,100.9231,1,0.97
2022-06-30T09:13:15.337+02:00,1656573195.059504,53.2290640287597,10.39857063443437,39.16378,0,0.07,-1,103.9230494294148,4,5,-9999,2789.753387875,0.185760498046875,-0.38232421875,-0.9237823486328125,2789.748411875,-0.007980536780116544,0.1704582725413695,0.4004361890127359,-0.1881527155637741,-0.01083020213991404,-0.1059614792466164,-0.01554401218891144,-0.03335219621658325,0.02110064029693604,XArbitraryZVertical,0.1984924590968323,0.08263406095537792,0.01303362834848766,0.9765258096481787,0.1562144309282303,-0.3898200690746307,-0.907544732093811,0,0,0,-1,-1,2785.09797575,unknown,2,2022-06-30T09:13:10.678+02:00,2022-06-30T08:20:05.567+02:00,833,1.490593,0,0,651.261,0,0,2022-06-30T09:09:38.916+02:00,678265993.2254606,0,-1.14,100.9231,1,0.97
2022-06-30T09:13:15.344+02:00,1656573195.059504,53.2290640287597,10.39857063443437,39.16378,0,0.07,-1,103.9230494294148,4,5,-9999,2789.763339875,0.17999267578125,-0.3417510986328125,-0.9448394775390625,2789.758363875,-0.008929895485306255,0.1706219386782667,0.3986682137687719,-0.1236313134431839,-0.03311888873577118,-0.1230907663702965,0.0292803943157196,0.005866855382919312,-0.01558542251586914,XArbitraryZVertical,0.1976674568478745,0.08263854744224244,0.01251173381765576,0.9766995642949441,0.1564797461032867,-0.3881913423538208,-0.9081968665122986,0,0,0,-1,-1,2785.09797575,unknown,2,2022-06-30T09:13:10.678+02:00,2022-06-30T08:20:05.567+02:00,833,1.490593,0,0,651.261,0,0,2022-06-30T09:09:38.916+02:00,678265993.2254606,0,-1.14,100.9231,1,0.97
2022-06-30T09:13:15.355+02:00,1656573195.059504,53.2290640287597,10.39857063443437,39.16378,0,0.07,-1,103.9230494294148,4,5,-9999,2789.773291875,0.1332244873046875,-0.3289642333984375,-0.9626007080078125,2789.768315875,-0.01004711639985272,0.1706991372711131,0.3976867141692474,-0.0337645411491394,-0.03154895454645157,-0.1107342317700386,0.02337779104709625,0.04553529620170593,-0.03627955913543701,XArbitraryZVertical,0.1972338716089982,0.08257649806076138,0.0119322761320598,0.9767997013396937,0.1566144973039627,-0.3872866332530975,-0.9085598587989807,0,0,0,-1,-1,2785.09797575,unknown,2,2022-06-30T09:13:10.678+02:00,2022-06-30T08:20:05.567+02:00,833,1.490593,0,0,651.261,0,0,2022-06-30T09:09:38.916+02:00,678265993.2254606,0,-1.14,100.9231,1,0.97
2022-06-30T09:13:15.364+02:00,1656573195.059504,53.2290640287597,10.39857063443437,39.16378,0,0.07,-1,103.9230494294148,4,5,-9999,2789.783243875,0.111968994140625,-0.326812744140625,-0.9555511474609375,2789.778267875,-0.01110131846638923,0.1709360702994137,0.3974777636595243,0.0202382393181324,-0.0001454672310501337,-0.08824809640645981,-0.02361941337585449,0.05812948942184448,-0.05399823188781738,XArbitraryZVertical,0.1971739853516625,0.08259057085319786,0.01143191669479746,0.9768165786332252,0.1568435281515121,-0.3870939612388611,-0.9086024165153503,0,0,0,-1,-1,2785.09797575,unknown,2,2022-06-30T09:13:10.678+02:00,2022-06-30T08:20:05.567+02:00,833,1.490593,0,0,651.261,0,0,2022-06-30T09:09:38.916+02:00,678265993.2254606,0,-1.14,100.9231,1,0.97
2022-06-30T09:13:15.374+02:00,1656573195.059504,53.2290640287597,10.39857063443437,39.16378,0,0.07,-1,103.9230494294148,4,5,-9999,2789.793195875,0.1301116943359375,-0.343353271484375,-0.9472503662109375,2789.788219875,-0.01198111311813181,0.1714067925020768,0.3977156286864977,0.05069121718406677,0.02677749469876289,-0.0657193511724472,-0.0452868640422821,0.06050026416778564,-0.04711335897445679,XArbitraryZVertical,0.197323845654251,0.08273102160143979,0.01105875075995713,0.976778751678911,0.1572555005550385,-0.3873132765293121,-0.9084377288818359,0,0,0,-1,-1,2785.09797575,unknown,2,2022-06-30T09:13:10.678+02:00,2022-06-30T08:20:05.567+02:00,833,1.490593,0,0,651.261,0,0,2022-06-30T09:09:38.916+02:00,678265993.2254606,0,-1.14,100.9231,1,0.97
2022-06-30T09:13:15.384+02:00,1656573195.059504,53.2290640287597,10.39857063443437,39.16378,0,0.07,-1,103.9230494294148,4,5,-9999,2789.803147875,0.1533050537109375,-0.3708343505859375,-0.926300048828125,2789.798171875,-0.01275762752990709,0.1720227315233839,0.3981817383364729,0.06356147676706314,0.03280366957187653,-0.06258614361286163,-0.02767276763916016,0.04438948631286621,-0.03908753395080566,XArbitraryZVertical,0.1975802422412683,0.08294981191508774,0.0107602072333414,0.9767116663659067,0.1577840894460678,-0.3877429664134979,-0.9081627726554871,0,0,0,-1,-1,2785.09797575,unknown,2,2022-06-30T09:13:10.678+02:00,2022-06-30T08:20:05.567+02:00,833,1.490593,0,0,651.261,0,0,2022-06-30T09:09:38.916+02:00,678265993.2254606,0,-1.14,100.9231,1,0.97
2022-06-30T09:13:15.394+02:00,1656573195.059504,53.2290640287597,10.39857063443437,39.16378,0,0.07,-1,103.9230494294148,4,5,-9999,2789.813099875,0.1534423828125,-0.3950958251953125,-0.9130859375,2789.808123875,-0.01351930873591868,0.1726430666729671,0.3986060108768134,0.03955121710896492,0.03359436243772507,-0.05966172739863396,-0.00501444935798645,0.01729941368103027,-0.01839745044708252,XArbitraryZVertical,0.1978157179873542,0.08317247863816904,0.01046773555423443,0.9766482771563563,0.1583191454410553,-0.3881340026855469,-0.9079025387763977,0,0,0,-1,-1,2785.09797575,unknown,2,2022-06-30T09:13:10.678+02:00,2022-06-30T08:20:05.567+02:00,833,1.490593,0,0,651.261,0,0,2022-06-30T09:09:38.916+02:00,678265993.2254606,0,-1.14,100.9231,1,0.97
2022-06-30T09:13:15.404+02:00,1656573195.059504,53.2290640287597,10.39857063443437,39.16378,0,0.07,-1,103.9230494294148,4,5,-9999,2789.823051875,0.1602783203125,-0.4188995361328125,-0.9113922119140625,2789.818075875,-0.01422621932017902,0.1732983058311462,0.3986613584110225,-0.01190312020480633,0.0407714731991291,-0.07303415983915329,-0.005468294024467468,-0.00691106915473938,-0.005308449268341064,XArbitraryZVertical,0.1978687913066851,0.08342185171996443,0.01018973593174581,0.9766192217097234,0.1589103043079376,-0.3881850242614746,-0.9077774882316589,0,0,0,-1,-1,2785.09797575,unknown,2,2022-06-30T09:13:10.678+02:00,2022-06-30T08:20:05.567+02:00,833,1.490593,0,0,651.261,0,0,2022-06-30T09:09:38.916+02:00,678265993.2254606,0,-1.14,100.9231,1,0.97
2022-06-30T09:13:15.414+02:00,1656573195.059504,53.2290640287597,10.39857063443437,39.16378,0,0.07,-1,103.9230494294148,4,5,-9999,2789.833003875,0.161468505859375,-0.4130096435546875,-0.9031524658203125,2789.828027875,-0.01491114222632116,0.174013513229601,0.3980324783556478,-0.08607935160398483,0.04770021885633469,-0.06999868899583817,0.0006761997938156128,-0.03129440546035767,-0.003488302230834961,XArbitraryZVertical,0.1975868309289847,0.08371102976364179,0.009898810469497563,0.976654418818394,0.1596017479896545,-0.3876053690910339,-0.907903790473938,0,0,0,-1,-1,2785.09797575,unknown,2,2022-06-30T09:13:10.678+02:00,2022-06-30T08:20:05.567+02:00,833,1.490593,0,0,651.261,0,0,2022-06-30T09:09:38.916+02:00,678265993.2254606,0,-1.14,100.9231,1,0.97
2022-06-30T09:13:15.424+02:00,1656573195.059504,53.2290640287597,10.39857063443437,39.16378,0,0.07,-1,103.9230494294148,4,5,-9999,2789.842955875,0.1619873046875,-0.3898162841796875,-0.9036712646484375,2789.837979875,-0.0154446697332656,0.1747084858145218,0.3968476653786682,-0.1210910603404045,0.04604948312044144,-0.07300689071416855,0.001155748963356018,-0.02649697661399841,0.00509190559387207,XArbitraryZVertical,0.1970273376367073,0.0840123504112581,0.009655371331400958,0.9767440993976425,0.1603123843669891,-0.3865129053592682,-0.9082443118095398,0,0,0,-1,-1,2785.09797575,unknown,2,2022-06-30T09:13:10.678+02:00,2022-06-30T08:20:05.567+02:00,833,1.490593,0,0,651.261,0,0,2022-06-30T09:09:38.916+02:00,678265993.2254606,0,-1.14,100.9231,1,0.97
2022-06-30T09:13:15.434+02:00,1656573195.059504,53.2290640287597,10.39857063443437,39.16378,0,0.07,-1,103.9230494294148,4,5,-9999,2789.852907875,0.163482666015625,-0.360809326171875,-0.90130615234375,2789.847931875,-0.01601538264597249,0.1753452779289425,0.3955691051365872,-0.1030510738492012,0.03319919854402542,-0.07348253577947617,0.001010149717330933,-0.004483133554458618,0.004956662654876709,XArbitraryZVertical,0.1964240467580108,0.08428312809369247,0.009383508023683644,0.9768449231805975,0.1609767973423004,-0.3853334188461304,-0.9086278676986694,0,0,0,-1,-1,2785.09797575,unknown,2,2022-06-30T09:13:10.678+02:00,2022-06-30T08:20:05.567+02:00,833,1.490593,0,0,651.261,0,0,2022-06-30T09:09:38.916+02:00,678265993.2254606,0,-1.14,100.9231,1,0.97
2022-06-30T09:13:15.444+02:00,1656573195.059504,53.2290640287597,10.39857063443437,39.16378,0,0.07,-1,103.9230494294148,4,5,-9999,2789.862859875,0.1571502685546875,-0.35406494140625,-0.89788818359375,2789.857883875,-0.01664169671935964,0.1758048260989397,0.3947226246121398,-0.0330631323158741,0.01263967901468277,-0.07296538352966309,0.00203096866607666,0.02374258637428284,0.007568538188934326,XArbitraryZVertical,0.1960350247970353,0.08445680311893822,0.009085623384927174,0.9769108159732417,0.1614513248205185,-0.3845521509647369,-0.9088746309280396,0,0,0,-1,-1,2785.09797575,unknown,2,2022-06-30T09:13:10.678+02:00,2022-06-30T08:20:05.567+02:00,833,1.490593,0,0,651.261,0,0,2022-06-30T09:09:38.916+02:00,678265993.2254606,0,-1.14,100.9231,1,0.97
2022-06-30T09:13:15.454+02:00,1656573195.059504,53.2290640287597,10.39857063443437,39.16378,0,0.07,-1,103.9230494294148,4,5,-9999,2789.872811875,0.152679443359375,-0.3672637939453125,-0.8919677734375,2789.867835875,-0.0174240484547269,0.1761038499055738,0.3946433825514198,0.04761280491948128,-0.004227984230965376,-0.07278136163949966,-0.004578545689582825,0.03041383624076843,0.01096820831298828,XArbitraryZVertical,0.1960280433116995,0.08452718950461305,0.008729307886924692,0.976909409163458,0.1617284417152405,-0.3844790160655975,-0.9088563323020935,0,0,0,-1,-1,2785.09797575,unknown,2,2022-06-30T09:13:10.678+02:00,2022-06-30T08:20:05.567+02:00,833,1.490593,0,0,651.261,0,0,2022-06-30T09:09:38.916+02:00,678265993.2254606,0,-1.14,100.9231,1,0.97
2022-06-30T09:13:15.464+02:00,1656573195.059504,53.2290640287597,10.39857063443437,39.16378,0,0.07,-1,103.9230494294148,4,5,-9999,2789.882763875,0.1533660888671875,-0.393829345703125,-0.889617919921875,2789.877787875,-0.01827369777586558,0.1763203909801149,0.3951595112771545,0.0807989165186882,-0.01299679279327393,-0.06479423493146896,-0.009211316704750061,0.01769137382507324,0.01665806770324707,XArbitraryZVertical,0.1963150413313065,0.08454291115950341,0.008358257866205228,0.9768537009886407,0.1618904024362564,-0.3849554061889648,-0.9086257815361023,0,0,0,-1,-1,2785.09797575,unknown,2,2022-06-30T09:13:10.678+02:00,2022-06-30T08:20:05.567+02:00,833,1.490593,0,0,651.261,0,0,2022-06-30T09:09:38.916+02:00,678265993.2254606,0,-1.14,100.9231,1,0.97
2022-06-30T09:13:15.474+02:00,1656573195.059504,53.2290640287597,10.39857063443437,39.16378,0,0.07,-1,103.9230494294148,4,5,-9999,2789.892715875,0.1587371826171875,-0.4127349853515625,-0.8883056640625,2789.887739875,-0.01909231289623762,0.1764530245802911,0.3957424859700975,0.05960841476917267,-0.02406622283160686,-0.06396759301424026,-0.008605778217315674,-0.00833621621131897,0.01876533031463623,XArbitraryZVertical,0.1966337450836255,0.08451957367301267,0.007997173340633382,0.97679459634243,0.1619714945554733,-0.3854933977127075,-0.9083832502365112,0,0,0,-1,-1,2785.09797575,unknown,2,2022-06-30T09:13:10.678+02:00,2022-06-30T08:20:05.567+02:00,833,1.490593,0,0,651.261,0,0,2022-06-30T09:09:38.916+02:00,678265993.2254606,0,-1.14,100.9231,1,0.97
2022-06-30T09:13:15.484+02:00,1656573195.059504,53.2290640287597,10.39857063443437,39.16378,0,0.07,-1,103.9230494294148,4,5,-9999,2789.902667875,0.1631927490234375,-0.417144775390625,-0.890869140625,2789.897691875,-0.01982214470528959,0.1764340516736253,0.3959741009267861,0.004840240813791752,-0.03121468052268028,-0.06178753077983856,-0.003201767802238464,-0.02702814340591431,0.01999276876449585,XArbitraryZVertical,0.1967777265873394,0.08443541979693743,0.007649087386689713,0.9767756665491387,0.1619385927915573,-0.3857071101665497,-0.9082983732223511,0,0,0,-1,-1,2785.09797575,unknown,2,2022-06-30T09:13:10.678+02:00,2022-06-30T08:20:05.567+02:00,833,1.490593,0,0,651.261,0,0,2022-06-30T09:09:38.916+02:00,678265993.2254606,0,-1.14,100.9231,1,0.97
2022-06-30T09:13:15.494+02:00,1656573195.059504,53.2290640287597,10.39857063443437,39.16378,0,0.07,-1,103.9230494294148,4,5,-9999,2789.912619875,0.165496826171875,-0.4019012451171875,-0.890869140625,2789.907643875,-0.02043347949849796,0.1763250325977855,0.3956925819666125,-0.04760405793786049,-0.03870748355984688,-0.06202507764101028,0.00133378803730011,-0.03169766068458557,0.01755380630493164,XArbitraryZVertical,0.1966664784346304,0.08432586280257463,0.007327357098034741,0.9768100259939213,0.1618586033582687,-0.3854473531246185,-0.9084228873252869,0,0,0,-1,-1,2785.09797575,unknown,2,2022-06-30T09:13:10.678+02:00,2022-06-30T08:20:05.567+02:00,833,1.490593,0,0,651.261,0,0,2022-06-30T09:09:38.916+02:00,678265993.2254606,0,-1.14,100.9231,1,0.97
2022-06-30T09:13:15.504+02:00,1656573195.059504,53.2290640287597,10.39857063443437,39.16378,0,0.07,-1,103.9230494294148,4,5,-9999,2789.922571875,0.164459228515625,-0.38214111328125,-0.8946685791015625,2789.917595875,-0.02101458024807343,0.1761265247937733,0.3950134998763671,-0.06866759806871414,-0.04677563905715942,-0.0640312060713768,0.003772348165512085,-0.01708081364631653,0.01784342527389526,XArbitraryZVertical,0.1963601109306214,0.08418111402489478,0.006994044778915287,0.9768865843790892,0.1617241054773331,-0.3848206400871277,-0.9087125062942505,0,0,0,-1,-1,2785.09797575,unknown,2,2022-06-30T09:13:10.678+02:00,2022-06-30T08:20:05.567+02:00,833,1.490593,0,0,651.261,0,0,2022-06-30T09:09:38.916+02:00,678265993.2254606,0,-1.14,100.9231,1,0.97
2022-06-30T09:13:15.514+02:00,1656573195.059504,53.2290640287597,10.39857063443437,39.16378,0,0.07,-1,103.9230494294148,4,5,-9999,2789.932523875,0.166107177734375,-0.35791015625,-0.8909759521484375,2789.927547875,-0.02158674848771941,0.1758379633333072,0.3943872522831424,-0.03658849000930786,-0.05550015345215797,-0.06376702338457108,0.002954870462417603,0.00210118293762207,0.01432770490646362,XArbitraryZVertical,0.1960793690214467,0.08399267990918234,0.006658619450258483,0.9769615332146727,0.1615040004253387,-0.3842425644397736,-0.9089962244033813,0,0,0,-1,-1,2785.09797575,unknown,2,2022-06-30T09:13:10.678+02:00,2022-06-30T08:20:05.567+02:00,833,1.490593,0,0,651.261,0,0,2022-06-30T09:09:38.916+02:00,678265993.2254606,0,-1.14,100.9231,1,0.97
2022-06-30T09:13:15.524+02:00,1656573195.059504,53.2290640287597,10.39857063443437,39.16378,0,0.07,-1,103.9230494294148,4,5,-9999,2789.942475875,0.16290283203125,-0.344635009765625,-0.8923492431640625,2789.937499875,-0.02223421777425681,0.1754645368015385,0.3941406490488764,0.01890319585800171,-0.06944099068641663,-0.05940220132470131,0.004925712943077087,0.02610448002815247,0.01817387342453003,XArbitraryZVertical,0.1959873150801233,0.0837502398744662,0.006294866202642739,0.9770032197685692,0.1611810773611069,-0.3840148746967316,-0.9091497659683228,0,0,0,-1,-1,2785.09797575,unknown,2,2022-06-30T09:13:10.678+02:00,2022-06-30T08:20:05.567+02:00,833,1.490593,0,0,651.261,0,0,2022-06-30T09:09:38.916+02:00,678265993.2254606,0,-1.14,100.9231,1,0.97
2022-06-30T09:13:15.534+02:00,1656573195.059504,53.2290640287597,10.39857063443437,39.16378,0,0.07,-1,103.9230494294148,4,5,-9999,2789.952427875,0.1549072265625,-0.35260009765625,-0.896636962890625,2789.947451875,-0.02295362749338881,0.1749871232354878,0.3944917242058214,0.079029381275177,-0.08079058676958084,-0.05723225697875023,0.002178922295570374,0.03970372676849365,0.01674455404281616,XArbitraryZVertical,0.1961902676561773,0.08344154190204453,0.005912074717234538,0.9769913197771453,0.1607235372066498,-0.3843390047550201,-0.9090937972068787,0,0,0,-1,-1,2785.09797575,unknown,2,2022-06-30T09:13:10.678+02:00,2022-06-30T08:20:05.567+02:00,833,1.490593,0,0,651.261,0,0,2022-06-30T09:09:38.916+02:00,678265993.2254606,0,-1.14,100.9231,1,0.97
2022-06-30T09:13:15.544+02:00,1656573195.059504,53.2290640287597,10.39857063443437,39.16378,0,0.07,-1,103.9230494294148,4,5,-9999,2789.962379875,0.14898681640625,-0.375885009765625,-0.89862060546875,2789.957403875,-0.023740070624583,0.1744373110710283,0.3952753345337479,0.09759820997714996,-0.08790610730648041,-0.05733368918299675,-0.005264490842819214,0.03246194124221802,0.01224821805953979,XArbitraryZVertical,0.1966071960467004,0.08308456495842413,0.005508328722312075,0.9769403169897762,0.1601713746786118,-0.3850623071193695,-0.90888512134552,0,0,0,-1,-1,2785.09797575,unknown,2,2022-06-30T09:13:10.678+02:00,2022-06-30T08:20:05.567+02:00,833,1.490593,0,0,651.261,0,0,2022-06-30T09:09:38.916+02:00,678265993.2254606,0,-1.14,100.9231,1,0.97
2022-06-30T09:13:15.554+02:00,1656573195.059504,53.2290640287597,10.39857063443437,39.16378,0,0.07,-1,103.9230494294148,4,5,-9999,2789.972330875,0.14935302734375,-0.3914947509765625,-0.8921661376953125,2789.967355875,-0.02449451565508393,0.1738618797180028,0.3959880656186185,0.05306669324636459,-0.08654416352510452,-0.05804102495312691,-0.01061436533927917,0.009834706783294678,0.0100860595703125,XArbitraryZVertical,0.1969880031518293,0.08271897133121221,0.005114420000996445,0.9768967061731415,0.1596008241176605,-0.3857199847698212,-0.9087066054344177,0,0,0,-1,-1,2785.09797575,unknown,2,2022-06-30T09:13:10.678+02:00,2022-06-30T08:20:05.567+02:00,833,1.490593,0,0,651.261,0,0,2022-06-30T09:09:38.916+02:00,678265993.2254606,0,-1.14,100.9231,1,0.97
2022-06-30T09:13:15.564+02:00,1656573195.059504,53.2290640287597,10.39857063443437,39.16378,0,0.07,-1,103.9230494294148,4,5,-9999,2789.982282875,0.1526641845703125,-0.401031494140625,-0.897216796875,2789.977306875,-0.02513904586908575,0.1733131483209979,0.3960552097335103,-0.03239048644900322,-0.0796997994184494,-0.05880878493189812,-0.009745016694068909,-0.005713105201721191,0.01660245656967163,XArbitraryZVertical,0.1970487366416641,0.08238646817999699,0.004748475920482254,0.9769144314027894,0.1590977013111115,-0.3857819437980652,-0.9087685346603394,0,0,0,-1,-1,2785.09797575,unknown,2,2022-06-30T09:13:10.678+02:00,2022-06-30T08:20:05.567+02:00,833,1.490593,0,0,651.261,0,0,2022-06-30T09:09:38.916+02:00,678265993.2254606,0,-1.14,100.9231,1,0.97
2022-06-30T09:13:15.574+02:00,1656573195.059504,53.2290640287597,10.39857063443437,39.16378,0,0.07,-1,103.9230494294148,4,5,-9999,2789.992234875,0.1552276611328125,-0.3797149658203125,-0.8961639404296875,2789.987258875,-0.02565218941258101,0.1727465797219473,0.3954267715871845,-0.08735200017690659,-0.08027397841215134,-0.0605827160179615,-0.005960598587989807,-0.01582968235015869,0.01188039779663086,XArbitraryZVertical,0.196764286180768,0.08206842413147102,0.004414635070264861,0.9770001092114278,0.1586244404315948,-0.3852020502090454,-0.9090971946716309,0,0,0,-1,-1,2785.09797575,unknown,2,2022-06-30T09:13:10.678+02:00,2022-06-30T08:20:05.567+02:00,833,1.490593,0,0,651.261,0,0,2022-06-30T09:09:38.916+02:00,678265993.2254606,0,-1.14,100.9231,1,0.97
2022-06-30T09:13:15.583+02:00,1656573195.059504,53.2290640287597,10.39857063443437,39.16378,0,0.07,-1,103.9230494294148,4,5,-9999,2790.002186875,0.1512451171875,-0.34796142578125,-0.9021148681640625,2789.997210875,-0.02612978447354283,0.1721621143401018,0.3944041533928973,-0.09581732749938965,-0.07842957973480225,-0.05864010378718376,-0.00293317437171936,0.004542917013168335,0.01341342926025391,XArbitraryZVertical,0.1962857332621596,0.08175107019388339,0.004079416125097371,0.977124410716591,0.158160462975502,-0.3842581510543823,-0.9095773696899414,0,0,0,-1,-1,2785.09797575,unknown,2,2022-06-30T09:13:10.678+02:00,2022-06-30T08:20:05.567+02:00,833,1.490593,0,0,651.261,0,0,2022-06-30T09:09:38.916+02:00,678265993.2254606,0,-1.14,100.9231,1,0.97
2022-06-30T09:13:15.593+02:00,1656573195.059504,53.2290640287597,10.39857063443437,39.16378,0,0.07,-1,103.9230494294148,4,5,-9999,2790.012138875,0.145263671875,-0.323333740234375,-0.9046478271484375,2790.007162875,-0.02659563678509072,0.1715743141827782,0.3936136243924092,-0.04267048463225365,-0.08051163703203201,-0.05204132199287415,-0.006432861089706421,0.0355665385723114,0.0078544020652771,XArbitraryZVertical,0.1959198327391678,0.08142993490922763,0.003759892053974018,0.9772258852093481,0.1576776057481766,-0.3835282027721405,-0.90996915102005,0,0,0,-1,-1,2785.09797575,unknown,2,2022-06-30T09:13:10.678+02:00,2022-06-30T08:20:05.567+02:00,833,1.490593,0,0,651.261,0,0,2022-06-30T09:09:38.916+02:00,678265993.2254606,0,-1.14,100.9231,1,0.97
2022-06-30T09:13:15.603+02:00,1656573195.059504,53.2290640287597,10.39857063443437,39.16378,0,0.07,-1,103.9230494294148,4,5,-9999,2790.022090875,0.143524169921875,-0.3310546875,-0.90924072265625,2790.017114875,-0.02714449581185977,0.1709799058042326,0.3934162986689271,0.02631444111466408,-0.08739463239908218,-0.05058231204748154,-0.01188625395298004,0.06001195311546326,0.005489528179168701,XArbitraryZVertical,0.1958468125166497,0.08108867589801816,0.003424952722977728,0.977270197251819,0.1571495532989502,-0.3833459615707397,-0.9101372957229614,0,0,0,-1,-1,2785.09797575,unknown,2,2022-06-30T09:13:10.678+02:00,2022-06-30T08:20:05.567+02:00,833,1.490593,0,0,651.261,0,0,2022-06-30T09:09:38.916+02:00,678265993.2254606,0,-1.14,100.9231,1,0.97
2022-06-30T09:13:15.613+02:00,1656573195.059504,53.2290640287597,10.39857063443437,39.16378,0,0.07,-1,103.9230494294148,4,5,-9999,2790.032042875,0.142852783203125,-0.3513336181640625,-0.9005279541015625,2790.027066875,-0.02777995064002018,0.1703683977725813,0.3938018314225347,0.0687527135014534,-0.08690834045410156,-0.05436399951577187,-0.01304410398006439,0.05264711380004883,0.00084686279296875,XArbitraryZVertical,0.1960618142647216,0.08072181747324889,0.003071163752296552,0.9772585981950117,0.1565679013729095,-0.3837020099163055,-0.910087525844574,0,0,0,-1,-1,2785.09797575,unknown,2,2022-06-30T09:13:10.678+02:00,2022-06-30T08:20:05.567+02:00,833,1.490593,0,0,651.261,0,0,2022-06-30T09:09:38.916+02:00,678265993.2254606,0,-1.14,100.9231,1,0.97
2022-06-30T09:13:15.623+02:00,1656573195.059504,53.2290640287597,10.39857063443437,39.16378,0,0.07,-1,103.9230494294148,4,5,-9999,2790.041994875,0.1458587646484375,-0.3780059814453125,-0.8982696533203125,2790.037018875,-0.02844461505733745,0.1697484625831905,0.3942676137703853,0.04632017388939857,-0.08672875165939331,-0.05009205639362335,-0.01312103867530823,0.03279820084571838,0.00948023796081543,XArbitraryZVertical,0.1963169589043121,0.080346632706121,0.002705612952515051,0.9772393685513086,0.1559734642505646,-0.3841320872306824,-0.9100081324577332,0,0,0,-1,-1,2785.09797575,unknown,2,2022-06-30T09:13:10.678+02:00,2022-06-30T08:20:05.567+02:00,833,1.490593,0,0,651.261,0,0,2022-06-30T09:09:38.916+02:00,678265993.2254606,0,-1.14,100.9231,1,0.97
2022-06-30T09:13:15.633+02:00,1656573195.059504,53.2290640287597,10.39857063443437,39.16378,0,0.07,-1,103.9230494294148,4,5,-9999,2790.051946875,0.146209716796875,-0.397247314453125,-0.8969879150390625,2790.046970875,-0.02905512531968417,0.1691526667389676,0.3943208006841133,-0.02079974114894867,-0.07956245541572571,-0.06045468524098396,-0.009569421410560608,0.006174951791763306,0.01181113719940186,XArbitraryZVertical,0.1963681685981599,0.0799947664535334,0.002351095323395233,0.9772588234651672,0.1554278284311295,-0.3841812014579773,-0.9100807309150696,0,0,0,-1,-1,2785.09797575,unknown,2,2022-06-30T09:13:10.678+02:00,2022-06-30T08:20:05.567+02:00,833,1.490593,0,0,651.261,0,0,2022-06-30T09:09:38.916+02:00,678265993.2254606,0,-1.14,100.9231,1,0.97
2022-06-30T09:13:15.659+02:00,1656573195.059504,53.2290640287597,10.39857063443437,39.16378,0,0.07,-1,103.9230494294148,4,5,-9999,2790.061898875,0.1497955322265625,-0.3976593017578125,-0.89776611328125,2790.056922875,-0.029628071056208,0.1686193842851371,0.3936433458064608,-0.09983810037374496,-0.07269934564828873,-0.06717117875814438,-0.008776754140853882,-0.01369190216064453,0.01343202590942383,XArbitraryZVertical,0.1960607268278158,0.07968840723636431,0.00198981983678747,0.9773464654667288,0.1549861133098602,-0.3835556507110596,-0.9104198813438416,0,0,0,-1,-1,2785.09797575,unknown,2,2022-06-30T09:13:10.678+02:00,2022-06-30T08:20:05.567+02:00,833,1.490593,0,0,651.261,0,0,2022-06-30T09:09:38.916+02:00,678265993.2254606,0,-1.14,100.9231,1,0.97
2022-06-30T09:13:15.662+02:00,1656573195.059504,53.2290640287597,10.39857063443437,39.16378,0,0.07,-1,103.9230494294148,4,5,-9999,2790.071850875,0.153411865234375,-0.3846893310546875,-0.905364990234375,2790.066874875,-0.0301192599215288,0.1681268605605061,0.3923331725210646,-0.1448386013507843,-0.06683240085840225,-0.06809849292039871,-0.004826486110687256,-0.01531422138214111,0.01322472095489502,XArbitraryZVertical,0.1954407519167567,0.07941995081212937,0.001645645471598251,0.9774930582335938,0.1546216458082199,-0.3823453485965729,-0.9109907746315002,0,0,0,-1,-1,2785.09797575,unknown,2,2022-06-30T09:13:10.678+02:00,2022-06-30T08:20:05.567+02:00,833,1.490593,0,0,651.261,0,0,2022-06-30T09:09:38.916+02:00,678265993.2254606,0,-1.14,100.9231,1,0.97
2022-06-30T09:13:15.664+02:00,1656573195.059504,53.2290640287597,10.39857063443437,39.16378,0,0.07,-1,103.9230494294148,4,5,-9999,2790.081802875,0.1499786376953125,-0.367431640625,-0.9108734130859375,2790.076826875,-0.03063248793425834,0.1676429123266086,0.3907803114166312,-0.1411801427602768,-0.06978633999824524,-0.07959019392728806,-0.0008681416511535645,-0.003779590129852295,0.006284832954406738,XArbitraryZVertical,0.1947028200248687,0.07915753379626607,0.001281449925022364,0.9776621199499637,0.1542796343564987,-0.3809100091457367,-0.9116498231887817,0,0,0,-1,-1,2785.09797575,unknown,2,2022-06-30T09:13:10.678+02:00,2022-06-30T08:20:05.567+02:00,833,1.490593,0,0,651.261,0,0,2022-06-30T09:09:38.916+02:00,678265993.2254606,0,-1.14,100.9231,1,0.97
2022-06-30T09:13:15.673+02:00,1656573195.059504,53.2290640287597,10.39857063443437,39.16378,0,0.07,-1,103.9230494294148,4,5,-9999,2790.091754875,0.145263671875,-0.35888671875,-0.91143798828125,2790.086778875,-0.03128880940444811,0.1671539207638523,0.3894599179032026,-0.08910655975341797,-0.07601308077573776,-0.08514288812875748,-0.003939107060432434,0.01225695013999939,0.001346886157989502,XArbitraryZVertical,0.1940838421250758,0.07887537566339724,0.0008569525590213038,0.9778084661990777,0.1539173722267151,-0.3796888291835785,-0.912220299243927,0,0,0,-1,-1,2785.09797575,unknown,2,2022-06-30T09:13:10.678+02:00,2022-06-30T08:20:05.567+02:00,833,1.490593,0,0,651.261,0,0,2022-06-30T09:09:38.916+02:00,678265993.2254606,0,-1.14,100.9231,1,0.97
2022-06-30T09:13:15.683+02:00,1656573195.059504,53.2290640287597,10.39857063443437,39.16378,0,0.07,-1,103.9230494294148,4,5,-9999,2790.101706875,0.1313629150390625,-0.3650970458984375,-0.9083404541015625,2790.096730875,-0.0321044034848216,0.1666715231326913,0.3886205624076495,-0.03631119057536125,-0.07781852036714554,-0.09043622016906738,-0.008266821503639221,0.02002525329589844,0.001170456409454346,XArbitraryZVertical,0.193705918356247,0.07857370997892851,0.0003758156298666919,0.9779080170576128,0.1535301208496094,-0.3789122104644775,-0.9126083850860596,0,0,0,-1,-1,2785.09797575,unknown,2,2022-06-30T09:13:10.678+02:00,2022-06-30T08:20:05.567+02:00,833,1.490593,0,0,651.261,0,0,2022-06-30T09:09:38.916+02:00,678265993.2254606,0,-1.14,100.9231,1,0.97
2022-06-30T09:13:15.693+02:00,1656573195.059504,53.2290640287597,10.39857063443437,39.16378,0,0.07,-1,103.9230494294148,4,5,-9999,2790.111658875,0.119110107421875,-0.379852294921875,-0.9089508056640625,2790.106682875,-0.03304123222027155,0.1662755629757091,0.3881737520800318,-0.008367439731955528,-0.06860717386007309,-0.09604909271001816,-0.02183419466018677,0.01340135931968689,0.004495561122894287,XArbitraryZVertical,0.1935243347654268,0.07829655182732841,-0.000139516260752186,0.9779661988244086,0.1531967669725418,-0.3784986734390259,-0.912835955619812,0,0,0,-1,-1,2785.09797575,unknown,2,2022-06-30T09:13:10.678+02:00,2022-06-30T08:20:05.567+02:00,833,1.490593,0,0,651.261,0,0,2022-06-30T09:09:38.916+02:00,678265993.2254606,0,-1.14,100.9231,1,0.97
2022-06-30T09:13:15.703+02:00,1656573195.059504,53.2290640287597,10.39857063443437,39.16378,0,0.07,-1,103.9230494294148,4,5,-9999,2790.121610875,0.1169891357421875,-0.392730712890625,-0.8998260498046875,2790.116634875,-0.03406913549834932,0.1660033103442392,0.3879387799777416,0.0004676631651818752,-0.05965962633490562,-0.101720467209816,-0.03385317325592041,-0.001571387052536011,0.004014551639556885,XArbitraryZVertical,0.193449612283839,0.07806778188487964,-0.000678435543298836,0.9779991058388307,0.1529629230499268,-0.3782811760902405,-0.9129653573036194,0,0,0,-1,-1,2785.09797575,unknown,2,2022-06-30T09:13:10.678+02:00,2022-06-30T08:20:05.567+02:00,833,1.490593,0,0,651.261,0,0,2022-06-30T09:09:38.916+02:00,678265993.2254606,0,-1.14,100.9231,1,0.97
2022-06-30T09:13:15.713+02:00,1656573195.059504,53.2290640287597,10.39857063443437,39.16378,0,0.07,-1,103.9230494294148,4,5,-9999,2790.131562875,0.1220550537109375,-0.401824951171875,-0.9055633544921875,2790.126586875,-0.03521510341062042,0.1658559631770235,0.3876956740763189,-0.01910177804529667,-0.05459296330809593,-0.1152855455875397,-0.03585481643676758,-0.0146748423576355,0.01325255632400513,XArbitraryZVertical,0.1933754163802578,0.07788890843587766,-0.001263356585475121,0.9780274186674757,0.1528435796499252,-0.3780561089515686,-0.9130785465240479,0,0,0,-1,-1,2785.09797575,unknown,2,2022-06-30T09:13:10.678+02:00,2022-06-30T08:20:05.567+02:00,833,1.490593,0,0,651.261,0,0,2022-06-30T09:09:38.916+02:00,678265993.2254606,0,-1.14,100.9231,1,0.97
2022-06-30T09:13:15.723+02:00,1656573195.059504,53.2290640287597,10.39857063443437,39.16378,0,0.07,-1,103.9230494294148,4,5,-9999,2790.141514875,0.1200408935546875,-0.406890869140625,-0.9128875732421875,2790.136538875,-0.03646104649962112,0.1658151637906226,0.3871923884820974,-0.05579667165875435,-0.0466463565826416,-0.1308493167161942,-0.03078301250934601,-0.02423509955406189,0.007709026336669922,XArbitraryZVertical,0.1931778883039622,0.07775697117945944,-0.001897911666603845,0.9780759324921738,0.1528377085924149,-0.377590149641037,-0.9132723212242126,0,0,0,-1,-1,2785.09797575,unknown,2,2022-06-30T09:13:10.678+02:00,2022-06-30T08:20:05.567+02:00,833,1.490593,0,0,651.261,0,0,2022-06-30T09:09:38.916+02:00,678265993.2254606,0,-1.14,100.9231,1,0.97
2022-06-30T09:13:15.733+02:00,1656573195.059504,53.2290640287597,10.39857063443437,39.16378,0,0.07,-1,103.9230494294148,4,5,-9999,2790.151466875,0.1126251220703125,-0.4157257080078125,-0.9249114990234375,2790.146490875,-0.03783200229401427,0.1659118545681654,0.3862392546603969,-0.1042004302144051,-0.03574230894446373,-0.1556614488363266,-0.03294484317302704,-0.03018373250961304,0.0007245540618896484,XArbitraryZVertical,0.1927654173561708,0.07768822161539637,-0.002599490782315765,0.978161156061546,0.1529853790998459,-0.3767073750495911,-0.9136120676994324,0,0,0,-1,-1,2785.09797575,unknown,2,2022-06-30T09:13:10.678+02:00,2022-06-30T08:20:05.567+02:00,833,1.490593,0,0,651.261,0,0,2022-06-30T09:09:38.916+02:00,678265993.2254606,0,-1.14,100.9231,1,0.97
2022-06-30T09:13:15.742+02:00,1656573195.059504,53.2290640287597,10.39857063443437,39.16378,0,0.07,-1,103.9230494294148,4,5,-9999,2790.161418875,0.101837158203125,-0.4119415283203125,-0.9288177490234375,2790.156442875,-0.03937280109498143,0.1661993317557934,0.3847717951578593,-0.1423488855361938,-0.02104485407471657,-0.1769305169582367,-0.04071454703807831,-0.04037833213806152,-0.01079916954040527,XArbitraryZVertical,0.192108397293361,0.07770607990543499,-0.003387869527916005,0.978286604064319,0.1533393114805222,-0.3753476142883301,-0.9141122698783875,0,0,0,-1,-1,2785.09797575,unknown,2,2022-06-30T09:13:10.678+02:00,2022-06-30T08:20:05.567+02:00,833,1.490593,0,0,651.261,0,0,2022-06-30T09:09:38.916+02:00,678265993.2254606,0,-1.14,100.9231,1,0.97
2022-06-30T09:13:15.753+02:00,1656573195.059504,53.2290640287597,10.39857063443437,39.16378,0,0.07,-1,103.9230494294148,4,5,-9999,2790.171370875,0.0929107666015625,-0.3913726806640625,-0.9199676513671875,2790.166394875,-0.04107999046025394,0.1667398590787896,0.3828998734589453,-0.168696328997612,-0.0004192041233181953,-0.1979087740182877,-0.05211293697357178,-0.03832986950874329,-0.01409721374511719,XArbitraryZVertical,0.1912606987929756,0.07784012687696237,-0.004251138629351208,0.9784386878401379,0.1539497375488281,-0.3736119270324707,-0.9147205352783203,0,0,0,-1,-1,2785.09797575,unknown,2,2022-06-30T09:13:10.678+02:00,2022-06-30T08:20:05.567+02:00,833,1.490593,0,0,651.261,0,0,2022-06-30T09:09:38.916+02:00,678265993.2254606,0,-1.14,100.9231,1,0.97
2022-06-30T09:13:15.762+02:00,1656573195.059504,53.2290640287597,10.39857063443437,39.16378,0,0.07,-1,103.9230494294148,4,5,-9999,2790.181322875,0.0872039794921875,-0.38055419921875,-0.922515869140625,2790.176346875,-0.04295996644457437,0.1674852748064566,0.3807961299858793,-0.1795210093259811,0.01432192511856556,-0.2175479978322983,-0.06185181438922882,-0.01971325278282166,-0.00458914041519165,XArbitraryZVertical,0.1903071514863686,0.07806377030954412,-0.005190182701902802,0.9786022677041453,0.1547622233629227,-0.3716596961021423,-0.9153784513473511,0,0,0,-1,-1,2785.09797575,unknown,2,2022-06-30T09:13:10.678+02:00,2022-06-30T08:20:05.567+02:00,833,1.490593,0,0,651.261,0,0,2022-06-30T09:09:38.916+02:00,678265993.2254606,0,-1.14,100.9231,1,0.97
2022-06-30T09:13:15.772+02:00,1656573195.059504,53.2290640287597,10.39857063443437,39.16378,0,0.07,-1,103.9230494294148,4,5,-9999,2790.191274875,0.087554931640625,-0.3797454833984375,-0.916839599609375,2790.186298875,-0.04501409019012768,0.1683951116242527,0.3787474263239702,-0.1608565151691437,0.02886092104017735,-0.2342521399259567,-0.06851866841316223,-0.01079750061035156,-0.006529808044433594,XArbitraryZVertical,0.1893882708290301,0.07835226011456264,-0.006197565310635648,0.9787515951765112,0.1557222902774811,-0.3697569668292999,-0.9159860014915466,0,0,0,-1,-1,2785.09797575,unknown,2,2022-06-30T09:13:10.678+02:00,2022-06-30T08:20:05.567+02:00,833,1.490593,0,0,651.261,0,0,2022-06-30T09:09:38.916+02:00,678265993.2254606,0,-1.14,100.9231,1,0.97
2022-06-30T09:13:15.782+02:00,1656573195.059504,53.2290640287597,10.39857063443437,39.16378,0,0.07,-1,103.9230494294148,4,5,-9999,2790.201226875,0.1004180908203125,-0.3746490478515625,-0.9033355712890625,2790.196250875,-0.04722207585168666,0.1694876005798192,0.3768681515039796,-0.1525877267122269,0.04189964756369591,-0.2402451634407043,-0.06928525865077972,-0.01173552870750427,-0.0003409385681152344,XArbitraryZVertical,0.1885595943326078,0.07871438982984783,-0.00725684372768184,0.9788752874217999,0.1568398326635361,-0.3680102229118347,-0.9164986610412598,0,0,0,-1,-1,2785.09797575,unknown,2,2022-06-30T09:13:10.678+02:00,2022-06-30T08:20:05.567+02:00,833,1.490593,0,0,651.261,0,0,2022-06-30T09:09:38.916+02:00,678265995.7748064,0,-0.96,100.9222,1,0.97
2022-06-30T09:13:15.792+02:00,1656573195.059504,53.2290640287597,10.39857063443437,39.16378,0,0.07,-1,103.9230494294148,4,5,-9999,2790.211178875,0.1101531982421875,-0.38348388671875,-0.9061737060546875,2790.206202875,-0.04938013992239201,0.170644524252309,0.3750837028890476,-0.1458680480718613,0.04871281236410141,-0.2260252088308334,-0.05759358406066895,-0.008298903703689575,0.01362675428390503,XArbitraryZVertical,0.1877765041465913,0.07911287378287846,-0.008282724477073313,0.9789855123843175,0.1580113172531128,-0.3663504123687744,-0.9169622659683228,0,0,0,-1,-1,2785.09797575,unknown,2,2022-06-30T09:13:10.678+02:00,2022-06-30T08:20:05.567+02:00,833,1.490593,0,0,651.261,0,0,2022-06-30T09:09:38.916+02:00,678265995.7748064,0,-0.96,100.9222,1,0.97
2022-06-30T09:13:15.803+02:00,1656573195.059504,53.2290640287597,10.39857063443437,39.16378,0,0.07,-1,103.9230494294148,4,5,-9999,2790.221130875,0.11785888671875,-0.3945159912109375,-0.907958984375,2790.216154875,-0.05141560470672583,0.1718539538387198,0.3733754203497562,-0.1484375298023224,0.05939105898141861,-0.2166953235864639,-0.04907414317131042,-0.01872378587722778,0.01121211051940918,XArbitraryZVertical,0.1870269900424049,0.07954883821728864,-0.009241533080774399,0.9790850748785487,0.1592269986867905,-0.3647603690624237,-0.9173857569694519,0,0,0,-1,-1,2785.09797575,unknown,2,2022-06-30T09:13:10.678+02:00,2022-06-30T08:20:05.567+02:00,833,1.490593,0,0,651.261,0,0,2022-06-30T09:09:38.916+02:00,678265995.7748064,0,-0.96,100.9222,1,0.97
2022-06-30T09:13:15.812+02:00,1656573195.059504,53.2290640287597,10.39857063443437,39.16378,0,0.07,-1,103.9230494294148,4,5,-9999,2790.231082875,0.1243438720703125,-0.4022064208984375,-0.911407470703125,2790.226106875,-0.05326133246773267,0.1730213668703976,0.3716328894092698,-0.1630683988332748,0.0595063753426075,-0.1929772198200226,-0.04254849255084991,-0.03137892484664917,0.009865045547485352,XArbitraryZVertical,0.186253902238116,0.07998433562992784,-0.01011410810209475,0.9791882819514229,0.1604070365428925,-0.3631373345851898,-0.9178239703178406,0,0,0,-1,-1,2785.09797575,unknown,2,2022-06-30T09:13:10.678+02:00,2022-06-30T08:20:05.567+02:00,833,1.490593,0,0,651.261,0,0,2022-06-30T09:09:38.916+02:00,678265995.7748064,0,-0.96,100.9222,1,0.97
2022-06-30T09:13:15.822+02:00,1656573195.059504,53.2290640287597,10.39857063443437,39.16378,0,0.07,-1,103.9230494294148,4,5,-9999,2790.241034875,0.1269989013671875,-0.4057769775390625,-0.9123687744140625,2790.236058875,-0.05479853389714948,0.1740609515202544,0.3697532047748592,-0.1888933479785919,0.05967798084020615,-0.1734250783920288,-0.03713551163673401,-0.040821373462677,0.006919980049133301,XArbitraryZVertical,0.1854014478553466,0.0803903739758572,-0.01085485338831713,0.9793089068741233,0.1614790260791779,-0.361385315656662,-0.9183273911476135,0,0,0,-1,-1,2785.09797575,unknown,2,2022-06-30T09:13:10.678+02:00,2022-06-30T08:20:05.567+02:00,833,1.490593,0,0,651.261,0,0,2022-06-30T09:09:38.916+02:00,678265995.7748064,0,-0.96,100.9222,1,0.97
2022-06-30T09:13:15.832+02:00,1656573195.059504,53.2290640287597,10.39857063443437,39.16378,0,0.07,-1,103.9230494294148,4,5,-9999,2790.250986875,0.1273651123046875,-0.4144439697265625,-0.9098358154296875,2790.246010875,-0.05608433880820068,0.1749390688473886,0.3675665222390524,-0.2261251360177994,0.05658977851271629,-0.1599428206682205,-0.03542396426200867,-0.04643169045448303,0.006592452526092529,XArbitraryZVertical,0.1843883243197394,0.08074864792449073,-0.01150247916382174,0.9794632774246906,0.1624225229024887,-0.359345555305481,-0.918961226940155,0,0,0,-1,-1,2785.09797575,unknown,2,2022-06-30T09:13:10.678+02:00,2022-06-30T08:20:05.567+02:00,833,1.490593,0,0,651.261,0,0,2022-06-30T09:09:38.916+02:00,678265995.7748064,0,-0.96,100.9222,1,0.97
2022-06-30T09:13:15.842+02:00,1656573195.059504,53.2290640287597,10.39857063443437,39.16378,0,0.07,-1,103.9230494294148,4,5,-9999,2790.260938875,0.1215667724609375,-0.421722412109375,-0.904998779296875,2790.255962875,-0.05719103029204051,0.1757009231434159,0.3649994245614723,-0.2614321112632751,0.05304515734314919,-0.1523414254188538,-0.03591853380203247,-0.05749547481536865,0.009906649589538574,XArbitraryZVertical,0.183181437870609,0.08107614813956467,-0.01209154723464809,0.9796555624517848,0.1632832884788513,-0.3569487631320953,-0.9197424650192261,0,0,0,-1,-1,2785.09797575,unknown,2,2022-06-30T09:13:10.678+02:00,2022-06-30T08:20:05.567+02:00,833,1.490593,0,0,651.261,0,0,2022-06-30T09:09:38.916+02:00,678265995.7748064,0,-0.96,100.9222,1,0.97
2022-06-30T09:13:15.852+02:00,1656573195.059504,53.2290640287597,10.39857063443437,39.16378,0,0.07,-1,103.9230494294148,4,5,-9999,2790.270890875,0.1098480224609375,-0.4243316650390625,-0.90533447265625,2790.265914875,-0.058234066454245,0.1763999328117805,0.3620994290053551,-0.285315603017807,0.0578249990940094,-0.1646833121776581,-0.04254069924354553,-0.06748437881469727,0.01564455032348633,XArbitraryZVertical,0.1818088041672004,0.08138743023965385,-0.01267158269190291,0.9798780679629976,0.1641071289777756,-0.3542383015155792,-0.9206432700157166,0,0,0,-1,-1,2785.09797575,unknown,2,2022-06-30T09:13:10.678+02:00,2022-06-30T08:20:05.567+02:00,833,1.490593,0,0,651.261,0,0,2022-06-30T09:09:38.916+02:00,678265995.7748064,0,-0.96,100.9222,1,0.97
2022-06-30T09:13:15.862+02:00,1656573195.059504,53.2290640287597,10.39857063443437,39.16378,0,0.07,-1,103.9230494294148,4,5,-9999,2790.280842875,0.0949859619140625,-0.4116363525390625,-0.8994598388671875,2790.275866875,-0.05946929392556217,0.1772976334862982,0.3591510573456654,-0.2664593756198883,0.07124336063861847,-0.1845771223306656,-0.05526934564113617,-0.07285237312316895,0.0161852240562439,XArbitraryZVertical,0.180421709771482,0.08178127369510638,-0.01333130878443564,0.9800929360634126,0.165117010474205,-0.3514795899391174,-0.9215196371078491,0,0,0,-1,-1,2785.09797575,unknown,2,2022-06-30T09:13:10.678+02:00,2022-06-30T08:20:05.567+02:00,833,1.490593,0,0,651.261,0,0,2022-06-30T09:09:38.916+02:00,678265995.7748064,0,-0.96,100.9222,1,0.97
2022-06-30T09:13:15.872+02:00,1656573195.059504,53.2290640287597,10.39857063443437,39.16378,0,0.07,-1,103.9230494294148,4,5,-9999,2790.290794875,0.07830810546875,-0.395843505859375,-0.895782470703125,2790.285818875,-0.0609960523137154,0.178429821191096,0.3564845548392483,-0.2216586023569107,0.07791191339492798,-0.2061018645763397,-0.07134038209915161,-0.06265464425086975,0.02279138565063477,XArbitraryZVertical,0.1791865263190493,0.0822593008729894,-0.01410135817235032,0.9802687519959625,0.1663259863853455,-0.3489819765090942,-0.9222511649131775,0,0,0,-1,-1,2785.09797575,unknown,2,2022-06-30T09:13:10.678+02:00,2022-06-30T08:20:05.567+02:00,833,1.490593,0,0,651.261,0,0,2022-06-30T09:09:38.916+02:00,678265995.7748064,0,-0.96,100.9222,1,0.97
2022-06-30T09:13:15.882+02:00,1656573195.059504,53.2290640287597,10.39857063443437,39.16378,0,0.07,-1,103.9230494294148,4,5,-9999,2790.300746875,0.05377197265625,-0.425994873046875,-0.90325927734375,2790.295770875,-0.06297134584088783,0.1799833170265746,0.3542009448629564,-0.167186513543129,0.0986025333404541,-0.2475892901420593,-0.08959296345710754,-0.04900273680686951,0.02699089050292969,XArbitraryZVertical,0.1781611673447208,0.08289703248383937,-0.01503753671930935,0.9803880459804141,0.1679007261991501,-0.346841037273407,-0.9227733612060547,0,0,0,-1,-1,2785.09797575,unknown,2,2022-06-30T09:13:10.678+02:00,2022-06-30T08:20:05.567+02:00,833,1.490593,0,0,651.261,0,0,2022-06-30T09:09:38.916+02:00,678265995.7748064,0,-0.96,100.9222,1,0.97
2022-06-30T09:13:15.892+02:00,1656573195.059504,53.2290640287597,10.39857063443437,39.16378,0,0.07,-1,103.9230494294148,4,5,-9999,2790.310698875,0.02642822265625,-0.5090484619140625,-0.8946380615234375,2790.305722875,-0.06562713813122571,0.1820502914172359,0.3520387587270682,-0.1833399087190628,0.1294768303632736,-0.326029509305954,-0.1161714792251587,-0.08118289709091187,0.01990050077438354,XArbitraryZVertical,0.1772291387234829,0.08372555665474894,-0.01625802160715674,0.9804670781932581,0.16994309425354,-0.3448122441768646,-0.9231597185134888,0,0,0,-1,-1,2785.09797575,unknown,2,2022-06-30T09:13:10.678+02:00,2022-06-30T08:20:05.567+02:00,833,1.490593,0,0,651.261,0,0,2022-06-30T09:09:38.916+02:00,678265995.7748064,0,-0.96,100.9222,1,0.97
2022-06-30T09:13:15.902+02:00,1656573195.059504,53.2290640287597,10.39857063443437,39.16378,0,0.07,-1,103.9230494294148,4,5,-9999,2790.320650875,-0.0188751220703125,-0.61187744140625,-0.862518310546875,2790.315674875,-0.06926466662005612,0.1848165823582645,0.3491078637266383,-0.2852882742881775,0.1764618903398514,-0.4594761729240417,-0.1462532728910446,-0.1669891178607941,0.0290374755859375,XArbitraryZVertical,0.1759707580991337,0.0848324078708647,-0.01793775613655159,0.9805692504126154,0.172681137919426,-0.3420596122741699,-0.923675537109375,0,0,0,-1,-1,2785.09797575,unknown,2,2022-06-30T09:13:10.678+02:00,2022-06-30T08:20:05.567+02:00,833,1.490593,0,0,651.261,0,0,2022-06-30T09:09:38.916+02:00,678265995.7748064,0,-0.96,100.9222,1,0.97
2022-06-30T09:13:15.912+02:00,1656573195.059504,53.2290640287597,10.39857063443437,39.16378,0,0.07,-1,103.9230494294148,4,5,-9999,2790.330602875,-0.0815582275390625,-0.6584930419921875,-0.836395263671875,2790.325626875,-0.07415391196527463,0.1885739946121246,0.3443186343788492,-0.504479706287384,0.2478897422552109,-0.6276633143424988,-0.1953310966491699,-0.2743223011493683,0.06210047006607056,XArbitraryZVertical,0.1738703265526808,0.08636984603848502,-0.02024095733480249,0.9807648200559176,0.1764556169509888,-0.3375553786754608,-0.9246187210083008,0,0,0,-1,-1,2785.09797575,unknown,2,2022-06-30T09:13:10.678+02:00,2022-06-30T08:20:05.567+02:00,833,1.490593,0,0,651.261,0,0,2022-06-30T09:09:38.916+02:00,678265995.7748064,0,-0.96,100.9222,1,0.97
2022-06-30T09:13:15.922+02:00,1656573195.059504,53.2290640287597,10.39857063443437,39.16378,0,0.07,-1,103.9230494294148,4,5,-9999,2790.340554875,-0.1438446044921875,-0.67242431640625,-0.822509765625,2790.335578875,-0.08025984130751079,0.1936338463757267,0.3365001859807744,-0.8201771378517151,0.3636690080165863,-0.8069174289703369,-0.2631926536560059,-0.328307718038559,0.08988040685653687,XArbitraryZVertical,0.1703623800079868,0.08853723863549294,-0.02319304979142898,0.9811217935690379,0.1816340684890747,-0.33018559217453,-0.9262756109237671,0,0,0,-1,-1,2785.09797575,unknown,2,2022-06-30T09:13:10.678+02:00,2022-06-30T08:20:05.567+02:00,833,1.490593,0,0,651.261,0,0,2022-06-30T09:09:38.916+02:00,678265995.7748064,0,-0.96,100.9222,1,0.97
2022-06-30T09:13:15.932+02:00,1656573195.059504,53.2290640287597,10.39857063443437,39.16378,0,0.07,-1,103.9230494294148,4,5,-9999,2790.350506875,-0.1817169189453125,-0.6898956298828125,-0.8220977783203125,2790.345530875,-0.08743958440797618,0.2003823148696247,0.3250003064590827,-1.194379687309265,0.5241218209266663,-0.9861841201782227,-0.3324691355228424,-0.3531155288219452,0.1061789393424988,XArbitraryZVertical,0.1651347783591058,0.09157603828994956,-0.02674683469866734,0.9816460766523961,0.1886241883039474,-0.3193090856075287,-0.928688645362854,0,0,0,-1,-1,2785.09797575,unknown,2,2022-06-30T09:13:10.678+02:00,2022-06-30T08:20:05.567+02:00,833,1.490593,0,0,651.261,0,0,2022-06-30T09:09:38.916+02:00,678265995.7748064,0,-0.96,100.9222,1,0.97
2022-06-30T09:13:15.942+02:00,1656573195.059504,53.2290640287597,10.39857063443437,39.16378,0,0.07,-1,103.9230494294148,4,5,-9999,2790.360458875,-0.1974029541015625,-0.746185302734375,-0.834564208984375,2790.355482875,-0.09544307792782609,0.2088088500225903,0.3087225420220175,-1.717945337295532,0.6718776226043701,-1.179003238677979,-0.3792116641998291,-0.3860540986061096,0.1099302172660828,XArbitraryZVertical,0.1576500147468615,0.09556408323636933,-0.03087487728524132,0.9823750442660606,0.1974943876266479,-0.3038418292999268,-0.9320279359817505,0,0,0,-1,-1,2785.09797575,unknown,2,2022-06-30T09:13:10.678+02:00,2022-06-30T08:20:05.567+02:00,833,1.490593,0,0,651.261,0,0,2022-06-30T09:09:38.916+02:00,678265995.7748064,0,-0.96,100.9222,1,0.97
2022-06-30T09:13:15.952+02:00,1656573195.059504,53.2290640287597,10.39857063443437,39.16378,0,0.07,-1,103.9230494294148,4,5,-9999,2790.370410875,-0.2055511474609375,-0.8169097900390625,-0.8070068359375,2790.365434875,-0.1041563095412592,0.2188398847297862,0.2861624103314047,-2.375852108001709,0.8346865177154541,-1.428766489028931,-0.405672162771225,-0.4639127850532532,0.1018898487091064,XArbitraryZVertical,0.1471749431479729,0.1005610371268288,-0.03566421652701019,0.9833387284806682,0.2082688808441162,-0.2822727859020233,-0.9364539980888367,0,0,0,-1,-1,2785.09797575,unknown,2,2022-06-30T09:13:10.678+02:00,2022-06-30T08:20:05.567+02:00,833,1.490593,0,0,651.261,0,0,2022-06-30T09:09:38.916+02:00,678265995.7748064,0,-0.96,100.9222,1,0.97
2022-06-30T09:13:15.962+02:00,1656573195.059504,53.2290640287597,10.39857063443437,39.16378,0,0.07,-1,103.9230494294148,4,5,-9999,2790.380362875,-0.194488525390625,-0.7880859375,-0.7984466552734375,2790.375386875,-0.1133598295969451,0.2303802582498797,0.2557739130067972,-3.20097827911377,0.9911856651306152,-1.662808895111084,-0.4264705777168274,-0.5639158487319946,0.1349000930786133,XArbitraryZVertical,0.1329478530277693,0.1066367514445072,-0.041179408994245,0.9845089298985558,0.2209191024303436,-0.2529942095279694,-0.9419069290161133,0,0,0,-1,-1,2785.09797575,unknown,2,2022-06-30T09:13:10.678+02:00,2022-06-30T08:20:05.567+02:00,833,1.490593,0,0,651.261,0,0,2022-06-30T09:09:38.916+02:00,678265995.7748064,0,-0.96,100.9222,1,0.97
2022-06-30T09:13:15.972+02:00,1656573195.059504,53.2290640287597,10.39857063443437,39.16378,0,0.07,-1,103.9230494294148,4,5,-9999,2790.390314875,-0.176971435546875,-0.6895751953125,-0.7928314208984375,2790.385338875,-0.1220496480913045,0.2431453558362217,0.2162318093043895,-4.127462863922119,1.162302851676941,-1.850032567977905,-0.4296389520168304,-0.5735355019569397,0.149536669254303,XArbitraryZVertical,0.1142624906156237,0.1138086497636436,-0.04712165398845809,0.9857846488535993,0.2351501137018204,-0.214550718665123,-0.9479833245277405,0,0,0,-1,-1,2785.09797575,unknown,2,2022-06-30T09:13:10.678+02:00,2022-06-30T08:20:05.567+02:00,833,1.490593,0,0,651.261,0,0,2022-06-30T09:09:38.916+02:00,678265995.7748064,0,-0.96,100.9222,1,0.97
2022-06-30T09:13:15.981+02:00,1656573195.059504,53.2290640287597,10.39857063443437,39.16378,0,0.07,-1,103.9230494294148,4,5,-9999,2790.400266875,-0.14788818359375,-0.5728607177734375,-0.818603515625,2790.395290875,-0.1295761785367713,0.2570736913690298,0.1673468835047172,-5.000219821929932,1.35671055316925,-2.017503023147583,-0.4276714026927948,-0.5230085849761963,0.1607959270477295,XArbitraryZVertical,0.09098237849301175,0.1221004461623613,-0.05329349561662911,0.9869010222202171,0.2506996393203735,-0.1665668785572052,-0.953627347946167,0,0,0,-1,-1,2785.09797575,unknown,2,2022-06-30T09:13:10.678+02:00,2022-06-30T08:20:05.567+02:00,833,1.490593,0,0,651.261,0,0,2022-06-30T09:09:38.916+02:00,678265995.7748064,0,-0.96,100.9222,1,0.97
2022-06-30T09:13:15.991+02:00,1656573195.059504,53.2290640287597,10.39857063443437,39.16378,0,0.07,-1,103.9230494294148,4,5,-9999,2790.410218875,-0.088714599609375,-0.3911285400390625,-0.846221923828125,2790.405242875,-0.1355134944300303,0.2726115555092007,0.11017197308734,-5.785118579864502,1.604604959487915,-2.120740413665771,-0.415503591299057,-0.4629117846488953,0.1386286020278931,XArbitraryZVertical,0.06360834598611712,0.131673507040879,-0.05951082691504814,0.9874587173896767,0.2676150798797607,-0.1099492311477661,-0.9572321176528931,0,0,0,-1,-1,2785.09797575,unknown,2,2022-06-30T09:13:10.678+02:00,2022-06-30T08:20:05.567+02:00,833,1.490593,0,0,651.261,0,0,2022-06-30T09:09:38.916+02:00,678265995.7748064,0,-0.96,100.9222,1,0.97
2022-06-30T09:13:16.001+02:00,1656573195.059504,53.2290640287597,10.39857063443437,39.16378,0,0.07,-1,103.9230494294148,4,5,-9999,2790.420170875,-0.0316162109375,-0.2067718505859375,-0.8919219970703125,2790.415194875,-0.1390576857194877,0.29029120768246,0.04542682027963978,-6.491040229797363,1.893956065177917,-2.170912742614746,-0.3746508955955505,-0.3457176387310028,0.1109501123428345,XArbitraryZVertical,0.03246405869694406,0.1426885758881654,-0.06544761578235798,0.9870677740107893,0.2859359681606293,-0.04541119933128357,-0.9571720957756042,0,0,0,-1,-1,2785.09797575,unknown,2,2022-06-30T09:13:10.678+02:00,2022-06-30T08:20:05.567+02:00,833,1.490593,0,0,651.261,0,0,2022-06-30T09:09:38.916+02:00,678265995.7748064,0,-0.96,100.9222,1,0.97
2022-06-30T09:13:16.011+02:00,1656573195.059504,53.2290640287597,10.39857063443437,39.16378,0,0.07,-1,103.9230494294148,4,5,-9999,2790.430122875,0.05108642578125,-0.0330047607421875,-0.914825439453125,2790.425146875,-0.1397713208593881,0.3105206848730496,-0.02536374104788341,-7.057590484619141,2.163158178329468,-2.162588119506836,-0.3370727002620697,-0.2321331650018692,0.05994623899459839,XArbitraryZVertical,-0.001701138047514774,0.1551223165062928,-0.0709395380026598,0.9853435201593242,0.3054561913013458,0.02536102198064327,-0.9518683552742004,0,0,0,-1,-1,2785.09797575,unknown,2,2022-06-30T09:13:10.678+02:00,2022-06-30T08:20:05.567+02:00,833,1.490593,0,0,651.261,0,0,2022-06-30T09:09:38.916+02:00,678265995.7748064,0,-0.96,100.9222,1,0.97
2022-06-30T09:13:16.021+02:00,1656573195.059504,53.2290640287597,10.39857063443437,39.16378,0,0.07,-1,103.9230494294148,4,5,-9999,2790.440074875,0.135406494140625,0.0790557861328125,-0.937713623046875,2790.435098875,-0.1366997693008717,0.3335007365282047,-0.1011953291868675,-7.581082820892334,2.416027307510376,-2.062514543533325,-0.2745920717716217,-0.1340277642011642,0.02524262666702271,XArbitraryZVertical,-0.03843681434605841,0.1687854536490647,-0.07563810791956958,0.9819944645445549,0.3256781995296478,0.1010227054357529,-0.9400681853294373,0,0,0,-1,-1,2785.09797575,unknown,2,2022-06-30T09:13:10.678+02:00,2022-06-30T08:20:05.567+02:00,833,1.490593,0,0,651.261,0,0,2022-06-30T09:09:38.916+02:00,678265995.7748064,0,-0.96,100.9222,1,0.97
2022-06-30T09:13:16.032+02:00,1656573195.059504,53.2290640287597,10.39857063443437,39.16378,0,0.07,-1,103.9230494294148,4,5,-9999,2790.450026875,0.19610595703125,0.1255950927734375,-0.9217681884765625,2790.445050875,-0.1289421424979407,0.3600935672049904,-0.1810868442173344,-8.038117408752441,2.712924480438232,-1.942389369010925,-0.2111939489841461,-0.1010432541370392,-0.01715266704559326,XArbitraryZVertical,-0.07728339546576125,0.1837027961501996,-0.07928367286461513,0.9767265439593429,0.3466001749038696,0.180098757147789,-0.9205611348152161,0,0,0,-1,-1,2785.09797575,unknown,2,2022-06-30T09:13:10.678+02:00,2022-06-30T08:20:05.567+02:00,833,1.490593,0,0,651.261,0,0,2022-06-30T09:09:38.916+02:00,678265995.7748064,0,-0.96,100.9222,1,0.97
2022-06-30T09:13:16.041+02:00,1656573195.059504,53.2290640287597,10.39857063443437,39.16378,0,0.07,-1,103.9230494294148,4,5,-9999,2790.459978875,0.2613525390625,0.186431884765625,-0.843109130859375,2790.455002875,-0.1157699760975752,0.3916757405103097,-0.264318365646367,-8.474153518676758,3.042370557785034,-1.786834955215454,-0.1723746359348297,-0.1356565356254578,-0.02959686517715454,XArbitraryZVertical,-0.1178801423822434,0.2000463118118213,-0.08185086848243188,0.9692193859701171,0.3684803545475006,0.2612513601779938,-0.8921715021133423,0,0,0,-1,-1,2785.09797575,unknown,2,2022-06-30T09:13:10.678+02:00,2022-06-30T08:20:05.567+02:00,833,1.490593,0,0,651.261,0,0,2022-06-30T09:09:38.916+02:00,678265995.7748064,0,-0.96,100.9222,1,0.97
2022-06-30T09:13:16.051+02:00,1656573195.059504,53.2290640287597,10.39857063443437,39.16378,0,0.07,-1,103.9230494294148,4,5,-9999,2790.469930875,0.32891845703125,0.2994842529296875,-0.726287841796875,2790.464954875,-0.09550267469839642,0.4297337157226547,-0.3503254316979557,-8.924306869506836,3.363529682159424,-1.54686975479126,-0.1299708783626556,-0.1567718684673309,0.01075100898742676,XArbitraryZVertical,-0.1600451428564383,0.2178425212808343,-0.08303663564196048,0.9591845942214511,0.3913231492042542,0.3432034850120544,-0.8538603782653809,0,0,0,-1,-1,2785.09797575,unknown,2,2022-06-30T09:13:10.678+02:00,2022-06-30T08:20:05.567+02:00,833,1.490593,0,0,651.261,0,0,2022-06-30T09:09:38.916+02:00,678265995.7748064,0,-0.96,100.9222,1,0.97
2022-06-30T09:13:16.061+02:00,1656573195.059504,53.2290640287597,10.39857063443437,39.16378,0,0.07,-1,103.9230494294148,4,5,-9999,2790.479882875,0.4082183837890625,0.456451416015625,-0.5960235595703125,2790.474906875,-0.06618265433055413,0.4760826370057218,-0.4380193179106682,-9.288042068481445,3.672824382781982,-1.262055158615112,-0.08611616492271423,-0.1246626079082489,0.07860082387924194,XArbitraryZVertical,-0.2034058595548359,0.2370266116690126,-0.08258681741201454,0.9463740601294857,0.4150343835353851,0.4241465926170349,-0.804888904094696,0,0,0,-1,-1,2785.09797575,unknown,2,2022-06-30T09:13:10.678+02:00,2022-06-30T08:20:05.567+02:00,833,1.490593,0,0,651.261,0,0,2022-06-30T09:09:38.916+02:00,678265995.7748064,0,-0.96,100.9222,1,0.97
2022-06-30T09:13:16.071+02:00,1656573195.059504,53.2290640287597,10.39857063443437,39.16378,0,0.07,-1,103.9230494294148,4,5,-9999,2790.489834875,0.49554443359375,0.63934326171875,-0.4203338623046875,2790.484858875,-0.02581807796056012,0.5326412006706081,-0.5255506843522063,-9.587762832641602,3.918248653411865,-0.9393208622932434,-0.03106215596199036,-0.04523831605911255,0.1491879224777222,XArbitraryZVertical,-0.2473023214591981,0.2573629737955185,-0.08038538869248206,0.9306685859709029,0.4392802715301514,0.5016894340515137,-0.7452117204666138,0,0,0,-1,-1,2785.09797575,unknown,2,2022-06-30T09:13:10.678+02:00,2022-06-30T08:20:05.567+02:00,833,1.490593,0,0,651.261,0,0,2022-06-30T09:09:38.916+02:00,678265995.7748064,0,-0.96,100.9222,1,0.97
2022-06-30T09:13:16.081+02:00,1656573195.059504,53.2290640287597,10.39857063443437,39.16378,0,0.07,-1,103.9230494294148,4,5,-9999,2790.499786875,0.58941650390625,0.7988128662109375,-0.244049072265625,2790.494810875,0.02815466640841217,0.601623840942397,-0.6111138513771661,-9.812358856201172,4.078784465789795,-0.5758894681930542,0.03199964761734009,0.06556302309036255,0.2548717260360718,XArbitraryZVertical,-0.2912654308997346,0.2784986859575517,-0.07630213081733127,0.9120203222177879,0.4635445773601532,0.5737800598144531,-0.6752058863639832,0,0,0,-1,-1,2785.09797575,unknown,2,2022-06-30T09:13:10.678+02:00,2022-06-30T08:20:05.567+02:00,833,1.490593,0,0,651.261,0,0,2022-06-30T09:09:38.916+02:00,678265995.7748064,0,-0.96,100.9222,1,0.97
