loggingTime(txt),locationTimestamp_since1970(s),locationLatitude(WGS84),locationLongitude(WGS84),locationAltitude(m),locationSpeed(m/s),locationSpeedAccuracy(m/s),locationCourse(°),locationCourseAccuracy(°),locationVerticalAccuracy(m),locationHorizontalAccuracy(m),locationFloor(Z),accelerometerTimestamp_sinceReboot(s),accelerometerAccelerationX(G),accelerometerAccelerationY(G),accelerometerAccelerationZ(G),motionTimestamp_sinceReboot(s),motionYaw(rad),motionRoll(rad),motionPitch(rad),motionRotationRateX(rad/s),motionRotationRateY(rad/s),motionRotationRateZ(rad/s),motionUserAccelerationX(G),motionUserAccelerationY(G),motionUserAccelerationZ(G),motionAttitudeReferenceFrame(txt),motionQuaternionX(R),motionQuaternionY(R),motionQuaternionZ(R),motionQuaternionW(R),motionGravityX(G),motionGravityY(G),motionGravityZ(G),motionMagneticFieldX(µT),motionMagneticFieldY(µT),motionMagneticFieldZ(µT),motionHeading(°),motionMagneticFieldCalibrationAccuracy(Z),activityTimestamp_sinceReboot(s),activity(txt),activityActivityConfidence(Z),activityActivityStartDate(txt),pedometerStartDate(txt),pedometerNumberofSteps(N),pedometerAverageActivePace(s/m),pedometerCurrentPace(s/m),pedometerCurrentCadence(steps/s),pedometerDistance(m),pedometerFloorAscended(N),pedometerFloorDescended(N),pedometerEndDate(txt),altimeterTimestamp_sinceReboot(s),altimeterReset(bool),altimeterRelativeAltitude(m),altimeterPressure(kPa),batteryState(N),batteryLevel(R)
2022-06-30T09:13:31.080+02:00,1656573210.069708,53.2290640287597,10.39857063443437,41.02932,0,0.07,-1,103.9230494294148,4,5,-9999,2805.48743275,0.1151123046875,-0.0257415771484375,-1.015655517578125,2805.48245675,0.7291445370746643,0.131963213521177,-0.01316700189154775,-0.1843248307704926,0.08135974407196045,-0.09093519300222397,-0.08464878797531128,-0.07719244062900543,0.01892948150634766,XArbitraryZVertical,-0.0296455250711366,0.05925677844896805,0.3553605946207167,0.9323779786607707,0.1315691322088242,0.01316662132740021,-0.9912195801734924,0,0,0,-1,-1,2802.931880625,unknown,2,2022-06-30T09:13:28.512+02:00,2022-06-30T08:20:05.567+02:00,833,1.490593,0,0,651.261,0,0,2022-06-30T09:09:38.916+02:00,678266011.0612233,0,-1.21,100.9236,1,0.97
2022-06-30T09:13:31.081+02:00,1656573210.069708,53.2290640287597,10.39857063443437,41.02932,0,0.07,-1,103.9230494294148,4,5,-9999,2805.49738475,0.139312744140625,0.0276947021484375,-1.012222290039062,2805.49240875,0.7280601127474776,0.1326176432401793,-0.01427835340374473,-0.05023093521595001,0.05696811527013779,-0.1541666239500046,-0.0171038955450058,-0.04001938924193382,-0.02453744411468506,XArbitraryZVertical,-0.03024752315022114,0.05938035116983457,0.3548095311576093,0.9325606114535433,0.1322157680988312,0.0142778679728508,-0.9911181330680847,0,0,0,-1,-1,2802.931880625,unknown,2,2022-06-30T09:13:28.512+02:00,2022-06-30T08:20:05.567+02:00,833,1.490593,0,0,651.261,0,0,2022-06-30T09:09:38.916+02:00,678266011.0612233,0,-1.21,100.9236,1,0.97
2022-06-30T09:13:31.089+02:00,1656573210.069708,53.2290640287597,10.39857063443437,41.02932,0,0.07,-1,103.9230494294148,4,5,-9999,2805.50733675,0.1143341064453125,0.040130615234375,-1.012557983398438,2805.50236075,0.7265061639155171,0.1329918365869561,-0.01449849938150355,0.0704786404967308,0.02018902637064457,-0.1509653329849243,0.006726115942001343,0.01319676637649536,-0.021156907081604,XArbitraryZVertical,-0.03037026645727062,0.059539291925996,0.3540720756398983,0.9328267315149248,0.1325862109661102,0.01449799165129662,-0.9910654425621033,0,0,0,-1,-1,2802.931880625,unknown,2,2022-06-30T09:13:28.512+02:00,2022-06-30T08:20:05.567+02:00,833,1.490593,0,0,651.261,0,0,2022-06-30T09:09:38.916+02:00,678266011.0612233,0,-1.21,100.9236,1,0.97
2022-06-30T09:13:31.099+02:00,1656573210.069708,53.2290640287597,10.39857063443437,41.02932,0,0.07,-1,103.9230494294148,4,5,-9999,2805.51728875,0.0673980712890625,0.03631591796875,-1.008026123046875,2805.51231275,0.724932471942679,0.1331800754564856,-0.01361834808401356,0.139516294002533,0.02857984788715839,-0.1401044279336929,-0.01844072341918945,0.0265127420425415,-0.02150529623031616,XArbitraryZVertical,-0.0299461764752153,0.05980687780730198,0.3533635881832553,0.9330919603782047,0.1327744126319885,0.01361792720854282,-0.9910527467727661,0,0,0,-1,-1,2802.931880625,unknown,2,2022-06-30T09:13:28.512+02:00,2022-06-30T08:20:05.567+02:00,833,1.490593,0,0,651.261,0,0,2022-06-30T09:09:38.916+02:00,678266011.0612233,0,-1.21,100.9236,1,0.97
2022-06-30T09:13:31.109+02:00,1656573210.069708,53.2290640287597,10.39857063443437,41.02932,0,0.07,-1,103.9230494294148,4,5,-9999,2805.52724075,0.0700836181640625,0.0240631103515625,-1.012054443359375,2805.52226475,0.7234125097315354,0.1336259486728615,-0.01235490289255899,0.1484213769435883,0.06282459199428558,-0.1263016760349274,-0.06582082808017731,0.0239613838493824,-0.01701647043228149,XArbitraryZVertical,-0.02938991488406209,0.06026099800879529,0.3526885709396265,0.9333357945645007,0.1332184672355652,0.01235458813607693,-0.9910097122192383,0,0,0,-1,-1,2802.931880625,unknown,2,2022-06-30T09:13:28.512+02:00,2022-06-30T08:20:05.567+02:00,833,1.490593,0,0,651.261,0,0,2022-06-30T09:09:38.916+02:00,678266011.0612233,0,-1.21,100.9236,1,0.97
2022-06-30T09:13:31.118+02:00,1656573210.069708,53.2290640287597,10.39857063443437,41.02932,0,0.07,-1,103.9230494294148,4,5,-9999,2805.53719275,0.10040283203125,0.0086822509765625,-1.0152587890625,2805.53221675,0.7220336567943773,0.1343262144743495,-0.01105185913353991,0.1524020135402679,0.07826799899339676,-0.1137928068637848,-0.06383125483989716,0.01301153004169464,-0.02112323045730591,XArbitraryZVertical,-0.02886357549641794,0.06083797012708087,0.3520769764740643,0.9335456605211719,0.133914440870285,0.01105163432657719,-0.9909312725067139,0,0,0,-1,-1,2802.931880625,unknown,2,2022-06-30T09:13:28.512+02:00,2022-06-30T08:20:05.567+02:00,833,1.490593,0,0,651.261,0,0,2022-06-30T09:09:38.916+02:00,678266011.0612233,0,-1.21,100.9236,1,0.97
2022-06-30T09:13:31.128+02:00,1656573211.072709,53.2290640287597,10.39857063443437,40.89151,0,0.07,-1,103.9230494294148,4,5,-9999,2805.54714375,0.1180267333984375,0.0039215087890625,-1.01129150390625,2805.54216775,0.7207086247851837,0.1350820998503836,-0.009704460005452793,0.1504909247159958,0.07291477918624878,-0.1133509874343872,-0.03426292538642883,-0.001022003591060638,-0.02441525459289551,XArbitraryZVertical,-0.02832718761647624,0.06144721342249877,0.3514912516985179,0.9337429525096399,0.1346653252840042,0.009704307653009892,-0.9908435940742493,0,0,0,-1,-1,2802.931880625,unknown,2,2022-06-30T09:13:28.512+02:00,2022-06-30T08:20:05.567+02:00,833,1.490593,0,0,651.261,0,0,2022-06-30T09:09:38.916+02:00,678266011.0612233,0,-1.21,100.9236,1,0.97
2022-06-30T09:13:31.138+02:00,1656573211.072709,53.2290640287597,10.39857063443437,40.89151,0,0.07,-1,103.9230494294148,4,5,-9999,2805.55709575,0.11004638671875,-0.0120086669921875,-1.0029296875,2805.55211975,0.7193689439904603,0.1358297480809861,-0.008481139508458821,0.128020241856575,0.0814233124256134,-0.1207756102085114,-0.01738128066062927,-0.004559479653835297,-0.0205378532409668,XArbitraryZVertical,-0.02784606333021392,0.0620302883987669,0.3508949766109183,0.9339429852505202,0.1354075968265533,0.008481037802994251,-0.9907536506652832,0,0,0,-1,-1,2802.931880625,unknown,2,2022-06-30T09:13:28.512+02:00,2022-06-30T08:20:05.567+02:00,833,1.490593,0,0,651.261,0,0,2022-06-30T09:09:38.916+02:00,678266011.0612233,0,-1.21,100.9236,1,0.97
2022-06-30T09:13:31.148+02:00,1656573211.072709,53.2290640287597,10.39857063443437,40.89151,0,0.07,-1,103.9230494294148,4,5,-9999,2805.56704775,0.1037445068359375,-0.017822265625,-0.997222900390625,2805.56207175,0.7180120528352765,0.1367183509540081,-0.007563257290266509,0.09138977527618408,0.1005548760294914,-0.1196196675300598,-0.02624297142028809,-0.01957179978489876,-0.01228946447372437,XArbitraryZVertical,-0.02753095541486826,0.06262520045828793,0.3502788530513116,0.9341439696878561,0.1362889260053635,0.007563185412436724,-0.9906402826309204,0,0,0,-1,-1,2802.931880625,unknown,2,2022-06-30T09:13:28.512+02:00,2022-06-30T08:20:05.567+02:00,833,1.490593,0,0,651.261,0,0,2022-06-30T09:09:38.916+02:00,678266011.0612233,0,-1.21,100.9236,1,0.97
2022-06-30T09:13:31.158+02:00,1656573211.072709,53.2290640287597,10.39857063443437,40.89151,0,0.07,-1,103.9230494294148,4,5,-9999,2805.57699975,0.1107025146484375,0.0013580322265625,-0.9874420166015625,2805.57202375,0.7167650849580474,0.1377560496981002,-0.006904930627374044,0.06559813022613525,0.111890621483326,-0.1133271530270576,-0.03357341885566711,-0.02472709119319916,-0.00671994686126709,XArbitraryZVertical,-0.02736585153298432,0.06324239742330183,0.3497036801002043,0.9343227257424829,0.13731749355793,0.006904875859618187,-0.9905030131340027,0,0,0,-1,-1,2802.931880625,unknown,2,2022-06-30T09:13:28.512+02:00,2022-06-30T08:20:05.567+02:00,833,1.490593,0,0,651.261,0,0,2022-06-30T09:09:38.916+02:00,678266011.0612233,0,-1.21,100.9236,1,0.97
2022-06-30T09:13:31.169+02:00,1656573211.072709,53.2290640287597,10.39857063443437,40.89151,0,0.07,-1,103.9230494294148,4,5,-9999,2805.58695175,0.1236114501953125,0.03533935546875,-0.984283447265625,2805.58197575,0.7156222736920378,0.1388673641836375,-0.006466745463035441,0.06782473623752594,0.1126004606485367,-0.1002239659428596,-0.0277165025472641,-0.005108617711812258,0.00291067361831665,XArbitraryZVertical,-0.0273190243447832,0.06385388426291971,0.3491690104065965,0.9344824124065503,0.1384185701608658,0.006466700229793787,-0.9903526902198792,0,0,0,-1,-1,2802.931880625,unknown,2,2022-06-30T09:13:28.512+02:00,2022-06-30T08:20:05.567+02:00,833,1.490593,0,0,651.261,0,0,2022-06-30T09:09:38.916+02:00,678266011.0612233,0,-1.21,100.9236,1,0.97
2022-06-30T09:13:31.178+02:00,1656573211.072709,53.2290640287597,10.39857063443437,40.89151,0,0.07,-1,103.9230494294148,4,5,-9999,2805.59690375,0.12713623046875,0.0487518310546875,-0.9921112060546875,2805.59192775,0.714549319801435,0.1398808601937081,-0.00586269509906534,0.1062988862395287,0.1060711890459061,-0.0953059047460556,-0.0158117264509201,0.02947674319148064,0.005932092666625977,XArbitraryZVertical,-0.02717921012035773,0.06444759209129046,0.3486738597676751,0.9346305993424868,0.139422744512558,0.005862661637365818,-0.9902155995368958,0,0,0,-1,-1,2802.931880625,unknown,2,2022-06-30T09:13:28.512+02:00,2022-06-30T08:20:05.567+02:00,833,1.490593,0,0,651.261,0,0,2022-06-30T09:09:38.916+02:00,678266011.0612233,0,-1.21,100.9236,1,0.97
2022-06-30T09:13:31.188+02:00,1656573211.072709,53.2290640287597,10.39857063443437,40.89151,0,0.07,-1,103.9230494294148,4,5,-9999,2805.60685575,0.1188507080078125,0.0470428466796875,-0.98883056640625,2805.60187975,0.7134592362854557,0.1407190596004471,-0.004773460975307204,0.1619140207767487,0.09957066923379898,-0.0885845273733139,-0.01311770081520081,0.04397843778133392,-0.002007126808166504,XArbitraryZVertical,-0.02678096477940006,0.06504398587946668,0.3481893781493652,0.9347813503219689,0.1402534991502762,0.004773442633450031,-0.9901041388511658,0,0,0,-1,-1,2802.931880625,unknown,2,2022-06-30T09:13:28.512+02:00,2022-06-30T08:20:05.567+02:00,833,1.490593,0,0,651.261,0,0,2022-06-30T09:09:38.916+02:00,678266011.0612233,0,-1.21,100.9236,1,0.97
2022-06-30T09:13:31.198+02:00,1656573211.072709,53.2290640287597,10.39857063443437,40.89151,0,0.07,-1,103.9230494294148,4,5,-9999,2805.61680775,0.1083831787109375,0.0302734375,-0.988433837890625,2805.61183175,0.7124131028487435,0.1415592778989617,-0.00318676020665418,0.192170724272728,0.1015829518437386,-0.0706326887011528,-0.02223595976829529,0.04385614022612572,0.001161575317382812,XArbitraryZVertical,-0.0261513608836313,0.0657268352366011,0.3477422403306537,0.9349178595420031,0.1410862505435944,0.003186754882335663,-0.9899922013282776,0,0,0,-1,-1,2802.931880625,unknown,2,2022-06-30T09:13:28.512+02:00,2022-06-30T08:20:05.567+02:00,833,1.490593,0,0,651.261,0,0,2022-06-30T09:09:38.916+02:00,678266011.0612233,0,-1.21,100.9236,1,0.97
2022-06-30T09:13:31.208+02:00,1656573211.072709,53.2290640287597,10.39857063443437,40.89151,0,0.07,-1,103.9230494294148,4,5,-9999,2805.62675975,0.105804443359375,0.0148773193359375,-0.9799041748046875,2805.62178375,0.7115822150062318,0.1425238800156566,-0.001443429434250341,0.179668977856636,0.116857036948204,-0.04515498876571655,-0.0336589515209198,0.02883005514740944,0.001425743103027344,XArbitraryZVertical,-0.02547660196151746,0.06649159172306365,0.3473996833762041,0.9350097950372203,0.1420417129993439,0.001443428918719292,-0.9898596405982971,0,0,0,-1,-1,2802.931880625,unknown,2,2022-06-30T09:13:28.512+02:00,2022-06-30T08:20:05.567+02:00,833,1.490593,0,0,651.261,0,0,2022-06-30T09:09:38.916+02:00,678266011.0612233,0,-1.21,100.9236,1,0.97
2022-06-30T09:13:31.218+02:00,1656573211.072709,53.2290640287597,10.39857063443437,40.89151,0,0.07,-1,103.9230494294148,4,5,-9999,2805.63671175,0.115142822265625,0.0101776123046875,-0.980560302734375,2805.63173575,0.7109664346154706,0.1435804627995838,4.223761938765217e-05,0.142991915345192,0.1297225058078766,-0.03178592026233673,-0.03728362917900085,0.01491960510611534,0.009805798530578613,XArbitraryZVertical,-0.0249449096205165,0.06725132603361191,0.3471483253910947,0.9350631755357065,0.1430876404047012,-4.223761789035052e-05,-0.9897100329399109,0,0,0,-1,-1,2802.931880625,unknown,2,2022-06-30T09:13:28.512+02:00,2022-06-30T08:20:05.567+02:00,833,1.490593,0,0,651.261,0,0,2022-06-30T09:09:38.916+02:00,678266011.0612233,0,-1.21,100.9236,1,0.97
2022-06-30T09:13:31.228+02:00,1656573211.072709,53.2290640287597,10.39857063443437,40.89151,0,0.07,-1,103.9230494294148,4,5,-9999,2805.64666375,0.1263580322265625,0.013946533203125,-0.9873199462890625,2805.64168775,0.710547528133915,0.1445350210333902,0.001297444050623254,0.1027660071849823,0.1390080899000168,-0.02159270457923412,-0.02888980507850647,0.0114751048386097,0.009011805057525635,XArbitraryZVertical,-0.02450953635149276,0.06792059019379512,0.3469829499933153,0.9350876564430864,0.1440321952104568,-0.001297443639487028,-0.9895721673965454,0,0,0,-1,-1,2802.931880625,unknown,2,2022-06-30T09:13:28.512+02:00,2022-06-30T08:20:05.567+02:00,833,1.490593,0,0,651.261,0,0,2022-06-30T09:09:38.916+02:00,678266011.0612233,0,-1.21,100.9236,1,0.97
2022-06-30T09:13:31.238+02:00,1656573211.072709,53.2290640287597,10.39857063443437,40.89151,0,0.07,-1,103.9230494294148,4,5,-9999,2805.656616125,0.129241943359375,0.0217132568359375,-0.98089599609375,2805.65163975,0.7102617055908049,0.1454342679597751,0.002346865904405808,0.07799674570560455,0.1443131119012833,-0.01443279534578323,-0.01856411993503571,0.01629344373941422,0.002120316028594971,XArbitraryZVertical,-0.02416509078457824,0.0685264739740685,0.3468738134834282,0.9350930099275254,0.1449217349290848,-0.002346863737329841,-0.9894403219223022,0,0,0,-1,-1,2802.931880625,unknown,2,2022-06-30T09:13:28.512+02:00,2022-06-30T08:20:05.567+02:00,833,1.490593,0,0,651.261,0,0,2022-06-30T09:09:38.916+02:00,678266011.0612233,0,-1.21,100.9236,1,0.97
2022-06-30T09:13:31.248+02:00,1656573211.072709,53.2290640287597,10.39857063443437,40.89151,0,0.07,-1,103.9230494294148,4,5,-9999,2805.666567125,0.1310577392578125,0.0067138671875,-0.9879150390625,2805.661591125,0.7099125955492295,0.1464463791006899,0.002969643961822451,0.09174351394176483,0.1539838016033173,-0.02887035720050335,-0.01668132841587067,0.02468294277787209,0.008395493030548096,XArbitraryZVertical,-0.02403738094875109,0.0691118309027379,0.3467195550067906,0.9351103394209519,0.145922839641571,-0.002969639608636498,-0.9892914891242981,0,0,0,-1,-1,2802.931880625,unknown,2,2022-06-30T09:13:28.512+02:00,2022-06-30T08:20:05.567+02:00,833,1.490593,0,0,651.261,0,0,2022-06-30T09:09:38.916+02:00,678266011.0612233,0,-1.21,100.9236,1,0.97
2022-06-30T09:13:31.258+02:00,1656573211.072709,53.2290640287597,10.39857063443437,40.89151,0,0.07,-1,103.9230494294148,4,5,-9999,2805.676519125,0.12481689453125,0.019805908203125,-0.982818603515625,2805.671543125,0.7095470468964461,0.1476215818575773,0.00321456808347444,0.09605889767408371,0.157853901386261,-0.01428821869194508,-0.01602792739868164,0.009928479790687561,0.001203477382659912,XArbitraryZVertical,-0.02411384758582817,0.06970813096634082,0.3465428551468527,0.9351296336330555,0.1470852345228195,-0.003214562544599175,-0.9891185760498047,0,0,0,-1,-1,2802.931880625,unknown,2,2022-06-30T09:13:28.512+02:00,2022-06-30T08:20:05.567+02:00,833,1.490593,0,0,651.261,0,0,2022-06-30T09:09:38.916+02:00,678266011.0612233,0,-1.21,100.9236,1,0.97
2022-06-30T09:13:31.268+02:00,1656573211.072709,53.2290640287597,10.39857063443437,40.89151,0,0.07,-1,103.9230494294148,4,5,-9999,2805.686471125,0.1165008544921875,0.014556884765625,-0.980224609375,2805.681495125,0.7092669282921384,0.1488769873476841,0.003398472191983454,0.1131771057844162,0.167083814740181,-0.01116909179836512,-0.02351030707359314,0.02320442348718643,0.006113886833190918,XArbitraryZVertical,-0.02423553105784503,0.07033034125595956,0.3464030523002878,0.9351316462271393,0.1483267843723297,-0.003398465691134334,-0.9889325499534607,0,0,0,-1,-1,2802.931880625,unknown,2,2022-06-30T09:13:28.512+02:00,2022-06-30T08:20:05.567+02:00,833,1.490593,0,0,651.261,0,0,2022-06-30T09:09:38.916+02:00,678266011.0612233,0,-1.21,100.9236,1,0.97
2022-06-30T09:13:31.278+02:00,1656573211.072709,53.2290640287597,10.39857063443437,40.89151,0,0.07,-1,103.9230494294148,4,5,-9999,2805.696423125,0.1200714111328125,0.002685546875,-0.9731597900390625,2805.691447125,0.7089651660289066,0.1501221633440936,0.003717108296290473,0.1152690201997757,0.1786664426326752,-0.0156535878777504,-0.03305746614933014,0.01827403530478477,0.008521318435668945,XArbitraryZVertical,-0.02429149478611389,0.07097134273685164,0.3462579146659167,0.9351355060227556,0.149557888507843,-0.003717099782079458,-0.9887459874153137,0,0,0,-1,-1,2802.931880625,unknown,2,2022-06-30T09:13:28.512+02:00,2022-06-30T08:20:05.567+02:00,833,1.490593,0,0,651.261,0,0,2022-06-30T09:09:38.916+02:00,678266011.0612233,0,-1.21,100.9236,1,0.97
2022-06-30T09:13:31.288+02:00,1656573211.072709,53.2290640287597,10.39857063443437,40.89151,0,0.07,-1,103.9230494294148,4,5,-9999,2805.706375125,0.133544921875,-0.0128631591796875,-0.9686279296875,2805.701399125,0.708616428210147,0.151297350829962,0.00411923151394779,0.08922623097896576,0.1783004403114319,-0.02438276633620262,-0.03064852952957153,0.006804812699556351,0.01540815830230713,XArbitraryZVertical,-0.02429443078870893,0.07159460649074371,0.3460946265109646,0.9351484238852886,0.1507195085287094,-0.004119219724088907,-0.9885680079460144,0,0,0,-1,-1,2802.931880625,unknown,2,2022-06-30T09:13:28.512+02:00,2022-06-30T08:20:05.567+02:00,833,1.490593,0,0,651.261,0,0,2022-06-30T09:09:38.916+02:00,678266011.0612233,0,-1.21,100.9236,1,0.97
2022-06-30T09:13:31.298+02:00,1656573211.072709,53.2290640287597,10.39857063443437,40.89151,0,0.07,-1,103.9230494294148,4,5,-9999,2805.716327125,0.1410980224609375,-0.026092529296875,-0.9756927490234375,2805.711351125,0.7082160916442142,0.1524720924624734,0.004321281991607145,0.03441677242517471,0.1764380931854248,-0.0385206900537014,-0.01833610236644745,-0.00854184478521347,0.01976144313812256,XArbitraryZVertical,-0.02438878326885422,0.07218368874570666,0.3459002533766107,0.9351726038978829,0.1518805921077728,-0.004321268759667873,-0.9883894324302673,0,0,0,-1,-1,2802.931880625,unknown,2,2022-06-30T09:13:28.512+02:00,2022-06-30T08:20:05.567+02:00,833,1.490593,0,0,651.261,0,0,2022-06-30T09:09:38.916+02:00,678266011.0612233,0,-1.21,100.9236,1,0.97
2022-06-30T09:13:31.308+02:00,1656573211.072709,53.2290640287597,10.39857063443437,40.89151,0,0.07,-1,103.9230494294148,4,5,-9999,2805.726279125,0.1420745849609375,-0.0181884765625,-0.97088623046875,2805.721303125,0.7076670837157211,0.1537288596210058,0.004232341328768006,0.01964495331048965,0.1717435568571091,-0.06198017299175262,-0.01202511787414551,-0.02186015248298645,0.01250529289245605,XArbitraryZVertical,-0.0246277581064291,0.07276271984913775,0.3456249940482207,0.935223180631883,0.1531227082014084,-0.004232328850775957,-0.9881981015205383,0,0,0,-1,-1,2802.931880625,unknown,2,2022-06-30T09:13:28.512+02:00,2022-06-30T08:20:05.567+02:00,833,1.490593,0,0,651.261,0,0,2022-06-30T09:09:38.916+02:00,678266011.0612233,0,-1.21,100.9236,1,0.97
2022-06-30T09:13:31.317+02:00,1656573211.072709,53.2290640287597,10.39857063443437,40.89151,0,0.07,-1,103.9230494294148,4,5,-9999,2805.736231125,0.14117431640625,0.01007080078125,-0.96575927734375,2805.731255125,0.7069914067370164,0.1550430828609845,0.003944714851232976,0.001818551681935787,0.1642704606056213,-0.07112360745668411,-0.01234731078147888,-0.0142437256872654,0.01711088418960571,XArbitraryZVertical,-0.02496459316046822,0.0733360238739396,0.3452824090003953,0.9352961023331607,0.1544214636087418,-0.00394470477476716,-0.9879971742630005,0,0,0,-1,-1,2802.931880625,unknown,2,2022-06-30T09:13:28.512+02:00,2022-06-30T08:20:05.567+02:00,833,1.490593,0,0,651.261,0,0,2022-06-30T09:09:38.916+02:00,678266011.0612233,0,-1.21,100.9236,1,0.97
2022-06-30T09:13:31.332+02:00,1656573211.072709,53.2290640287597,10.39857063443437,40.89151,0,0.07,-1,103.9230494294148,4,5,-9999,2805.746183125,0.136199951171875,0.0147705078125,-0.970184326171875,2805.741207125,0.7062487755687593,0.1563868469002389,0.003570372201293166,0.01642186194658279,0.168449729681015,-0.07898052781820297,-0.0145752876996994,0.01364121213555336,0.02203088998794556,XArbitraryZVertical,-0.02534421131096747,0.07390926515841963,0.3449046858943445,0.9353800473575036,0.1557491719722748,-0.003570364555343986,-0.9877901673316956,0,0,0,-1,-1,2802.931880625,unknown,2,2022-06-30T09:13:28.512+02:00,2022-06-30T08:20:05.567+02:00,833,1.490593,0,0,651.261,0,0,2022-06-30T09:09:38.916+02:00,678266011.0612233,0,-1.21,100.9236,1,0.97
2022-06-30T09:13:31.349+02:00,1656573211.072709,53.2290640287597,10.39857063443437,40.89151,0,0.07,-1,103.9230494294148,4,5,-9999,2805.756135125,0.145416259765625,0.0053863525390625,-0.973297119140625,2805.751159125,0.7053533762840201,0.1577980763865153,0.003551037864975072,0.03663551807403564,0.1688074022531509,-0.09237942099571228,-0.02094352245330811,0.01832158491015434,0.01738512516021729,XArbitraryZVertical,-0.02556322634003456,0.0745773808559525,0.3444672073209637,0.9354823445869509,0.1571430265903473,-0.003551030298694968,-0.9875694513320923,0,0,0,-1,-1,2802.931880625,unknown,2,2022-06-30T09:13:28.512+02:00,2022-06-30T08:20:05.567+02:00,833,1.490593,0,0,651.261,0,0,2022-06-30T09:09:38.916+02:00,678266011.0612233,0,-1.21,100.9236,1,0.97
2022-06-30T09:13:31.352+02:00,1656573211.072709,53.2290640287597,10.39857063443437,40.89151,0,0.07,-1,103.9230494294148,4,5,-9999,2805.766087125,0.15185546875,0.0060577392578125,-0.96142578125,2805.761111125,0.704377168760735,0.1591432403273631,0.003587448593447546,0.04893180355429649,0.1656367927789688,-0.09132464975118637,-0.0130554735660553,0.008973836898803711,0.01405990123748779,XArbitraryZVertical,-0.02574115529679378,0.07522539074655063,0.3439946499222253,0.9355994798287413,0.1584713160991669,-0.003587440820410848,-0.9873570799827576,0,0,0,-1,-1,2802.931880625,unknown,2,2022-06-30T09:13:28.512+02:00,2022-06-30T08:20:05.567+02:00,833,1.490593,0,0,651.261,0,0,2022-06-30T09:09:38.916+02:00,678266011.0612233,0,-1.21,100.9236,1,0.97
2022-06-30T09:13:31.357+02:00,1656573211.072709,53.2290640287597,10.39857063443437,40.89151,0,0.07,-1,103.9230494294148,4,5,-9999,2805.776038125,0.15460205078125,-0.000152587890625,-0.953338623046875,2805.771063125,0.7033696258684999,0.160404093283684,0.003624265369500852,0.02855462580919266,0.1586159020662308,-0.1010422557592392,-0.007861033082008362,0.009682044386863708,0.02573049068450928,XArbitraryZVertical,-0.02590259071365146,0.07583458889922599,0.3435083826599482,0.9357244814928516,0.1597160696983337,-0.003624257398769259,-0.9871563315391541,0,0,0,-1,-1,2802.931880625,unknown,2,2022-06-30T09:13:28.512+02:00,2022-06-30T08:20:05.567+02:00,833,1.490593,0,0,651.261,0,0,2022-06-30T09:09:38.916+02:00,678266011.0612233,0,-1.21,100.9236,1,0.97
2022-06-30T09:13:31.367+02:00,1656573211.072709,53.2290640287597,10.39857063443437,40.89151,0,0.07,-1,103.9230494294148,4,5,-9999,2805.785990125,0.1605072021484375,-0.0215301513671875,-0.9503173828125,2805.781014125,0.702309161760712,0.1616731668993144,0.003553802020821708,0.006509975995868444,0.1526762992143631,-0.1114147007465363,-0.006367132067680359,0.003401253372430801,0.0336143970489502,XArbitraryZVertical,-0.02611300203522421,0.07643009037233696,0.3429930571427146,0.9358591957889351,0.1609687656164169,-0.003553794464096427,-0.98695307970047,0,0,0,-1,-1,2802.931880625,unknown,2,2022-06-30T09:13:28.512+02:00,2022-06-30T08:20:05.567+02:00,833,1.490593,0,0,651.261,0,0,2022-06-30T09:09:38.916+02:00,678266011.0612233,0,-1.21,100.9236,1,0.97
2022-06-30T09:13:31.377+02:00,1656573211.072709,53.2290640287597,10.39857063443437,40.89151,0,0.07,-1,103.9230494294148,4,5,-9999,2805.795942125,0.172119140625,-0.028717041015625,-0.9338531494140625,2805.790966125,0.7012360847100593,0.1629863425397736,0.003292943748828854,-0.03132715076208115,0.14313605427742,-0.1098021566867828,-0.00175805389881134,-0.0182371698319912,0.03642433881759644,XArbitraryZVertical,-0.02641895890474914,0.07701403817621628,0.3424638136634425,0.9359964716917047,0.162264809012413,-0.003292937763035297,-0.9867417812347412,0,0,0,-1,-1,2802.931880625,unknown,2,2022-06-30T09:13:28.512+02:00,2022-06-30T08:20:05.567+02:00,833,1.490593,0,0,651.261,0,0,2022-06-30T09:09:38.916+02:00,678266011.0612233,0,-1.21,100.9236,1,0.97
2022-06-30T09:13:31.387+02:00,1656573211.072709,53.2290640287597,10.39857063443437,40.89151,0,0.07,-1,103.9230494294148,4,5,-9999,2805.805894125,0.1816253662109375,-0.0213775634765625,-0.930572509765625,2805.800918125,0.7002755171698153,0.1642717997579998,0.002695388582829158,-0.07308951020240784,0.1332642436027527,-0.1030494496226311,0.008585333824157715,-0.02602161094546318,0.05268090963363647,XArbitraryZVertical,-0.02688149882940183,0.07752628992050632,0.3419743278336892,0.9361199829351068,0.1635333895683289,-0.002695385366678238,-0.9865341186523438,0,0,0,-1,-1,2802.931880625,unknown,2,2022-06-30T09:13:28.512+02:00,2022-06-30T08:20:05.567+02:00,833,1.490593,0,0,651.261,0,0,2022-06-30T09:09:38.916+02:00,678266011.0612233,0,-1.21,100.9236,1,0.97
2022-06-30T09:13:31.397+02:00,1656573211.072709,53.2290640287597,10.39857063443437,40.89151,0,0.07,-1,103.9230494294148,4,5,-9999,2805.815846125,0.1902008056640625,-0.0139617919921875,-0.9347076416015625,2805.810870125,0.6994289650877955,0.1655231181656502,0.001779783474659064,-0.0908338874578476,0.133764386177063,-0.09982169419527054,0.01685687899589539,-0.01959773898124695,0.05575817823410034,XArbitraryZVertical,-0.02749102356797296,0.07796715011143295,0.3415258215865327,0.9362293720132907,0.1647680550813675,-0.001779782585799694,-0.9863307476043701,0,0,0,-1,-1,2802.931880625,unknown,2,2022-06-30T09:13:28.512+02:00,2022-06-30T08:20:05.567+02:00,833,1.490593,0,0,651.261,0,0,2022-06-30T09:09:38.916+02:00,678266011.0612233,0,-1.21,100.9236,1,0.97
2022-06-30T09:13:31.407+02:00,1656573211.072709,53.2290640287597,10.39857063443437,40.89151,0,0.07,-1,103.9230494294148,4,5,-9999,2805.825798125,0.1981658935546875,-0.0088653564453125,-0.948150634765625,2805.820822125,0.6986214686831612,0.1667270470298702,0.0007230030820634741,-0.07116797566413879,0.1259291917085648,-0.09156326204538345,0.02424472570419312,-0.01323874667286873,0.0514252781867981,XArbitraryZVertical,-0.02815965471032037,0.07836169599813711,0.3410899518323033,0.9363355437132521,0.1659556329250336,-0.0007230030023492873,-0.9861329793930054,0,0,0,-1,-1,2802.931880625,unknown,2,2022-06-30T09:13:28.512+02:00,2022-06-30T08:20:05.567+02:00,833,1.490593,0,0,651.261,0,0,2022-06-30T09:09:38.916+02:00,678266011.0612233,0,-1.21,100.9236,1,0.97
2022-06-30T09:13:31.417+02:00,1656573211.072709,53.2290640287597,10.39857063443437,40.89151,0,0.07,-1,103.9230494294148,4,5,-9999,2805.835750125,0.2039794921875,0.0157012939453125,-0.9304046630859375,2805.830774125,0.6978176885737156,0.1677780964374218,0.0001431044920606347,-0.004140204750001431,0.1079698875546455,-0.08711179345846176,0.03117342293262482,-0.008722208440303802,0.03780752420425415,XArbitraryZVertical,-0.028578733218887,0.07876636441874214,0.3406759870484513,0.9364395718247006,0.1669920533895493,-0.0001431044947821647,-0.9859582185745239,0,0,0,-1,-1,2802.931880625,unknown,2,2022-06-30T09:13:28.512+02:00,2022-06-30T08:20:05.567+02:00,833,1.490593,0,0,651.261,0,0,2022-06-30T09:09:38.916+02:00,678266011.0612233,0,-1.21,100.9236,1,0.97
2022-06-30T09:13:31.427+02:00,1656573211.072709,53.2290640287597,10.39857063443437,40.89151,0,0.07,-1,103.9230494294148,4,5,-9999,2805.845702125,0.2030029296875,0.02679443359375,-0.9242401123046875,2805.840726125,0.6968902629072876,0.1686694634770592,0.0002570815630696903,0.0627874955534935,0.08509881794452667,-0.09134665131568909,0.03610822558403015,0.01595841720700264,0.05540424585342407,XArbitraryZVertical,-0.02864046983736963,0.07921641556066204,0.3402334699973277,0.9365605843461576,0.1678708344697952,-0.0002570815559010953,-0.9858089685440063,0,0,0,-1,-1,2802.931880625,unknown,2,2022-06-30T09:13:28.512+02:00,2022-06-30T08:20:05.567+02:00,833,1.490593,0,0,651.261,0,0,2022-06-30T09:09:38.916+02:00,678266011.0612233,0,-1.21,100.9236,1,0.97
2022-06-30T09:13:31.437+02:00,1656573211.072709,53.2290640287597,10.39857063443437,40.89151,0,0.07,-1,103.9230494294148,4,5,-9999,2805.855654125,0.199371337890625,-0.0002593994140625,-0.9268035888671875,2805.850678125,0.6958161801569966,0.1694104567819918,0.000953179267194145,0.1097858995199203,0.07494152337312698,-0.1020749360322952,0.0344013124704361,0.02774765342473984,0.06144368648529053,XArbitraryZVertical,-0.02839776145141073,0.07969706535384731,0.3397474691929135,0.9367036461714128,0.1686011999845505,-0.0009531791438348591,-0.9856839179992676,0,0,0,-1,-1,2802.931880625,unknown,2,2022-06-30T09:13:28.512+02:00,2022-06-30T08:20:05.567+02:00,833,1.490593,0,0,651.261,0,0,2022-06-30T09:09:38.916+02:00,678266011.0612233,0,-1.21,100.9236,1,0.97
2022-06-30T09:13:31.447+02:00,1656573211.072709,53.2290640287597,10.39857063443437,40.89151,0,0.07,-1,103.9230494294148,4,5,-9999,2805.865606125,0.2010040283203125,-0.0365447998046875,-0.926544189453125,2805.860630125,0.6945163948242026,0.1700816757700515,0.001806623870249949,0.0996590256690979,0.065294548869133,-0.1269171983003616,0.03010831773281097,0.001547265914268792,0.058765709400177,XArbitraryZVertical,-0.02805996717999577,0.08017461357665788,0.3391630870916187,0.936884845041394,0.1692625731229782,-0.001806622836738825,-0.9855693578720093,0,0,0,-1,-1,2802.931880625,unknown,2,2022-06-30T09:13:28.512+02:00,2022-06-30T08:20:05.567+02:00,833,1.490593,0,0,651.261,0,0,2022-06-30T09:09:38.916+02:00,678266011.0612233,0,-1.21,100.9236,1,0.97
2022-06-30T09:13:31.457+02:00,1656573211.072709,53.2290640287597,10.39857063443437,40.89151,0,0.07,-1,103.9230494294148,4,5,-9999,2805.875558125,0.2059478759765625,-0.0513916015625,-0.924713134765625,2805.870582125,0.6930625051302106,0.1706950011826185,0.002340643800729152,0.04222982376813889,0.05915756151080132,-0.1446024477481842,0.03113678097724915,-0.03420411795377731,0.05891996622085571,XArbitraryZVertical,-0.02785524827227933,0.08057270732267122,0.338494659136671,0.9370984603695675,0.1698668301105499,-0.002340641571208835,-0.9854642748832703,0,0,0,-1,-1,2802.931880625,unknown,2,2022-06-30T09:13:28.512+02:00,2022-06-30T08:20:05.567+02:00,833,1.490593,0,0,651.261,0,0,2022-06-30T09:09:38.916+02:00,678266011.0612233,0,-1.21,100.9236,1,0.97
2022-06-30T09:13:31.467+02:00,1656573211.072709,53.2290640287597,10.39857063443437,40.89151,0,0.07,-1,103.9230494294148,4,5,-9999,2805.885510125,0.21075439453125,-0.0448150634765625,-0.924530029296875,2805.880534125,0.6915190272028133,0.171305970627304,0.002104329092322222,-0.04839048907160759,0.05723546072840691,-0.1714679449796677,0.03547848761081696,-0.04928723350167274,0.06064760684967041,XArbitraryZVertical,-0.02800700247078814,0.08084063810507035,0.3377533915794967,0.9373382944208681,0.1704689711332321,-0.002104327548295259,-0.9853608012199402,0,0,0,-1,-1,2802.931880625,unknown,2,2022-06-30T09:13:28.512+02:00,2022-06-30T08:20:05.567+02:00,833,1.490593,0,0,651.261,0,0,2022-06-30T09:09:38.916+02:00,678266011.0612233,0,-1.21,100.9236,1,0.97
2022-06-30T09:13:31.477+02:00,1656573211.072709,53.2290640287597,10.39857063443437,40.89151,0,0.07,-1,103.9230494294148,4,5,-9999,2805.895462125,0.2124786376953125,-0.0355987548828125,-0.9354095458984375,2805.890486125,0.6898451264723215,0.1718819805933448,0.0009911009855074744,-0.1180292218923569,0.05087237060070038,-0.1992907971143723,0.03971715271472931,-0.04382392391562462,0.06073403358459473,XArbitraryZVertical,-0.02855828988172947,0.08094661118641833,0.3369158886233742,0.9376138815800792,0.1710368096828461,-0.0009911007946357131,-0.9852641224861145,0,0,0,-1,-1,2802.931880625,unknown,2,2022-06-30T09:13:28.512+02:00,2022-06-30T08:20:05.567+02:00,833,1.490593,0,0,651.261,0,0,2022-06-30T09:09:38.916+02:00,678266011.0612233,0,-1.21,100.9236,1,0.97
2022-06-30T09:13:31.487+02:00,1656573211.072709,53.2290640287597,10.39857063443437,40.89151,0,0.07,-1,103.9230494294148,4,5,-9999,2805.905413125,0.2091217041015625,-0.0233306884765625,-0.955322265625,2805.900437125,0.688015532675794,0.1724463743875441,-0.0006972839944918013,-0.1572142392396927,0.05388126894831657,-0.2204498499631882,0.0408853143453598,-0.03629599884152412,0.04975807666778564,XArbitraryZVertical,-0.02937084371590175,0.08095372650023822,0.3359815544410755,0.9379233740373312,0.1715929061174393,0.0006972839473746717,-0.9851676821708679,0,0,0,-1,-1,2802.931880625,unknown,2,2022-06-30T09:13:28.512+02:00,2022-06-30T08:20:05.567+02:00,833,1.490593,0,0,651.261,0,0,2022-06-30T09:09:38.916+02:00,678266011.0612233,0,-1.21,100.9236,1,0.97
2022-06-30T09:13:31.497+02:00,1656573211.072709,53.2290640287597,10.39857063443437,40.89151,0,0.07,-1,103.9230494294148,4,5,-9999,2805.915365125,0.201171875,-0.00982666015625,-0.9700164794921875,2805.910389125,0.6860814329389352,0.173038697469542,-0.002538382601532441,-0.1417175829410553,0.05520672723650932,-0.226295217871666,0.03694538772106171,-0.02586903050541878,0.02974063158035278,XArbitraryZVertical,-0.03025543070188382,0.08095143154477201,0.3349905345136555,0.9382498481122699,0.1721758991479874,0.002538379980251193,-0.9850629568099976,0,0,0,-1,-1,2802.931880625,unknown,2,2022-06-30T09:13:28.512+02:00,2022-06-30T08:20:05.567+02:00,833,1.490593,0,0,651.261,0,0,2022-06-30T09:09:38.916+02:00,678266011.0612233,0,-1.21,100.9236,1,0.97
2022-06-30T09:13:31.506+02:00,1656573211.072709,53.2290640287597,10.39857063443437,40.89151,0,0.07,-1,103.9230494294148,4,5,-9999,2805.925317125,0.19677734375,0.0125274658203125,-0.96929931640625,2805.920341125,0.6840297644669349,0.1737150762780802,-0.004085773085607512,-0.0828421413898468,0.063508041203022,-0.2328712940216064,0.02833020687103271,-0.013912383466959,0.01492464542388916,XArbitraryZVertical,-0.03101142813380975,0.08104122771172123,0.3339539756019202,0.9385869272247298,0.1728412508964539,0.004085761494934559,-0.9849412441253662,0,0,0,-1,-1,2802.931880625,unknown,2,2022-06-30T09:13:28.512+02:00,2022-06-30T08:20:05.567+02:00,833,1.490593,0,0,651.261,0,0,2022-06-30T09:09:38.916+02:00,678266011.0612233,0,-1.21,100.9236,1,0.97
2022-06-30T09:13:31.517+02:00,1656573211.072709,53.2290640287597,10.39857063443437,40.89151,0,0.07,-1,103.9230494294148,4,5,-9999,2805.935269125,0.1978912353515625,0.0200042724609375,-0.9568023681640625,2805.930293125,0.681811288483458,0.1744622574866719,-0.004981071721517744,-0.01087553799152374,0.07302511483430862,-0.2347464263439178,0.02320049703121185,0.007546450942754745,0.01550841331481934,XArbitraryZVertical,-0.03146613727236146,0.08127717390915865,0.3328639797318222,0.9389385444735951,0.1735764294862747,0.004981051199138165,-0.9848077893257141,0,0,0,-1,-1,2802.931880625,unknown,2,2022-06-30T09:13:28.512+02:00,2022-06-30T08:20:05.567+02:00,833,1.490593,0,0,651.261,0,0,2022-06-30T09:09:38.916+02:00,678266011.0612233,0,-1.21,100.9236,1,0.97
2022-06-30T09:13:31.526+02:00,1656573211.072709,53.2290640287597,10.39857063443437,40.89151,0,0.07,-1,103.9230494294148,4,5,-9999,2805.945221125,0.204864501953125,-0.0103759765625,-0.956298828125,2805.940245125,0.6794571026870052,0.1753146701848793,-0.005166637399392146,0.04949665814638138,0.08838708698749542,-0.2407073378562927,0.02347515523433685,0.01483768969774246,0.02785611152648926,XArbitraryZVertical,-0.03159897343176997,0.08168367616423126,0.3317373859496792,0.939297489395846,0.1744156628847122,0.005166614428162575,-0.9846585392951965,0,0,0,-1,-1,2802.931880625,unknown,2,2022-06-30T09:13:28.512+02:00,2022-06-30T08:20:05.567+02:00,833,1.490593,0,0,651.261,0,0,2022-06-30T09:09:38.916+02:00,678266011.0612233,0,-1.21,100.9236,1,0.97
2022-06-30T09:13:31.536+02:00,1656573211.072709,53.2290640287597,10.39857063443437,40.89151,0,0.07,-1,103.9230494294148,4,5,-9999,2805.955173125,0.2131195068359375,-0.04931640625,-0.949249267578125,2805.950197125,0.6769388925185064,0.1763721670071059,-0.004947443364429805,0.0581980012357235,0.110008493065834,-0.2528689205646515,0.02940705418586731,-0.01532336696982384,0.02817577123641968,XArbitraryZVertical,-0.03156790983315923,0.08225653337446458,0.3305469544643547,0.9396681104038461,0.1754570305347443,0.004947423003613949,-0.9844746589660645,0,0,0,-1,-1,2802.931880625,unknown,2,2022-06-30T09:13:28.512+02:00,2022-06-30T08:20:05.567+02:00,833,1.490593,0,0,651.261,0,0,2022-06-30T09:09:38.916+02:00,678266011.0612233,0,-1.21,100.9236,1,0.97
2022-06-30T09:13:31.546+02:00,1656573211.072709,53.2290640287597,10.39857063443437,40.89151,0,0.07,-1,103.9230494294148,4,5,-9999,2805.965125125,0.217742919921875,-0.074615478515625,-0.95166015625,2805.960149125,0.6743423668977456,0.1776771799909194,-0.004835630470785739,0.02606490254402161,0.1302558332681656,-0.2637126743793488,0.03637734055519104,-0.0541519857943058,0.03499609231948853,XArbitraryZVertical,-0.03162342680759302,0.08292928180416836,0.3293108655824296,0.9400410514197447,0.1767417341470718,0.004835611674934626,-0.9842453598976135,0,0,0,-1,-1,2802.931880625,unknown,2,2022-06-30T09:13:28.512+02:00,2022-06-30T08:20:05.567+02:00,833,1.490593,0,0,651.261,0,0,2022-06-30T09:09:38.916+02:00,678266011.0612233,0,-1.21,100.9236,1,0.97
2022-06-30T09:13:31.556+02:00,1656573211.072709,53.2290640287597,10.39857063443437,40.89151,0,0.07,-1,103.9230494294148,4,5,-9999,2805.975077125,0.220184326171875,-0.0762481689453125,-0.9588470458984375,2805.970101125,0.6717024292277436,0.1792041974452507,-0.005203961208120726,-0.03432973101735115,0.1523368954658508,-0.2739778459072113,0.03949832916259766,-0.07981938868761063,0.03231233358383179,XArbitraryZVertical,-0.03193757684398039,0.083628498420679,0.3280298941299064,0.9404162529250891,0.1782441586256027,0.005203937646001577,-0.9839725494384766,0,0,0,-1,-1,2802.931880625,unknown,2,2022-06-30T09:13:28.512+02:00,2022-06-30T08:20:05.567+02:00,833,1.490593,0,0,651.261,0,0,2022-06-30T09:09:38.916+02:00,678266011.0612233,0,-1.21,100.9236,1,0.97
2022-06-30T09:13:31.566+02:00,1656573211.072709,53.2290640287597,10.39857063443437,40.89151,0,0.07,-1,103.9230494294148,4,5,-9999,2805.985029125,0.2222747802734375,-0.0725860595703125,-0.968994140625,2805.980053125,0.6690593413498095,0.1809265643377629,-0.006162559048961832,-0.08180250227451324,0.1736684888601303,-0.2891759276390076,0.04024620354175568,-0.08241066336631775,0.02481162548065186,XArbitraryZVertical,-0.03255927605053623,0.08432400585074523,0.3267179284032822,0.9407894843905052,0.1799376755952835,0.006162520032376051,-0.9836587309837341,0,0,0,-1,-1,2802.931880625,unknown,2,2022-06-30T09:13:28.512+02:00,2022-06-30T08:20:05.567+02:00,833,1.490593,0,0,651.261,0,0,2022-06-30T09:09:38.916+02:00,678266011.0612233,0,-1.21,100.9236,1,0.97
2022-06-30T09:13:31.577+02:00,1656573211.072709,53.2290640287597,10.39857063443437,40.89151,0,0.07,-1,103.9230494294148,4,5,-9999,2805.994981125,0.2256622314453125,-0.0705413818359375,-0.97332763671875,2805.990005125,0.6662469858903278,0.1827662733546185,-0.007612785049422975,-0.1211062371730804,0.1809951066970825,-0.3213008642196655,0.04052916169166565,-0.080198734998703,0.01432198286056519,XArbitraryZVertical,-0.03342229042502914,0.08499915282436671,0.3253013836108948,0.9411891698039062,0.1817452013492584,0.007612711284309626,-0.98331618309021,0,0,0,-1,-1,2802.931880625,unknown,2,2022-06-30T09:13:28.512+02:00,2022-06-30T08:20:05.567+02:00,833,1.490593,0,0,651.261,0,0,2022-06-30T09:09:38.916+02:00,678266011.0612233,0,-1.21,100.9236,1,0.97
2022-06-30T09:13:31.586+02:00,1656573211.072709,53.2290640287597,10.39857063443437,40.89151,0,0.07,-1,103.9230494294148,4,5,-9999,2806.004933125,0.23382568359375,-0.0711212158203125,-0.979583740234375,2805.999957125,0.663151285610655,0.1846592563944423,-0.009629948775836642,-0.1779974848031998,0.1871806532144547,-0.3678008317947388,0.04205870628356934,-0.08017115294933319,0.009625613689422607,XArbitraryZVertical,-0.03454662871489656,0.08561474385576562,0.3237231861265468,0.9416368206851461,0.1836030781269073,0.009629799984395504,-0.9829533100128174,0,0,0,-1,-1,2802.931880625,unknown,2,2022-06-30T09:13:28.512+02:00,2022-06-30T08:20:05.567+02:00,833,1.490593,0,0,651.261,0,0,2022-06-30T09:09:38.916+02:00,678266011.0612233,0,-1.21,100.9236,1,0.97
2022-06-30T09:13:31.596+02:00,1656573211.072709,53.2290640287597,10.39857063443437,40.89151,0,0.07,-1,103.9230494294148,4,5,-9999,2806.014884125,0.24005126953125,-0.0677642822265625,-0.985809326171875,2806.009909125,0.6596708535595026,0.1865221618093368,-0.01252130706300744,-0.2642000019550323,0.1925908625125885,-0.4275310039520264,0.04839727282524109,-0.08364216983318329,0.002994298934936523,XArbitraryZVertical,-0.03605912329884197,0.08608540807670106,0.3219219110936178,0.9421546037715073,0.1854279637336731,0.01252098008990288,-0.9825780987739563,0,0,0,-1,-1,2802.931880625,unknown,2,2022-06-30T09:13:28.512+02:00,2022-06-30T08:20:05.567+02:00,833,1.490593,0,0,651.261,0,0,2022-06-30T09:09:38.916+02:00,678266011.0612233,0,-1.21,100.9236,1,0.97
2022-06-30T09:13:31.606+02:00,1656573211.072709,53.2290640287597,10.39857063443437,40.89151,0,0.07,-1,103.9230494294148,4,5,-9999,2806.024836125,0.246063232421875,-0.0550689697265625,-1.00408935546875,2806.019860125,0.6557031441537906,0.1883653608912539,-0.01643430123731898,-0.3554379642009735,0.1903860121965408,-0.5025146007537842,0.05282270908355713,-0.08419781923294067,-0.003630399703979492,XArbitraryZVertical,-0.03802680845172018,0.08639714515662447,0.3198402173084753,0.9427575932644519,0.1872281283140182,0.01643356122076511,-0.9821789860725403,0,0,0,-1,-1,2802.931880625,unknown,2,2022-06-30T09:13:28.512+02:00,2022-06-30T08:20:05.567+02:00,833,1.490593,0,0,651.261,0,0,2022-06-30T09:09:38.916+02:00,678266011.0612233,0,-1.21,100.9236,1,0.97
2022-06-30T09:13:31.616+02:00,1656573211.072709,53.2290640287597,10.39857063443437,40.89151,0,0.07,-1,103.9230494294148,4,5,-9999,2806.034788125,0.2474517822265625,-0.0145263671875,-1.003921508789062,2806.029812125,0.6511160634802943,0.190127630682671,-0.02108171605855083,-0.3853897452354431,0.1815829426050186,-0.5770311951637268,0.05712057650089264,-0.0761490985751152,-0.02232754230499268,XArbitraryZVertical,-0.04029940728216577,0.08657366260038617,0.3174277670374348,0.9434620561441087,0.1889422386884689,0.02108015492558479,-0.9817619323730469,0,0,0,-1,-1,2802.931880625,unknown,2,2022-06-30T09:13:28.512+02:00,2022-06-30T08:20:05.567+02:00,833,1.490593,0,0,651.261,0,0,2022-06-30T09:09:38.916+02:00,678266011.0612233,0,-1.21,100.9236,1,0.97
2022-06-30T09:13:31.626+02:00,1656573211.072709,53.2290640287597,10.39857063443437,40.89151,0,0.07,-1,103.9230494294148,4,5,-9999,2806.044740125,0.2239990234375,0.02069091796875,-1.003524780273438,2806.039764125,0.6459575956468411,0.1917909879345715,-0.02606712857507714,-0.3980185389518738,0.1804887056350708,-0.6266208291053772,0.05689877271652222,-0.04059052094817162,-0.02259069681167603,XArbitraryZVertical,-0.04268983736717234,0.08667247493315997,0.3147242585000353,0.944253274051438,0.1905525922775269,0.02606417611241341,-0.981330931186676,0,0,0,-1,-1,2802.931880625,unknown,2,2022-06-30T09:13:28.512+02:00,2022-06-30T08:20:05.567+02:00,833,1.490593,0,0,651.261,0,0,2022-06-30T09:09:38.916+02:00,678266011.0612233,0,-1.21,100.9236,1,0.97
2022-06-30T09:13:31.636+02:00,1656573211.072709,53.2290640287597,10.39857063443437,40.89151,0,0.07,-1,103.9230494294148,4,5,-9999,2806.054692125,0.1959991455078125,0.00225830078125,-1.000320434570312,2806.049716125,0.6404608037969819,0.1935263020429038,-0.03113463538565361,-0.3869634866714478,0.2029886990785599,-0.6505637168884277,0.03177125751972198,-0.01043866947293282,-0.02266830205917358,XArbitraryZVertical,-0.04511461790209798,0.08681238069667331,0.3118472668716293,0.9450818465969846,0.1922273486852646,0.03112960606813431,-0.9808565378189087,0,0,0,-1,-1,2802.931880625,unknown,2,2022-06-30T09:13:28.512+02:00,2022-06-30T08:20:05.567+02:00,833,1.490593,0,0,651.261,0,0,2022-06-30T09:09:38.916+02:00,678266011.0612233,0,-1.21,100.9236,1,0.97
2022-06-30T09:13:31.646+02:00,1656573211.072709,53.2290640287597,10.39857063443437,40.89151,0,0.07,-1,103.9230494294148,4,5,-9999,2806.064644125,0.1795806884765625,-0.0335693359375,-0.9830780029296875,2806.059668125,0.6347497555917273,0.1954883092546037,-0.03626167921040278,-0.4096672534942627,0.2300766408443451,-0.6707833409309387,0.001880854368209839,-0.03399541601538658,-0.02001243829727173,XArbitraryZVertical,-0.04759200267889246,0.08706872945322484,0.3088520782734416,0.9459199439994873,0.1941178739070892,0.03625373169779778,-0.9803080558776855,0,0,0,-1,-1,2802.931880625,unknown,2,2022-06-30T09:13:28.512+02:00,2022-06-30T08:20:05.567+02:00,833,1.490593,0,0,651.261,0,0,2022-06-30T09:09:38.916+02:00,678266011.0612233,0,-1.21,100.9236,1,0.97
2022-06-30T09:13:31.656+02:00,1656573211.072709,53.2290640287597,10.39857063443437,40.89151,0,0.07,-1,103.9230494294148,4,5,-9999,2806.074596125,0.1664276123046875,-0.06768798828125,-0.9663543701171875,2806.069620125,0.6289715277761248,0.197674746095499,-0.04200193757477327,-0.5041264295578003,0.2564288675785065,-0.6922875642776489,-0.0166364312171936,-0.07555890828371048,-0.003416955471038818,XArbitraryZVertical,-0.05038869051680283,0.08735230502728419,0.305779434512416,0.9467468279656381,0.1962166875600815,0.04198958724737167,-0.9796611070632935,0,0,0,-1,-1,2802.931880625,unknown,2,2022-06-30T09:13:28.512+02:00,2022-06-30T08:20:05.567+02:00,833,1.490593,0,0,651.261,0,0,2022-06-30T09:09:38.916+02:00,678266011.0612233,0,-1.21,100.9236,1,0.97
2022-06-30T09:13:31.666+02:00,1656573211.072709,53.2290640287597,10.39857063443437,40.89151,0,0.07,-1,103.9230494294148,4,5,-9999,2806.084548125,0.144439697265625,-0.103546142578125,-0.9527587890625,2806.079572125,0.6231559946494507,0.2000517116198435,-0.04904060414761409,-0.6563812494277954,0.2741753458976746,-0.7348763942718506,-0.03205390274524689,-0.1167089194059372,0.0125235915184021,XArbitraryZVertical,-0.05382440158752906,0.0875438036965597,0.3026065668772067,0.9475591583582821,0.198481097817421,0.04902094975113869,-0.9788780212402344,0,0,0,-1,-1,2802.931880625,unknown,2,2022-06-30T09:13:28.512+02:00,2022-06-30T08:20:05.567+02:00,833,1.490593,0,0,651.261,0,0,2022-06-30T09:09:38.916+02:00,678266011.0612233,0,-1.21,100.9236,1,0.97
2022-06-30T09:13:31.676+02:00,1656573211.072709,53.2290640287597,10.39857063443437,40.89151,0,0.07,-1,103.9230494294148,4,5,-9999,2806.094500125,0.1114044189453125,-0.11529541015625,-0.9390106201171875,2806.089524125,0.6171038950085488,0.202607650431556,-0.05781718021761038,-0.8366532921791077,0.3096281290054321,-0.8077431321144104,-0.05644883215427399,-0.1613311171531677,0.02514958381652832,XArbitraryZVertical,-0.05809678362543833,0.08758170359692533,0.2992110449296131,0.9483812415457843,0.2008880823850632,0.05778497457504272,-0.9779084324836731,0,0,0,-1,-1,2802.931880625,unknown,2,2022-06-30T09:13:28.512+02:00,2022-06-30T08:20:05.567+02:00,833,1.490593,0,0,651.261,0,0,2022-06-30T09:09:38.916+02:00,678266011.0612233,0,-1.21,100.9236,1,0.97
2022-06-30T09:13:31.686+02:00,1656573211.072709,53.2290640287597,10.39857063443437,40.89151,0,0.07,-1,103.9230494294148,4,5,-9999,2806.104452125,0.0720977783203125,-0.1005401611328125,-0.9322509765625,2806.099476125,0.6108653850798662,0.205550126810407,-0.06885399473830166,-1.09022045135498,0.3636798858642578,-0.8669899702072144,-0.09221810102462769,-0.1840950101613998,0.03761851787567139,XArbitraryZVertical,-0.06348630738788688,0.08749213239211738,0.2955740066593452,0.9491842270174842,0.2036221027374268,0.06879960000514984,-0.9766292572021484,0,0,0,-1,-1,2802.931880625,unknown,2,2022-06-30T09:13:28.512+02:00,2022-06-30T08:20:05.567+02:00,833,1.490593,0,0,651.261,0,0,2022-06-30T09:09:38.916+02:00,678266011.0612233,0,-1.21,100.9236,1,0.97
2022-06-30T09:13:31.696+02:00,1656573211.072709,53.2290640287597,10.39857063443437,40.89151,0,0.07,-1,103.9230494294148,4,5,-9999,2806.114404125,0.0464324951171875,-0.114898681640625,-0.93890380859375,2806.109428125,0.6046340212678141,0.2090968685947108,-0.08285040777712616,-1.413742542266846,0.4456101655960083,-0.9367547035217285,-0.1347671449184418,-0.1832958161830902,0.04261231422424316,XArbitraryZVertical,-0.07036354222583188,0.08727709439562667,0.2917274060677878,0.9499088114172896,0.2068645060062408,0.08275565505027771,-0.9748633503913879,0,0,0,-1,-1,2802.931880625,unknown,2,2022-06-30T09:13:28.512+02:00,2022-06-30T08:20:05.567+02:00,833,1.490593,0,0,651.261,0,0,2022-06-30T09:09:38.916+02:00,678266011.0612233,0,-1.21,100.9236,1,0.97
2022-06-30T09:13:31.706+02:00,1656573211.072709,53.2290640287597,10.39857063443437,40.89151,0,0.07,-1,103.9230494294148,4,5,-9999,2806.124356125,0.0635833740234375,-0.147674560546875,-0.9332427978515625,2806.119380125,0.5983797399368354,0.2133867333861063,-0.1004616160955003,-1.788571238517761,0.5291796326637268,-1.027780890464783,-0.1642711907625198,-0.2151913940906525,0.03348773717880249,XArbitraryZVertical,-0.07905456850552173,0.08691694550873676,0.2875911380356078,0.9505194027335164,0.2107032686471939,0.1002927124500275,-0.972391664981842,0,0,0,-1,-1,2802.931880625,unknown,2,2022-06-30T09:13:28.512+02:00,2022-06-30T08:20:05.567+02:00,833,1.490593,0,0,651.261,0,0,2022-06-30T09:09:38.916+02:00,678266011.0612233,0,-1.21,100.9236,1,0.97
2022-06-30T09:13:31.716+02:00,1656573211.072709,53.2290640287597,10.39857063443437,40.89151,0,0.07,-1,103.9230494294148,4,5,-9999,2806.134307125,0.1093292236328125,-0.152130126953125,-0.904510498046875,2806.129332125,0.5922554762763919,0.2181676905751838,-0.1223501487942065,-2.260242223739624,0.5648753046989441,-1.105906009674072,-0.1512401551008224,-0.2697196900844574,0.03575456142425537,XArbitraryZVertical,-0.08983847659277661,0.08619938722091963,0.2831754310991737,0.9509523442306,0.2148231118917465,0.1220451220870018,-0.9689974188804626,0,0,0,-1,-1,2802.931880625,unknown,2,2022-06-30T09:13:28.512+02:00,2022-06-30T08:20:05.567+02:00,833,1.490593,0,0,651.261,0,0,2022-06-30T09:09:38.916+02:00,678266011.0612233,0,-1.21,100.9236,1,0.97
2022-06-30T09:13:31.725+02:00,1656573211.072709,53.2290640287597,10.39857063443437,40.89151,0,0.07,-1,103.9230494294148,4,5,-9999,2806.144259125,0.130157470703125,-0.1646575927734375,-0.8707733154296875,2806.139283125,0.5865012540654568,0.2231158119425155,-0.1493587174993789,-2.784608602523804,0.5823110342025757,-1.203224539756775,-0.1094770133495331,-0.3009341359138489,0.05984485149383545,XArbitraryZVertical,-0.103071834880117,0.08484388896471383,0.2785165646375954,0.9511079209848322,0.2188058197498322,0.1488040238618851,-0.9643554091453552,0,0,0,-1,-1,2802.931880625,unknown,2,2022-06-30T09:13:28.512+02:00,2022-06-30T08:20:05.567+02:00,833,1.490593,0,0,651.261,0,0,2022-06-30T09:09:38.916+02:00,678266011.0612233,0,-1.21,100.9236,1,0.97
2022-06-30T09:13:31.735+02:00,1656573211.072709,53.2290640287597,10.39857063443437,40.89151,0,0.07,-1,103.9230494294148,4,5,-9999,2806.154211125,0.1243896484375,-0.145416259765625,-0.820343017578125,2806.149235125,0.5810437587145934,0.2280346159333968,-0.1816106140020149,-3.289254188537598,0.5913809537887573,-1.300681829452515,-0.09218859672546387,-0.3452715277671814,0.087319016456604,XArbitraryZVertical,-0.1187719615162858,0.08274674042451419,0.273535391607414,0.950907327658431,0.2223456352949142,0.1806139349937439,-0.9580923914909363,0,0,0,-1,-1,2802.931880625,unknown,2,2022-06-30T09:13:28.512+02:00,2022-06-30T08:20:05.567+02:00,833,1.490593,0,0,651.261,0,0,2022-06-30T09:09:38.916+02:00,678266011.0612233,0,-1.21,100.9236,1,0.97
2022-06-30T09:13:31.745+02:00,1656573211.072709,53.2290640287597,10.39857063443437,40.89151,0,0.07,-1,103.9230494294148,4,5,-9999,2806.164163125,0.0982208251953125,-0.0461883544921875,-0.7768707275390625,2806.159187125,0.5761156182753847,0.2330042279724837,-0.2190639172319221,-3.819399356842041,0.6075069904327393,-1.357919692993164,-0.1009941101074219,-0.3627322316169739,0.1293811202049255,XArbitraryZVertical,-0.1369230583463879,0.07993723571156017,0.2682910250842724,0.9502011413637894,0.2253833562135696,0.2173160016536713,-0.9497242569923401,0,0,0,-1,-1,2802.931880625,unknown,2,2022-06-30T09:13:28.512+02:00,2022-06-30T08:20:05.567+02:00,833,1.490593,0,0,651.261,0,0,2022-06-30T09:09:38.916+02:00,678266011.0612233,0,-1.21,100.9236,1,0.97
2022-06-30T09:13:31.755+02:00,1656573211.072709,53.2290640287597,10.39857063443437,40.89151,0,0.07,-1,103.9230494294148,4,5,-9999,2806.174115125,0.048248291015625,0.0692138671875,-0.774627685546875,2806.169139125,0.5722514388878031,0.2384677119126198,-0.2618352287929334,-4.354156017303467,0.6826717853546143,-1.380889654159546,-0.1299425959587097,-0.305042028427124,0.1617113351821899,XArbitraryZVertical,-0.1576327497780597,0.07655614951990225,0.2629385193956138,0.9487647278555238,0.2281629890203476,0.2588536739349365,-0.9385821223258972,0,0,0,-1,-1,2802.931880625,unknown,2,2022-06-30T09:13:28.512+02:00,2022-06-30T08:20:05.567+02:00,833,1.490593,0,0,651.261,0,0,2022-06-30T09:09:38.916+02:00,678266011.0612233,0,-1.21,100.9236,1,0.97
2022-06-30T09:13:31.765+02:00,1656573211.072709,53.2290640287597,10.39857063443437,40.89151,0,0.07,-1,103.9230494294148,4,5,-9999,2806.184067125,0.0206756591796875,0.1657867431640625,-0.7851715087890625,2806.179091125,0.5696541939512608,0.2451061369684024,-0.3095224471868456,-4.832329273223877,0.7967169880867004,-1.39656662940979,-0.1828800439834595,-0.2353899478912354,0.1493832468986511,XArbitraryZVertical,-0.1807639047079857,0.0729307124721104,0.2574665077655984,0.9464230271825544,0.231127917766571,0.3046038150787354,-0.9240110516548157,0,0,0,-1,-1,2802.931880625,unknown,2,2022-06-30T09:13:28.512+02:00,2022-06-30T08:20:05.567+02:00,833,1.490593,0,0,651.261,0,0,2022-06-30T09:09:38.916+02:00,678266011.0612233,0,-1.21,100.9236,1,0.97
2022-06-30T09:13:31.775+02:00,1656573211.072709,53.2290640287597,10.39857063443437,40.89151,0,0.07,-1,103.9230494294148,4,5,-9999,2806.194019125,0.0096893310546875,0.2287139892578125,-0.8167877197265625,2806.189043125,0.5686279757650905,0.2532947154014287,-0.3621471086665247,-5.381528377532959,0.9142531752586365,-1.395528078079224,-0.213665634393692,-0.1884961426258087,0.120128333568573,XArbitraryZVertical,-0.2063219385187431,0.0691468750509755,0.2518700627730835,0.942980058785777,0.2343408912420273,0.3542828857898712,-0.905299961566925,0,0,0,-1,-1,2802.931880625,unknown,2,2022-06-30T09:13:28.512+02:00,2022-06-30T08:20:05.567+02:00,833,1.490593,0,0,651.261,0,0,2022-06-30T09:09:38.916+02:00,678266011.0612233,0,-1.21,100.9236,1,0.97
2022-06-30T09:13:31.785+02:00,1656573211.072709,53.2290640287597,10.39857063443437,40.89151,0,0.07,-1,103.9230494294148,4,5,-9999,2806.203971125,0.0093841552734375,0.248077392578125,-0.818206787109375,2806.198995125,0.5697802682086403,0.2634906353236125,-0.4201949082170845,-5.946918487548828,1.050650954246521,-1.372586727142334,-0.2281064987182617,-0.1792244017124176,0.06471067667007446,XArbitraryZVertical,-0.2345228152197704,0.06519045826342817,0.2461973731634556,0.9381557453115766,0.2377954125404358,0.4079384207725525,-0.8814985156059265,0,0,0,-1,-1,2802.931880625,unknown,2,2022-06-30T09:13:28.512+02:00,2022-06-30T08:20:05.567+02:00,833,1.490593,0,0,651.261,0,0,2022-06-30T09:09:38.916+02:00,678266011.0612233,0,-1.21,100.9236,1,0.97
2022-06-30T09:13:31.795+02:00,1656573211.072709,53.2290640287597,10.39857063443437,40.89151,0,0.07,-1,103.9230494294148,4,5,-9999,2806.213923125,0.027984619140625,0.31268310546875,-0.749847412109375,2806.208947125,0.5741221954038743,0.2765746470423575,-0.4836760763174607,-6.571181297302246,1.198723316192627,-1.259182929992676,-0.2323557883501053,-0.2169593274593353,0.03344029188156128,XArbitraryZVertical,-0.2653885747278463,0.06119908032317484,0.240609374160279,0.9316279994985945,0.2417395114898682,0.4650367200374603,-0.8516471385955811,0,0,0,-1,-1,2802.931880625,unknown,2,2022-06-30T09:13:28.512+02:00,2022-06-30T08:20:05.567+02:00,833,1.490593,0,0,651.261,0,0,2022-06-30T09:09:38.916+02:00,678266011.0612233,0,-1.21,100.9236,1,0.97
2022-06-30T09:13:31.805+02:00,1656573211.072709,53.2290640287597,10.39857063443437,40.89151,0,0.07,-1,103.9230494294148,4,5,-9999,2806.223875125,0.03985595703125,0.427032470703125,-0.7037200927734375,2806.218899125,0.5834258569965786,0.2940430872415545,-0.5527929644256053,-7.195265769958496,1.390730381011963,-1.079697012901306,-0.2186739146709442,-0.2123831510543823,0.06468617916107178,XArbitraryZVertical,-0.2990733375563864,0.05734349804411153,0.2354052359237609,0.9229578633296173,0.246658131480217,0.5250662565231323,-0.8145337104797363,0,0,0,-1,-1,2802.931880625,unknown,2,2022-06-30T09:13:28.512+02:00,2022-06-30T08:20:05.567+02:00,833,1.490593,0,0,651.261,0,0,2022-06-30T09:09:38.916+02:00,678266011.0612233,0,-1.21,100.9236,1,0.97
2022-06-30T09:13:31.815+02:00,1656573211.072709,53.2290640287597,10.39857063443437,40.89151,0,0.07,-1,103.9230494294148,4,5,-9999,2806.233827125,0.0615081787109375,0.6246795654296875,-0.630096435546875,2806.228851125,0.5993928481085455,0.3179475557677134,-0.6266494755919734,-7.766274929046631,1.623760938644409,-0.8476004004478455,-0.2133637666702271,-0.1594016551971436,0.06567889451980591,XArbitraryZVertical,-0.3352321450419637,0.05403571616618214,0.2306967167969374,0.9118544774253271,0.253219336271286,0.5864341259002686,-0.769399106502533,0,0,0,-1,-1,2802.931880625,unknown,2,2022-06-30T09:13:28.512+02:00,2022-06-30T08:20:05.567+02:00,833,1.490593,0,0,651.261,0,0,2022-06-30T09:09:38.916+02:00,678266011.0612233,0,-1.21,100.9236,1,0.97
2022-06-30T09:13:31.829+02:00,1656573211.072709,53.2290640287597,10.39857063443437,40.89151,0,0.07,-1,103.9230494294148,4,5,-9999,2806.243779125,0.0967254638671875,0.77191162109375,-0.6019287109375,2806.238803125,0.6236605959879641,0.3503775941513342,-0.704343075195744,-8.205931663513184,1.877574682235718,-0.6569817662239075,-0.2000633478164673,-0.0228537917137146,0.08564162254333496,XArbitraryZVertical,-0.3734684248598165,0.05150001312955893,0.2263426770720315,0.8981303709359876,0.2615711390972137,0.6475333571434021,-0.7157381772994995,0,0,0,-1,-1,2802.931880625,unknown,2,2022-06-30T09:13:28.512+02:00,2022-06-30T08:20:05.567+02:00,833,1.490593,0,0,651.261,0,0,2022-06-30T09:09:38.916+02:00,678266011.0612233,0,-1.21,100.9236,1,0.97
2022-06-30T09:13:31.839+02:00,1656573211.072709,53.2290640287597,10.39857063443437,40.89151,0,0.07,-1,103.9230494294148,4,5,-9999,2806.253730125,0.1694183349609375,0.85992431640625,-0.6026458740234375,2806.248755125,0.6566356996110519,0.3925085700248408,-0.7833212368410654,-8.303764343261719,2.099442958831787,-0.5623188614845276,-0.1743097007274628,0.06627500057220459,0.05275970697402954,XArbitraryZVertical,-0.4125139543653781,0.0498796885054849,0.2218538340492464,0.8821139756185837,0.2710347473621368,0.7056366205215454,-0.6546885371208191,0,0,0,-1,-1,2802.931880625,unknown,2,2022-06-30T09:13:28.512+02:00,2022-06-30T08:20:05.567+02:00,833,1.490593,0,0,651.261,0,0,2022-06-30T09:09:38.916+02:00,678266011.0612233,0,-1.21,100.9236,1,0.97
