loggingTime(txt),locationTimestamp_since1970(s),locationLatitude(WGS84),locationLongitude(WGS84),locationAltitude(m),locationSpeed(m/s),locationSpeedAccuracy(m/s),locationCourse(°),locationCourseAccuracy(°),locationVerticalAccuracy(m),locationHorizontalAccuracy(m),locationFloor(Z),accelerometerTimestamp_sinceReboot(s),accelerometerAccelerationX(G),accelerometerAccelerationY(G),accelerometerAccelerationZ(G),motionTimestamp_sinceReboot(s),motionYaw(rad),motionRoll(rad),motionPitch(rad),motionRotationRateX(rad/s),motionRotationRateY(rad/s),motionRotationRateZ(rad/s),motionUserAccelerationX(G),motionUserAccelerationY(G),motionUserAccelerationZ(G),motionAttitudeReferenceFrame(txt),motionQuaternionX(R),motionQuaternionY(R),motionQuaternionZ(R),motionQuaternionW(R),motionGravityX(G),motionGravityY(G),motionGravityZ(G),motionMagneticFieldX(µT),motionMagneticFieldY(µT),motionMagneticFieldZ(µT),motionHeading(°),motionMagneticFieldCalibrationAccuracy(Z),activityTimestamp_sinceReboot(s),activity(txt),activityActivityConfidence(Z),activityActivityStartDate(txt),pedometerStartDate(txt),pedometerNumberofSteps(N),pedometerAverageActivePace(s/m),pedometerCurrentPace(s/m),pedometerCurrentCadence(steps/s),pedometerDistance(m),pedometerFloorAscended(N),pedometerFloorDescended(N),pedometerEndDate(txt),altimeterTimestamp_sinceReboot(s),altimeterReset(bool),altimeterRelativeAltitude(m),altimeterPressure(kPa),batteryState(N),batteryLevel(R)
2022-06-02T10:50:02.110+02:00,1654159800.999936,53.22886256971697,10.39863936604038,33.08535,0,0.07,-1,103.9230494294148,4,5,-9999,2946.361310625,-0.0940704345703125,-0.627166748046875,-0.745880126953125,2946.351315625,-0.05337527203391908,-0.1208979561123174,0.6407544352179538,0.06565051525831223,0.002753442153334618,-0.0545058511197567,0.02162335813045502,-0.02083665132522583,0.04794502258300781,XArbitraryZVertical,0.3127074358835705,-0.06570603117964777,-0.04429892259447916,0.9465380735002404,-0.09668131172657013,-0.5978003740310669,-0.7957935333251953,0,0,0,-1,-1,2942.455314375,unknown,2,2022-06-02T10:49:58.177+02:00,2022-06-02T10:17:13.754+02:00,467,1.474645,0,0,361.8512,0,0,2022-06-02T10:49:24.918+02:00,675852600.7352717,0,5.550781,101.3167,1,0.79
2022-06-02T10:50:02.112+02:00,1654159800.999936,53.22886256971697,10.39863936604038,33.08535,0,0.07,-1,103.9230494294148,4,5,-9999,2946.371304625,-0.079437255859375,-0.627471923828125,-0.76171875,2946.361310625,-0.05394842434874175,-0.1204461236045139,0.6414374291555611,0.05636327341198921,0.02621296048164368,-0.05568563193082809,0.000233873724937439,-0.02501952648162842,0.05032968521118164,XArbitraryZVertical,0.3130222218452842,-0.06558405642993163,-0.04451613504902963,0.9464322994561597,-0.09627266228199005,-0.5983477830886841,-0.7954316139221191,0,0,0,-1,-1,2942.455314375,unknown,2,2022-06-02T10:49:58.177+02:00,2022-06-02T10:17:13.754+02:00,467,1.474645,0,0,361.8512,0,0,2022-06-02T10:49:24.918+02:00,675852600.7352717,0,5.550781,101.3167,1,0.79
2022-06-02T10:50:02.114+02:00,1654159800.999936,53.22886256971697,10.39863936604038,33.08535,0,0.07,-1,103.9230494294148,4,5,-9999,2946.381298625,-0.08172607421875,-0.6205291748046875,-0.7866058349609375,2946.371304625,-0.05436977794329283,-0.1199268658348551,0.6418927657979954,0.03414379060268402,0.03379564732313156,-0.03043900057673454,0.01030152291059494,-0.02900350093841553,0.04411232471466064,XArbitraryZVertical,0.3132356833287589,-0.06540583798553604,-0.0446452488366617,0.9463679616631941,-0.09582700580358505,-0.5987125635147095,-0.7952109575271606,0,0,0,-1,-1,2942.455314375,unknown,2,2022-06-02T10:49:58.177+02:00,2022-06-02T10:17:13.754+02:00,467,1.474645,0,0,361.8512,0,0,2022-06-02T10:49:24.918+02:00,675852600.7352717,0,5.550781,101.3167,1,0.79
2022-06-02T10:50:02.119+02:00,1654159800.999936,53.22886256971697,10.39863936604038,33.08535,0,0.07,-1,103.9230494294148,4,5,-9999,2946.391293625,-0.0955963134765625,-0.6179962158203125,-0.80029296875,2946.381298625,-0.05458401899585014,-0.1194750654829038,0.6421514039404984,0.01827694103121758,0.02824828214943409,-0.01655540801584721,0.01596625149250031,-0.02629393339157104,0.01955717802047729,XArbitraryZVertical,0.3133613142408378,-0.06522652017721577,-0.0446820827814267,0.9463369430642279,-0.09544926136732101,-0.598919689655304,-0.7951003909111023,0,0,0,-1,-1,2942.455314375,unknown,2,2022-06-02T10:49:58.177+02:00,2022-06-02T10:17:13.754+02:00,467,1.474645,0,0,361.8512,0,0,2022-06-02T10:49:24.918+02:00,675852600.7352717,0,5.550781,101.3167,1,0.79
2022-06-02T10:50:02.123+02:00,1654159800.999936,53.22886256971697,10.39863936604038,33.08535,0,0.07,-1,103.9230494294148,4,5,-9999,2946.401287625,-0.098419189453125,-0.6122894287109375,-0.798858642578125,2946.391293625,-0.05495494512291904,-0.1189335232109368,0.6421544182183231,-0.01366907358169556,0.03189188614487648,-0.04240391403436661,0.006624311208724976,-0.01908934116363525,-0.0003973245620727539,XArbitraryZVertical,0.3133627695229237,-0.06502840482608387,-0.04477281567158002,0.9463458201028045,-0.09501845389604568,-0.5989221334457397,-0.7951501607894897,0,0,0,-1,-1,2942.455314375,unknown,2,2022-06-02T10:49:58.177+02:00,2022-06-02T10:17:13.754+02:00,467,1.474645,0,0,361.8512,0,0,2022-06-02T10:49:24.918+02:00,675852600.7352717,0,5.550781,101.3167,1,0.79
2022-06-02T10:50:02.133+02:00,1654159800.999936,53.22886256971697,10.39863936604038,33.08535,0,0.07,-1,103.9230494294148,4,5,-9999,2946.411281625,-0.0819549560546875,-0.5999908447265625,-0.79302978515625,2946.401287625,-0.05565624741487497,-0.118083080940732,0.6418357018183848,-0.03303371742367744,0.04367930442094803,-0.05907237529754639,-0.007411420345306396,-0.01803237199783325,-0.005422055721282959,XArbitraryZVertical,0.3132081111084097,-0.06473463946964451,-0.04496388198267773,0.946408123795734,-0.09436467289924622,-0.5986668467521667,-0.795420229434967,0,0,0,-1,-1,2942.455314375,unknown,2,2022-06-02T10:49:58.177+02:00,2022-06-02T10:17:13.754+02:00,467,1.474645,0,0,361.8512,0,0,2022-06-02T10:49:24.918+02:00,675852600.7352717,0,5.550781,101.3167,1,0.79
2022-06-02T10:50:02.143+02:00,1654159800.999936,53.22886256971697,10.39863936604038,33.08535,0,0.07,-1,103.9230494294148,4,5,-9999,2946.421275625,-0.07647705078125,-0.58892822265625,-0.7890472412109375,2946.411281625,-0.05606228243440263,-0.1177036318838553,0.6415718444309574,-0.02083021402359009,0.04805773869156837,-0.04809236153960228,0.004374995827674866,-0.009500443935394287,-0.0003924369812011719,XArbitraryZVertical,0.3130785259590592,-0.06461761221725024,-0.04509040035034906,0.9464529753759192,-0.09408138692378998,-0.5984554886817932,-0.7956128120422363,0,0,0,-1,-1,2942.455314375,unknown,2,2022-06-02T10:49:58.177+02:00,2022-06-02T10:17:13.754+02:00,467,1.474645,0,0,361.8512,0,0,2022-06-02T10:49:24.918+02:00,675852600.7352717,0,5.550781,101.3167,1,0.79
2022-06-02T10:50:02.153+02:00,1654159801.999937,53.22886256971697,10.39863936604038,32.9028,0,0.07,-1,103.9230494294148,4,5,-9999,2946.431270625,-0.079376220703125,-0.59765625,-0.7869415283203125,2946.421275625,-0.05657557437747598,-0.1168373491566375,0.6418307563588644,-0.0072749899700284,0.04430481418967247,-0.01876616477966309,0.01494391262531281,0.005553722381591797,0.004188776016235352,XArbitraryZVertical,0.3132042185877053,-0.064289103330637,-0.04520372073927047,0.9464282936179299,-0.09337405860424042,-0.5986628532409668,-0.7955400347709656,0,0,0,-1,-1,2942.455314375,unknown,2,2022-06-02T10:49:58.177+02:00,2022-06-02T10:17:13.754+02:00,467,1.474645,0,0,361.8512,0,0,2022-06-02T10:49:24.918+02:00,675852600.7352717,0,5.550781,101.3167,1,0.79
2022-06-02T10:50:02.163+02:00,1654159801.999937,53.22886256971697,10.39863936604038,32.9028,0,0.07,-1,103.9230494294148,4,5,-9999,2946.441264625,-0.089080810546875,-0.6115570068359375,-0.787811279296875,2946.431270625,-0.05683787469275313,-0.1162417261721022,0.6422195827544037,-0.005751795135438442,0.02641556225717068,-0.01156124845147133,0.0169454962015152,0.006643414497375488,0.006423890590667725,XArbitraryZVertical,0.3133934722544171,-0.06404999400945463,-0.04524354244970363,0.9463799377250547,-0.09287319332361221,-0.5989742875099182,-0.7953642606735229,0,0,0,-1,-1,2942.455314375,unknown,2,2022-06-02T10:49:58.177+02:00,2022-06-02T10:17:13.754+02:00,467,1.474645,0,0,361.8512,0,0,2022-06-02T10:49:24.918+02:00,675852600.7352717,0,5.550781,101.3167,1,0.79
2022-06-02T10:50:02.173+02:00,1654159801.999937,53.22886256971697,10.39863936604038,32.9028,0,0.07,-1,103.9230494294148,4,5,-9999,2946.451258625,-0.0879058837890625,-0.611968994140625,-0.793792724609375,2946.441264625,-0.05706068177200901,-0.1159637504339503,0.642659565852443,-0.01455460768193007,0.02112412638962269,-0.03245747461915016,0.007935352623462677,-0.006172597408294678,0.008064627647399902,XArbitraryZVertical,0.3136010697574985,-0.06395529709367241,-0.04531553264585601,0.9463140814869736,-0.09262159466743469,-0.5993265509605408,-0.7951281666755676,0,0,0,-1,-1,2942.455314375,unknown,2,2022-06-02T10:49:58.177+02:00,2022-06-02T10:17:13.754+02:00,467,1.474645,0,0,361.8512,0,0,2022-06-02T10:49:24.918+02:00,675852600.7352717,0,5.550781,101.3167,1,0.79
2022-06-02T10:50:02.191+02:00,1654159801.999937,53.22886256971697,10.39863936604038,32.9028,0,0.07,-1,103.9230494294148,4,5,-9999,2946.461253625,-0.0858612060546875,-0.609161376953125,-0.7969818115234375,2946.451258625,-0.05761637742616475,-0.1154320639130642,0.6431838618349335,-0.01396488398313522,0.01207916624844074,-0.05016769841313362,0.001464411616325378,-0.0135045051574707,0.004368305206298828,XArbitraryZVertical,0.3138437197237848,-0.06379323068028353,-0.04550705244146119,0.9462354208946104,-0.09216262400150299,-0.5997461676597595,-0.7948650717735291,0,0,0,-1,-1,2942.455314375,unknown,2,2022-06-02T10:49:58.177+02:00,2022-06-02T10:17:13.754+02:00,467,1.474645,0,0,361.8512,0,0,2022-06-02T10:49:24.918+02:00,675852600.7352717,0,5.550781,101.3167,1,0.79
2022-06-02T10:50:02.193+02:00,1654159801.999937,53.22886256971697,10.39863936604038,32.9028,0,0.07,-1,103.9230494294148,4,5,-9999,2946.471247625,-0.086090087890625,-0.6093597412109375,-0.80230712890625,2946.461253625,-0.05839747809616434,-0.1147286749242155,0.6438341110433731,0.002767757046967745,0.005428987089544535,-0.04973306879401207,0.005270414054393768,-0.008956015110015869,-0.001020610332489014,XArbitraryZVertical,0.3141428481130511,-0.06358610614939074,-0.04578090416996121,0.9461369457148073,-0.09155884385108948,-0.6002663969993591,-0.794542133808136,0,0,0,-1,-1,2942.455314375,unknown,2,2022-06-02T10:49:58.177+02:00,2022-06-02T10:17:13.754+02:00,467,1.474645,0,0,361.8512,0,0,2022-06-02T10:49:24.918+02:00,675852600.7352717,0,5.550781,101.3167,1,0.79
2022-06-02T10:50:02.203+02:00,1654159801.999937,53.22886256971697,10.39863936604038,32.9028,0,0.07,-1,103.9230494294148,4,5,-9999,2946.481241625,-0.08770751953125,-0.612457275390625,-0.80340576171875,2946.471247625,-0.05908161687304304,-0.1141891176111096,0.6444400916431664,0.01310804579406977,0.005729990545660257,-0.04986469447612762,0.004678167402744293,-0.007327079772949219,-0.00488811731338501,XArbitraryZVertical,0.3144204711372809,-0.06344131676967675,-0.04603336295321597,0.9460422299936345,-0.09108866751194,-0.6007509231567383,-0.7942299246788025,0,0,0,-1,-1,2942.455314375,unknown,2,2022-06-02T10:49:58.177+02:00,2022-06-02T10:17:13.754+02:00,467,1.474645,0,0,361.8512,0,0,2022-06-02T10:49:24.918+02:00,675852600.7352717,0,5.550781,101.3167,1,0.79
2022-06-02T10:50:02.213+02:00,1654159801.999937,53.22886256971697,10.39863936604038,32.9028,0,0.07,-1,103.9230494294148,4,5,-9999,2946.491236625,-0.0898590087890625,-0.604766845703125,-0.80511474609375,2946.481241625,-0.05942369326226896,-0.1142931380652094,0.6449385531138052,0.01283134333789349,-0.007427356671541929,-0.05109773948788643,0.004314638674259186,-0.01251333951950073,-0.009818553924560547,XArbitraryZVertical,0.3146432782634187,-0.06354680813184306,-0.04622268551861582,0.9459517619701273,-0.0911371186375618,-0.601149320602417,-0.7939228415489197,0,0,0,-1,-1,2942.455314375,unknown,2,2022-06-02T10:49:58.177+02:00,2022-06-02T10:17:13.754+02:00,467,1.474645,0,0,361.8512,0,0,2022-06-02T10:49:24.918+02:00,675852600.7352717,0,5.550781,101.3167,1,0.79
2022-06-02T10:50:02.223+02:00,1654159801.999937,53.22886256971697,10.39863936604038,32.9028,0,0.07,-1,103.9230494294148,4,5,-9999,2946.501230625,-0.0917205810546875,-0.59844970703125,-0.806549072265625,2946.491236625,-0.06008854508618781,-0.1139125541680759,0.6453053995364989,0.01747756078839302,-0.004247142933309078,-0.05357461422681808,0.0005694329738616943,-0.007398486137390137,-0.01061350107192993,XArbitraryZVertical,0.3148046771355467,-0.06347330084172097,-0.04648542258745301,0.9458901534846261,-0.09080988168716431,-0.6014424562454224,-0.7937383055686951,0,0,0,-1,-1,2942.455314375,unknown,2,2022-06-02T10:49:58.177+02:00,2022-06-02T10:17:13.754+02:00,467,1.474645,0,0,361.8512,0,0,2022-06-02T10:49:24.918+02:00,675852600.7352717,0,5.550781,101.3167,1,0.79
2022-06-02T10:50:02.233+02:00,1654159801.999937,53.22886256971697,10.39863936604038,32.9028,0,0.07,-1,103.9230494294148,4,5,-9999,2946.511224625,-0.0917816162109375,-0.5970611572265625,-0.8060760498046875,2946.501230625,-0.06109366459806292,-0.1129373486213818,0.6454533919380969,0.02804871276021004,0.007433215156197548,-0.05841118097305298,-0.000596165657043457,-1.710653305053711e-05,-0.01386386156082153,XArbitraryZVertical,0.3148656472363087,-0.06317109583390602,-0.0468105301556774,0.945874124974336,-0.09002575278282166,-0.6015607118606567,-0.793738067150116,0,0,0,-1,-1,2942.455314375,unknown,2,2022-06-02T10:49:58.177+02:00,2022-06-02T10:17:13.754+02:00,467,1.474645,0,0,361.8512,0,0,2022-06-02T10:49:24.918+02:00,675852600.7352717,0,5.550781,101.3167,1,0.79
2022-06-02T10:50:02.243+02:00,1654159801.999937,53.22886256971697,10.39863936604038,32.9028,0,0.07,-1,103.9230494294148,4,5,-9999,2946.521218625,-0.0887451171875,-0.604949951171875,-0.8062591552734375,2946.511224625,-0.06209612080913034,-0.1118163102462529,0.6456736294143264,0.02987770363688469,0.02077019400894642,-0.05373187363147736,-0.003637060523033142,0.006063997745513916,-0.01220142841339111,XArbitraryZVertical,0.3149647057794387,-0.06280002336926559,-0.04711290250733204,0.9458507659533898,-0.08912109583616257,-0.6017366051673889,-0.7937067747116089,0,0,0,-1,-1,2942.455314375,unknown,2,2022-06-02T10:49:58.177+02:00,2022-06-02T10:17:13.754+02:00,467,1.474645,0,0,361.8512,0,0,2022-06-02T10:49:24.918+02:00,675852600.7352717,0,5.550781,101.3167,1,0.79
2022-06-02T10:50:02.253+02:00,1654159801.999937,53.22886256971697,10.39863936604038,32.9028,0,0.07,-1,103.9230494294148,4,5,-9999,2946.531213625,-0.086181640625,-0.6125640869140625,-0.8011627197265625,2946.521218625,-0.06275542538479795,-0.1110773137013858,0.6462231306292016,0.01775579527020454,0.02815247513353825,-0.04238014668226242,-0.002475008368492126,0.0005518794059753418,-0.01395982503890991,XArbitraryZVertical,0.3152216323811973,-0.06255767706562516,-0.04732004546969038,0.9457709536136877,-0.08849786221981049,-0.6021754145622253,-0.7934437394142151,0,0,0,-1,-1,2942.455314375,unknown,2,2022-06-02T10:49:58.177+02:00,2022-06-02T10:17:13.754+02:00,467,1.474645,0,0,361.8512,0,0,2022-06-02T10:49:24.918+02:00,675852600.7352717,0,5.550781,101.3167,1,0.79
2022-06-02T10:50:02.263+02:00,1654159801.999937,53.22886256971697,10.39863936604038,32.9028,0,0.07,-1,103.9230494294148,4,5,-9999,2946.541207625,-0.0810394287109375,-0.6174774169921875,-0.800079345703125,2946.531213625,-0.06313827843710476,-0.11060092495662,0.6467447114438549,0.0101489070802927,0.03503468260169029,-0.03075524978339672,0.0003013983368873596,-0.005974531173706055,-0.01050686836242676,XArbitraryZVertical,0.3154678893405062,-0.06239595896694738,-0.04743705943373044,0.9456936503191352,-0.08808518946170807,-0.6025916934013367,-0.7931734919548035,0,0,0,-1,-1,2942.455314375,unknown,2,2022-06-02T10:49:58.177+02:00,2022-06-02T10:17:13.754+02:00,467,1.474645,0,0,361.8512,0,0,2022-06-02T10:49:24.918+02:00,675852600.7352717,0,5.550781,101.3167,1,0.79
2022-06-02T10:50:02.273+02:00,1654159801.999937,53.22886256971697,10.39863936604038,32.9028,0,0.07,-1,103.9230494294148,4,5,-9999,2946.551201625,-0.0806121826171875,-0.6131744384765625,-0.794036865234375,2946.541207625,-0.06351510020514815,-0.1100344858496996,0.6470210774850427,0.01220353599637747,0.02415513806045055,-0.02673973515629768,0.003892645239830017,-0.01278835535049438,-0.008425414562225342,XArbitraryZVertical,0.3156004233896672,-0.06218929450892073,-0.0475316988821525,0.9456583106524087,-0.08761759847402573,-0.6028122305870056,-0.7930577397346497,0,0,0,-1,-1,2942.455314375,unknown,2,2022-06-02T10:49:58.177+02:00,2022-06-02T10:17:13.754+02:00,467,1.474645,0,0,361.8512,0,0,2022-06-02T10:49:24.918+02:00,675852600.7352717,0,5.550781,101.3167,1,0.79
2022-06-02T10:50:02.283+02:00,1654159801.999937,53.22886256971697,10.39863936604038,32.9028,0,0.07,-1,103.9230494294148,4,5,-9999,2946.561196625,-0.08685302734375,-0.6128997802734375,-0.791412353515625,2946.551201625,-0.06383182699113055,-0.1095772805445633,0.6472190665269786,0.01843070611357689,0.01960492506623268,-0.02030427381396294,0.004554599523544312,-0.01340854167938232,-0.004399478435516357,XArbitraryZVertical,0.3156952161651024,-0.06202436895848965,-0.04761345188661455,0.9456333089469723,-0.08724194020032883,-0.6029701828956604,-0.7929790019989014,0,0,0,-1,-1,2942.455314375,unknown,2,2022-06-02T10:49:58.177+02:00,2022-06-02T10:17:13.754+02:00,467,1.474645,0,0,361.8512,0,0,2022-06-02T10:49:24.918+02:00,675852600.7352717,0,5.550781,101.3167,1,0.79
2022-06-02T10:50:02.293+02:00,1654159801.999937,53.22886256971697,10.39863936604038,32.9028,0,0.07,-1,103.9230494294148,4,5,-9999,2946.571190625,-0.0886993408203125,-0.61334228515625,-0.7910614013671875,2946.561196625,-0.06410835211394617,-0.1092048121889354,0.6474849630174567,0.01590017043054104,0.01588369160890579,-0.0219945814460516,0.004958920180797577,-0.008572995662689209,0.0004631876945495605,XArbitraryZVertical,0.3158213897896962,-0.0618936351437975,-0.04769092691951655,0.945595838780511,-0.08692909777164459,-0.603182315826416,-0.7928520441055298,0,0,0,-1,-1,2942.455314375,unknown,2,2022-06-02T10:49:58.177+02:00,2022-06-02T10:17:13.754+02:00,467,1.474645,0,0,361.8512,0,0,2022-06-02T10:49:24.918+02:00,675852600.7352717,0,5.550781,101.3167,1,0.79
2022-06-02T10:50:02.303+02:00,1654159801.999937,53.22886256971697,10.39863936604038,32.9028,0,0.07,-1,103.9230494294148,4,5,-9999,2946.581184625,-0.0869293212890625,-0.6123046875,-0.7869873046875,2946.571190625,-0.064326648690744,-0.1089387032130812,0.647508646493123,0.004844755865633488,0.01961351558566093,-0.02600190602242947,-0.003417082130908966,-0.01143801212310791,0.002074241638183594,XArbitraryZVertical,0.315832210978763,-0.0618024490405286,-0.04775260880397583,0.9455950444094809,-0.08671655505895615,-0.6032012104988098,-0.7928609251976013,0,0,0,-1,-1,2942.455314375,unknown,2,2022-06-02T10:49:58.177+02:00,2022-06-02T10:17:13.754+02:00,467,1.474645,0,0,361.8512,0,0,2022-06-02T10:49:24.918+02:00,675852600.7352717,0,5.550781,101.3167,1,0.79
2022-06-02T10:50:02.313+02:00,1654159801.999937,53.22886256971697,10.39863936604038,32.9028,0,0.07,-1,103.9230494294148,4,5,-9999,2946.591178625,-0.09136962890625,-0.6096038818359375,-0.7890777587890625,2946.581184625,-0.0646185782369473,-0.108661428931593,0.6472480220241024,0.001187436748296022,0.01603742316365242,-0.03160066902637482,0.0003016293048858643,-0.009540200233459473,0.002895355224609375,XArbitraryZVertical,0.31570645918899,-0.06171572095011425,-0.04784147994681867,0.9456381894266991,-0.08651375770568848,-0.6029933094978333,-0.7930412292480469,0,0,0,-1,-1,2942.455314375,unknown,2,2022-06-02T10:49:58.177+02:00,2022-06-02T10:17:13.754+02:00,467,1.474645,0,0,361.8512,0,0,2022-06-02T10:49:24.918+02:00,675852600.7352717,0,5.550781,101.3167,1,0.79
2022-06-02T10:50:02.323+02:00,1654159801.999937,53.22886256971697,10.39863936604038,32.9028,0,0.07,-1,103.9230494294148,4,5,-9999,2946.601173625,-0.084930419921875,-0.6121673583984375,-0.791290283203125,2946.591178625,-0.06490187427389954,-0.1083768641978805,0.6468617469283993,0.001536677591502666,0.02908951044082642,-0.03220380842685699,-0.003530450165271759,-0.006949186325073242,0.007042467594146729,XArbitraryZVertical,0.3155216838662126,-0.06162328540026525,-0.04792258696221655,0.9457017588529992,-0.08631327003240585,-0.6026850938796997,-0.793297290802002,0,0,0,-1,-1,2942.455314375,unknown,2,2022-06-02T10:49:58.177+02:00,2022-06-02T10:17:13.754+02:00,467,1.474645,0,0,361.8512,0,0,2022-06-02T10:49:24.918+02:00,675852600.7352717,0,5.550781,101.3167,1,0.79
2022-06-02T10:50:02.333+02:00,1654159801.999937,53.22886256971697,10.39863936604038,32.9028,0,0.07,-1,103.9230494294148,4,5,-9999,2946.611167625,-0.0813446044921875,-0.6043243408203125,-0.793853759765625,2946.601173625,-0.06517958241100441,-0.107997266702648,0.6466066515164443,0.0002359896898269653,0.03033427149057388,-0.02214531600475311,-0.003021560609340668,-0.008358240127563477,0.00408470630645752,XArbitraryZVertical,0.3154014635808886,-0.0614858528319011,-0.04798880909263158,0.9457474679866222,-0.08602869510650635,-0.6024815440177917,-0.7934828400611877,0,0,0,-1,-1,2942.455314375,unknown,2,2022-06-02T10:49:58.177+02:00,2022-06-02T10:17:13.754+02:00,467,1.474645,0,0,361.8512,0,0,2022-06-02T10:49:24.918+02:00,675852600.7352717,0,5.550781,101.3167,1,0.79
2022-06-02T10:50:02.343+02:00,1654159801.999937,53.22886256971697,10.39863936604038,32.9028,0,0.07,-1,103.9230494294148,4,5,-9999,2946.621161625,-0.0851593017578125,-0.598602294921875,-0.7925872802734375,2946.611167625,-0.06538067679509595,-0.1076325046830095,0.6466481816009512,0.01085321418941021,0.0238936822861433,-0.01361334696412086,0.003110259771347046,-0.006234705448150635,-0.0001813769340515137,XArbitraryZVertical,0.3154236909681716,-0.06134536269297333,-0.04802721747287762,0.9457472691592389,-0.08573657274246216,-0.6025146842002869,-0.7934892773628235,0,0,0,-1,-1,2942.455314375,unknown,2,2022-06-02T10:49:58.177+02:00,2022-06-02T10:17:13.754+02:00,467,1.474645,0,0,361.8512,0,0,2022-06-02T10:49:24.918+02:00,675852600.7352717,0,5.550781,101.3167,1,0.79
2022-06-02T10:50:02.353+02:00,1654159801.999937,53.22886256971697,10.39863936604038,32.9028,0,0.07,-1,103.9230494294148,4,5,-9999,2946.631156625,-0.081939697265625,-0.6029052734375,-0.7907562255859375,2946.621161625,-0.06559273379658279,-0.1072147851273723,0.6470439152125712,0.03051932714879513,0.0224627647548914,-0.01613376289606094,0.001761451363563538,0.002534449100494385,-0.0004437565803527832,XArbitraryZVertical,0.3156145760835415,-0.06118405210235191,-0.04806960171474584,0.945691886513921,-0.08537959307432175,-0.6028304696083069,-0.7932878732681274,0,0,0,-1,-1,2942.455314375,unknown,2,2022-06-02T10:49:58.177+02:00,2022-06-02T10:17:13.754+02:00,467,1.474645,0,0,361.8512,0,0,2022-06-02T10:49:24.918+02:00,675852600.7352717,0,5.550781,101.3167,1,0.79
2022-06-02T10:50:02.363+02:00,1654159801.999937,53.22886256971697,10.39863936604038,32.9028,0,0.07,-1,103.9230494294148,4,5,-9999,2946.641150625,-0.0818634033203125,-0.61090087890625,-0.7872467041015625,2946.631156625,-0.06582196218692586,-0.1067768352861195,0.6476846254524246,0.04356988146901131,0.02001425437629223,-0.01695055514574051,-0.0004276931285858154,0.004479885101318359,0.001986503601074219,XArbitraryZVertical,0.3159213795445656,-0.06101768119003904,-0.04812172377477091,0.9455976070550289,-0.08499098569154739,-0.6033415794372559,-0.7929410338401794,0,0,0,-1,-1,2942.455314375,unknown,2,2022-06-02T10:49:58.177+02:00,2022-06-02T10:17:13.754+02:00,467,1.474645,0,0,361.8512,0,0,2022-06-02T10:49:24.918+02:00,675852600.7352717,0,5.550781,101.3167,1,0.79
2022-06-02T10:50:02.373+02:00,1654159801.999937,53.22886256971697,10.39863936604038,32.9028,0,0.07,-1,103.9230494294148,4,5,-9999,2946.651144625,-0.0836029052734375,-0.613494873046875,-0.7862701416015625,2946.641150625,-0.06606118073198068,-0.1064171544518419,0.6483250436787442,0.03866087645292282,0.008633236400783062,-0.0210006907582283,0.003716863691806793,-0.002730488777160645,0.003082215785980225,XArbitraryZVertical,0.3162258689336928,-0.06088999979587682,-0.04819078073280159,0.9455005699070809,-0.0846647173166275,-0.6038521528244019,-0.7925872206687927,0,0,0,-1,-1,2942.455314375,unknown,2,2022-06-02T10:49:58.177+02:00,2022-06-02T10:17:13.754+02:00,467,1.474645,0,0,361.8512,0,0,2022-06-02T10:49:24.918+02:00,675852600.7352717,0,5.550781,101.3167,1,0.79
2022-06-02T10:50:02.383+02:00,1654159801.999937,53.22886256971697,10.39863936604038,32.9028,0,0.07,-1,103.9230494294148,4,5,-9999,2946.661138625,-0.086883544921875,-0.6124267578125,-0.782012939453125,2946.651144625,-0.06617014949454655,-0.1064601829775114,0.6489231383802039,0.02510765008628368,-0.002471346873790026,-0.02297142893075943,0.001988336443901062,-0.009288132190704346,0.006686568260192871,XArbitraryZVertical,0.3165045999033897,-0.0609318712942565,-0.04826102895197112,0.9454009728293513,-0.08466042578220367,-0.6043288111686707,-0.7922242879867554,0,0,0,-1,-1,2942.455314375,unknown,2,2022-06-02T10:49:58.177+02:00,2022-06-02T10:17:13.754+02:00,467,1.474645,0,0,361.8512,0,0,2022-06-02T10:49:24.918+02:00,675852600.7352717,0,5.550781,101.3167,1,0.79
2022-06-02T10:50:02.393+02:00,1654159801.999937,53.22886256971697,10.39863936604038,32.9028,0,0.07,-1,103.9230494294148,4,5,-9999,2946.671133625,-0.0872039794921875,-0.6103973388671875,-0.7727508544921875,2946.661138625,-0.06639805134440105,-0.106362581329172,0.6493457831070225,0.01362037099897861,0.003557783551514149,-0.02356158569455147,-0.001122094690799713,-0.009393930435180664,0.007112205028533936,XArbitraryZVertical,0.3167000260629972,-0.0609248584572677,-0.04836171875132094,0.9453308395618675,-0.084555983543396,-0.6046654582023621,-0.7919785380363464,0,0,0,-1,-1,2942.455314375,unknown,2,2022-06-02T10:49:58.177+02:00,2022-06-02T10:17:13.754+02:00,467,1.474645,0,0,361.8512,0,0,2022-06-02T10:49:24.918+02:00,675852600.7352717,0,5.550781,101.3167,1,0.79
2022-06-02T10:50:02.403+02:00,1654159801.999937,53.22886256971697,10.39863936604038,32.9028,0,0.07,-1,103.9230494294148,4,5,-9999,2946.681127625,-0.0906982421875,-0.6085968017578125,-0.763916015625,2946.671133625,-0.06657997828161533,-0.1063007770362392,0.649698980337588,0.01700864359736443,0.01622657477855682,-0.02777883410453796,-0.001758277416229248,-0.005648970603942871,0.01487010717391968,XArbitraryZVertical,0.3168631104958763,-0.06092702261388275,-0.04844493428795894,0.945271807269206,-0.08448436856269836,-0.6049467325210571,-0.7917713522911072,0,0,0,-1,-1,2942.455314375,unknown,2,2022-06-02T10:49:58.177+02:00,2022-06-02T10:17:13.754+02:00,467,1.474645,0,0,361.8512,0,0,2022-06-02T10:49:24.918+02:00,675852600.7352717,0,5.550781,101.3167,1,0.79
2022-06-02T10:50:02.413+02:00,1654159801.999937,53.22886256971697,10.39863936604038,32.9028,0,0.07,-1,103.9230494294148,4,5,-9999,2946.691121625,-0.0892791748046875,-0.60626220703125,-0.7513275146484375,2946.681127625,-0.06676686889162178,-0.1060185468419534,0.6501067362655829,0.02326733991503716,0.03754996880888939,-0.02471034042537212,-0.005288496613502502,-0.005583763122558594,0.02171337604522705,XArbitraryZVertical,0.317057191755974,-0.06082622875918345,-0.04849660955891852,0.9452106073459685,-0.08423479646444321,-0.6052713990211487,-0.7915498018264771,0,0,0,-1,-1,2942.455314375,unknown,2,2022-06-02T10:49:58.177+02:00,2022-06-02T10:17:13.754+02:00,467,1.474645,0,0,361.8512,0,0,2022-06-02T10:49:24.918+02:00,675852600.7352717,0,5.550781,101.3167,1,0.79
2022-06-02T10:50:02.423+02:00,1654159801.999937,53.22886256971697,10.39863936604038,32.9028,0,0.07,-1,103.9230494294148,4,5,-9999,2946.701116625,-0.08807373046875,-0.6025543212890625,-0.738616943359375,2946.691121625,-0.06705964501703801,-0.1053931544648573,0.6503751505336058,0.01877718418836594,0.04534943774342537,-0.02485721372067928,-0.005495458841323853,-0.0001668334007263184,0.03437590599060059,XArbitraryZVertical,0.3171905153361022,-0.06057908685061632,-0.04854110328909345,0.9451793701101271,-0.08372265100479126,-0.6054850220680237,-0.7914407253265381,0,0,0,-1,-1,2942.455314375,unknown,2,2022-06-02T10:49:58.177+02:00,2022-06-02T10:17:13.754+02:00,467,1.474645,0,0,361.8512,0,0,2022-06-02T10:49:24.918+02:00,675852600.7352717,0,5.550781,101.3167,1,0.79
2022-06-02T10:50:02.433+02:00,1654159801.999937,53.22886256971697,10.39863936604038,32.9028,0,0.07,-1,103.9230494294148,4,5,-9999,2946.711110625,-0.092041015625,-0.61138916015625,-0.7365875244140625,2946.701116625,-0.0673545419800298,-0.1047363655679887,0.6505518177006729,0.04003453627228737,0.0546547919511795,-0.03216439485549927,-0.005614489316940308,-0.0006060600280761719,0.04756897687911987,XArbitraryZVertical,0.3172811227259361,-0.06031679642686449,-0.04857973019761155,0.9451637937958951,-0.0831916406750679,-0.6056256294250488,-0.7913891673088074,0,0,0,-1,-1,2942.455314375,unknown,2,2022-06-02T10:49:58.177+02:00,2022-06-02T10:17:13.754+02:00,467,1.474645,0,0,361.8512,0,0,2022-06-02T10:49:24.918+02:00,675852600.7352717,0,5.550781,101.3167,1,0.79
2022-06-02T10:50:02.443+02:00,1654159801.999937,53.22886256971697,10.39863936604038,32.9028,0,0.07,-1,103.9230494294148,4,5,-9999,2946.721104625,-0.069915771484375,-0.6543121337890625,-0.7513427734375,2946.711110625,-0.06787125881186405,-0.1039736989947008,0.6508050596723959,0.02124356850981712,0.04111720994114876,-0.06331945210695267,-0.00952988862991333,0.002082645893096924,0.05649751424789429,XArbitraryZVertical,0.317403969484909,-0.06004031501514939,-0.04870779868544092,0.9451334876686809,-0.08257212489843369,-0.6058270931243896,-0.7912997603416443,0,0,0,-1,-1,2942.455314375,unknown,2,2022-06-02T10:49:58.177+02:00,2022-06-02T10:17:13.754+02:00,467,1.474645,0,0,361.8512,0,0,2022-06-02T10:49:24.918+02:00,675852600.7352717,0,5.550781,101.3167,1,0.79
2022-06-02T10:50:02.453+02:00,1654159801.999937,53.22886256971697,10.39863936604038,32.9028,0,0.07,-1,103.9230494294148,4,5,-9999,2946.7310995,-0.0607757568359375,-0.7301788330078125,-0.758026123046875,2946.721104625,-0.06895809506630715,-0.1033552348410079,0.6507335166833537,-0.0697886049747467,-0.05742427706718445,-0.1159810647368431,0.0001322627067565918,-0.02075564861297607,0.04803133010864258,XArbitraryZVertical,0.3173526666873333,-0.05991995632123905,-0.0491218982754354,0.9451368817625986,-0.0820871889591217,-0.6057701706886292,-0.7913937568664551,0,0,0,-1,-1,2942.455314375,unknown,2,2022-06-02T10:49:58.177+02:00,2022-06-02T10:17:13.754+02:00,467,1.474645,0,0,361.8512,0,0,2022-06-02T10:49:24.918+02:00,675852600.7352717,0,5.550781,101.3167,1,0.79
2022-06-02T10:50:02.463+02:00,1654159801.999937,53.22886256971697,10.39863936604038,32.9028,0,0.07,-1,103.9230494294148,4,5,-9999,2946.7410935,-0.0084991455078125,-0.79150390625,-0.7254180908203125,2946.7310995,-0.07129038121710501,-0.1031893387300972,0.6497512043525121,-0.2291080802679062,-0.2032981216907501,-0.2327484339475632,0.01356625556945801,-0.08628058433532715,0.03285890817642212,XArbitraryZVertical,0.3168219314504766,-0.06020312010340474,-0.05017930501927414,0.9452414178336803,-0.08201715350151062,-0.6049883365631104,-0.7919989228248596,0,0,0,-1,-1,2942.455314375,unknown,2,2022-06-02T10:49:58.177+02:00,2022-06-02T10:17:13.754+02:00,467,1.474645,0,0,361.8512,0,0,2022-06-02T10:49:24.918+02:00,675852600.7352717,0,5.550781,101.3167,1,0.79
2022-06-02T10:50:02.473+02:00,1654159801.999937,53.22886256971697,10.39863936604038,32.9028,0,0.07,-1,103.9230494294148,4,5,-9999,2946.7510875,-0.0024566650390625,-0.7774200439453125,-0.6851959228515625,2946.7410935,-0.07538417268198508,-0.1044293866007945,0.6464528563773378,-0.525243878364563,-0.5557382106781006,-0.3254168331623077,0.05055298656225204,-0.1630067825317383,0.04769164323806763,XArbitraryZVertical,0.3151045147170347,-0.06140604138699217,-0.05224858169205153,0.9456259682466039,-0.08320676535367966,-0.6023587584495544,-0.7938768863677979,0,0,0,-1,-1,2942.455314375,unknown,2,2022-06-02T10:49:58.177+02:00,2022-06-02T10:17:13.754+02:00,467,1.474645,0,0,361.8512,0,0,2022-06-02T10:49:24.918+02:00,675852600.7352717,0,5.550781,101.3167,1,0.79
2022-06-02T10:50:02.483+02:00,1654159801.999937,53.22886256971697,10.39863936604038,32.9028,0,0.07,-1,103.9230494294148,4,5,-9999,2946.7610815,-0.0783843994140625,-0.8033447265625,-0.6259002685546875,2946.7510875,-0.07982662888037227,-0.1097157877311184,0.6400154523904847,-0.8197734951972961,-1.05306613445282,-0.2209062129259109,0.08613140881061554,-0.1963559985160828,0.09136170148849487,XArbitraryZVertical,0.3117737214611553,-0.06453883158925401,-0.05505447141453031,0.946361884357462,-0.08782510459423065,-0.5972078442573547,-0.7972638010978699,0,0,0,-1,-1,2942.455314375,unknown,2,2022-06-02T10:49:58.177+02:00,2022-06-02T10:17:13.754+02:00,467,1.474645,0,0,361.8512,0,0,2022-06-02T10:49:24.918+02:00,675852600.7352717,0,5.550781,101.3167,1,0.79
2022-06-02T10:50:02.493+02:00,1654159801.999937,53.22886256971697,10.39863936604038,32.9028,0,0.07,-1,103.9230494294148,4,5,-9999,2946.7710765,-0.7808685302734375,-1.378616333007812,-0.343414306640625,2946.7610815,-0.0822862868095784,-0.1216040574412997,0.6314716020888897,-0.9121766686439514,-1.610364556312561,0.06137474626302719,0.07781635969877243,-0.1809527277946472,0.1440945863723755,XArbitraryZVertical,0.3073041383651062,-0.07046039638497949,-0.05787849453501041,0.9472324946804606,-0.09791215509176254,-0.5903332233428955,-0.8011990189552307,0,0,0,-1,-1,2942.455314375,unknown,2,2022-06-02T10:49:58.177+02:00,2022-06-02T10:17:13.754+02:00,467,1.474645,0,0,361.8512,0,0,2022-06-02T10:49:24.918+02:00,675852600.7352717,0,5.550781,101.3167,1,0.79
2022-06-02T10:50:02.503+02:00,1654159801.999937,53.22886256971697,10.39863936604038,32.9028,0,0.07,-1,103.9230494294148,4,5,-9999,2946.7810705,-1.373794555664062,-1.753036499023438,-0.4340057373046875,2946.7710765,-0.08744694287678009,-0.1366279738077733,0.6187540202060313,-2.245126962661743,-1.835723161697388,-1.622014880180359,-0.09305853396654129,-0.293224573135376,0.2350042462348938,XArbitraryZVertical,0.3006228455729059,-0.07823493916511663,-0.06230046114868356,0.9484849479865737,-0.1109514385461807,-0.5800206065177917,-0.8070104122161865,0,0,0,-1,-1,2942.455314375,unknown,2,2022-06-02T10:49:58.177+02:00,2022-06-02T10:17:13.754+02:00,467,1.474645,0,0,361.8512,0,0,2022-06-02T10:49:24.918+02:00,675852600.7352717,0,5.550781,101.3167,1,0.79
2022-06-02T10:50:02.513+02:00,1654159801.999937,53.22886256971697,10.39863936604038,32.9028,0,0.07,-1,103.9230494294148,4,5,-9999,2946.7910645,-0.9976348876953125,-0.95623779296875,-0.2327880859375,2946.7810705,-0.1128617460180283,-0.1316414830372167,0.5948192859280828,-2.998110294342041,-0.5265616774559021,-1.492909908294678,-1.2850661277771,-1.464314341545105,0.4058309197425842,XArbitraryZVertical,0.2883977548578838,-0.07927780594287948,-0.07305190532709978,0.9514226245998676,-0.1087173819541931,-0.5603590607643127,-0.8210835456848145,0,0,0,-1,-1,2942.455314375,unknown,2,2022-06-02T10:49:58.177+02:00,2022-06-02T10:17:13.754+02:00,467,1.474645,0,0,361.8512,0,0,2022-06-02T10:49:24.918+02:00,675852600.7352717,0,5.550781,101.3167,1,0.79
2022-06-02T10:50:02.523+02:00,1654159801.999937,53.22886256971697,10.39863936604038,32.9028,0,0.07,-1,103.9230494294148,4,5,-9999,2946.8010595,-1.076309204101562,-1.391067504882812,-0.2605133056640625,2946.7910645,-0.1325583294432454,-0.1245353738837785,0.5647779111089043,-3.242382049560547,-0.1866499036550522,-1.110568881034851,-0.9707897901535034,-0.6196942329406738,0.5503086447715759,XArbitraryZVertical,0.2735420137408278,-0.07805103147836508,-0.08078581594926848,0.9552781113737436,-0.1049242541193962,-0.5352282524108887,-0.8381655812263489,0,0,0,-1,-1,2942.455314375,unknown,2,2022-06-02T10:49:58.177+02:00,2022-06-02T10:17:13.754+02:00,467,1.474645,0,0,361.8512,0,0,2022-06-02T10:49:24.918+02:00,675852600.7352717,0,5.550781,101.3167,1,0.79
2022-06-02T10:50:02.533+02:00,1654159801.999937,53.22886256971697,10.39863936604038,32.9028,0,0.07,-1,103.9230494294148,4,5,-9999,2946.8110535,-1.0211181640625,-1.549514770507812,-0.264190673828125,2946.8010595,-0.1522548410324041,-0.1144748837137934,0.5331504827595046,-3.489089965820312,0.1207507848739624,-1.458153247833252,-0.9121262431144714,-0.6203824877738953,0.6166512966156006,XArbitraryZVertical,0.2580390032209152,-0.0750277773411627,-0.08827357837113731,0.9591634204897512,-0.09837174415588379,-0.5082491040229797,-0.8555734157562256,0,0,0,-1,-1,2942.455314375,unknown,2,2022-06-02T10:49:58.177+02:00,2022-06-02T10:17:13.754+02:00,467,1.474645,0,0,361.8512,0,0,2022-06-02T10:49:24.918+02:00,675852600.7352717,0,5.550781,101.3167,1,0.79
2022-06-02T10:50:02.543+02:00,1654159801.999937,53.22886256971697,10.39863936604038,32.9028,0,0.07,-1,103.9230494294148,4,5,-9999,2946.8210475,-1.075042724609375,-1.4364013671875,-0.316650390625,2946.8110535,-0.1751865344722832,-0.101791528020176,0.4967488914882363,-4.239483833312988,0.1102607920765877,-1.703102469444275,-0.95943284034729,-1.057365655899048,0.6092508435249329,XArbitraryZVertical,0.2402551205240009,-0.0706011544269268,-0.09714527811099075,0.9632526358421702,-0.08933419734239578,-0.4765698909759521,-0.8745859265327454,0,0,0,-1,-1,2942.455314375,unknown,2,2022-06-02T10:49:58.177+02:00,2022-06-02T10:17:13.754+02:00,467,1.474645,0,0,361.8512,0,0,2022-06-02T10:49:24.918+02:00,675852600.7352717,0,5.550781,101.3167,1,0.79
2022-06-02T10:50:02.553+02:00,1654159801.999937,53.22886256971697,10.39863936604038,32.9028,0,0.07,-1,103.9230494294148,4,5,-9999,2946.8310415,-1.239105224609375,-1.199844360351562,-0.5181427001953125,2946.8210475,-0.2008552939281155,-0.08878108106547207,0.4517121418517374,-5.156749725341797,0.1658311039209366,-1.954642534255981,-0.9311537146568298,-1.066850304603577,0.6274503469467163,XArbitraryZVertical,0.2182568525541909,-0.06546097138312587,-0.1075038863255392,0.9677404544134022,-0.07977154105901718,-0.436506599187851,-0.8961576223373413,0,0,0,-1,-1,2942.455314375,unknown,2,2022-06-02T10:49:58.177+02:00,2022-06-02T10:17:13.754+02:00,467,1.474645,0,0,361.8512,0,0,2022-06-02T10:49:24.918+02:00,675852600.7352717,0,5.550781,101.3167,1,0.79
2022-06-02T10:50:02.563+02:00,1654159801.999937,53.22886256971697,10.39863936604038,32.9028,0,0.07,-1,103.9230494294148,4,5,-9999,2946.8410365,-1.40087890625,-0.8824310302734375,-0.7570953369140625,2946.8310415,-0.2280648630310384,-0.07430201323163022,0.3983675566306359,-5.832597732543945,0.494161456823349,-2.095403909683228,-1.076903820037842,-0.94588702917099,0.5197230577468872,XArbitraryZVertical,0.1923058748210819,-0.05867076010827087,-0.1187604076403365,0.9723538549280698,-0.06842083483934402,-0.38791424036026,-0.9191523790359497,0,0,0,-1,-1,2942.455314375,unknown,2,2022-06-02T10:49:58.177+02:00,2022-06-02T10:17:13.754+02:00,467,1.474645,0,0,361.8512,0,0,2022-06-02T10:49:24.918+02:00,675852600.7352717,0,5.550781,101.3167,1,0.79
2022-06-02T10:50:02.573+02:00,1654159801.999937,53.22886256971697,10.39863936604038,32.9028,0,0.07,-1,103.9230494294148,4,5,-9999,2946.8510305,-1.497299194335938,-0.59124755859375,-0.96966552734375,2946.8410365,-0.2556392548092163,-0.05691684860574655,0.3408004146013249,-5.913350105285645,1.001247048377991,-2.287745237350464,-1.267857670783997,-0.7111991047859192,0.2974981069564819,XArbitraryZVertical,0.1645506845219152,-0.049421233888703,-0.1303607046099448,0.9764663301836516,-0.05361445620656013,-0.3342415690422058,-0.9409612417221069,0,0,0,-1,-1,2942.455314375,unknown,2,2022-06-02T10:49:58.177+02:00,2022-06-02T10:17:13.754+02:00,467,1.474645,0,0,361.8512,0,0,2022-06-02T10:49:24.918+02:00,675852600.7352717,0,5.550781,101.3167,1,0.79
2022-06-02T10:50:02.583+02:00,1654159801.999937,53.22886256971697,10.39863936604038,32.9028,0,0.07,-1,103.9230494294148,4,5,-9999,2946.8610245,-1.490386962890625,-0.38861083984375,-1.060821533203125,2946.8510305,-0.2844329829153024,-0.03412999221440111,0.2851312480843359,-5.428543567657471,1.805153012275696,-2.661827802658081,-1.422759771347046,-0.4454316794872284,0.09763097763061523,XArbitraryZVertical,0.1382341662701619,-0.03685611230438274,-0.1426792343602209,0.9793750928677419,-0.03274562582373619,-0.2812834084033966,-0.9590659141540527,0,0,0,-1,-1,2942.455314375,unknown,2,2022-06-02T10:49:58.177+02:00,2022-06-02T10:17:13.754+02:00,467,1.474645,0,0,361.8512,0,0,2022-06-02T10:49:24.918+02:00,675852600.7352717,0,5.550781,101.3167,1,0.79
2022-06-02T10:50:02.593+02:00,1654159801.999937,53.22886256971697,10.39863936604038,32.9028,0,0.07,-1,103.9230494294148,4,5,-9999,2946.8710195,-1.3880615234375,-0.3515472412109375,-0.997467041015625,2946.8610245,-0.3144785188153203,-0.004106701085399072,0.2341181636900051,-4.922957897186279,2.629100561141968,-2.924254894256592,-1.504931688308716,-0.2434023022651672,-0.06981515884399414,XArbitraryZVertical,0.1150315204187568,-0.02030279419888532,-0.1557569954651785,0.9808645985140194,-0.003994656261056662,-0.2319853007793427,-0.9727110862731934,0,0,0,-1,-1,2942.455314375,unknown,2,2022-06-02T10:49:58.177+02:00,2022-06-02T10:17:13.754+02:00,467,1.474645,0,0,361.8512,0,0,2022-06-02T10:49:24.918+02:00,675852600.7352717,0,5.550781,101.3167,1,0.79
2022-06-02T10:50:02.603+02:00,1654159801.999937,53.22886256971697,10.39863936604038,32.9028,0,0.07,-1,103.9230494294148,4,5,-9999,2946.8810135,-1.219512939453125,-0.3020782470703125,-0.9436798095703125,2946.8710195,-0.3450666198005601,0.03194758321185264,0.1858492757284545,-4.673176288604736,3.264940738677979,-3.195857048034668,-1.478672981262207,-0.1666896939277649,-0.05155050754547119,XArbitraryZVertical,0.09413205349974253,-0.0002601243084187269,-0.1694559607174584,0.9810318849668437,0.03139209374785423,-0.1847812533378601,-0.9822781682014465,0,0,0,-1,-1,2942.455314375,unknown,2,2022-06-02T10:49:58.177+02:00,2022-06-02T10:17:13.754+02:00,467,1.474645,0,0,361.8512,0,0,2022-06-02T10:49:24.918+02:00,675852600.7352717,0,5.550781,101.3167,1,0.79
2022-06-02T10:50:02.613+02:00,1654159801.999937,53.22886256971697,10.39863936604038,32.9028,0,0.07,-1,103.9230494294148,4,5,-9999,2946.8910075,-1.04595947265625,-0.1934356689453125,-0.8272857666015625,2946.8810135,-0.3769762702966968,0.0718038751020084,0.1379631733903548,-4.598965167999268,3.660234212875366,-3.601642847061157,-1.380478262901306,-0.2076431512832642,0.01390105485916138,XArbitraryZVertical,0.07437212291589121,0.02226784872861448,-0.1843776772693592,0.979784568657698,0.07106050848960876,-0.1375259310007095,-0.9879458546638489,0,0,0,-1,-1,2942.455314375,unknown,2,2022-06-02T10:49:58.177+02:00,2022-06-02T10:17:13.754+02:00,467,1.474645,0,0,361.8512,0,0,2022-06-02T10:49:24.918+02:00,675852600.7352717,0,5.550781,101.3167,1,0.79
2022-06-02T10:50:02.623+02:00,1654159801.999937,53.22886256971697,10.39863936604038,32.9028,0,0.07,-1,103.9230494294148,4,5,-9999,2946.9010015,-0.901123046875,-0.1289215087890625,-0.722412109375,2946.8910075,-0.4106441472420749,0.1139806804804362,0.08835541763052697,-4.67515230178833,4.00670337677002,-3.957867622375488,-1.241601467132568,-0.1553050577640533,0.1002925038337708,XArbitraryZVertical,0.0547672265740011,0.04671916331392463,-0.2008901945106499,0.9769651705130489,0.1132903918623924,-0.08824050426483154,-0.9896357655525208,0,0,0,-1,-1,2942.455314375,unknown,2,2022-06-02T10:49:58.177+02:00,2022-06-02T10:17:13.754+02:00,467,1.474645,0,0,361.8512,0,0,2022-06-02T10:49:24.918+02:00,675852600.7352717,0,5.550781,101.3167,1,0.79
2022-06-02T10:50:02.633+02:00,1654159801.999937,53.22886256971697,10.39863936604038,32.9028,0,0.07,-1,103.9230494294148,4,5,-9999,2946.9109965,-0.778228759765625,0.0300140380859375,-0.64813232421875,2946.9010015,-0.4441444619090718,0.1579778698614776,0.0359363005283995,-4.81763219833374,4.379922866821289,-4.056066513061523,-1.1281977891922,-0.1263791918754578,0.2172565460205078,XArbitraryZVertical,0.03484786052181466,0.07301173842834228,-0.2181463474966076,0.9725568993640137,0.1572200059890747,-0.03592856600880623,-0.986909806728363,0,0,0,-1,-1,2942.455314375,unknown,2,2022-06-02T10:49:58.177+02:00,2022-06-02T10:17:13.754+02:00,467,1.474645,0,0,361.8512,0,0,2022-06-02T10:49:24.918+02:00,675852600.7352717,0,5.550781,101.3167,1,0.79
2022-06-02T10:50:02.643+02:00,1654159801.999937,53.22886256971697,10.39863936604038,32.9028,0,0.07,-1,103.9230494294148,4,5,-9999,2946.9209905,-0.6547698974609375,0.22998046875,-0.561004638671875,2946.9109965,-0.4749431718248023,0.2039303948247834,-0.01974268508745075,-5.046102046966553,4.747528076171875,-4.006621360778809,-1.041439056396484,-0.08576621860265732,0.293159008026123,XArbitraryZVertical,0.01439986615698614,0.1012372743285376,-0.2349892555038136,0.9666041531596721,0.202480360865593,0.01974140293896198,-0.9790872931480408,0,0,0,-1,-1,2942.455314375,unknown,2,2022-06-02T10:49:58.177+02:00,2022-06-02T10:17:13.754+02:00,467,1.474645,0,0,361.8512,0,0,2022-06-02T10:49:24.918+02:00,675852600.7352717,0,5.550781,101.3167,1,0.79
2022-06-02T10:50:02.653+02:00,1654159801.999937,53.22886256971697,10.39863936604038,32.9028,0,0.07,-1,103.9230494294148,4,5,-9999,2946.9309845,-0.5208740234375,0.393402099609375,-0.4732666015625,2946.9209905,-0.5021921478263767,0.2517624258414217,-0.07912882210022656,-5.2995285987854,5.088619709014893,-3.983965635299683,-0.9675242304801941,0.05629914999008179,0.3614253401756287,XArbitraryZVertical,-0.006840313590190353,0.1312667908918896,-0.2511171423223628,0.958990340295491,0.2483317255973816,0.07904627174139023,-0.9654445052146912,0,0,0,-1,-1,2942.455314375,unknown,2,2022-06-02T10:49:58.177+02:00,2022-06-02T10:17:13.754+02:00,467,1.474645,0,0,361.8512,0,0,2022-06-02T10:49:24.918+02:00,675852600.7352717,0,5.550781,101.3167,1,0.79
2022-06-02T10:50:02.663+02:00,1654159801.999937,53.22886256971697,10.39863936604038,32.9028,0,0.07,-1,103.9230494294148,4,5,-9999,2946.9409795,-0.385101318359375,0.545318603515625,-0.3918304443359375,2946.9309845,-0.5252084898373253,0.3020223149859996,-0.1422280433654864,-5.607223510742188,5.467054843902588,-3.849688053131104,-0.8842918872833252,0.1703999936580658,0.4291206002235413,XArbitraryZVertical,-0.02888282951101439,0.1631487131812911,-0.2663161701276632,0.9495387165770186,0.2944481074810028,0.1417490094900131,-0.9450965523719788,0,0,0,-1,-1,2942.455314375,unknown,2,2022-06-02T10:49:58.177+02:00,2022-06-02T10:17:13.754+02:00,467,1.474645,0,0,361.8512,0,0,2022-06-02T10:49:24.918+02:00,675852600.7352717,0,5.550781,101.3167,1,0.79
2022-06-02T10:50:02.673+02:00,1654159801.999937,53.22886256971697,10.39863936604038,32.9028,0,0.07,-1,103.9230494294148,4,5,-9999,2946.9509735,-0.259429931640625,0.7005767822265625,-0.2957000732421875,2946.9409795,-0.5422928266570715,0.3554136336335079,-0.2090084430018223,-5.970928192138672,5.79291820526123,-3.653615236282349,-0.7937895655632019,0.2636250257492065,0.4833993315696716,XArbitraryZVertical,-0.05183229440901688,0.1968844026795737,-0.2799461703603757,0.9381791426654004,0.3404051661491394,0.2074900269508362,-0.9170998930931091,0,0,0,-1,-1,2942.455314375,unknown,2,2022-06-02T10:49:58.177+02:00,2022-06-02T10:17:13.754+02:00,467,1.474645,0,0,361.8512,0,0,2022-06-02T10:49:24.918+02:00,675852600.7352717,0,5.550781,101.3167,1,0.79
2022-06-02T10:50:02.685+02:00,1654159801.999937,53.22886256971697,10.39863936604038,32.9028,0,0.07,-1,103.9230494294148,4,5,-9999,2946.9609675,-0.1495361328125,0.8945465087890625,-0.1842041015625,2946.9509735,-0.5526126064631895,0.4123504955815853,-0.2792489555910962,-6.303446769714355,6.098644733428955,-3.474652051925659,-0.7044838666915894,0.3443460166454315,0.5356287360191345,XArbitraryZVertical,-0.07575245101427228,0.2321983650900698,-0.2918377870484061,0.9247572814644095,0.3852393925189972,0.2756337821483612,-0.8806909918785095,0,0,0,-1,-1,2942.455314375,unknown,2,2022-06-02T10:49:58.177+02:00,2022-06-02T10:17:13.754+02:00,467,1.474645,0,0,361.8512,0,0,2022-06-02T10:49:24.918+02:00,675852600.7352717,0,5.550781,101.3167,1,0.79
2022-06-02T10:50:02.694+02:00,1654159801.999937,53.22886256971697,10.39863936604038,32.9028,0,0.07,-1,103.9230494294148,4,5,-9999,2946.9709615,-0.0275726318359375,1.066970825195312,-0.0677947998046875,2946.9709615,-0.550339723030901,0.5416548891065545,-0.4240499752149107,-6.530882358551025,6.680132865905762,-2.932687520980835,-0.5592933297157288,0.5936412811279297,0.6651964783668518,XArbitraryZVertical,-0.1240784330208809,0.3067932575021891,-0.3101246052362875,0.8912379262817844,0.4698920249938965,0.4114550948143005,-0.7809648513793945,0,0,0,-1,-1,2942.455314375,unknown,2,2022-06-02T10:49:58.177+02:00,2022-06-02T10:17:13.754+02:00,467,1.474645,0,0,361.8512,0,0,2022-06-02T10:49:24.918+02:00,675852600.7352717,0,5.550781,101.3167,1,0.79
2022-06-02T10:50:02.703+02:00,1654159801.999937,53.22886256971697,10.39863936604038,32.9028,0,0.07,-1,103.9230494294148,4,5,-9999,2946.9809565,0.0770263671875,1.164627075195312,-0.019439697265625,2946.9709615,-0.550339723030901,0.5416548891065545,-0.4240499752149107,-6.530882358551025,6.680132865905762,-2.932687520980835,-0.5592933297157288,0.5936412811279297,0.6651964783668518,XArbitraryZVertical,-0.1240784330208809,0.3067932575021891,-0.3101246052362875,0.8912379262817844,0.4698920249938965,0.4114550948143005,-0.7809648513793945,0,0,0,-1,-1,2942.455314375,unknown,2,2022-06-02T10:49:58.177+02:00,2022-06-02T10:17:13.754+02:00,467,1.474645,0,0,361.8512,0,0,2022-06-02T10:49:24.918+02:00,675852600.7352717,0,5.550781,101.3167,1,0.79
2022-06-02T10:50:02.713+02:00,1654159801.999937,53.22886256971697,10.39863936604038,32.9028,0,0.07,-1,103.9230494294148,4,5,-9999,2946.9909505,0.1768646240234375,1.250579833984375,0.03253173828125,2946.9809565,-0.5371348389786892,0.6156609633581571,-0.4928409741590784,-6.328901290893555,6.969291210174561,-2.606568574905396,-0.4789405465126038,0.6299271583557129,0.6695981025695801,XArbitraryZVertical,-0.1461637634417089,0.3449908426272909,-0.3164987703519997,0.8714619460461077,0.5087714791297913,0.4731306731700897,-0.7192349433898926,0,0,0,-1,-1,2942.455314375,unknown,2,2022-06-02T10:49:58.177+02:00,2022-06-02T10:17:13.754+02:00,467,1.474645,0,0,361.8512,0,0,2022-06-02T10:49:24.918+02:00,675852600.7352717,0,5.550781,101.3167,1,0.79
2022-06-02T10:50:02.723+02:00,1654159801.999937,53.22886256971697,10.39863936604038,32.9028,0,0.07,-1,103.9230494294148,4,5,-9999,2947.0009445,0.335784912109375,1.243240356445312,0.2029571533203125,2946.9909505,-0.515531337377081,0.6976699476059249,-0.5570981367672618,-6.133085250854492,7.264258861541748,-2.275528907775879,-0.4255118370056152,0.6967384815216064,0.6551647186279297,XArbitraryZVertical,-0.166089219622156,0.3836428901217249,-0.32121069755883,0.8497389124704502,0.5452933311462402,0.5287253260612488,-0.6504650115966797,0,0,0,-1,-1,2942.455314375,unknown,2,2022-06-02T10:49:58.177+02:00,2022-06-02T10:17:13.754+02:00,467,1.474645,0,0,361.8512,0,0,2022-06-02T10:49:24.918+02:00,675852600.7352717,0,5.550781,101.3167,1,0.79
2022-06-02T10:50:02.733+02:00,1654159801.999937,53.22886256971697,10.39863936604038,32.9028,0,0.07,-1,103.9230494294148,4,5,-9999,2947.0109395,0.4840087890625,1.190597534179688,0.4005889892578125,2947.0009445,-0.4849345193265522,0.7884457584605613,-0.6155472117315383,-5.964700698852539,7.514017105102539,-1.866606712341309,-0.3260429501533508,0.6712822914123535,0.6771688461303711,XArbitraryZVertical,-0.1836329852947767,0.4224909898413038,-0.3242170134420169,0.8262345938032131,0.5790794491767883,0.5774053931236267,-0.5755605697631836,0,0,0,-1,-1,2942.455314375,unknown,2,2022-06-02T10:49:58.177+02:00,2022-06-02T10:17:13.754+02:00,467,1.474645,0,0,361.8512,0,0,2022-06-02T10:49:24.918+02:00,675852600.7352717,0,5.550781,101.3167,1,0.79
2022-06-02T10:50:02.743+02:00,1654159801.999937,53.22886256971697,10.39863936604038,32.9028,0,0.07,-1,103.9230494294148,4,5,-9999,2947.0209335,0.659332275390625,1.157150268554688,0.576385498046875,2947.0109395,-0.4440039092512564,0.8890939254273054,-0.6672172876943391,-5.792623996734619,7.689274311065674,-1.441906571388245,-0.1978074312210083,0.6074090003967285,0.8026177883148193,XArbitraryZVertical,-0.1989040452337524,0.4614591025495712,-0.3251885142139001,0.8010898801168383,0.6099778413772583,0.6188024282455444,-0.4949853420257568,0,0,0,-1,-1,2942.455314375,unknown,2,2022-06-02T10:49:58.177+02:00,2022-06-02T10:17:13.754+02:00,467,1.474645,0,0,361.8512,0,0,2022-06-02T10:49:24.918+02:00,675852600.7352717,0,5.550781,101.3167,1,0.79
2022-06-02T10:50:02.753+02:00,1654159801.999937,53.22886256971697,10.39863936604038,32.9028,0,0.07,-1,103.9230494294148,4,5,-9999,2947.0309275,0.7918853759765625,1.157073974609375,0.7510986328125,2947.0209335,-0.3949944369202322,0.9966418809202704,-0.7103111227507816,-5.384142398834229,7.53952169418335,-1.100898385047913,-0.0704885721206665,0.5111534595489502,0.8927931189537048,XArbitraryZVertical,-0.2115801425066109,0.4993458607181486,-0.3245673279099006,0.7749474402122033,0.6365895867347717,0.6520696878433228,-0.4117751121520996,0,0,0,-1,-1,2942.455314375,unknown,2,2022-06-02T10:49:58.177+02:00,2022-06-02T10:17:13.754+02:00,467,1.474645,0,0,361.8512,0,0,2022-06-02T10:49:24.918+02:00,675852600.7352717,0,5.550781,101.3167,1,0.79
2022-06-02T10:50:02.763+02:00,1654159801.999937,53.22886256971697,10.39863936604038,32.9028,0,0.07,-1,103.9230494294148,4,5,-9999,2947.0409225,0.8903350830078125,1.2237548828125,0.8558349609375,2947.0309275,-0.3433325882036194,1.104089064604391,-0.7444209306600006,-4.693419933319092,7.06466817855835,-1.016165494918823,0.08772844076156616,0.483418881893158,1.001063466072083,XArbitraryZVertical,-0.2216504867098708,0.5342350264060896,-0.3234082861106962,0.7489132244446871,0.6568241715431213,0.6775460243225098,-0.3309279978275299,0,0,0,-1,-1,2942.455314375,unknown,2,2022-06-02T10:49:58.177+02:00,2022-06-02T10:17:13.754+02:00,467,1.474645,0,0,361.8512,0,0,2022-06-02T10:49:24.918+02:00,675852600.7352717,0,5.550781,101.3167,1,0.79
2022-06-02T10:50:02.773+02:00,1654159801.999937,53.22886256971697,10.39863936604038,32.9028,0,0.07,-1,103.9230494294148,4,5,-9999,2947.0509165,0.7928619384765625,1.181640625,0.9309844970703125,2947.0409225,-0.2946775265416295,1.206839651710937,-0.7693340369390519,-3.816243648529053,6.80202579498291,-0.6759635210037231,0.1740346550941467,0.4905459880828857,1.061142802238464,XArbitraryZVertical,-0.228414337095698,0.5656548787979669,-0.3226798297042134,0.7236983163693482,0.6713175773620605,0.695656955242157,-0.2557229101657867,0,0,0,-1,-1,2942.455314375,unknown,2,2022-06-02T10:49:58.177+02:00,2022-06-02T10:17:13.754+02:00,467,1.474645,0,0,361.8512,0,0,2022-06-02T10:49:24.918+02:00,675852600.7352717,0,5.550781,101.3167,1,0.79
2022-06-02T10:50:02.783+02:00,1654159801.999937,53.22886256971697,10.39863936604038,32.9028,0,0.07,-1,103.9230494294148,4,5,-9999,2947.0609105,0.88372802734375,1.032546997070312,1.029953002929688,2947.0509165,-0.2520049622979761,1.304495042195635,-0.7863148927559179,-3.058670282363892,6.671471118927002,-0.6106405258178711,0.211952805519104,0.5140316486358643,1.095354080200195,XArbitraryZVertical,-0.2315912500484217,0.5944812902915091,-0.3229447871683211,0.6990450673606796,0.6815560460090637,0.7077547311782837,-0.1859149783849716,0,0,0,-1,-1,2942.455314375,unknown,2,2022-06-02T10:49:58.177+02:00,2022-06-02T10:17:13.754+02:00,467,1.474645,0,0,361.8512,0,0,2022-06-02T10:49:24.918+02:00,675852600.7352717,0,5.550781,101.3167,1,0.79
2022-06-02T10:50:02.793+02:00,1654159801.999937,53.22886256971697,10.39863936604038,32.9028,0,0.07,-1,103.9230494294148,4,5,-9999,2947.0709045,1.126632690429688,0.71868896484375,1.02398681640625,2947.0609105,-0.2153084234721182,1.395509430185675,-0.7977044209020949,-2.260113477706909,6.207534790039062,-0.3313287496566772,0.02853608131408691,0.4521375298500061,1.110311269760132,XArbitraryZVertical,-0.2322574783592805,0.620615398215847,-0.3239489768648994,0.6752407123431466,0.6876504421234131,0.7157548666000366,-0.1217859834432602,0,0,0,-1,-1,2942.455314375,unknown,2,2022-06-02T10:49:58.177+02:00,2022-06-02T10:17:13.754+02:00,467,1.474645,0,0,361.8512,0,0,2022-06-02T10:49:24.918+02:00,675852600.7352717,0,5.550781,101.3167,1,0.79
2022-06-02T10:50:02.803+02:00,1654159801.999937,53.22886256971697,10.39863936604038,32.9028,0,0.07,-1,103.9230494294148,4,5,-9999,2947.0808995,0.966766357421875,0.6705322265625,0.9483642578125,2947.0709045,-0.18697201126219,1.473188919599188,-0.8035234912116032,-1.867691516876221,5.245995044708252,-0.3945061862468719,0.3765274286270142,0.09695065021514893,1.068595051765442,XArbitraryZVertical,-0.2306862170201892,0.6426191262437466,-0.325185589746832,0.6542773070852774,0.6908705830574036,0.7198064923286438,-0.06764905899763107,0,0,0,-1,-1,2942.455314375,unknown,2,2022-06-02T10:49:58.177+02:00,2022-06-02T10:17:13.754+02:00,467,1.474645,0,0,361.8512,0,0,2022-06-02T10:49:24.918+02:00,675852600.7352717,0,5.550781,101.3167,1,0.79
2022-06-02T10:50:02.814+02:00,1654159801.999937,53.22886256971697,10.39863936604038,32.9028,0,0.07,-1,103.9230494294148,4,5,-9999,2947.0908935,0.8093109130859375,0.66290283203125,0.9405670166015625,2947.0808995,-0.1622720532796554,1.540683175626146,-0.8087607525176508,-1.639004230499268,4.762613296508789,-0.4020338654518127,0.3671380281448364,-0.03793114423751831,1.018787860870361,XArbitraryZVertical,-0.2295513672951988,0.6609937592949953,-0.3265629913396274,0.6354132499588134,0.6900824308395386,0.723432183265686,-0.0207868404686451,0,0,0,-1,-1,2942.455314375,unknown,2,2022-06-02T10:49:58.177+02:00,2022-06-02T10:17:13.754+02:00,467,1.474645,0,0,361.8512,0,0,2022-06-02T10:49:24.918+02:00,675852600.7352717,0,5.550781,101.3167,1,0.79
2022-06-02T10:50:02.823+02:00,1654159801.999937,53.22886256971697,10.39863936604038,32.9028,0,0.07,-1,103.9230494294148,4,5,-9999,2947.1008875,0.788177490234375,0.6804656982421875,1.062881469726562,2947.0908935,-0.1391365022335413,1.603204724788514,-0.8119599071557707,-1.554261207580566,4.393113613128662,-0.2601213157176971,0.1819890141487122,-0.06320744752883911,0.8998386859893799,XArbitraryZVertical,-0.2281411741494425,0.6775687392553311,-0.3274715107346163,0.6177495558374122,0.6877161264419556,0.7256371378898621,0.02229558303952217,0,0,0,-1,-1,2942.455314375,unknown,2,2022-06-02T10:49:58.177+02:00,2022-06-02T10:17:13.754+02:00,467,1.474645,0,0,361.8512,0,0,2022-06-02T10:49:24.918+02:00,675852600.7352717,0,5.550781,101.3167,1,0.79
2022-06-02T10:50:02.833+02:00,1654159801.999937,53.22886256971697,10.39863936604038,32.9028,0,0.07,-1,103.9230494294148,4,5,-9999,2947.1108825,0.88360595703125,0.6441497802734375,1.275009155273438,2947.1008875,-0.1167771096375341,1.660927110523078,-0.8128039474448525,-1.528595328330994,3.911926984786987,-0.1170110404491425,0.09776580333709717,-0.04956674575805664,0.9247705936431885,XArbitraryZVertical,-0.2266218335273686,0.6925182194589472,-0.3274922728183694,0.6015062768450705,0.6846743226051331,0.7262176275253296,0.06187788024544716,0,0,0,-1,-1,2942.455314375,unknown,2,2022-06-02T10:49:58.177+02:00,2022-06-02T10:17:13.754+02:00,467,1.474645,0,0,361.8512,0,0,2022-06-02T10:49:24.918+02:00,675852600.7352717,0,5.550781,101.3167,1,0.79
2022-06-02T10:50:02.843+02:00,1654159801.999937,53.22886256971697,10.39863936604038,32.9028,0,0.07,-1,103.9230494294148,4,5,-9999,2947.1208765,0.9771881103515625,0.572723388671875,1.429458618164062,2947.1108825,-0.09349070555936569,1.713813078285627,-0.8115114519425825,-1.701825857162476,3.307482719421387,-0.009312475100159645,0.1393041014671326,-0.05499476194381714,1.06618869304657,XArbitraryZVertical,-0.2257169396011875,0.7057696397121911,-0.3261189704480526,0.587015654036519,0.6813744902610779,0.7253285050392151,0.09811784327030182,0,0,0,-1,-1,2942.455314375,unknown,2,2022-06-02T10:49:58.177+02:00,2022-06-02T10:17:13.754+02:00,467,1.474645,0,0,361.8512,0,0,2022-06-02T10:49:24.918+02:00,675852600.7352717,0,5.550781,101.3167,1,0.79
