,loggingTime(txt),locationTimestamp_since1970(s),locationLatitude(WGS84),locationLongitude(WGS84),locationAltitude(m),locationSpeed(m/s),locationSpeedAccuracy(m/s),locationCourse(°),locationCourseAccuracy(°),locationVerticalAccuracy(m),locationHorizontalAccuracy(m),locationFloor(Z),accelerometerTimestamp_sinceReboot(s),accelerometerAccelerationX(G),accelerometerAccelerationY(G),accelerometerAccelerationZ(G),motionTimestamp_sinceReboot(s),motionYaw(rad),motionRoll(rad),motionPitch(rad),motionRotationRateX(rad/s),motionRotationRateY(rad/s),motionRotationRateZ(rad/s),motionUserAccelerationX(G),motionUserAccelerationY(G),motionUserAccelerationZ(G),motionAttitudeReferenceFrame(txt),motionQuaternionX(R),motionQuaternionY(R),motionQuaternionZ(R),motionQuaternionW(R),motionGravityX(G),motionGravityY(G),motionGravityZ(G),motionMagneticFieldX(µT),motionMagneticFieldY(µT),motionMagneticFieldZ(µT),motionHeading(°),motionMagneticFieldCalibrationAccuracy(Z),activityTimestamp_sinceReboot(s),activity(txt),activityActivityConfidence(Z),activityActivityStartDate(txt),pedometerStartDate(txt),pedometerNumberofSteps(N),pedometerAverageActivePace(s/m),pedometerCurrentPace(s/m),pedometerCurrentCadence(steps/s),pedometerDistance(m),pedometerFloorAscended(N),pedometerFloorDescended(N),pedometerEndDate(txt),altimeterTimestamp_sinceReboot(s),altimeterReset(bool),altimeterRelativeAltitude(m),altimeterPressure(kPa),batteryState(N),batteryLevel(R)
491,2022-06-02T11:07:38.581+02:00,1654160858.000257,53.22904793425763,10.39848599246965,36.88443,0.07815958,0.7991827,120.5091666211721,91.00998761955069,2.400000095367432,7.999579855010835,-9999,3942.717938416667,0.6569976806640625,0.247344970703125,1.16204833984375,3942.707943416667,-1.409355210776147,1.367737299665724,0.2248248203682939,-12.65532970428467,14.26851081848145,-1.861332297325134,-0.193116307258606,0.5553483963012695,1.380963087081909,XArbitraryZVertical,0.4729285131897757,0.4219514966959248,-0.4449617136982583,0.6326961687454935,0.9548043608665466,-0.2229356020689011,-0.1965911090373993,0,0,0,-1,-1,3940.850590166667,unknown,2,2022-06-02T11:07:36.713+02:00,2022-06-02T10:17:13.754+02:00,757,1.530461,0,0,607.4087,0,0,2022-06-02T11:07:36.713+02:00,675853656.7128081,0,3.613281,101.3391,1,0.74
492,2022-06-02T11:07:38.591+02:00,1654160858.000257,53.22904793425763,10.39848599246965,36.88443,0.07815958,0.7991827,120.5091666211721,91.00998761955069,2.400000095367432,7.999579855010835,-9999,3942.727932416667,0.53033447265625,0.070220947265625,1.196502685546875,3942.717938416667,-1.280256887778747,1.485881684072723,0.1918663877341621,-13.28401851654053,14.78379249572754,-1.037132143974304,-0.2569064497947693,0.4855675101280212,1.252979755401611,XArbitraryZVertical,0.4587670339647788,0.4979002445646093,-0.3859101290801261,0.6266588686253185,0.9781128764152528,-0.1906913667917252,-0.0832563117146492,0,0,0,-1,-1,3940.850590166667,unknown,2,2022-06-02T11:07:36.713+02:00,2022-06-02T10:17:13.754+02:00,757,1.530461,0,0,607.4087,0,0,2022-06-02T11:07:36.713+02:00,675853656.7128081,0,3.613281,101.3391,1,0.74
493,2022-06-02T11:07:38.601+02:00,1654160858.000257,53.22904793425763,10.39848599246965,36.88443,0.07815958,0.7991827,120.5091666211721,91.00998761955069,2.400000095367432,7.999579855010835,-9999,3942.737927625,0.3414306640625,-0.3075408935546875,1.268447875976562,3942.727932416667,-1.143556713505723,1.610685720855784,0.1823485342624953,-13.70057106018066,15.23851013183594,-0.2487785220146179,-0.4012784361839294,0.3716625869274139,1.11230206489563,XArbitraryZVertical,0.4416196150258555,0.5697200526370664,-0.3181619015303355,0.6157630687855825,0.98263818025589,-0.1813396662473679,0.03921764716506,0,0,0,-1,-1,3940.850590166667,unknown,2,2022-06-02T11:07:36.713+02:00,2022-06-02T10:17:13.754+02:00,757,1.530461,0,0,607.4087,0,0,2022-06-02T11:07:36.713+02:00,675853656.7128081,0,3.613281,101.3391,1,0.74
494,2022-06-02T11:07:38.612+02:00,1654160858.000257,53.22904793425763,10.39848599246965,36.88443,0.07815958,0.7991827,120.5091666211721,91.00998761955069,2.400000095367432,7.999579855010835,-9999,3942.747922625,0.0182342529296875,-0.6125335693359375,1.337066650390625,3942.737927625,-1.002686467485051,1.738201624252386,0.1987068182750119,-14.16255378723145,15.58685493469238,0.6513236165046692,-0.4906355142593384,0.0879810154438018,1.075500011444092,XArbitraryZVertical,0.4213995485976416,0.6356848984112091,-0.2422728588313974,0.5996923321719029,0.9666180610656738,-0.197401762008667,0.1633457392454147,0,0,0,-1,-1,3940.850590166667,unknown,2,2022-06-02T11:07:36.713+02:00,2022-06-02T10:17:13.754+02:00,757,1.530461,0,0,607.4087,0,0,2022-06-02T11:07:36.713+02:00,675853656.7128081,0,3.613281,101.3391,1,0.74
495,2022-06-02T11:07:38.621+02:00,1654160858.000257,53.22904793425763,10.39848599246965,36.88443,0.07815958,0.7991827,120.5091666211721,91.00998761955069,2.400000095367432,7.999579855010835,-9999,3942.757917625,-0.50830078125,-0.91705322265625,1.452484130859375,3942.747922625,-0.8636613846132353,1.864701060592465,0.2419597349942877,-14.22780609130859,15.72811698913574,1.596711754798889,-0.7524968385696411,-0.2466002851724625,1.015362501144409,XArbitraryZVertical,0.3989556216210043,0.6938738536972999,-0.1595852144826598,0.5778459110723604,0.9292391538619996,-0.2396057397127151,0.2812530398368835,0,0,0,-1,-1,3940.850590166667,unknown,2,2022-06-02T11:07:36.713+02:00,2022-06-02T10:17:13.754+02:00,757,1.530461,0,0,607.4087,0,0,2022-06-02T11:07:36.713+02:00,675853656.7128081,0,3.613281,101.3391,1,0.74
496,2022-06-02T11:07:38.632+02:00,1654160858.000257,53.22904793425763,10.39848599246965,36.88443,0.07815958,0.7991827,120.5091666211721,91.00998761955069,2.400000095367432,7.999579855010835,-9999,3942.767911625,-1.212493896484375,-1.449386596679688,1.804718017578125,3942.757917625,-0.7346718470621365,1.988256067289275,0.3102886884754916,-13.79598045349121,15.97857666015625,2.572417974472046,-1.073990106582642,-0.4285531640052795,0.9885098934173584,XArbitraryZVertical,0.3760677542071646,0.7427059075989784,-0.0725659115488156,0.5492677971291392,0.870468258857727,-0.3053335547447205,0.3860780298709869,0,0,0,-1,-1,3940.850590166667,unknown,2,2022-06-02T11:07:36.713+02:00,2022-06-02T10:17:13.754+02:00,757,1.530461,0,0,607.4087,0,0,2022-06-02T11:07:36.713+02:00,675853656.7128081,0,3.613281,101.3391,1,0.74
497,2022-06-02T11:07:38.642+02:00,1654160858.000257,53.22904793425763,10.39848599246965,36.88443,0.07815958,0.7991827,120.5091666211721,91.00998761955069,2.400000095367432,7.999579855010835,-9999,3942.777906625,-2.006607055664062,-2.020263671875,2.38433837890625,3942.767911625,-0.6238349094960935,2.11074111020561,0.397922414384567,-12.75271415710449,16.15199279785156,3.395947933197021,-1.633127689361572,-0.768486738204956,1.123139142990112,XArbitraryZVertical,0.3544694165428551,0.7818646843925029,0.0153939091498985,0.5126422695146488,0.7907204031944275,-0.3875039219856262,0.4739218950271606,0,0,0,-1,-1,3940.850590166667,unknown,2,2022-06-02T11:07:36.713+02:00,2022-06-02T10:17:13.754+02:00,757,1.530461,0,0,607.4087,0,0,2022-06-02T11:07:36.713+02:00,675853656.7128081,0,3.613281,101.3391,1,0.74
498,2022-06-02T11:07:38.652+02:00,1654160858.000257,53.22904793425763,10.39848599246965,36.88443,0.07815958,0.7991827,120.5091666211721,91.00998761955069,2.400000095367432,7.999579855010835,-9999,3942.787901625,-2.786819458007812,-2.623764038085938,3.005523681640625,3942.777906625,-0.5376542405263713,2.235871203410386,0.4958955051781187,-11.12969875335693,16.29729270935059,3.936980962753296,-2.297646760940552,-1.263041734695435,1.545749664306641,XArbitraryZVertical,0.3350463319652181,0.8118712126726192,0.1000939376655521,0.4675363886031649,0.6920864582061768,-0.47581946849823,0.5427818298339844,0,0,0,-1,-1,3940.850590166667,unknown,2,2022-06-02T11:07:36.713+02:00,2022-06-02T10:17:13.754+02:00,757,1.530461,0,0,607.4087,0,0,2022-06-02T11:07:36.713+02:00,675853656.7128081,0,3.613281,101.3391,1,0.74
499,2022-06-02T11:07:38.661+02:00,1654160858.000257,53.22904793425763,10.39848599246965,36.88443,0.07815958,0.7991827,120.5091666211721,91.00998761955069,2.400000095367432,7.999579855010835,-9999,3942.797895625,-3.596694946289062,-3.262405395507812,3.825225830078125,3942.787901625,-0.4814791176887437,2.370972652456738,0.592716144233467,-8.949951171875,16.52899932861328,4.006338119506836,-2.96663236618042,-1.756737351417542,2.078197956085205,XArbitraryZVertical,0.3179052927977529,0.8345562330135846,0.1771196851439379,0.4136188577516169,0.5777618288993835,-0.5586159229278564,0.5950957536697388,0,0,0,-1,-1,3940.850590166667,unknown,2,2022-06-02T11:07:36.713+02:00,2022-06-02T10:17:13.754+02:00,757,1.530461,0,0,607.4087,0,0,2022-06-02T11:07:36.713+02:00,675853656.7128081,0,3.613281,101.3391,1,0.74
500,2022-06-02T11:07:38.671+02:00,1654160858.000257,53.22904793425763,10.39848599246965,36.88443,0.07815958,0.7991827,120.5091666211721,91.00998761955069,2.400000095367432,7.999579855010835,-9999,3942.807890625,-4.367904663085938,-3.819076538085938,4.8116455078125,3942.797895625,-0.4565427317162046,2.521570055103995,0.6750227252442123,-6.270730972290039,16.47552871704102,3.414719343185425,-3.659770488739014,-2.314080238342285,2.767346382141113,XArbitraryZVertical,0.3017482078891777,0.8524302866803097,0.2420333554643894,0.3517534281943636,0.4536242783069611,-0.6249150633811951,0.6353787779808044,0,0,0,-1,-1,3940.850590166667,unknown,2,2022-06-02T11:07:36.713+02:00,2022-06-02T10:17:13.754+02:00,757,1.530461,0,0,607.4087,0,0,2022-06-02T11:07:36.713+02:00,675853656.7128081,0,3.613281,101.3391,1,0.74
501,2022-06-02T11:07:38.682+02:00,1654160858.000257,53.22904793425763,10.39848599246965,36.88443,0.07815958,0.7991827,120.5091666211721,91.00998761955069,2.400000095367432,7.999579855010835,-9999,3942.817885625,-5.182876586914062,-4.348724365234375,6.079605102539062,3942.807890625,-0.4532095811505359,2.682526277034764,0.731834923046547,-3.773684740066528,16.06065940856934,1.894072294235229,-4.297379970550537,-2.880500793457031,3.61523962020874,XArbitraryZVertical,0.2836218022670358,0.867768194445485,0.2917809207359556,0.2853085384311472,0.3296524882316589,-0.6682358384132385,0.6669259071350098,0,0,0,-1,-1,3940.850590166667,unknown,2,2022-06-02T11:07:36.713+02:00,2022-06-02T10:17:13.754+02:00,757,1.530461,0,0,607.4087,0,0,2022-06-02T11:07:36.713+02:00,675853656.7128081,0,3.613281,101.3391,1,0.74
502,2022-06-02T11:07:38.691+02:00,1654160858.000257,53.22904793425763,10.39848599246965,36.88443,0.07815958,0.7991827,120.5091666211721,91.00998761955069,2.400000095367432,7.999579855010835,-9999,3942.827879625,-5.973861694335938,-4.754470825195312,7.224609375,3942.817885625,-0.4478484667612346,2.834270791338788,0.7593664651822252,-1.599409103393555,14.92849540710449,-0.687686562538147,-4.997048854827881,-3.395567893981934,4.740746021270752,XArbitraryZVertical,0.2591236850547916,0.8823267042110466,0.3255482227814215,0.2199380521221995,0.2193999290466309,-0.6884620785713196,0.6912909746170044,0,0,0,-1,-1,3940.850590166667,unknown,2,2022-06-02T11:07:36.713+02:00,2022-06-02T10:17:13.754+02:00,757,1.530461,0,0,607.4087,0,0,2022-06-02T11:07:36.713+02:00,675853656.7128081,0,3.613281,101.3391,1,0.74
503,2022-06-02T11:07:38.701+02:00,1654160858.000257,53.22904793425763,10.39848599246965,36.88443,0.07815958,0.7991827,120.5091666211721,91.00998761955069,2.400000095367432,7.999579855010835,-9999,3942.837874625,-6.555618286132812,-4.9532470703125,7.934814453125,3942.827879625,-0.4125644480845821,2.949770050226272,0.7577635601502302,0.7820116281509399,12.94543361663818,-4.451958656311035,-5.732674598693848,-3.898470878601074,5.974936485290527,XArbitraryZVertical,0.2240920510617487,0.8979469300628655,0.3421524980640652,0.1624981801052412,0.1384821683168411,-0.6872986555099487,0.7130518555641174,0,0,0,-1,-1,3940.850590166667,unknown,2,2022-06-02T11:07:36.713+02:00,2022-06-02T10:17:13.754+02:00,757,1.530461,0,0,607.4087,0,0,2022-06-02T11:07:36.713+02:00,675853656.7128081,0,3.613281,101.3391,1,0.74
504,2022-06-02T11:07:38.711+02:00,1654160858.000257,53.22904793425763,10.39848599246965,36.88443,0.07815958,0.7991827,120.5091666211721,91.00998761955069,2.400000095367432,7.999579855010835,-9999,3942.847869625,-7.436553955078125,-4.638229370117188,8.241607666015625,3942.837874625,-0.3264085385508076,3.003232263353394,0.7270916101254995,3.239104747772217,9.166543006896973,-9.141737937927246,-6.420698642730713,-4.209766387939453,6.922260284423828,XArbitraryZVertical,0.1757516170487215,0.9160222392620204,0.3395286711304573,0.1213870273577841,0.1030410081148148,-0.6646995544433594,0.7399707436561584,0,0,0,-1,-1,3940.850590166667,unknown,2,2022-06-02T11:07:36.713+02:00,2022-06-02T10:17:13.754+02:00,757,1.530461,0,0,607.4087,0,0,2022-06-02T11:07:36.713+02:00,675853656.7128081,0,3.613281,101.3391,1,0.74
505,2022-06-02T11:07:38.721+02:00,1654160858.000257,53.22904793425763,10.39848599246965,36.88443,0.07815958,0.7991827,120.5091666211721,91.00998761955069,2.400000095367432,7.999579855010835,-9999,3942.857863625,-8.971710205078125,-2.273635864257812,7.638946533203125,3942.847869625,-0.1845223350615006,2.973234643032037,0.6662374267615887,5.638772487640381,2.654959917068481,-14.14610576629639,-7.026917934417725,-4.372186660766602,7.330461978912354,XArbitraryZVertical,0.1141338004352172,0.9351427605315344,0.3171278180571385,0.1091387713671713,0.1317306607961655,-0.6180323958396912,0.7750369906425476,0,0,0,-1,-1,3940.850590166667,unknown,2,2022-06-02T11:07:36.713+02:00,2022-06-02T10:17:13.754+02:00,757,1.530461,0,0,607.4087,0,0,2022-06-02T11:07:36.713+02:00,675853656.7128081,0,3.613281,101.3391,1,0.74
506,2022-06-02T11:07:38.731+02:00,1654160858.000257,53.22904793425763,10.39848599246965,36.88443,0.07815958,0.7991827,120.5091666211721,91.00998761955069,2.400000095367432,7.999579855010835,-9999,3942.867858625,-9.798965454101562,0.4430084228515625,5.438949584960938,3942.857863625,-0.0088095099976941,2.853445072505968,0.5632486397388947,8.060434341430664,-6.522952079772949,-18.22590446472168,-8.397260665893555,-3.101943492889404,7.298099040985107,XArbitraryZVertical,0.0440890724243952,0.950467697214313,0.274426793643581,0.1391298436783512,0.2402783930301666,-0.5339358448982239,0.8106653690338135,0,0,0,-1,-1,3940.850590166667,unknown,2,2022-06-02T11:07:36.713+02:00,2022-06-02T10:17:13.754+02:00,757,1.530461,0,0,607.4087,0,0,2022-06-02T11:07:36.713+02:00,675853656.7128081,0,3.613281,101.3391,1,0.74
507,2022-06-02T11:07:38.741+02:00,1654160858.000257,53.22904793425763,10.39848599246965,36.88443,0.07815958,0.7991827,120.5091666211721,91.00998761955069,2.400000095367432,7.999579855010835,-9999,3942.877853625,-9.966278076171877,3.58221435546875,1.638961791992188,3942.867858625,0.1531341240400982,2.659771777371032,0.4035125817968216,11.10250854492188,-17.03098297119141,-19.99650382995605,-9.989134788513184,-0.5446809530258179,5.944004058837891,XArbitraryZVertical,-0.0251060905709503,0.952292722992939,0.2119129788164659,0.2181769372986507,0.4261772334575653,-0.392651230096817,0.8149834871292114,0,0,0,-1,-1,3940.850590166667,unknown,2,2022-06-02T11:07:36.713+02:00,2022-06-02T10:17:13.754+02:00,757,1.530461,0,0,607.4087,0,0,2022-06-02T11:07:36.713+02:00,675853656.7128081,0,3.613281,101.3391,1,0.74
508,2022-06-02T11:07:38.751+02:00,1654160858.000257,53.22904793425763,10.39848599246965,36.88443,0.07815958,0.7991827,120.5091666211721,91.00998761955069,2.400000095367432,7.999579855010835,-9999,3942.887847625,-10.52720642089844,5.66534423828125,-1.314208984375,3942.877853625,0.2510217268575349,2.412684262023922,0.1852492769151345,14.39497566223145,-25.93298721313477,-20.18110275268555,-10.5488395690918,2.20245623588562,2.951842308044434,XArbitraryZVertical,-0.0837495801362707,0.9271223123475753,0.1301658387464653,0.3413017450048141,0.6546595692634583,-0.1841915547847748,0.7331395745277405,0,0,0,-1,-1,3940.850590166667,unknown,2,2022-06-02T11:07:36.713+02:00,2022-06-02T10:17:13.754+02:00,757,1.530461,0,0,607.4087,0,0,2022-06-02T11:07:36.713+02:00,675853656.7128081,0,3.613281,101.3391,1,0.74
509,2022-06-02T11:07:38.761+02:00,1654160858.000257,53.22904793425763,10.39848599246965,36.88443,0.07815958,0.7991827,120.5091666211721,91.00998761955069,2.400000095367432,7.999579855010835,-9999,3942.897842625,-11.0880126953125,7.776077270507812,0.784423828125,3942.887847625,0.2514237428973736,2.117688228475862,-0.0732966230559328,19.40463256835938,-33.05356979370117,-19.31305885314941,-11.0661153793335,4.647487163543701,-0.7136460542678833,XArbitraryZVertical,-0.127040119137084,0.8620789609957269,0.0296900164836626,0.4896928974799538,0.8518515229225159,0.0732310116291046,0.5186386704444885,0,0,0,-1,-1,3940.850590166667,unknown,2,2022-06-02T11:07:36.713+02:00,2022-06-02T10:17:13.754+02:00,757,1.530461,0,0,607.4087,0,0,2022-06-02T11:07:36.713+02:00,675853656.7128081,0,3.613281,101.3391,1,0.74
510,2022-06-02T11:07:38.771+02:00,1654160858.000257,53.22904793425763,10.39848599246965,36.88443,0.07815958,0.7991827,120.5091666211721,91.00998761955069,2.400000095367432,7.999579855010835,-9999,3942.907837625,-17.04586791992188,6.38702392578125,7.468490600585938,3942.897842625,0.096648389584452,1.740005461955011,-0.2930444794246357,24.7028980255127,-35.13468551635742,-10.84883975982666,-11.51126194000244,6.595958232879639,-1.5876305103302,XArbitraryZVertical,-0.1305591977960964,0.7507103893035116,-0.0806461740413806,0.6425606565773732,0.9436957240104676,0.288868248462677,0.1612235903739929,0,0,0,-1,-1,3940.850590166667,unknown,2,2022-06-02T11:07:36.713+02:00,2022-06-02T10:17:13.754+02:00,757,1.530461,0,0,607.4087,0,0,2022-06-02T11:07:36.713+02:00,675853656.7128081,0,3.613281,101.3391,1,0.74
511,2022-06-02T11:07:38.781+02:00,1654160858.000257,53.22904793425763,10.39848599246965,36.88443,0.07815958,0.7991827,120.5091666211721,91.00998761955069,2.400000095367432,7.999579855010835,-9999,3942.917831625,-23.12722778320312,3.693679809570312,15.71633911132812,3942.907837625,-0.1723730552320259,1.29980424991357,-0.3534863223217479,25.71061706542969,-35.12874984741211,-4.530769824981689,-14.33903789520264,7.08496618270874,4.774208068847656,XArbitraryZVertical,-0.0881855810778771,0.6055203950452724,-0.1734622229700289,0.7716728959235044,0.9039336442947388,0.3461706638336182,-0.2511367201805115,0,0,0,-1,-1,3940.850590166667,unknown,2,2022-06-02T11:07:36.713+02:00,2022-06-02T10:17:13.754+02:00,757,1.530461,0,0,607.4087,0,0,2022-06-02T11:07:36.713+02:00,675853656.7128081,0,3.613281,101.3391,1,0.74
512,2022-06-02T11:07:38.791+02:00,1654160858.000257,53.22904793425763,10.39848599246965,36.88443,0.07815958,0.7991827,120.5091666211721,91.00998761955069,2.400000095367432,7.999579855010835,-9999,3942.927826625,-32.12367248535156,0.6961822509765625,16.69056701660156,3942.917831625,-0.4233417466501713,0.8707335551550629,-0.2491273949750643,26.50597381591797,-35.11748886108398,1.911126017570496,-20.32523536682129,4.907799243927002,11.4333667755127,XArbitraryZVertical,-0.0222186530146305,0.4328029661121987,-0.2402479765707163,0.8686015658196045,0.7411906719207764,0.2465583831071854,-0.6243758201599121,0,0,0,-1,-1,3940.850590166667,unknown,2,2022-06-02T11:07:36.713+02:00,2022-06-02T10:17:13.754+02:00,757,1.530461,0,0,607.4087,0,0,2022-06-02T11:07:36.713+02:00,675853656.7128081,0,3.613281,101.3391,1,0.74
513,2022-06-02T11:07:38.802+02:00,1654160858.000257,53.22904793425763,10.39848599246965,36.88443,0.07815958,0.7991827,120.5091666211721,91.00998761955069,2.400000095367432,7.999579855010835,-9999,3942.937821625,-31.97998046875,-0.250213623046875,9.5699462890625,3942.937821625,-0.5941562199859248,0.2983310005068431,0.3205651490847473,34.96128082275391,-16.19681930541992,12.7103157043457,-32.36101531982422,0.6388944387435913,13.21780490875244,XArbitraryZVertical,0.1938570359543555,0.0940819455880917,-0.2630872576935248,0.9404004611222334,0.278952032327652,-0.3151029646396637,-0.907136082649231,0,0,0,-1,-1,3940.850590166667,unknown,2,2022-06-02T11:07:36.713+02:00,2022-06-02T10:17:13.754+02:00,757,1.530461,0,0,607.4087,0,0,2022-06-02T11:07:36.713+02:00,675853656.7128081,0,3.613281,101.3391,1,0.74
514,2022-06-02T11:07:38.811+02:00,1654160858.000257,53.22904793425763,10.39848599246965,36.88443,0.07815958,0.7991827,120.5091666211721,91.00998761955069,2.400000095367432,7.999579855010835,-9999,3942.947816625,-29.87660217285156,-4.314041137695312,9.549789428710938,3942.937821625,-0.5941562199859248,0.2983310005068431,0.3205651490847473,34.96128082275391,-16.19681930541992,12.7103157043457,-32.36101531982422,0.6388944387435913,13.21780490875244,XArbitraryZVertical,0.1938570359543555,0.0940819455880917,-0.2630872576935248,0.9404004611222334,0.278952032327652,-0.3151029646396637,-0.907136082649231,0,0,0,-1,-1,3940.850590166667,unknown,2,2022-06-02T11:07:36.713+02:00,2022-06-02T10:17:13.754+02:00,757,1.530461,0,0,607.4087,0,0,2022-06-02T11:07:36.713+02:00,675853656.7128081,0,3.613281,101.3391,1,0.74
515,2022-06-02T11:07:38.821+02:00,1654160858.000257,53.22904793425763,10.39848599246965,36.88443,0.07815958,0.7991827,120.5091666211721,91.00998761955069,2.400000095367432,7.999579855010835,-9999,3942.957810625,-22.454833984375,-9.20697021484375,4.30950927734375,3942.947816625,-0.5050687192557793,0.1502414394430601,0.6953978163911925,34.92989730834961,-4.674444675445557,18.38437080383301,-31.48079681396484,-0.9429118633270264,10.19181251525879,XArbitraryZVertical,0.3466273329182022,-0.0165745494452259,-0.2094834027257818,0.9141615316854476,0.1149217188358307,-0.6406909227371216,-0.7591495513916016,0,0,0,-1,-1,3940.850590166667,unknown,2,2022-06-02T11:07:36.713+02:00,2022-06-02T10:17:13.754+02:00,757,1.530461,0,0,607.4087,0,0,2022-06-02T11:07:36.713+02:00,675853656.7128081,0,3.613281,101.3391,1,0.74
516,2022-06-02T11:07:38.832+02:00,1654160858.000257,53.22904793425763,10.39848599246965,36.88443,0.07815958,0.7991827,120.5091666211721,91.00998761955069,2.400000095367432,7.999579855010835,-9999,3942.967805625,-11.64828491210938,-9.089752197265623,-1.381683349609375,3942.967805625,0.4543176272139228,-0.701620010883918,1.146951473875382,13.7655725479126,-2.821951389312744,21.78351593017578,-16.33186531066895,-8.761245727539062,1.037102222442627,XArbitraryZVertical,0.5614350210767273,-0.1665170606672306,-0.0040047118790079,0.8105841961185942,-0.265455424785614,-0.911514401435852,-0.3141255676746368,0,0,0,-1,-1,3940.850590166667,unknown,2,2022-06-02T11:07:36.713+02:00,2022-06-02T10:17:13.754+02:00,757,1.530461,0,0,607.4087,0,0,2022-06-02T11:07:36.713+02:00,675853656.7128081,0,3.613281,101.3391,1,0.74
517,2022-06-02T11:07:38.841+02:00,1654160858.000257,53.22904793425763,10.39848599246965,36.88443,0.07815958,0.7991827,120.5091666211721,91.00998761955069,2.400000095367432,7.999579855010835,-9999,3942.977800625,-7.430618286132812,-8.102752685546875,-3.086257934570312,3942.967805625,0.4543176272139228,-0.701620010883918,1.146951473875382,13.7655725479126,-2.821951389312744,21.78351593017578,-16.33186531066895,-8.761245727539062,1.037102222442627,XArbitraryZVertical,0.5614350210767273,-0.1665170606672306,-0.0040047118790079,0.8105841961185942,-0.265455424785614,-0.911514401435852,-0.3141255676746368,0,0,0,-1,-1,3940.850590166667,unknown,2,2022-06-02T11:07:36.713+02:00,2022-06-02T10:17:13.754+02:00,757,1.530461,0,0,607.4087,0,0,2022-06-02T11:07:36.713+02:00,675853656.7128081,0,3.613281,101.3391,1,0.74
518,2022-06-02T11:07:38.851+02:00,1654160858.000257,53.22904793425763,10.39848599246965,36.88443,0.07815958,0.7991827,120.5091666211721,91.00998761955069,2.400000095367432,7.999579855010835,-9999,3942.987794625,-6.448455810546875,-7.78070068359375,-3.496444702148438,3942.977800625,0.8110299076761681,-1.045138319667479,1.031163177281795,-2.608498096466064,-2.088199138641357,16.85355567932129,-8.349874496459961,-7.579953670501709,-2.095902919769287,XArbitraryZVertical,0.5638892541305454,-0.2304684020953648,0.0712821190095877,0.7898304323862512,-0.4444523453712463,-0.8578972220420837,-0.2578264474868774,0,0,0,-1,-1,3940.850590166667,unknown,2,2022-06-02T11:07:36.713+02:00,2022-06-02T10:17:13.754+02:00,757,1.530461,0,0,607.4087,0,0,2022-06-02T11:07:36.713+02:00,675853656.7128081,0,3.613281,101.3391,1,0.74
519,2022-06-02T11:07:38.861+02:00,1654160858.000257,53.22904793425763,10.39848599246965,36.88443,0.07815958,0.7991827,120.5091666211721,91.00998761955069,2.400000095367432,7.999579855010835,-9999,3942.997789625,-6.641387939453125,-6.137298583984375,-2.431854248046875,3942.987794625,0.8098413917663582,-1.069616161227543,0.8619604350151995,-13.47843360900879,-2.44878101348877,13.1098051071167,-6.14527702331543,-7.253971576690674,-3.248690843582153,XArbitraryZVertical,0.512786791250817,-0.2840274986496522,0.1122394509401711,0.8023591501036096,-0.5708939433097839,-0.7591201663017273,-0.3127561807632446,0,0,0,-1,-1,3940.850590166667,unknown,2,2022-06-02T11:07:36.713+02:00,2022-06-02T10:17:13.754+02:00,757,1.530461,0,0,607.4087,0,0,2022-06-02T11:07:36.713+02:00,675853656.7128081,0,3.613281,101.3391,1,0.74
520,2022-06-02T11:07:38.871+02:00,1654160858.000257,53.22904793425763,10.39848599246965,36.88443,0.07815958,0.7991827,120.5091666211721,91.00998761955069,2.400000095367432,7.999579855010835,-9999,3943.007784625,-5.784469604492188,-3.02154541015625,-1.12152099609375,3942.997789625,0.7040833220959424,-1.024533611441968,0.6711986228802002,-17.64821624755859,-3.304780960083008,12.34832763671875,-5.913631439208984,-6.545860290527344,-2.661095142364502,XArbitraryZVertical,0.4290389146339218,-0.3354436397694405,0.1322611453166061,0.8281968640147728,-0.6691170930862427,-0.6219250559806824,-0.4068063497543335,0,0,0,-1,-1,3940.850590166667,unknown,2,2022-06-02T11:07:36.713+02:00,2022-06-02T10:17:13.754+02:00,757,1.530461,0,0,607.4087,0,0,2022-06-02T11:07:36.713+02:00,675853656.7128081,0,3.613281,101.3391,1,0.74
521,2022-06-02T11:07:38.881+02:00,1654160858.000257,53.22904793425763,10.39848599246965,36.88443,0.07815958,0.7991827,120.5091666211721,91.00998761955069,2.400000095367432,7.999579855010835,-9999,3943.017778625,-5.209381103515625,-0.002899169921875,-0.5847320556640625,3943.007784625,0.6160959362477603,-1.012595921533759,0.4820509254109194,-14.21332931518555,-3.811222553253174,12.01117420196533,-5.538684844970703,-4.166102409362793,-1.252879619598389,XArbitraryZVertical,0.3417103368720047,-0.3854636658683354,0.1471903372649544,0.8443853685416982,-0.7515527009963989,-0.4635973572731018,-0.4693036079406738,0,0,0,-1,-1,3940.850590166667,unknown,2,2022-06-02T11:07:36.713+02:00,2022-06-02T10:17:13.754+02:00,757,1.530461,0,0,607.4087,0,0,2022-06-02T11:07:36.713+02:00,675853656.7128081,0,3.613281,101.3391,1,0.74
522,2022-06-02T11:07:38.891+02:00,1654160858.000257,53.22904793425763,10.39848599246965,36.88443,0.07815958,0.7991827,120.5091666211721,91.00998761955069,2.400000095367432,7.999579855010835,-9999,3943.027773625,-5.550918579101562,1.14263916015625,-0.8291015625,3943.017778625,0.5784844839382897,-1.030487462760103,0.3241004550250649,-7.98826789855957,-2.592965841293335,11.34418773651123,-4.597206592559814,-1.100992679595947,-0.2039847373962402,XArbitraryZVertical,0.2732663056937424,-0.4260464707079791,0.1687458580314098,0.845774519624642,-0.8129035830497742,-0.3184562027454376,-0.4876198470592499,0,0,0,-1,-1,3940.850590166667,unknown,2,2022-06-02T11:07:36.713+02:00,2022-06-02T10:17:13.754+02:00,757,1.530461,0,0,607.4087,0,0,2022-06-02T11:07:36.713+02:00,675853656.7128081,0,3.613281,101.3391,1,0.74
523,2022-06-02T11:07:38.901+02:00,1654160858.000257,53.22904793425763,10.39848599246965,36.88443,0.07815958,0.7991827,120.5091666211721,91.00998761955069,2.400000095367432,7.999579855010835,-9999,3943.037768625,-6.0963134765625,0.751434326171875,-0.757293701171875,3943.027773625,0.5907977361192643,-1.051385408304764,0.2035136300619481,-2.41011118888855,-0.90479838848114,10.61590480804443,-4.39498233795166,1.102578520774841,-0.2194414734840393,XArbitraryZVertical,0.2293922964555788,-0.4520140115689943,0.2017438383031377,0.8380703668304144,-0.8501960635185242,-0.202111691236496,-0.4861250221729279,0,0,0,-1,-1,3940.850590166667,unknown,2,2022-06-02T11:07:36.713+02:00,2022-06-02T10:17:13.754+02:00,757,1.530461,0,0,607.4087,0,0,2022-06-02T11:07:36.713+02:00,675853656.7128081,0,3.613281,101.3391,1,0.74
524,2022-06-02T11:07:38.911+02:00,1654160858.000257,53.22904793425763,10.39848599246965,36.88443,0.07815958,0.7991827,120.5091666211721,91.00998761955069,2.400000095367432,7.999579855010835,-9999,3943.047762625,-5.583084106445312,0.9192962646484376,-1.101287841796875,3943.037768625,0.6359299223510169,-1.058191498294229,0.1136212444786319,1.255530953407288,0.9226560592651368,9.334369659423828,-5.082314968109131,1.091846704483032,-0.3136168122291565,XArbitraryZVertical,0.2041076168387252,-0.4633538695395574,0.2422270919911709,0.8276287215896223,-0.8658507466316223,-0.1133769303560257,-0.4872865378856659,0,0,0,-1,-1,3940.850590166667,unknown,2,2022-06-02T11:07:36.713+02:00,2022-06-02T10:17:13.754+02:00,757,1.530461,0,0,607.4087,0,0,2022-06-02T11:07:36.713+02:00,675853656.7128081,0,3.613281,101.3391,1,0.74
525,2022-06-02T11:07:38.921+02:00,1654160858.000257,53.22904793425763,10.39848599246965,36.88443,0.07815958,0.7991827,120.5091666211721,91.00998761955069,2.400000095367432,7.999579855010835,-9999,3943.057757625,-5.476058959960938,0.7422943115234375,-1.401779174804688,3943.047762625,0.7045931935681515,-1.048153327148043,0.0535369038166234,4.681481838226318,2.054550409317017,8.001664161682129,-5.045169353485107,0.7935625910758972,-0.3877126276493073,XArbitraryZVertical,0.1943578649968911,-0.4615155656829301,0.2860651536354693,0.8169424358295502,-0.8652613162994385,-0.0535113327205181,-0.4984568059444427,0,0,0,-1,-1,3940.850590166667,unknown,2,2022-06-02T11:07:36.713+02:00,2022-06-02T10:17:13.754+02:00,757,1.530461,0,0,607.4087,0,0,2022-06-02T11:07:36.713+02:00,675853656.7128081,0,3.613281,101.3391,1,0.74
526,2022-06-02T11:07:38.931+02:00,1654160858.000257,53.22904793425763,10.39848599246965,36.88443,0.07815958,0.7991827,120.5091666211721,91.00998761955069,2.400000095367432,7.999579855010835,-9999,3943.067752625,-5.468231201171875,-0.037384033203125,-1.333038330078125,3943.057757625,0.797891100376478,-1.024504587396252,0.0192243194386914,7.797485828399658,3.480996131896973,7.454014301300049,-4.53985071182251,0.9784058928489684,-0.7585736513137817,XArbitraryZVertical,0.1981055882670723,-0.4483760436214895,0.3342300340457244,0.8049864185157404,-0.8542989492416382,-0.0192231349647045,-0.5194262266159058,0,0,0,-1,-1,3940.850590166667,unknown,2,2022-06-02T11:07:36.713+02:00,2022-06-02T10:17:13.754+02:00,757,1.530461,0,0,607.4087,0,0,2022-06-02T11:07:36.713+02:00,675853656.7128081,0,3.613281,101.3391,1,0.74
527,2022-06-02T11:07:38.941+02:00,1654160858.000257,53.22904793425763,10.39848599246965,36.88443,0.07815958,0.7991827,120.5091666211721,91.00998761955069,2.400000095367432,7.999579855010835,-9999,3943.077746625,-4.470794677734375,-0.7618255615234375,-1.062408447265625,3943.067752625,0.90889064805392,-0.9836533432581028,0.004762844068596,9.1642427444458,4.730579376220703,6.887660503387451,-4.778413772583008,0.3924581110477448,-0.871619701385498,XArbitraryZVertical,0.2091805010328848,-0.4233843378336223,0.3859228012842509,0.7924977800930024,-0.8325173258781433,-0.0047628260217607,-0.553978443145752,0,0,0,-1,-1,3940.850590166667,unknown,2,2022-06-02T11:07:36.713+02:00,2022-06-02T10:17:13.754+02:00,757,1.530461,0,0,607.4087,0,0,2022-06-02T11:07:36.713+02:00,675853656.7128081,0,3.613281,101.3391,1,0.74
528,2022-06-02T11:07:38.951+02:00,1654160858.000257,53.22904793425763,10.39848599246965,36.88443,0.07815958,0.7991827,120.5091666211721,91.00998761955069,2.400000095367432,7.999579855010835,-9999,3943.087741625,-3.929763793945312,-1.280517578125,-0.717315673828125,3943.077746625,1.019542580323636,-0.9357299430585668,0.0012670596695846,8.329565048217773,4.839380264282227,6.349594116210938,-4.18772029876709,-0.4315943121910095,-0.6120612621307373,XArbitraryZVertical,0.2205625097923699,-0.3933661672744824,0.4352867542031065,0.7791923114825184,-0.8050316572189331,-0.0012670593569055,-0.5932304859161377,0,0,0,-1,-1,3940.850590166667,unknown,2,2022-06-02T11:07:36.713+02:00,2022-06-02T10:17:13.754+02:00,757,1.530461,0,0,607.4087,0,0,2022-06-02T11:07:36.713+02:00,675853656.7128081,0,3.613281,101.3391,1,0.74
529,2022-06-02T11:07:38.961+02:00,1654160858.000257,53.22904793425763,10.39848599246965,36.88443,0.07815958,0.7991827,120.5091666211721,91.00998761955069,2.400000095367432,7.999579855010835,-9999,3943.097736625,-3.581573486328125,-1.394500732421875,-0.5173797607421875,3943.087741625,1.113400366758086,-0.8883228262193703,-0.0010824661434458,6.122674942016602,4.556619167327881,5.499717235565186,-3.346025228500366,-1.052794575691223,-0.2638934850692749,XArbitraryZVertical,0.2266335845972026,-0.3650755908360787,0.4773161635910695,0.7665026689726467,-0.7760145664215088,0.0010824659839272,-0.6307140588760376,0,0,0,-1,-1,3940.850590166667,unknown,2,2022-06-02T11:07:36.713+02:00,2022-06-02T10:17:13.754+02:00,757,1.530461,0,0,607.4087,0,0,2022-06-02T11:07:36.713+02:00,675853656.7128081,0,3.613281,101.3391,1,0.74
530,2022-06-02T11:07:38.971+02:00,1654160858.000257,53.22904793425763,10.39848599246965,36.88443,0.07815958,0.7991827,120.5091666211721,91.00998761955069,2.400000095367432,7.999579855010835,-9999,3943.107730625,-3.138763427734375,-1.231643676757812,-0.504913330078125,3943.097736625,1.183383638570662,-0.8450857543484523,-0.0101759974689681,3.331584930419922,4.006407260894775,5.001945018768311,-3.019039392471313,-1.405317425727844,0.0824712514877319,XArbitraryZVertical,0.2248746933457544,-0.3429504065496257,0.5104351978779246,0.7558255896957078,-0.747989296913147,0.010175822302699,-0.6636328101158142,0,0,0,-1,-1,3940.850590166667,unknown,2,2022-06-02T11:07:36.713+02:00,2022-06-02T10:17:13.754+02:00,757,1.530461,0,0,607.4087,0,0,2022-06-02T11:07:36.713+02:00,675853656.7128081,0,3.613281,101.3391,1,0.74
531,2022-06-02T11:07:38.981+02:00,1654160858.000257,53.22904793425763,10.39848599246965,36.88443,0.07815958,0.7991827,120.5091666211721,91.00998761955069,2.400000095367432,7.999579855010835,-9999,3943.117725625,-2.721633911132812,-0.9912261962890624,-0.42620849609375,3943.107730625,1.231105975459688,-0.807286990687101,-0.0326371800473448,0.7101423740386963,3.321238040924072,4.763311862945557,-2.649796962738037,-1.359688282012939,0.1855537295341492,XArbitraryZVertical,0.214507972980011,-0.3293022812431098,0.5361692497739962,0.7470401297123659,-0.7220292091369629,0.0326313860714435,-0.6910926699638367,0,0,0,-1,-1,3940.850590166667,unknown,2,2022-06-02T11:07:36.713+02:00,2022-06-02T10:17:13.754+02:00,757,1.530461,0,0,607.4087,0,0,2022-06-02T11:07:36.713+02:00,675853656.7128081,0,3.613281,101.3391,1,0.74
532,2022-06-02T11:07:38.991+02:00,1654160858.000257,53.22904793425763,10.39848599246965,36.88443,0.07815958,0.7991827,120.5091666211721,91.00998761955069,2.400000095367432,7.999579855010835,-9999,3943.127720625,-2.558334350585938,-0.7173309326171875,-0.3220672607421875,3943.117725625,1.261493194158937,-0.7776220862969617,-0.0680108441946007,-1.288873195648193,2.291352033615112,4.534736633300781,-2.208802700042725,-1.188823342323303,0.2284993529319763,XArbitraryZVertical,0.1980296761046362,-0.3245242692658324,0.5558224915947078,0.7392764450817226,-0.6999650001525879,0.0679584294557571,-0.7109364867210388,0,0,0,-1,-1,3940.850590166667,unknown,2,2022-06-02T11:07:36.713+02:00,2022-06-02T10:17:13.754+02:00,757,1.530461,0,0,607.4087,0,0,2022-06-02T11:07:36.713+02:00,675853656.7128081,0,3.613281,101.3391,1,0.74
533,2022-06-02T11:07:39.001+02:00,1654160858.000257,53.22904793425763,10.39848599246965,36.88443,0.07815958,0.7991827,120.5091666211721,91.00998761955069,2.400000095367432,7.999579855010835,-9999,3943.137714625,-2.472763061523438,-0.409271240234375,-0.26788330078125,3943.127720625,1.279279011841574,-0.7577998584443209,-0.1132392539696554,-2.652985811233521,1.383602738380432,4.294535160064697,-1.924575209617615,-0.9652618169784546,0.3583098649978638,XArbitraryZVertical,0.1782589904002971,-0.3276808930745061,0.5704745171634558,0.7317156975669447,-0.682922899723053,0.1129973977804184,-0.7216979265213013,0,0,0,-1,-1,3940.850590166667,unknown,2,2022-06-02T11:07:36.713+02:00,2022-06-02T10:17:13.754+02:00,757,1.530461,0,0,607.4087,0,0,2022-06-02T11:07:36.713+02:00,675853656.7128081,0,3.613281,101.3391,1,0.74
534,2022-06-02T11:07:39.011+02:00,1654160858.000257,53.22904793425763,10.39848599246965,36.88443,0.07815958,0.7991827,120.5091666211721,91.00998761955069,2.400000095367432,7.999579855010835,-9999,3943.147709625,-2.325714111328125,-0.0972137451171875,-0.2412567138671875,3943.137714625,1.290060899427912,-0.74577329243461,-0.1637558366837053,-3.172132730484009,0.7672330737113953,4.182122707366943,-1.847383141517639,-0.7325134873390198,0.4341174960136414,XArbitraryZVertical,0.1574319450136803,-0.3359270712547194,0.5818395713923193,0.7237615836091442,-0.6694625020027161,0.1630249321460724,-0.7247363924980164,0,0,0,-1,-1,3940.850590166667,unknown,2,2022-06-02T11:07:36.713+02:00,2022-06-02T10:17:13.754+02:00,757,1.530461,0,0,607.4087,0,0,2022-06-02T11:07:36.713+02:00,675853656.7128081,0,3.613281,101.3391,1,0.74
535,2022-06-02T11:07:39.022+02:00,1654160858.000257,53.22904793425763,10.39848599246965,36.88443,0.07815958,0.7991827,120.5091666211721,91.00998761955069,2.400000095367432,7.999579855010835,-9999,3943.157704625,-2.176864624023438,0.1342926025390625,-0.25543212890625,3943.147709625,1.299075022666021,-0.7389092414837575,-0.2145524320042665,-3.071568965911865,0.3220860958099365,3.981717586517334,-1.753535032272339,-0.4617352485656738,0.4758713245391846,XArbitraryZVertical,0.1376348561158973,-0.3463078997054982,0.591556010375957,0.7149747563837283,-0.6580402851104736,0.2129101455211639,-0.7222549915313721,0,0,0,-1,-1,3940.850590166667,unknown,2,2022-06-02T11:07:36.713+02:00,2022-06-02T10:17:13.754+02:00,757,1.530461,0,0,607.4087,0,0,2022-06-02T11:07:36.713+02:00,675853656.7128081,0,3.613281,101.3391,1,0.74
536,2022-06-02T11:07:39.031+02:00,1654160858.000257,53.22904793425763,10.39848599246965,36.88443,0.07815958,0.7991827,120.5091666211721,91.00998761955069,2.400000095367432,7.999579855010835,-9999,3943.167698625,-2.054977416992188,0.274993896484375,-0.2652435302734375,3943.157704625,1.30875471662599,-0.7348491201903438,-0.2609419444170387,-2.496866464614868,0.0367992259562015,3.635314702987671,-1.600848913192749,-0.2239331603050232,0.4677006006240845,XArbitraryZVertical,0.1204462911880893,-0.3564897058247521,0.600292439206731,0.7057312645027553,-0.6477778553962708,0.2579907178878784,-0.7168155908584595,0,0,0,-1,-1,3940.850590166667,unknown,2,2022-06-02T11:07:36.713+02:00,2022-06-02T10:17:13.754+02:00,757,1.530461,0,0,607.4087,0,0,2022-06-02T11:07:36.713+02:00,675853656.7128081,0,3.613281,101.3391,1,0.74
537,2022-06-02T11:07:39.042+02:00,1654160858.000257,53.22904793425763,10.39848599246965,36.88443,0.07815958,0.7991827,120.5091666211721,91.00998761955069,2.400000095367432,7.999579855010835,-9999,3943.177693625,-1.993179321289062,0.281982421875,-0.3414306640625,3943.167698625,1.320587109941811,-0.7321029869774132,-0.2997427593772186,-1.712884664535522,-0.148653119802475,3.240575551986694,-1.464548587799072,-0.0783860981464386,0.4553279280662537,XArbitraryZVertical,0.1069611546465175,-0.3650419172221108,0.6085031469056974,0.6964391218649156,-0.6386313438415527,0.2952744364738464,-0.7106074094772339,0,0,0,-1,-1,3940.850590166667,unknown,2,2022-06-02T11:07:36.713+02:00,2022-06-02T10:17:13.754+02:00,757,1.530461,0,0,607.4087,0,0,2022-06-02T11:07:36.713+02:00,675853656.7128081,0,3.613281,101.3391,1,0.74
538,2022-06-02T11:07:39.052+02:00,1654160858.000257,53.22904793425763,10.39848599246965,36.88443,0.07815958,0.7991827,120.5091666211721,91.00998761955069,2.400000095367432,7.999579855010835,-9999,3943.187688625,-1.94439697265625,0.22747802734375,-0.4294586181640625,3943.177693625,1.335832368130413,-0.7295815009053734,-0.3286435342410108,-0.6236987709999084,-0.2834911048412323,2.776509046554565,-1.391576766967773,-0.0289973020553588,0.4107881784439087,XArbitraryZVertical,0.0979990625222173,-0.370968238115333,0.6166214764754662,0.6874275392705557,-0.6308842301368713,0.3227594494819641,-0.7055575251579285,0,0,0,-1,-1,3940.850590166667,unknown,2,2022-06-02T11:07:36.713+02:00,2022-06-02T10:17:13.754+02:00,757,1.530461,0,0,607.4087,0,0,2022-06-02T11:07:36.713+02:00,675853656.7128081,0,3.613281,101.3391,1,0.74
539,2022-06-02T11:07:39.061+02:00,1654160858.000257,53.22904793425763,10.39848599246965,36.88443,0.07815958,0.7991827,120.5091666211721,91.00998761955069,2.400000095367432,7.999579855010835,-9999,3943.197682625,-1.847702026367188,0.12664794921875,-0.5043792724609375,3943.187688625,1.355794155940217,-0.7263323619052942,-0.3456613027464044,0.5797801613807678,-0.4244399070739746,2.303914546966553,-1.344998836517334,-0.0786261260509491,0.3149977326393127,XArbitraryZVertical,0.0942582884906489,-0.3733870678070865,0.6251001954620393,0.6789308460528921,-0.6248497366905212,0.3388189375400543,-0.7033949494361877,0,0,0,-1,-1,3940.850590166667,unknown,2,2022-06-02T11:07:36.713+02:00,2022-06-02T10:17:13.754+02:00,757,1.530461,0,0,607.4087,0,0,2022-06-02T11:07:36.713+02:00,675853656.7128081,0,3.613281,101.3391,1,0.74
540,2022-06-02T11:07:39.081+02:00,1654160858.000257,53.22904793425763,10.39848599246965,36.88443,0.07815958,0.7991827,120.5091666211721,91.00998761955069,2.400000095367432,7.999579855010835,-9999,3943.207677625,-1.766876220703125,0.0172119140625,-0.50244140625,3943.197682625,1.380835560414068,-0.7221616421255429,-0.3504979338298478,1.784616947174072,-0.4582359492778778,1.841875910758972,-1.275969386100769,-0.1581848859786987,0.2369835376739502,XArbitraryZVertical,0.0957923214599396,-0.372082439024886,0.6341558295133789,0.6709879413882076,-0.620820164680481,0.3433655202388763,-0.7047569751739502,0,0,0,-1,-1,3940.850590166667,unknown,2,2022-06-02T11:07:36.713+02:00,2022-06-02T10:17:13.754+02:00,757,1.530461,0,0,607.4087,0,0,2022-06-02T11:07:36.713+02:00,675853656.7128081,0,3.613281,101.3391,1,0.74
541,2022-06-02T11:07:39.089+02:00,1654160858.000257,53.22904793425763,10.39848599246965,36.88443,0.07815958,0.7991827,120.5091666211721,91.00998761955069,2.400000095367432,7.999579855010835,-9999,3943.217672625,-1.699569702148438,-0.558685302734375,-0.377288818359375,3943.207677625,1.409601077334909,-0.7167261348328334,-0.3436566624502636,2.785030603408813,-0.4066429436206818,1.29923677444458,-1.18208909034729,-0.263461172580719,0.1894897818565369,XArbitraryZVertical,0.1019215781961689,-0.366979872343549,0.6434712178193577,0.6639898177186608,-0.6185089945793152,0.3369321823120117,-0.7098755240440369,0,0,0,-1,-1,3940.850590166667,unknown,2,2022-06-02T11:07:36.713+02:00,2022-06-02T10:17:13.754+02:00,757,1.530461,0,0,607.4087,0,0,2022-06-02T11:07:36.713+02:00,675853656.7128081,0,3.613281,101.3391,1,0.74
542,2022-06-02T11:07:39.092+02:00,1654160858.000257,53.22904793425763,10.39848599246965,36.88443,0.07815958,0.7991827,120.5091666211721,91.00998761955069,2.400000095367432,7.999579855010835,-9999,3943.227666625,-1.358139038085938,-1.2298583984375,-0.1802520751953125,3943.217672625,1.440447316828995,-0.7109172209975843,-0.3226679225067015,4.410439491271973,-0.4777733087539673,0.3085978627204895,-1.129894971847534,-0.4691670536994934,0.2787619829177856,XArbitraryZVertical,0.113362381588038,-0.3575194673541051,0.6523134466257265,0.6586470098952658,-0.6188538670539856,0.317097932100296,-0.7186576128005981,0,0,0,-1,-1,3940.850590166667,unknown,2,2022-06-02T11:07:36.713+02:00,2022-06-02T10:17:13.754+02:00,757,1.530461,0,0,607.4087,0,0,2022-06-02T11:07:36.713+02:00,675853656.7128081,0,3.613281,101.3391,1,0.74
543,2022-06-02T11:07:39.101+02:00,1654160858.000257,53.22904793425763,10.39848599246965,36.88443,0.07815958,0.7991827,120.5091666211721,91.00998761955069,2.400000095367432,7.999579855010835,-9999,3943.237661625,-1.11785888671875,-0.3398895263671875,-0.1706695556640625,3943.227666625,1.478338262903456,-0.7072817468998734,-0.2776065961536057,7.102725505828857,-0.9936698079109192,-0.6243650913238525,-0.9377901554107666,-1.327582597732544,0.4396315217018127,XArbitraryZVertical,0.1351369870553464,-0.3409159424083877,0.6613185310945422,0.6543485944579863,-0.6248929500579834,0.2740546762943268,-0.7310286164283752,0,0,0,-1,-1,3940.850590166667,unknown,2,2022-06-02T11:07:36.713+02:00,2022-06-02T10:17:13.754+02:00,757,1.530461,0,0,607.4087,0,0,2022-06-02T11:07:36.713+02:00,675853656.7128081,0,3.613281,101.3391,1,0.74
544,2022-06-02T11:07:39.111+02:00,1654160858.000257,53.22904793425763,10.39848599246965,36.88443,0.07815958,0.7991827,120.5091666211721,91.00998761955069,2.400000095367432,7.999579855010835,-9999,3943.247656625,-1.093353271484375,0.06610107421875,-0.089324951171875,3943.237661625,1.520955850570833,-0.7061698843275485,-0.2150646221801923,7.440169811248779,-0.8277322053909302,-1.143752336502075,-0.5604526400566101,-1.111024141311646,0.5943990349769592,XArbitraryZVertical,0.1640070684716619,-0.3184953156214166,0.6698997088219062,0.6503051306866593,-0.6339748501777649,0.2134105563163757,-0.7433248162269592,0,0,0,-1,-1,3940.850590166667,unknown,2,2022-06-02T11:07:36.713+02:00,2022-06-02T10:17:13.754+02:00,757,1.530461,0,0,607.4087,0,0,2022-06-02T11:07:36.713+02:00,675853656.7128081,0,3.613281,101.3391,1,0.74
545,2022-06-02T11:07:39.121+02:00,1654160858.000257,53.22904793425763,10.39848599246965,36.88443,0.07815958,0.7991827,120.5091666211721,91.00998761955069,2.400000095367432,7.999579855010835,-9999,3943.257650625,-1.159317016601562,-0.3471527099609375,0.0718841552734375,3943.247656625,1.558658124592157,-0.7060639873074556,-0.152818823516451,6.82045841217041,-0.6006207466125488,-1.268625497817993,-0.4506978392601013,-0.1286041289567947,0.5932555198669434,XArbitraryZVertical,0.1913262946446189,-0.2955797122879397,0.6763105982031357,0.6470168626810947,-0.6412821412086487,0.1522247046232224,-0.7520537376403809,0,0,0,-1,-1,3940.850590166667,unknown,2,2022-06-02T11:07:36.713+02:00,2022-06-02T10:17:13.754+02:00,757,1.530461,0,0,607.4087,0,0,2022-06-02T11:07:36.713+02:00,675853656.7128081,0,3.613281,101.3391,1,0.74
546,2022-06-02T11:07:39.131+02:00,1654160858.000257,53.22904793425763,10.39848599246965,36.88443,0.07815958,0.7991827,120.5091666211721,91.00998761955069,2.400000095367432,7.999579855010835,-9999,3943.267645625,-1.03228759765625,-0.8507232666015625,0.0626068115234375,3943.257650625,1.589896811568977,-0.7080761996433759,-0.0971962181968444,5.601423263549805,-0.6479067802429199,-1.249924063682556,-0.4700361490249634,-0.1757175922393799,0.7649861574172974,XArbitraryZVertical,0.2152724915306029,-0.275032993403397,0.6805603156231004,0.6440902557924304,-0.6473039984703064,0.097043253481388,-0.7560291886329651,0,0,0,-1,-1,3940.850590166667,unknown,2,2022-06-02T11:07:36.713+02:00,2022-06-02T10:17:13.754+02:00,757,1.530461,0,0,607.4087,0,0,2022-06-02T11:07:36.713+02:00,675853656.7128081,0,3.613281,101.3391,1,0.74
547,2022-06-02T11:07:39.141+02:00,1654160858.000257,53.22904793425763,10.39848599246965,36.88443,0.07815958,0.7991827,120.5091666211721,91.00998761955069,2.400000095367432,7.999579855010835,-9999,3943.277640625,-0.8700408935546875,-0.8023529052734375,0.129852294921875,3943.267645625,1.611578586709189,-0.7133977722357929,-0.0514080918578763,4.092232704162598,-0.7209305167198181,-1.481668829917908,-0.4726327061653137,-0.7086883187294006,0.8268905878067017,XArbitraryZVertical,0.2351306403200108,-0.2591171616143258,0.6819619685000045,0.6422613561421878,-0.653542160987854,0.0513854511082172,-0.7551437616348267,0,0,0,-1,-1,3940.850590166667,unknown,2,2022-06-02T11:07:36.713+02:00,2022-06-02T10:17:13.754+02:00,757,1.530461,0,0,607.4087,0,0,2022-06-02T11:07:36.713+02:00,675853656.7128081,0,3.613281,101.3391,1,0.74
548,2022-06-02T11:07:39.151+02:00,1654160858.000257,53.22904793425763,10.39848599246965,36.88443,0.07815958,0.7991827,120.5091666211721,91.00998761955069,2.400000095367432,7.999579855010835,-9999,3943.287634625,-0.8170013427734375,-0.747222900390625,0.1281585693359375,3943.277640625,1.619544385195599,-0.7207151423773566,-0.0175526017364694,2.04866099357605,-0.8442859649658203,-1.728096961975098,-0.2834014892578125,-0.8893778920173645,0.8460821509361267,XArbitraryZVertical,0.2496610203316318,-0.2491189792005238,0.6797278828951647,0.643101057131579,-0.6598204970359802,0.0175516996532678,-0.7512181997299194,0,0,0,-1,-1,3940.850590166667,unknown,2,2022-06-02T11:07:36.713+02:00,2022-06-02T10:17:13.754+02:00,757,1.530461,0,0,607.4087,0,0,2022-06-02T11:07:36.713+02:00,675853656.7128081,0,3.613281,101.3391,1,0.74
549,2022-06-02T11:07:39.161+02:00,1654160858.000257,53.22904793425763,10.39848599246965,36.88443,0.07815958,0.7991827,120.5091666211721,91.00998761955069,2.400000095367432,7.999579855010835,-9999,3943.297629625,-0.91082763671875,-0.6571807861328125,0.0515594482421875,3943.287634625,1.614298523830274,-0.7314069157296215,0.0031424710055517,0.4128745794296265,-1.323267698287964,-1.823185801506042,-0.1572049260139465,-0.7541970014572144,0.8792873024940491,XArbitraryZVertical,0.2593201797106157,-0.2462461724202802,0.6741640546020863,0.6462341308449789,-0.6679140329360962,-0.0031424658372998,-0.7442317605018616,0,0,0,-1,-1,3940.850590166667,unknown,2,2022-06-02T11:07:36.713+02:00,2022-06-02T10:17:13.754+02:00,757,1.530461,0,0,607.4087,0,0,2022-06-02T11:07:36.713+02:00,675853656.7128081,0,3.613281,101.3391,1,0.74
550,2022-06-02T11:07:39.171+02:00,1654160858.000257,53.22904793425763,10.39848599246965,36.88443,0.07815958,0.7991827,120.5091666211721,91.00998761955069,2.400000095367432,7.999579855010835,-9999,3943.307624625,-1.030014038085938,-0.4924774169921875,-0.0382232666015625,3943.297629625,1.598238653143006,-0.7460982568755277,0.0151518299724124,-0.7385819554328918,-1.604389905929565,-2.207257032394409,-0.1690621972084045,-0.7043921947479248,0.8379573225975037,XArbitraryZVertical,0.2661334922627192,-0.2490857035574711,0.6655004347517951,0.651335792599885,-0.6787008047103882,-0.0151512501761317,-0.7342585325241089,0,0,0,-1,-1,3940.850590166667,unknown,2,2022-06-02T11:07:36.713+02:00,2022-06-02T10:17:13.754+02:00,757,1.530461,0,0,607.4087,0,0,2022-06-02T11:07:36.713+02:00,675853656.7128081,0,3.613281,101.3391,1,0.74
