loggingTime(txt),locationTimestamp_since1970(s),locationLatitude(WGS84),locationLongitude(WGS84),locationAltitude(m),locationSpeed(m/s),locationSpeedAccuracy(m/s),locationCourse(°),locationCourseAccuracy(°),locationVerticalAccuracy(m),locationHorizontalAccuracy(m),locationFloor(Z),accelerometerTimestamp_sinceReboot(s),accelerometerAccelerationX(G),accelerometerAccelerationY(G),accelerometerAccelerationZ(G),motionTimestamp_sinceReboot(s),motionYaw(rad),motionRoll(rad),motionPitch(rad),motionRotationRateX(rad/s),motionRotationRateY(rad/s),motionRotationRateZ(rad/s),motionUserAccelerationX(G),motionUserAccelerationY(G),motionUserAccelerationZ(G),motionAttitudeReferenceFrame(txt),motionQuaternionX(R),motionQuaternionY(R),motionQuaternionZ(R),motionQuaternionW(R),motionGravityX(G),motionGravityY(G),motionGravityZ(G),motionMagneticFieldX(µT),motionMagneticFieldY(µT),motionMagneticFieldZ(µT),motionHeading(°),motionMagneticFieldCalibrationAccuracy(Z),activityTimestamp_sinceReboot(s),activity(txt),activityActivityConfidence(Z),activityActivityStartDate(txt),pedometerStartDate(txt),pedometerNumberofSteps(N),pedometerAverageActivePace(s/m),pedometerCurrentPace(s/m),pedometerCurrentCadence(steps/s),pedometerDistance(m),pedometerFloorAscended(N),pedometerFloorDescended(N),pedometerEndDate(txt),altimeterTimestamp_sinceReboot(s),altimeterReset(bool),altimeterRelativeAltitude(m),altimeterPressure(kPa),batteryState(N),batteryLevel(R)
2022-06-02T10:52:45.609+02:00,1654159964.512815,53.22877926302944,10.39812440143782,42.63968,-1,-1,-1,-1,37.92177963256836,40,-9999,3109.84493875,-0.0557708740234375,-0.4767913818359375,-0.796173095703125,3109.83494475,0.05913241129854682,-0.1245570205683877,0.5407660155042632,0.008699082769453526,-0.0464673675596714,-0.3624021410942078,0.05069202184677124,0.003455579280853271,0.03983598947525024,XArbitraryZVertical,0.2682392834544745,-0.05207015983467464,0.01181603597716624,0.9618713896283262,-0.1065086424350739,-0.5147928595542908,-0.8506727814674377,0,0,0,-1,-1,3108.656895,unknown,2,2022-06-02T10:52:44.379+02:00,2022-06-02T10:17:13.754+02:00,516,1.505399,0,0,401.0887,0,0,2022-06-02T10:52:44.378+02:00,675852764.3783144,0,4.652344,101.3266,1,0.79
2022-06-02T10:52:45.630+02:00,1654159964.512815,53.22877926302944,10.39812440143782,42.63968,-1,-1,-1,-1,37.92177963256836,40,-9999,3109.85493375,-0.0630340576171875,-0.480804443359375,-0.7936248779296875,3109.84493875,0.05531660212965286,-0.1235889367433297,0.5409555508782914,-0.01089505944401026,-0.04785101115703583,-0.3578459024429321,0.04637740552425385,0.02726918458938599,0.05236935615539551,XArbitraryZVertical,0.2682256529843489,-0.05211215308570941,0.01010431008882639,0.9618924402947812,-0.1056730449199677,-0.5149553418159485,-0.8506786227226257,0,0,0,-1,-1,3108.656895,unknown,2,2022-06-02T10:52:44.379+02:00,2022-06-02T10:17:13.754+02:00,516,1.505399,0,0,401.0887,0,0,2022-06-02T10:52:44.378+02:00,675852764.3783144,0,4.652344,101.3266,1,0.79
2022-06-02T10:52:45.645+02:00,1654159964.512815,53.22877926302944,10.39812440143782,42.63968,-1,-1,-1,-1,37.92177963256836,40,-9999,3109.86492775,-0.062652587890625,-0.493621826171875,-0.7985382080078125,3109.85493375,0.05147383041568006,-0.1224507547812984,0.5411088795661549,-0.02350672706961632,-0.03287605568766594,-0.3552495837211609,0.04555206745862961,0.0367390513420105,0.05599653720855713,XArbitraryZVertical,0.2681939712248445,-0.05207684822649571,0.008403666773057403,0.9619195420316511,-0.1046951040625572,-0.5150867700576782,-0.8507199883460999,0,0,0,-1,-1,3108.656895,unknown,2,2022-06-02T10:52:44.379+02:00,2022-06-02T10:17:13.754+02:00,516,1.505399,0,0,401.0887,0,0,2022-06-02T10:52:44.378+02:00,675852764.3783144,0,4.652344,101.3266,1,0.79
2022-06-02T10:52:45.648+02:00,1654159964.512815,53.22877926302944,10.39812440143782,42.63968,-1,-1,-1,-1,37.92177963256836,40,-9999,3109.87492175,-0.04058837890625,-0.50604248046875,-0.8159332275390625,3109.86492775,0.0475494666596384,-0.1210073820012443,0.5410769963753381,-0.05085492506623268,-0.02191941253840923,-0.3467433154582977,0.03968735784292221,0.02850246429443359,0.05591893196105957,XArbitraryZVertical,0.2680711401530582,-0.05190938152744713,0.006710699536274375,0.9619762475503398,-0.1034690737724304,-0.5150594711303711,-0.8508865833282471,0,0,0,-1,-1,3108.656895,unknown,2,2022-06-02T10:52:44.379+02:00,2022-06-02T10:17:13.754+02:00,516,1.505399,0,0,401.0887,0,0,2022-06-02T10:52:44.378+02:00,675852764.3783144,0,4.652344,101.3266,1,0.79
2022-06-02T10:52:45.649+02:00,1654159964.512815,53.22877926302944,10.39812440143782,42.63968,-1,-1,-1,-1,37.92177963256836,40,-9999,3109.88491575,-0.037139892578125,-0.51788330078125,-0.833892822265625,3109.87492175,0.04381812945000471,-0.1195980591189972,0.5406237572420662,-0.1007146239280701,-0.0337425172328949,-0.307284027338028,0.04938017576932907,0.01543378829956055,0.04443949460983276,XArbitraryZVertical,0.2677524424449541,-0.05173992847215705,0.005119161124492608,0.9620838916689272,-0.1022976413369179,-0.5146709084510803,-0.8512632250785828,0,0,0,-1,-1,3108.656895,unknown,2,2022-06-02T10:52:44.379+02:00,2022-06-02T10:17:13.754+02:00,516,1.505399,0,0,401.0887,0,0,2022-06-02T10:52:44.378+02:00,675852764.3783144,0,4.652344,101.3266,1,0.79
2022-06-02T10:52:45.650+02:00,1654159964.512815,53.22877926302944,10.39812440143782,42.63968,-1,-1,-1,-1,37.92177963256836,40,-9999,3109.894909625,-0.0435791015625,-0.50927734375,-0.8495025634765625,3109.88491575,0.0404105400978424,-0.1184969064370072,0.5396991540107661,-0.1489402800798416,-0.05660242587327957,-0.2793319225311279,0.06465801596641541,0.0003738999366760254,0.02636229991912842,XArbitraryZVertical,0.2672174303990099,-0.0516826255378173,0.003656193522186209,0.9622423446835223,-0.1014164164662361,-0.5138779282569885,-0.8518475294113159,0,0,0,-1,-1,3108.656895,unknown,2,2022-06-02T10:52:44.379+02:00,2022-06-02T10:17:13.754+02:00,516,1.505399,0,0,401.0887,0,0,2022-06-02T10:52:44.378+02:00,675852764.3783144,0,4.652344,101.3266,1,0.79
2022-06-02T10:52:45.652+02:00,1654159964.512815,53.22877926302944,10.39812440143782,42.63968,-1,-1,-1,-1,37.92177963256836,40,-9999,3109.904903625,-0.0376434326171875,-0.50140380859375,-0.8659210205078125,3109.894909625,0.0371829856261596,-0.1177291085419117,0.5383868958825548,-0.1616768538951874,-0.0837235227227211,-0.2671785950660706,0.06055828183889389,-0.004887402057647705,0.01145333051681519,XArbitraryZVertical,0.2665017925910363,-0.05176638948030999,0.002246340817326125,0.9624406553700797,-0.1008414626121521,-0.5127517580986023,-0.8525940775871277,0,0,0,-1,-1,3108.656895,unknown,2,2022-06-02T10:52:44.379+02:00,2022-06-02T10:17:13.754+02:00,516,1.505399,0,0,401.0887,0,0,2022-06-02T10:52:44.378+02:00,675852764.3783144,0,4.652344,101.3266,1,0.79
2022-06-02T10:52:45.655+02:00,1654159964.512815,53.22877926302944,10.39812440143782,42.63968,-1,-1,-1,-1,37.92177963256836,40,-9999,3109.914898625,-0.034912109375,-0.5030517578125,-0.884185791015625,3109.904903625,0.03404180461045724,-0.1172466935342053,0.5372083840738612,-0.1359473764896393,-0.1108086705207825,-0.2650443315505981,0.05945464223623276,0.01094615459442139,-0.004912137985229492,XArbitraryZVertical,0.2658531065627641,-0.05197156320493813,0.0008349400942203029,0.9626112538030721,-0.100500762462616,-0.5117396116256714,-0.8532421588897705,0,0,0,-1,-1,3108.656895,unknown,2,2022-06-02T10:52:44.379+02:00,2022-06-02T10:17:13.754+02:00,516,1.505399,0,0,401.0887,0,0,2022-06-02T10:52:44.378+02:00,675852764.3783144,0,4.652344,101.3266,1,0.79
2022-06-02T10:52:45.658+02:00,1654159964.512815,53.22877926302944,10.39812440143782,42.63968,-1,-1,-1,-1,37.92177963256836,40,-9999,3109.924892625,-0.0367889404296875,-0.507049560546875,-0.8932952880859375,3109.914898625,0.03098315737920588,-0.1172196756345564,0.5361431163610183,-0.1268223226070404,-0.1653456836938858,-0.2603528797626495,0.06686528772115707,0.007482469081878662,-0.01898640394210815,XArbitraryZVertical,0.265260858186029,-0.05238129281723251,-0.0006013549756858031,0.96275247174001,-0.1005414053797722,-0.5108240842819214,-0.8537857532501221,0,0,0,-1,-1,3108.656895,unknown,2,2022-06-02T10:52:44.379+02:00,2022-06-02T10:17:13.754+02:00,516,1.505399,0,0,401.0887,0,0,2022-06-02T10:52:44.378+02:00,675852764.3783144,0,4.652344,101.3266,1,0.79
2022-06-02T10:52:45.660+02:00,1654159964.512815,53.22877926302944,10.39812440143782,42.63968,-1,-1,-1,-1,37.92177963256836,40,-9999,3109.934886625,-0.0186309814453125,-0.5094146728515625,-0.88494873046875,3109.924892625,0.02785152401571929,-0.1176906920257687,0.5353240466522274,-0.09109169244766235,-0.2205054759979248,-0.2806854546070099,0.06173180043697357,0.003558516502380371,-0.03947740793228149,XArbitraryZVertical,0.264783860487058,-0.05303517167088334,-0.002146564848275479,0.9628458698663152,-0.1009926423430443,-0.5101197957992554,-0.854153573513031,0,0,0,-1,-1,3108.656895,unknown,2,2022-06-02T10:52:44.379+02:00,2022-06-02T10:17:13.754+02:00,516,1.505399,0,0,401.0887,0,0,2022-06-02T10:52:44.378+02:00,675852764.3783144,0,4.652344,101.3266,1,0.79
2022-06-02T10:52:45.667+02:00,1654159964.512815,53.22877926302944,10.39812440143782,42.63968,-1,-1,-1,-1,37.92177963256836,40,-9999,3109.944880625,-0.0274810791015625,-0.5123443603515625,-0.876220703125,3109.934886625,0.02464281677527783,-0.1186799663035408,0.5348877429897227,-0.05918090045452118,-0.2683667540550232,-0.2757119834423065,0.07346734404563904,0.002435505390167236,-0.03645765781402588,XArbitraryZVertical,0.2644866290744739,-0.05394217130705232,-0.003809052471136664,0.9628719789968596,-0.1018639206886292,-0.5097444653511047,-0.8542741537094116,0,0,0,-1,-1,3108.656895,unknown,2,2022-06-02T10:52:44.379+02:00,2022-06-02T10:17:13.754+02:00,516,1.505399,0,0,401.0887,0,0,2022-06-02T10:52:44.378+02:00,675852764.3783144,0,4.652344,101.3266,1,0.79
2022-06-02T10:52:45.678+02:00,1654159964.512815,53.22877926302944,10.39812440143782,42.63968,-1,-1,-1,-1,37.92177963256836,40,-9999,3109.954874625,-0.0341339111328125,-0.5241546630859375,-0.8686676025390625,3109.944880625,0.02149176607630195,-0.1200558938504903,0.5347138658547248,-0.03274436667561531,-0.2859646379947662,-0.2777735590934753,0.08545649796724319,-0.001315116882324219,-0.0257837176322937,XArbitraryZVertical,0.2643139153593694,-0.05502349153250236,-0.005502698375141998,0.9628500078876432,-0.1030498594045639,-0.5095948576927185,-0.8542211651802063,0,0,0,-1,-1,3108.656895,unknown,2,2022-06-02T10:52:44.379+02:00,2022-06-02T10:17:13.754+02:00,516,1.505399,0,0,401.0887,0,0,2022-06-02T10:52:44.378+02:00,675852764.3783144,0,4.652344,101.3266,1,0.79
2022-06-02T10:52:45.687+02:00,1654159964.512815,53.22877926302944,10.39812440143782,42.63968,-1,-1,-1,-1,37.92177963256836,40,-9999,3109.964868625,-0.0472259521484375,-0.536834716796875,-0.86944580078125,3109.954874625,0.01841970478650083,-0.1215723699527891,0.534820630596646,-0.01152243185788393,-0.2951304316520691,-0.2667992115020752,0.06948749721050262,-0.005175292491912842,-0.01802992820739746,XArbitraryZVertical,0.2642750926296532,-0.05615813638915134,-0.007185261879760336,0.9627840793853544,-0.1043385490775108,-0.5096867084503174,-0.8540098667144775,0,0,0,-1,-1,3108.656895,unknown,2,2022-06-02T10:52:44.379+02:00,2022-06-02T10:17:13.754+02:00,516,1.505399,0,0,401.0887,0,0,2022-06-02T10:52:44.378+02:00,675852764.3783144,0,4.652344,101.3266,1,0.79
2022-06-02T10:52:45.697+02:00,1654159964.512815,53.22877926302944,10.39812440143782,42.63968,-1,-1,-1,-1,37.92177963256836,40,-9999,3109.974863625,-0.064788818359375,-0.539825439453125,-0.87579345703125,3109.964868625,0.01545606940669873,-0.1232127548206401,0.5348939800571628,-0.03882186114788055,-0.2939909398555756,-0.2620880007743835,0.06806079298257828,-0.02282768487930298,-0.01460772752761841,XArbitraryZVertical,0.2642197283006459,-0.05733845147482302,-0.008830860963143269,0.9627160288502301,-0.105734720826149,-0.5097498297691345,-0.8538004755973816,0,0,0,-1,-1,3108.656895,unknown,2,2022-06-02T10:52:44.379+02:00,2022-06-02T10:17:13.754+02:00,516,1.505399,0,0,401.0887,0,0,2022-06-02T10:52:44.378+02:00,675852764.3783144,0,4.652344,101.3266,1,0.79
2022-06-02T10:52:45.707+02:00,1654159964.512815,53.22877926302944,10.39812440143782,42.63968,-1,-1,-1,-1,37.92177963256836,40,-9999,3109.984857625,-0.0672149658203125,-0.5401763916015625,-0.8799591064453125,3109.974863625,0.01248558491986518,-0.1248010281043895,0.534642796832951,-0.07266584783792496,-0.2902231216430664,-0.2643626034259796,0.04894011467695236,-0.02781975269317627,-0.01965457201004028,XArbitraryZVertical,0.2640051657765642,-0.05849814094186577,-0.01046271262785521,0.9626887721286246,-0.10710658878088,-0.509533703327179,-0.8537584543228149,0,0,0,-1,-1,3108.656895,unknown,2,2022-06-02T10:52:44.379+02:00,2022-06-02T10:17:13.754+02:00,516,1.505399,0,0,401.0887,0,0,2022-06-02T10:52:44.378+02:00,675852764.3783144,0,4.652344,101.3266,1,0.79
2022-06-02T10:52:45.716+02:00,1654159964.512815,53.22877926302944,10.39812440143782,42.63968,-1,-1,-1,-1,37.92177963256836,40,-9999,3109.994851625,-0.0629119873046875,-0.5286407470703125,-0.88641357421875,3109.984857625,0.009375579696709914,-0.1262570178196886,0.5341037246963,-0.1001986041665077,-0.2826558649539948,-0.2752811908721924,0.0406351163983345,-0.03220516443252563,-0.02330797910690308,XArbitraryZVertical,0.2636456829575406,-0.05961511039679743,-0.01213507578238729,0.9626991114847655,-0.1083841100335121,-0.5090698003768921,-0.8538739681243896,0,0,0,-1,-1,3108.656895,unknown,2,2022-06-02T10:52:44.379+02:00,2022-06-02T10:17:13.754+02:00,516,1.505399,0,0,401.0887,0,0,2022-06-02T10:52:44.378+02:00,675852764.3783144,0,4.652344,101.3266,1,0.79
2022-06-02T10:52:45.726+02:00,1654159964.512815,53.22877926302944,10.39812440143782,42.63968,-1,-1,-1,-1,37.92177963256836,40,-9999,3110.004845625,-0.0571746826171875,-0.5285491943359375,-0.8859405517578125,3109.994851625,0.006203638768126607,-0.1276248866659223,0.5334663523749573,-0.09643076360225677,-0.2723986804485321,-0.2784322500228882,0.04422464966773987,-0.02607053518295288,-0.02710264921188354,XArbitraryZVertical,0.2632346430215791,-0.06069787689536096,-0.01382225865157187,0.9627211716658252,-0.1095932647585869,-0.5085210800170898,-0.8540465831756592,0,0,0,-1,-1,3108.656895,unknown,2,2022-06-02T10:52:44.379+02:00,2022-06-02T10:17:13.754+02:00,516,1.505399,0,0,401.0887,0,0,2022-06-02T10:52:44.378+02:00,675852764.3783144,0,4.652344,101.3266,1,0.79
2022-06-02T10:52:45.737+02:00,1654159964.512815,53.22877926302944,10.39812440143782,42.63968,-1,-1,-1,-1,37.92177963256836,40,-9999,3110.014839625,-0.04931640625,-0.531036376953125,-0.885406494140625,3110.004845625,0.003049464160705173,-0.1289292706479217,0.5328028353536363,-0.1074931025505066,-0.2646552324295044,-0.2720332443714142,0.04988326132297516,-0.01853954792022705,-0.03303068876266479,XArbitraryZVertical,0.2628091511972389,-0.0617469108517343,-0.01549139818333777,0.962745331020276,-0.1107505410909653,-0.5079496502876282,-0.8542373180389404,0,0,0,-1,-1,3108.656895,unknown,2,2022-06-02T10:52:44.379+02:00,2022-06-02T10:17:13.754+02:00,516,1.505399,0,0,401.0887,0,0,2022-06-02T10:52:44.378+02:00,675852764.3783144,0,4.652344,101.3266,1,0.79
2022-06-02T10:52:45.746+02:00,1654159964.512815,53.22877926302944,10.39812440143782,42.63968,-1,-1,-1,-1,37.92177963256836,40,-9999,3110.024833625,-0.040771484375,-0.5479278564453125,-0.87664794921875,3110.014839625,-1.762840168040364e-05,-0.1302695701254477,0.5320801996092098,-0.1067061349749565,-0.2667119801044464,-0.2669402062892914,0.05815581977367401,-0.02164930105209351,-0.03176331520080566,XArbitraryZVertical,0.2623548838295933,-0.06280120847465455,-0.01712116239125257,0.9627733822041248,-0.1119430214166641,-0.5073270797729492,-0.8544518351554871,0,0,0,-1,-1,3108.656895,unknown,2,2022-06-02T10:52:44.379+02:00,2022-06-02T10:17:13.754+02:00,516,1.505399,0,0,401.0887,0,0,2022-06-02T10:52:44.378+02:00,675852764.3783144,0,4.652344,101.3266,1,0.79
2022-06-02T10:52:45.757+02:00,1654159964.512815,53.22877926302944,10.39812440143782,42.63968,-1,-1,-1,-1,37.92177963256836,40,-9999,3110.034828625,-0.04193115234375,-0.558746337890625,-0.871063232421875,3110.024833625,-0.003076329911101045,-0.1316607095323864,0.53135610149796,-0.1057128831744194,-0.2698690891265869,-0.270756334066391,0.06700670719146729,-0.0327562689781189,-0.02621537446975708,XArbitraryZVertical,0.2618969485563089,-0.06387772954996468,-0.0187531400922533,0.9627968495322774,-0.1131797730922699,-0.5067029595375061,-0.8546592593193054,0,0,0,-1,-1,3108.656895,unknown,2,2022-06-02T10:52:44.379+02:00,2022-06-02T10:17:13.754+02:00,516,1.505399,0,0,401.0887,0,0,2022-06-02T10:52:44.378+02:00,675852764.3783144,0,4.652344,101.3266,1,0.79
2022-06-02T10:52:45.766+02:00,1654159964.512815,53.22877926302944,10.39812440143782,42.63968,-1,-1,-1,-1,37.92177963256836,40,-9999,3110.044822625,-0.0280303955078125,-0.5491790771484375,-0.85675048828125,3110.034828625,-0.006307795300319371,-0.1329898918769984,0.5307513552187118,-0.08837863057851791,-0.2622348666191101,-0.3015435338020325,0.07294396311044693,-0.04797190427780151,-0.01861667633056641,XArbitraryZVertical,0.2614886997964027,-0.06494498785534016,-0.02046358198025519,0.9628015651711945,-0.1143562793731689,-0.5061814785003662,-0.8548116087913513,0,0,0,-1,-1,3108.656895,unknown,2,2022-06-02T10:52:44.379+02:00,2022-06-02T10:17:13.754+02:00,516,1.505399,0,0,401.0887,0,0,2022-06-02T10:52:44.378+02:00,675852764.3783144,0,4.652344,101.3266,1,0.79
2022-06-02T10:52:45.776+02:00,1654159964.512815,53.22877926302944,10.39812440143782,42.63968,-1,-1,-1,-1,37.92177963256836,40,-9999,3110.054816625,-0.0314178466796875,-0.55364990234375,-0.8510284423828125,3110.044822625,-0.009815098988310888,-0.1342782190016958,0.5303899438778679,-0.07069564610719681,-0.2820879518985748,-0.3282539844512939,0.08035624027252197,-0.05063354969024658,-0.008604228496551514,XArbitraryZVertical,0.2611860465458914,-0.06602592841756467,-0.02230885794403461,0.9627693164166721,-0.1154819503426552,-0.5058697462081909,-0.854844868183136,0,0,0,-1,-1,3108.656895,unknown,2,2022-06-02T10:52:44.379+02:00,2022-06-02T10:17:13.754+02:00,516,1.505399,0,0,401.0887,0,0,2022-06-02T10:52:44.378+02:00,675852764.3783144,0,4.652344,101.3266,1,0.79
2022-06-02T10:52:45.787+02:00,1654159964.512815,53.22877926302944,10.39812440143782,42.63968,-1,-1,-1,-1,37.92177963256836,40,-9999,3110.064810625,-0.03814697265625,-0.5461883544921875,-0.8433074951171875,3110.054816625,-0.01364330106077938,-0.1355334916779716,0.5303927004296046,-0.03096580691635609,-0.2857021391391754,-0.3695982098579407,0.08863116800785065,-0.04413092136383057,0.001868844032287598,XArbitraryZVertical,0.2610453098703005,-0.06712995745023631,-0.02431558781956111,0.962682528986329,-0.1165547370910645,-0.5058721303939819,-0.8546978235244751,0,0,0,-1,-1,3108.656895,unknown,2,2022-06-02T10:52:44.379+02:00,2022-06-02T10:17:13.754+02:00,516,1.505399,0,0,401.0887,0,0,2022-06-02T10:52:44.378+02:00,675852764.3783144,0,4.652344,101.3266,1,0.79
2022-06-02T10:52:45.797+02:00,1654159964.512815,53.22877926302944,10.39812440143782,42.63968,-1,-1,-1,-1,37.92177963256836,40,-9999,3110.074804625,-0.041168212890625,-0.5363616943359375,-0.8433990478515625,3110.064810625,-0.01793438943038663,-0.1365377312693452,0.5306916326761933,-0.02903721109032631,-0.2793634235858917,-0.4085103273391724,0.08287705481052399,-0.04611611366271973,0.007811844348907471,XArbitraryZVertical,0.2610313412365305,-0.0681718563026128,-0.02652150181686273,0.9625547710211116,-0.1173924058675766,-0.5061299800872803,-0.8544304966926575,0,0,0,-1,-1,3108.656895,unknown,2,2022-06-02T10:52:44.379+02:00,2022-06-02T10:17:13.754+02:00,516,1.505399,0,0,401.0887,0,0,2022-06-02T10:52:44.378+02:00,675852764.3783144,0,4.652344,101.3266,1,0.79
2022-06-02T10:52:45.807+02:00,1654159964.512815,53.22877926302944,10.39812440143782,42.63968,-1,-1,-1,-1,37.92177963256836,40,-9999,3110.084798625,-0.0341644287109375,-0.53790283203125,-0.8407135009765625,3110.074804625,-0.02259845309584898,-0.1372516269626975,0.5310127182929464,-0.03670791164040565,-0.2665711939334869,-0.4293455481529236,0.07679665833711624,-0.03518861532211304,0.01225125789642334,XArbitraryZVertical,0.2610159456361189,-0.06912281675123051,-0.02886939972371533,0.9624235650506991,-0.117980107665062,-0.506406843662262,-0.8541854023933411,0,0,0,-1,-1,3108.656895,unknown,2,2022-06-02T10:52:44.379+02:00,2022-06-02T10:17:13.754+02:00,516,1.505399,0,0,401.0887,0,0,2022-06-02T10:52:44.378+02:00,675852764.3783144,0,4.652344,101.3266,1,0.79
2022-06-02T10:52:45.816+02:00,1654159964.512815,53.22877926302944,10.39812440143782,42.63968,-1,-1,-1,-1,37.92177963256836,40,-9999,3110.094793625,-0.023040771484375,-0.5436859130859375,-0.8357391357421875,3110.084798625,-0.02741044904140948,-0.1377254859534482,0.5312583523712535,-0.04298688098788261,-0.2502793371677399,-0.4424298703670502,0.08118212968111038,-0.0283392071723938,0.01176685094833374,XArbitraryZVertical,0.2609597118327082,-0.06997802318711281,-0.03125441247706297,0.9623025877608639,-0.1183677837252617,-0.5066186785697937,-0.8540062308311462,0,0,0,-1,-1,3108.656895,unknown,2,2022-06-02T10:52:44.379+02:00,2022-06-02T10:17:13.754+02:00,516,1.505399,0,0,401.0887,0,0,2022-06-02T10:52:44.378+02:00,675852764.3783144,0,4.652344,101.3266,1,0.79
2022-06-02T10:52:45.826+02:00,1654159964.512815,53.22877926302944,10.39812440143782,42.63968,-1,-1,-1,-1,37.92177963256836,40,-9999,3110.104787625,-0.00823974609375,-0.5378265380859375,-0.8289794921875,3110.094793625,-0.03242889001456765,-0.137881809346371,0.5314692780853424,-0.05225468054413795,-0.2394408285617828,-0.4470909535884857,0.08435270935297012,-0.03650391101837158,0.0156707763671875,XArbitraryZVertical,0.2608822321675902,-0.07070756298288999,-0.03369589234032645,0.9621877763985126,-0.1184865832328796,-0.5068004727363586,-0.8538817763328552,0,0,0,-1,-1,3108.656895,unknown,2,2022-06-02T10:52:44.379+02:00,2022-06-02T10:17:13.754+02:00,516,1.505399,0,0,401.0887,0,0,2022-06-02T10:52:44.378+02:00,675852764.3783144,0,4.652344,101.3266,1,0.79
2022-06-02T10:52:45.837+02:00,1654159964.512815,53.22877926302944,10.39812440143782,42.63968,-1,-1,-1,-1,37.92177963256836,40,-9999,3110.114781625,-0.0140533447265625,-0.527252197265625,-0.822723388671875,3110.104787625,-0.03739096936836463,-0.1381222987503769,0.5315290959343834,-0.08176729828119278,-0.2516335546970367,-0.4322070479393005,0.1070606037974358,-0.03393465280532837,0.02293646335601807,XArbitraryZVertical,0.2607304513641558,-0.07147028595789248,-0.03611620434356439,0.9620847717305663,-0.1186877563595772,-0.5068520903587341,-0.8538232445716858,0,0,0,-1,-1,3108.656895,unknown,2,2022-06-02T10:52:44.379+02:00,2022-06-02T10:17:13.754+02:00,516,1.505399,0,0,401.0887,0,0,2022-06-02T10:52:44.378+02:00,675852764.3783144,0,4.652344,101.3266,1,0.79
2022-06-02T10:52:45.846+02:00,1654159964.512815,53.22877926302944,10.39812440143782,42.63968,-1,-1,-1,-1,37.92177963256836,40,-9999,3110.124775625,-0.0223388671875,-0.517730712890625,-0.8145294189453125,3110.114781625,-0.04238089496485192,-0.1384252367805538,0.5310968998568896,-0.1476813405752182,-0.2698637247085571,-0.4347056448459625,0.1080208420753479,-0.02658629417419434,0.0270998477935791,XArbitraryZVertical,0.2603374152409146,-0.072265796290625,-0.03854269746996807,0.9620376923729167,-0.1189766302704811,-0.5064794421195984,-0.8540041446685791,0,0,0,-1,-1,3108.656895,unknown,2,2022-06-02T10:52:44.379+02:00,2022-06-02T10:17:13.754+02:00,516,1.505399,0,0,401.0887,0,0,2022-06-02T10:52:44.378+02:00,675852764.3783144,0,4.652344,101.3266,1,0.79
2022-06-02T10:52:45.856+02:00,1654159964.512815,53.22877926302944,10.39812440143782,42.63968,-1,-1,-1,-1,37.92177963256836,40,-9999,3110.134769625,-0.0233001708984375,-0.5102081298828125,-0.798492431640625,3110.124775625,-0.04752315418600463,-0.1388102294998526,0.5300504067756991,-0.1982730478048325,-0.2845913171768188,-0.439549595117569,0.1019073873758316,-0.01567864418029785,0.03464329242706299,XArbitraryZVertical,0.2596390497809358,-0.07311763201358773,-0.04103441546164385,0.9620589694179946,-0.1193786710500717,-0.5055768489837646,-0.8544827699661255,0,0,0,-1,-1,3108.656895,unknown,2,2022-06-02T10:52:44.379+02:00,2022-06-02T10:17:13.754+02:00,516,1.505399,0,0,401.0887,0,0,2022-06-02T10:52:44.378+02:00,675852764.3783144,0,4.652344,101.3266,1,0.79
2022-06-02T10:52:45.866+02:00,1654159964.512815,53.22877926302944,10.39812440143782,42.63968,-1,-1,-1,-1,37.92177963256836,40,-9999,3110.144764625,-0.0198516845703125,-0.5119476318359375,-0.773651123046875,3110.134769625,-0.05288341918741418,-0.1392035855543678,0.528565286228348,-0.2449755668640137,-0.3020837306976318,-0.4550915360450745,0.09455029666423798,-0.008903920650482178,0.0468287467956543,XArbitraryZVertical,0.2587184890485731,-0.07399702769514761,-0.04361903230019181,0.9621260244985187,-0.1198188289999962,-0.5042949318885803,-0.8551783561706543,0,0,0,-1,-1,3108.656895,unknown,2,2022-06-02T10:52:44.379+02:00,2022-06-02T10:17:13.754+02:00,516,1.505399,0,0,401.0887,0,0,2022-06-02T10:52:44.378+02:00,675852764.3783144,0,4.652344,101.3266,1,0.79
2022-06-02T10:52:45.876+02:00,1654159964.512815,53.22877926302944,10.39812440143782,42.63968,-1,-1,-1,-1,37.92177963256836,40,-9999,3110.154758625,-0.0172271728515625,-0.507720947265625,-0.751068115234375,3110.144764625,-0.05844058870183671,-0.1396821419991348,0.5264150690503764,-0.3411594033241272,-0.3267545402050018,-0.4465571343898773,0.09868080168962479,-0.008930742740631104,0.06970900297164917,XArbitraryZVertical,0.2574652762303228,-0.07493509921876863,-0.04628983512535541,0.9622647683853989,-0.1203787624835968,-0.5024369955062866,-0.8561927080154419,0,0,0,-1,-1,3108.656895,unknown,2,2022-06-02T10:52:44.379+02:00,2022-06-02T10:17:13.754+02:00,516,1.505399,0,0,401.0887,0,0,2022-06-02T10:52:44.378+02:00,675852764.3783144,0,4.652344,101.3266,1,0.79
2022-06-02T10:52:45.886+02:00,1654159964.512815,53.22877926302944,10.39812440143782,42.63968,-1,-1,-1,-1,37.92177963256836,40,-9999,3110.164752625,-0.025115966796875,-0.4942779541015625,-0.723785400390625,3110.154758625,-0.06410185008657511,-0.1403938248010612,0.5230947636496256,-0.4719757437705994,-0.3639841973781586,-0.4449586868286133,0.1048176810145378,-0.01154494285583496,0.09560799598693848,XArbitraryZVertical,0.2556351088197392,-0.07598487020610209,-0.04900635553175792,0.9625359531080957,-0.1212208494544029,-0.499563455581665,-0.8577539920806885,0,0,0,-1,-1,3108.656895,unknown,2,2022-06-02T10:52:44.379+02:00,2022-06-02T10:17:13.754+02:00,516,1.505399,0,0,401.0887,0,0,2022-06-02T10:52:44.378+02:00,675852764.3783144,0,4.652344,101.3266,1,0.79
2022-06-02T10:52:45.896+02:00,1654159964.512815,53.22877926302944,10.39812440143782,42.63968,-1,-1,-1,-1,37.92177963256836,40,-9999,3110.174746625,-0.022491455078125,-0.4764404296875,-0.694610595703125,3110.164752625,-0.06997328603669854,-0.1414206441008115,0.5183946766123972,-0.6168534755706787,-0.41423699259758,-0.4403828680515289,0.1004432439804077,-0.00672614574432373,0.1214034557342529,XArbitraryZVertical,0.25311905923427,-0.07719259967005297,-0.05182377984394827,0.9629570066041299,-0.1224311366677284,-0.4954863786697388,-0.8599441051483154,0,0,0,-1,-1,3108.656895,unknown,2,2022-06-02T10:52:44.379+02:00,2022-06-02T10:17:13.754+02:00,516,1.505399,0,0,401.0887,0,0,2022-06-02T10:52:44.378+02:00,675852764.3783144,0,4.652344,101.3266,1,0.79
2022-06-02T10:52:45.906+02:00,1654159964.512815,53.22877926302944,10.39812440143782,42.63968,-1,-1,-1,-1,37.92177963256836,40,-9999,3110.184740625,-0.0212860107421875,-0.4601287841796875,-0.6681060791015625,3110.174746625,-0.07609669600979578,-0.1428962707277793,0.5120901960218602,-0.8003004789352417,-0.4749069809913635,-0.4382312893867493,0.100018247961998,0.004709869623184204,0.1549211144447327,XArbitraryZVertical,0.2498006231781026,-0.07861918427990219,-0.05477140850944661,0.9635448727213199,-0.1241423562169075,-0.4900003969669342,-0.8628373742103577,0,0,0,-1,-1,3108.656895,unknown,2,2022-06-02T10:52:44.379+02:00,2022-06-02T10:17:13.754+02:00,516,1.505399,0,0,401.0887,0,0,2022-06-02T10:52:44.378+02:00,675852764.3783144,0,4.652344,101.3266,1,0.79
2022-06-02T10:52:45.916+02:00,1654159964.512815,53.22877926302944,10.39812440143782,42.63968,-1,-1,-1,-1,37.92177963256836,40,-9999,3110.194734625,-0.022064208984375,-0.450439453125,-0.6544647216796875,3110.184740625,-0.08239673286958525,-0.1450158528413716,0.5037646476891779,-1.014226198196411,-0.552665114402771,-0.4179601669311523,0.105544775724411,0.01466256380081177,0.1857929229736328,XArbitraryZVertical,0.2454719661246835,-0.08033678348232359,-0.05782207279784465,0.9643370919498611,-0.1265560835599899,-0.4827259182929993,-0.8665790557861328,0,0,0,-1,-1,3108.656895,unknown,2,2022-06-02T10:52:44.379+02:00,2022-06-02T10:17:13.754+02:00,516,1.505399,0,0,401.0887,0,0,2022-06-02T10:52:44.378+02:00,675852764.3783144,0,4.652344,101.3266,1,0.79
2022-06-02T10:52:45.926+02:00,1654159964.512815,53.22877926302944,10.39812440143782,42.63968,-1,-1,-1,-1,37.92177963256836,40,-9999,3110.204729625,-0.03271484375,-0.4216766357421875,-0.628448486328125,3110.194734625,-0.08890735991843242,-0.1478835518339873,0.4934643576378643,-1.194799423217773,-0.6412639617919922,-0.4200038611888885,0.1079769134521484,0.01699948310852051,0.2126524448394775,XArbitraryZVertical,0.2401449464325003,-0.0823903906569558,-0.06100048722050148,0.9653088132969923,-0.1297664195299149,-0.473679780960083,-0.871084451675415,0,0,0,-1,-1,3108.656895,unknown,2,2022-06-02T10:52:44.379+02:00,2022-06-02T10:17:13.754+02:00,516,1.505399,0,0,401.0887,0,0,2022-06-02T10:52:44.378+02:00,675852764.3783144,0,4.652344,101.3266,1,0.79
2022-06-02T10:52:45.936+02:00,1654159964.512815,53.22877926302944,10.39812440143782,42.63968,-1,-1,-1,-1,37.92177963256836,40,-9999,3110.214723625,-0.0734405517578125,-0.3828277587890625,-0.6042633056640625,3110.204729625,-0.09587639948096517,-0.1514567430569818,0.4815369598021277,-1.360711216926575,-0.7207750678062439,-0.4577530324459076,0.1083610057830811,0.02437543869018555,0.2324615120887756,XArbitraryZVertical,0.2339716237902345,-0.08478300309898396,-0.06442359770307317,0.9663946542637259,-0.1337210983037949,-0.463141918182373,-0.8761382699012756,0,0,0,-1,-1,3108.656895,unknown,2,2022-06-02T10:52:44.379+02:00,2022-06-02T10:17:13.754+02:00,516,1.505399,0,0,401.0887,0,0,2022-06-02T10:52:44.378+02:00,675852764.3783144,0,4.652344,101.3266,1,0.79
2022-06-02T10:52:45.946+02:00,1654159964.512815,53.22877926302944,10.39812440143782,42.63968,-1,-1,-1,-1,37.92177963256836,40,-9999,3110.224717625,-0.2020721435546875,-0.4171295166015625,-0.542694091796875,3110.214723625,-0.1036843675569574,-0.1552375571587776,0.4679982585303444,-1.531362533569336,-0.7510517239570618,-0.5006488561630249,0.0813336968421936,0.0430348813533783,0.265896201133728,XArbitraryZVertical,0.2269522326033764,-0.08730536250473409,-0.0682101807506498,0.9675834774860497,-0.1379895508289337,-0.4511006772518158,-0.881740927696228,0,0,0,-1,-1,3108.656895,unknown,2,2022-06-02T10:52:44.379+02:00,2022-06-02T10:17:13.754+02:00,516,1.505399,0,0,401.0887,0,0,2022-06-02T10:52:44.378+02:00,675852764.3783144,0,4.652344,101.3266,1,0.79
2022-06-02T10:52:45.957+02:00,1654159964.512815,53.22877926302944,10.39812440143782,42.63968,-1,-1,-1,-1,37.92177963256836,40,-9999,3110.234711625,-0.5715484619140625,-0.7097625732421875,-0.57269287109375,3110.224717625,-0.1151125600002967,-0.1586933937118268,0.4525156486220737,-1.975464344024658,-1.100483298301697,-1.425044536590576,0.04783859848976135,0.07736608386039734,0.3026764392852783,XArbitraryZVertical,0.2188127961014919,-0.08997934362380629,-0.07363389379482019,0.9688151529242314,-0.1421226263046265,-0.4372293651103973,-0.8880493640899658,0,0,0,-1,-1,3108.656895,unknown,2,2022-06-02T10:52:44.379+02:00,2022-06-02T10:17:13.754+02:00,516,1.505399,0,0,401.0887,0,0,2022-06-02T10:52:44.378+02:00,675852764.3783144,0,4.652344,101.3266,1,0.79
2022-06-02T10:52:45.966+02:00,1654159964.512815,53.22877926302944,10.39812440143782,42.63968,-1,-1,-1,-1,37.92177963256836,40,-9999,3110.244705625,0.1792755126953125,-0.158233642578125,-0.469696044921875,3110.234711625,-0.138044166491556,-0.1542807677667985,0.4326778691078184,-2.41109299659729,-0.2646803259849548,-1.492837071418762,-0.5073270797729492,-0.3593221008777618,0.4052112698554993,XArbitraryZVertical,0.2083164032041132,-0.08984848495997527,-0.0836621276199544,0.9703258098905004,-0.1395082175731659,-0.4193033874034882,-0.8970630764961243,0,0,0,-1,-1,3108.656895,unknown,2,2022-06-02T10:52:44.379+02:00,2022-06-02T10:17:13.754+02:00,516,1.505399,0,0,401.0887,0,0,2022-06-02T10:52:44.378+02:00,675852764.3783144,0,4.652344,101.3266,1,0.79
2022-06-02T10:52:45.976+02:00,1654159964.512815,53.22877926302944,10.39812440143782,42.63968,-1,-1,-1,-1,37.92177963256836,40,-9999,3110.254699625,-0.184173583984375,-0.21832275390625,-0.49981689453125,3110.244705625,-0.1518312532556859,-0.1540171026637923,0.4102583200520631,-2.376884937286377,-0.7824262380599976,-0.3682883381843567,0.04927860200405121,0.03802165389060974,0.3673292994499207,XArbitraryZVertical,0.196792550402472,-0.09050550674870045,-0.08965811750149863,0.9721331368522527,-0.1406787037849426,-0.3988462388515472,-0.9061629176139832,0,0,0,-1,-1,3108.656895,unknown,2,2022-06-02T10:52:44.379+02:00,2022-06-02T10:17:13.754+02:00,516,1.505399,0,0,401.0887,0,0,2022-06-02T10:52:44.378+02:00,675852764.3783144,0,4.652344,101.3266,1,0.79
2022-06-02T10:52:45.986+02:00,1654159964.512815,53.22877926302944,10.39812440143782,42.63968,-1,-1,-1,-1,37.92177963256836,40,-9999,3110.264694625,-0.2701263427734375,-0.589385986328125,-0.469512939453125,3110.254699625,-0.1556823563831478,-0.160172918644326,0.3891503746439459,-2.052203178405762,-0.5827291011810303,-0.1215043962001801,0.2235835343599319,0.2657702565193176,0.4625523686408997,XArbitraryZVertical,0.186042744058783,-0.09324076078267014,-0.09147197437622409,0.9738208836826229,-0.1475642025470734,-0.3794024586677551,-0.9133884906768799,0,0,0,-1,-1,3108.656895,unknown,2,2022-06-02T10:52:44.379+02:00,2022-06-02T10:17:13.754+02:00,516,1.505399,0,0,401.0887,0,0,2022-06-02T10:52:44.378+02:00,675852764.3783144,0,4.652344,101.3266,1,0.79
2022-06-02T10:52:45.996+02:00,1654159964.512815,53.22877926302944,10.39812440143782,42.63968,-1,-1,-1,-1,37.92177963256836,40,-9999,3110.274688625,-0.1596832275390625,-0.62384033203125,-0.4072265625,3110.264694625,-0.1634997775716784,-0.1625788859090007,0.3693012789962263,-2.14728045463562,-0.5041519403457642,-0.5747649073600769,-0.1634413152933121,-0.06783860921859741,0.4131561517715454,XArbitraryZVertical,0.1758677151764544,-0.09449633023495868,-0.09486440939571793,0.9752649301979543,-0.1509507447481155,-0.3609639108181,-0.9202820062637329,0,0,0,-1,-1,3108.656895,unknown,2,2022-06-02T10:52:44.379+02:00,2022-06-02T10:17:13.754+02:00,516,1.505399,0,0,401.0887,0,0,2022-06-02T10:52:44.378+02:00,675852764.3783144,0,4.652344,101.3266,1,0.79
2022-06-02T10:52:46.006+02:00,1654159964.512815,53.22877926302944,10.39812440143782,42.63968,-1,-1,-1,-1,37.92177963256836,40,-9999,3110.284682625,-0.182861328125,-0.598236083984375,-0.3861541748046875,3110.274688625,-0.1732285758660539,-0.1650605585331709,0.3468266470579887,-2.609294652938843,-0.6497480273246765,-0.4974506497383118,-0.03046923875808716,-0.295811802148819,0.5005040168762207,XArbitraryZVertical,0.1642892657246928,-0.09577123019319338,-0.0990892986574704,0.9767385449687395,-0.1545282900333405,-0.3399151265621185,-0.9276738166809082,0,0,0,-1,-1,3108.656895,unknown,2,2022-06-02T10:52:44.379+02:00,2022-06-02T10:17:13.754+02:00,516,1.505399,0,0,401.0887,0,0,2022-06-02T10:52:44.378+02:00,675852764.3783144,0,4.652344,101.3266,1,0.79
2022-06-02T10:52:46.016+02:00,1654159964.512815,53.22877926302944,10.39812440143782,42.63968,-1,-1,-1,-1,37.92177963256836,40,-9999,3110.294676625,-0.2189483642578125,-0.57989501953125,-0.376678466796875,3110.284682625,-0.1832280739224228,-0.1691748710167875,0.3196771769140182,-3.043215274810791,-0.7903340458869934,-0.4933742880821228,-0.00295703113079071,-0.2912239134311676,0.5366600751876831,XArbitraryZVertical,0.1502939227484653,-0.097568594944879,-0.1033872344705133,0.9783676190631878,-0.1598389595746994,-0.3142600953578949,-0.9357842206954956,0,0,0,-1,-1,3108.656895,unknown,2,2022-06-02T10:52:44.379+02:00,2022-06-02T10:17:13.754+02:00,516,1.505399,0,0,401.0887,0,0,2022-06-02T10:52:44.378+02:00,675852764.3783144,0,4.652344,101.3266,1,0.79
2022-06-02T10:52:46.026+02:00,1654159964.512815,53.22877926302944,10.39812440143782,42.63968,-1,-1,-1,-1,37.92177963256836,40,-9999,3110.304670625,-0.2686614990234375,-0.5394439697265625,-0.3794097900390625,3110.294676625,-0.1944146275444568,-0.1741341690131998,0.2890110098103082,-3.366104602813721,-0.8494128584861755,-0.5623448491096497,-0.03018859028816223,-0.3065330982208252,0.5671840310096741,XArbitraryZVertical,0.1344287754603027,-0.09956772327049654,-0.1081418916045958,0.9799594872650373,-0.1660699099302292,-0.2850043773651123,-0.9440303444862366,0,0,0,-1,-1,3108.656895,unknown,2,2022-06-02T10:52:44.379+02:00,2022-06-02T10:17:13.754+02:00,516,1.505399,0,0,401.0887,0,0,2022-06-02T10:52:44.378+02:00,675852764.3783144,0,4.652344,101.3266,1,0.79
2022-06-02T10:52:46.036+02:00,1654159964.512815,53.22877926302944,10.39812440143782,42.63968,-1,-1,-1,-1,37.92177963256836,40,-9999,3110.314664625,-0.3365020751953125,-0.51715087890625,-0.416259765625,3110.304670625,-0.2067113676318923,-0.1795627697634972,0.2552669433875758,-3.696861982345581,-0.8839888572692871,-0.5815223455429077,-0.0634397566318512,-0.3051287531852722,0.5763826966285706,XArbitraryZVertical,0.116922807267918,-0.1015364813155954,-0.1132721701828744,0.981421850629891,-0.1728120446205139,-0.2525037229061127,-0.9520388245582581,0,0,0,-1,-1,3108.656895,unknown,2,2022-06-02T10:52:44.379+02:00,2022-06-02T10:17:13.754+02:00,516,1.505399,0,0,401.0887,0,0,2022-06-02T10:52:44.378+02:00,675852764.3783144,0,4.652344,101.3266,1,0.79
2022-06-02T10:52:46.046+02:00,1654159964.512815,53.22877926302944,10.39812440143782,42.63968,-1,-1,-1,-1,37.92177963256836,40,-9999,3110.324659625,-0.37127685546875,-0.493438720703125,-0.4729156494140625,3110.314664625,-0.2198472691102981,-0.1852139791816098,0.2185323646942051,-4.00155782699585,-0.8467134237289429,-0.5965039730072021,-0.1207143068313599,-0.3094785213470459,0.5677661895751953,XArbitraryZVertical,0.09784207873659906,-0.1032800588593573,-0.1186043075826951,0.9826968609122134,-0.1797769963741302,-0.2167971283197403,-0.9595203399658203,0,0,0,-1,-1,3108.656895,unknown,2,2022-06-02T10:52:44.379+02:00,2022-06-02T10:17:13.754+02:00,516,1.505399,0,0,401.0887,0,0,2022-06-02T10:52:44.378+02:00,675852764.3783144,0,4.652344,101.3266,1,0.79
2022-06-02T10:52:46.056+02:00,1654159964.512815,53.22877926302944,10.39812440143782,42.63968,-1,-1,-1,-1,37.92177963256836,40,-9999,3110.334653625,-0.3869476318359375,-0.494415283203125,-0.4702606201171875,3110.324659625,-0.2340717374357838,-0.1906257862862038,0.1786119796048714,-4.393842220306396,-0.8075386881828308,-0.656267523765564,-0.1689485758543015,-0.325861006975174,0.5188012719154358,XArbitraryZVertical,0.07710672168060277,-0.1045079842694668,-0.12420542835034,0.983720258642614,-0.186459094285965,-0.1776638031005859,-0.9662652611732483,0,0,0,-1,-1,3108.656895,unknown,2,2022-06-02T10:52:44.379+02:00,2022-06-02T10:17:13.754+02:00,516,1.505399,0,0,401.0887,0,0,2022-06-02T10:52:44.378+02:00,675852764.3783144,0,4.652344,101.3266,1,0.79
2022-06-02T10:52:46.066+02:00,1654159964.512815,53.22877926302944,10.39812440143782,42.63968,-1,-1,-1,-1,37.92177963256836,40,-9999,3110.344647625,-0.402740478515625,-0.5022735595703125,-0.4732208251953125,3110.334653625,-0.2502316317442885,-0.1963044003405827,0.1343526962814157,-4.915129661560059,-0.83501797914505,-0.7848151326179504,-0.1826576590538025,-0.3536762595176697,0.4995280504226685,XArbitraryZVertical,0.05407943349518101,-0.1053456729685404,-0.1304354774482943,0.984359816258536,-0.1932883411645889,-0.1339488625526428,-0.971955418586731,0,0,0,-1,-1,3108.656895,unknown,2,2022-06-02T10:52:44.379+02:00,2022-06-02T10:17:13.754+02:00,516,1.505399,0,0,401.0887,0,0,2022-06-02T10:52:44.378+02:00,675852764.3783144,0,4.652344,101.3266,1,0.79
2022-06-02T10:52:46.076+02:00,1654159964.512815,53.22877926302944,10.39812440143782,42.63968,-1,-1,-1,-1,37.92177963256836,40,-9999,3110.354641625,-0.432830810546875,-0.4603118896484375,-0.5364227294921875,3110.344647625,-0.2691807979955382,-0.2028913787823554,0.08568518585491706,-5.373889446258545,-0.8891847729682922,-0.9695698022842407,-0.1947295367717743,-0.4185547828674316,0.506259560585022,XArbitraryZVertical,0.02864732441073337,-0.1059813356763184,-0.1376702588215834,0.9843749855452606,-0.2007629871368408,-0.08558037132024765,-0.975894570350647,0,0,0,-1,-1,3108.656895,unknown,2,2022-06-02T10:52:44.379+02:00,2022-06-02T10:17:13.754+02:00,516,1.505399,0,0,401.0887,0,0,2022-06-02T10:52:44.378+02:00,675852764.3783144,0,4.652344,101.3266,1,0.79
2022-06-02T10:52:46.086+02:00,1654159964.512815,53.22877926302944,10.39812440143782,42.63968,-1,-1,-1,-1,37.92177963256836,40,-9999,3110.364635625,-0.5076141357421875,-0.31695556640625,-0.598785400390625,3110.354641625,-0.2908133466649118,-0.2106431581857514,0.03337180730299023,-5.754105091094971,-0.937238335609436,-1.098133325576782,-0.2008022665977478,-0.4533287584781647,0.4830589890480042,XArbitraryZVertical,0.001187338870030836,-0.1064072858576094,-0.145807421621657,0.9835732169335809,-0.2089724689722061,-0.03336561471223831,-0.9773521423339844,0,0,0,-1,-1,3108.656895,unknown,2,2022-06-02T10:52:44.379+02:00,2022-06-02T10:17:13.754+02:00,516,1.505399,0,0,401.0887,0,0,2022-06-02T10:52:44.378+02:00,675852764.3783144,0,4.652344,101.3266,1,0.79
2022-06-02T10:52:46.099+02:00,1654159964.512815,53.22877926302944,10.39812440143782,42.63968,-1,-1,-1,-1,37.92177963256836,40,-9999,3110.374629625,-0.5932159423828125,-0.111907958984375,-0.61871337890625,3110.364635625,-0.31469448791773,-0.2204203694474269,-0.0218892879998752,-6.059918880462646,-1.038164496421814,-1.21565842628479,-0.2486518770456314,-0.4253909885883331,0.4006359577178955,XArbitraryZVertical,-0.0279774760804421,-0.1069174053152302,-0.1545498882414894,0.9817841673764801,-0.2185874581336975,0.02188754081726074,-0.975571870803833,0,0,0,-1,-1,3108.656895,unknown,2,2022-06-02T10:52:44.379+02:00,2022-06-02T10:17:13.754+02:00,516,1.505399,0,0,401.0887,0,0,2022-06-02T10:52:44.378+02:00,675852764.3783144,0,4.652344,101.3266,1,0.79
2022-06-02T10:52:46.110+02:00,1654159964.512815,53.22877926302944,10.39812440143782,42.63968,-1,-1,-1,-1,37.92177963256836,40,-9999,3110.384624625,-0.654937744140625,0.1455230712890625,-0.6355133056640625,3110.374629625,-0.3412115895897019,-0.2318792917189415,-0.07820436190426069,-6.073429107666016,-0.9658018946647644,-1.418460488319397,-0.3223633170127869,-0.2986904978752136,0.3627176880836487,XArbitraryZVertical,-0.0578911238045332,-0.1073210077845152,-0.1640541240829033,0.9788856338016713,-0.2291045337915421,0.07812467217445374,-0.9702616333961487,0,0,0,-1,-1,3108.656895,unknown,2,2022-06-02T10:52:44.379+02:00,2022-06-02T10:17:13.754+02:00,516,1.505399,0,0,401.0887,0,0,2022-06-02T10:52:44.378+02:00,675852764.3783144,0,4.652344,101.3266,1,0.79
2022-06-02T10:52:46.116+02:00,1654159964.512815,53.22877926302944,10.39812440143782,42.63968,-1,-1,-1,-1,37.92177963256836,40,-9999,3110.394618625,-0.6882476806640625,0.346099853515625,-0.6200103759765625,3110.384624625,-0.369850467297213,-0.2437722230587525,-0.1324194361130909,-5.781792163848877,-0.807667076587677,-1.550451993942261,-0.3888150155544281,-0.1169418841600418,0.3302246928215027,XArbitraryZVertical,-0.08685796837339758,-0.1071746348458247,-0.1742019771222514,0.974998904892871,-0.2392519563436508,0.1320327818393707,-0.9619385600090027,0,0,0,-1,-1,3108.656895,unknown,2,2022-06-02T10:52:44.379+02:00,2022-06-02T10:17:13.754+02:00,516,1.505399,0,0,401.0887,0,0,2022-06-02T10:52:44.378+02:00,675852764.3783144,0,4.652344,101.3266,1,0.79
2022-06-02T10:52:46.126+02:00,1654159964.512815,53.22877926302944,10.39812440143782,42.63968,-1,-1,-1,-1,37.92177963256836,40,-9999,3110.404612625,-0.7106170654296875,0.483428955078125,-0.6527252197265625,3110.394618625,-0.3992200252637649,-0.2554597917230816,-0.1819383315916831,-5.23715353012085,-0.5979663133621216,-1.624179482460022,-0.4253237247467041,0.0771966278553009,0.3261809349060059,XArbitraryZVertical,-0.1134685345736146,-0.1064708911167169,-0.1845164033654794,0.9704342434475851,-0.2485196143388748,0.1809362471103668,-0.9515776634216309,0,0,0,-1,-1,3108.656895,unknown,2,2022-06-02T10:52:44.379+02:00,2022-06-02T10:17:13.754+02:00,516,1.505399,0,0,401.0887,0,0,2022-06-02T10:52:44.378+02:00,675852764.3783144,0,4.652344,101.3266,1,0.79
2022-06-02T10:52:46.136+02:00,1654159964.512815,53.22877926302944,10.39812440143782,42.63968,-1,-1,-1,-1,37.92177963256836,40,-9999,3110.414606625,-0.7307586669921875,0.577239990234375,-0.7240447998046875,3110.404612625,-0.4289079557170017,-0.2662613108908617,-0.2254054581672454,-4.69157075881958,-0.3577189147472382,-1.766949892044067,-0.4440912902355194,0.1962981671094894,0.3099852204322815,XArbitraryZVertical,-0.1369848958599289,-0.1051520731527092,-0.1950063153512799,0.9654795042464567,-0.2564701735973358,0.2235015779733658,-0.9403563737869263,0,0,0,-1,-1,3108.656895,unknown,2,2022-06-02T10:52:44.379+02:00,2022-06-02T10:17:13.754+02:00,516,1.505399,0,0,401.0887,0,0,2022-06-02T10:52:44.378+02:00,675852764.3783144,0,4.652344,101.3266,1,0.79
2022-06-02T10:52:46.146+02:00,1654159964.512815,53.22877926302944,10.39812440143782,42.63968,-1,-1,-1,-1,37.92177963256836,40,-9999,3110.424600625,-0.7452850341796875,0.5920867919921875,-0.807037353515625,3110.414606625,-0.4598303276114911,-0.2760295226550654,-0.2637987897165894,-4.35014820098877,-0.09216954559087753,-1.94801926612854,-0.4578528702259064,0.2757949233055115,0.2447332739830017,XArbitraryZVertical,-0.1579195856966516,-0.1031061064658521,-0.2061495546286448,0.9601733532722802,-0.263109564781189,0.2607497870922089,-0.9288610816001892,0,0,0,-1,-1,3108.656895,unknown,2,2022-06-02T10:52:44.379+02:00,2022-06-02T10:17:13.754+02:00,516,1.505399,0,0,401.0887,0,0,2022-06-02T10:52:44.378+02:00,675852764.3783144,0,4.652344,101.3266,1,0.79
2022-06-02T10:52:46.156+02:00,1654159964.512815,53.22877926302944,10.39812440143782,42.63968,-1,-1,-1,-1,37.92177963256836,40,-9999,3110.434594625,-0.737152099609375,0.57806396484375,-0.8812408447265625,3110.424600625,-0.4920223416527343,-0.284552545773936,-0.299253731504536,-4.206580638885498,0.1635890752077103,-2.022870302200317,-0.4726236462593079,0.2986070513725281,0.151140034198761,XArbitraryZVertical,-0.177267019853535,-0.1000537849231046,-0.2178817281281609,0.9545119287340529,-0.2682515382766724,0.2948071956634521,-0.9171313047409058,0,0,0,-1,-1,3108.656895,unknown,2,2022-06-02T10:52:44.379+02:00,2022-06-02T10:17:13.754+02:00,516,1.505399,0,0,401.0887,0,0,2022-06-02T10:52:44.378+02:00,675852764.3783144,0,4.652344,101.3266,1,0.79
2022-06-02T10:52:46.166+02:00,1654159964.512815,53.22877926302944,10.39812440143782,42.63968,-1,-1,-1,-1,37.92177963256836,40,-9999,3110.444589625,-0.7281951904296875,0.6217041015625,-0.9069366455078125,3110.434594625,-0.5252501816691235,-0.2924310674362914,-0.3337798079620934,-4.236683368682861,0.3209118247032166,-2.072324275970459,-0.4710829854011536,0.2538042664527893,0.05679923295974731,XArbitraryZVertical,-0.1960080196211101,-0.09607827217046257,-0.2299052541706424,0.9484162009249681,-0.2723709344863892,0.3276165723800659,-0.9046996235847473,0,0,0,-1,-1,3108.656895,unknown,2,2022-06-02T10:52:44.379+02:00,2022-06-02T10:17:13.754+02:00,516,1.505399,0,0,401.0887,0,0,2022-06-02T10:52:44.378+02:00,675852764.3783144,0,4.652344,101.3266,1,0.79
2022-06-02T10:52:46.176+02:00,1654159964.512815,53.22877926302944,10.39812440143782,42.63968,-1,-1,-1,-1,37.92177963256836,40,-9999,3110.454583625,-0.739837646484375,0.6842498779296875,-0.886932373046875,3110.444589625,-0.5601893443350747,-0.3007560560729716,-0.3688681058114262,-4.409543037414551,0.4205776751041412,-2.1506667137146,-0.4538780152797699,0.2327170073986053,-0.009949743747711182,XArbitraryZVertical,-0.2149669897656572,-0.09140640021820405,-0.2422878819356352,0.9416637207595302,-0.2763159871101379,0.3605599105358124,-0.8908681273460388,0,0,0,-1,-1,3108.656895,unknown,2,2022-06-02T10:52:44.379+02:00,2022-06-02T10:17:13.754+02:00,516,1.505399,0,0,401.0887,0,0,2022-06-02T10:52:44.378+02:00,675852764.3783144,0,4.652344,101.3266,1,0.79
2022-06-02T10:52:46.186+02:00,1654159964.512815,53.22877926302944,10.39812440143782,42.63968,-1,-1,-1,-1,37.92177963256836,40,-9999,3110.464577625,-0.7416534423828125,0.7524566650390625,-0.8480224609375,3110.454583625,-0.5971146447947931,-0.3099174891185541,-0.4052581736210882,-4.585766792297363,0.5439251065254211,-2.174917697906494,-0.4530757665634155,0.2595524787902832,-0.02508085966110229,XArbitraryZVertical,-0.2345067922266572,-0.08600832779046848,-0.2549854333925127,0.9341259853176591,-0.2802768647670746,0.3942560255527496,-0.8752182722091675,0,0,0,-1,-1,3108.656895,unknown,2,2022-06-02T10:52:44.379+02:00,2022-06-02T10:17:13.754+02:00,516,1.505399,0,0,401.0887,0,0,2022-06-02T10:52:44.378+02:00,675852764.3783144,0,4.652344,101.3266,1,0.79
2022-06-02T10:52:46.196+02:00,1654159964.512815,53.22877926302944,10.39812440143782,42.63968,-1,-1,-1,-1,37.92177963256836,40,-9999,3110.474571625,-0.719146728515625,0.833587646484375,-0.779937744140625,3110.464577625,-0.6353732173133828,-0.3193396723884507,-0.4427685266916428,-4.709429740905762,0.7317249178886414,-2.132631540298462,-0.4591926634311676,0.2867672145366669,-0.0109635591506958,XArbitraryZVertical,-0.2543916243833438,-0.07963246479499399,-0.2677051809486045,0.9258927187070292,-0.2836661636829376,0.428442656993866,-0.8578871488571167,0,0,0,-1,-1,3108.656895,unknown,2,2022-06-02T10:52:44.379+02:00,2022-06-02T10:17:13.754+02:00,516,1.505399,0,0,401.0887,0,0,2022-06-02T10:52:44.378+02:00,675852764.3783144,0,4.652344,101.3266,1,0.79
2022-06-02T10:52:46.206+02:00,1654159964.512815,53.22877926302944,10.39812440143782,42.63968,-1,-1,-1,-1,37.92177963256836,40,-9999,3110.484565625,-0.6498870849609375,0.924530029296875,-0.760528564453125,3110.474571625,-0.674622261123196,-0.328365850677503,-0.4811983479956699,-4.836362838745117,0.9744688272476196,-2.079461336135864,-0.4488822221755981,0.3296843767166138,0.01850700378417969,XArbitraryZVertical,-0.2743675327886825,-0.07199305048565495,-0.2803436696605295,0.9170315436389088,-0.2858741879463196,0.4628417789936066,-0.8390789031982422,0,0,0,-1,-1,3108.656895,unknown,2,2022-06-02T10:52:44.379+02:00,2022-06-02T10:17:13.754+02:00,516,1.505399,0,0,401.0887,0,0,2022-06-02T10:52:44.378+02:00,675852764.3783144,0,4.652344,101.3266,1,0.79
2022-06-02T10:52:46.216+02:00,1654159964.512815,53.22877926302944,10.39812440143782,42.63968,-1,-1,-1,-1,37.92177963256836,40,-9999,3110.494559625,-0.59503173828125,1.016891479492188,-0.815216064453125,3110.484565625,-0.7149842624907133,-0.3373006114427274,-0.5207563988544227,-4.923340320587158,1.083279132843018,-2.043551921844482,-0.4036623239517212,0.3783942759037018,0.06656497716903687,XArbitraryZVertical,-0.2945038965277744,-0.06313084004646759,-0.2928528417885278,0.9074795124926227,-0.287072479724884,0.4975364208221436,-0.8185638785362244,0,0,0,-1,-1,3108.656895,unknown,2,2022-06-02T10:52:44.379+02:00,2022-06-02T10:17:13.754+02:00,516,1.505399,0,0,401.0887,0,0,2022-06-02T10:52:44.378+02:00,675852764.3783144,0,4.652344,101.3266,1,0.79
2022-06-02T10:52:46.226+02:00,1654159964.512815,53.22877926302944,10.39812440143782,42.63968,-1,-1,-1,-1,37.92177963256836,40,-9999,3110.504554625,-0.599853515625,1.038650512695312,-0.853424072265625,3110.494559625,-0.7574104415403268,-0.3481575960784348,-0.5595193951380862,-4.78913402557373,1.140373587608337,-2.224755525588989,-0.3229793906211853,0.4469889402389526,0.005860090255737305,XArbitraryZVertical,-0.3142280122872895,-0.05412671864638521,-0.3055369405771964,0.8972057608693403,-0.2891421318054199,0.5307789444923401,-0.7966620922088623,0,0,0,-1,-1,3108.656895,unknown,2,2022-06-02T10:52:44.379+02:00,2022-06-02T10:17:13.754+02:00,516,1.505399,0,0,401.0887,0,0,2022-06-02T10:52:44.378+02:00,675852764.3783144,0,4.652344,101.3266,1,0.79
2022-06-02T10:52:46.237+02:00,1654159964.512815,53.22877926302944,10.39812440143782,42.63968,-1,-1,-1,-1,37.92177963256836,40,-9999,3110.514548625,-0.5833282470703125,1.020309448242188,-0.8328704833984375,3110.504554625,-0.802222654214275,-0.3605562867776171,-0.5946195648749711,-4.404323577880859,1.283715724945068,-2.351694345474243,-0.3047736287117004,0.4708274006843567,-0.06067109107971191,XArbitraryZVertical,-0.3322623699756428,-0.04530360038733545,-0.3189047683923236,0.8864812551419674,-0.2922416925430298,0.560193657875061,-0.7750986218452454,0,0,0,-1,-1,3108.656895,unknown,2,2022-06-02T10:52:44.379+02:00,2022-06-02T10:17:13.754+02:00,516,1.505399,0,0,401.0887,0,0,2022-06-02T10:52:44.378+02:00,675852764.3783144,0,4.652344,101.3266,1,0.79
2022-06-02T10:52:46.247+02:00,1654159964.512815,53.22877926302944,10.39812440143782,42.63968,-1,-1,-1,-1,37.92177963256836,40,-9999,3110.524542625,-0.5282440185546875,0.9813690185546875,-0.81536865234375,3110.514548625,-0.8474316219765422,-0.3730952249625204,-0.6257993213480315,-4.089226245880127,1.399460911750793,-2.324699401855469,-0.3004763424396515,0.4517607092857361,-0.09350007772445679,XArbitraryZVertical,-0.348281842926522,-0.03649306283034488,-0.3323584026388005,0.8757316389298655,-0.2954250574111938,0.5857453346252441,-0.7547360062599182,0,0,0,-1,-1,3108.656895,unknown,2,2022-06-02T10:52:44.379+02:00,2022-06-02T10:17:13.754+02:00,516,1.505399,0,0,401.0887,0,0,2022-06-02T10:52:44.378+02:00,675852764.3783144,0,4.652344,101.3266,1,0.79
2022-06-02T10:52:46.257+02:00,1654159964.512815,53.22877926302944,10.39812440143782,42.63968,-1,-1,-1,-1,37.92177963256836,40,-9999,3110.534536625,-0.4594268798828125,1.041000366210938,-0.8145751953125,3110.524542625,-0.8924910040951671,-0.3855854897693319,-0.6538764278487108,-3.810781002044678,1.488210678100586,-2.317018270492554,-0.2618398070335388,0.3860863447189331,-0.0837286114692688,XArbitraryZVertical,-0.3626404208972097,-0.02765026234659359,-0.3456424837100583,0.865019433848276,-0.2985239028930664,0.6082677841186523,-0.735454797744751,0,0,0,-1,-1,3108.656895,unknown,2,2022-06-02T10:52:44.379+02:00,2022-06-02T10:17:13.754+02:00,516,1.505399,0,0,401.0887,0,0,2022-06-02T10:52:44.378+02:00,675852764.3783144,0,4.652344,101.3266,1,0.79
2022-06-02T10:52:46.267+02:00,1654159964.512815,53.22877926302944,10.39812440143782,42.63968,-1,-1,-1,-1,37.92177963256836,40,-9999,3110.544530625,-0.4136962890625,1.1578369140625,-0.8053131103515625,3110.534536625,-0.9376533384391796,-0.3983405526394095,-0.6787511281801366,-3.502398729324341,1.541778087615967,-2.343538999557495,-0.1916441917419434,0.3701338171958923,-0.09934061765670776,XArbitraryZVertical,-0.3754075380678525,-0.01899655692681194,-0.358886288260203,0.8543470599554741,-0.3019165396690369,0.6278214454650879,-0.7174166440963745,0,0,0,-1,-1,3108.656895,unknown,2,2022-06-02T10:52:44.379+02:00,2022-06-02T10:17:13.754+02:00,516,1.505399,0,0,401.0887,0,0,2022-06-02T10:52:44.378+02:00,675852764.3783144,0,4.652344,101.3266,1,0.79
2022-06-02T10:52:46.277+02:00,1654159964.512815,53.22877926302944,10.39812440143782,42.63968,-1,-1,-1,-1,37.92177963256836,40,-9999,3110.554524625,-0.402587890625,1.216903686523438,-0.7720489501953125,3110.544530625,-0.9828884375731404,-0.4116401625280426,-0.6999418008891157,-3.145038843154907,1.564989924430847,-2.400806427001953,-0.1250224411487579,0.4568399786949158,-0.1113156080245972,XArbitraryZVertical,-0.386508337323919,-0.01087557817170096,-0.3721585697389446,0.8437955785927957,-0.3060383200645447,0.6441731452941895,-0.7009860277175903,0,0,0,-1,-1,3108.656895,unknown,2,2022-06-02T10:52:44.379+02:00,2022-06-02T10:17:13.754+02:00,516,1.505399,0,0,401.0887,0,0,2022-06-02T10:52:44.378+02:00,675852764.3783144,0,4.652344,101.3266,1,0.79
2022-06-02T10:52:46.287+02:00,1654159964.512815,53.22877926302944,10.39812440143782,42.63968,-1,-1,-1,-1,37.92177963256836,40,-9999,3110.564519625,-0.394744873046875,1.198989868164062,-0.7467193603515625,3110.554524625,-1.027715882221993,-0.4248503595685312,-0.7169965348185925,-2.735156297683716,1.644179821014404,-2.423627376556396,-0.09419435262680054,0.5410879254341125,-0.1035267114639282,XArbitraryZVertical,-0.3957308735385285,-0.003341269615131869,-0.3855240137972585,0.8335209638760311,-0.3106975555419922,0.6571236848831177,-0.6867718100547791,0,0,0,-1,-1,3108.656895,unknown,2,2022-06-02T10:52:44.379+02:00,2022-06-02T10:17:13.754+02:00,516,1.505399,0,0,401.0887,0,0,2022-06-02T10:52:44.378+02:00,675852764.3783144,0,4.652344,101.3266,1,0.79
2022-06-02T10:52:46.297+02:00,1654159964.512815,53.22877926302944,10.39812440143782,42.63968,-1,-1,-1,-1,37.92177963256836,40,-9999,3110.574513625,-0.3404388427734375,1.178192138671875,-0.7369232177734375,3110.564519625,-1.070950198306972,-0.4365007090323395,-0.7295917765453882,-2.257922410964966,1.750561714172363,-2.406500816345215,-0.08687016367912292,0.546966016292572,-0.08274984359741211,XArbitraryZVertical,-0.4027535498598783,0.003756793520785986,-0.3989321636815892,0.8237891018874731,-0.3151530921459198,0.6665653586387634,-0.6755509376525879,0,0,0,-1,-1,3108.656895,unknown,2,2022-06-02T10:52:44.379+02:00,2022-06-02T10:17:13.754+02:00,516,1.505399,0,0,401.0887,0,0,2022-06-02T10:52:44.378+02:00,675852764.3783144,0,4.652344,101.3266,1,0.79
2022-06-02T10:52:46.306+02:00,1654159964.512815,53.22877926302944,10.39812440143782,42.63968,-1,-1,-1,-1,37.92177963256836,40,-9999,3110.584507625,-0.266998291015625,1.182632446289062,-0.76007080078125,3110.574513625,-1.111586207360311,-0.4460197023674733,-0.7372097839941809,-1.703040838241577,1.779716610908508,-2.397380828857422,-0.05454710125923157,0.5108500719070435,-0.06865251064300537,XArbitraryZVertical,-0.4073538952525264,0.0101432358920159,-0.4122948263852967,0.8148452771867057,-0.3193694651126862,0.6722248196601868,-0.6679198145866394,0,0,0,-1,-1,3108.656895,unknown,2,2022-06-02T10:52:44.379+02:00,2022-06-02T10:17:13.754+02:00,516,1.505399,0,0,401.0887,0,0,2022-06-02T10:52:44.378+02:00,675852764.3783144,0,4.652344,101.3266,1,0.79
2022-06-02T10:52:46.317+02:00,1654159964.512815,53.22877926302944,10.39812440143782,42.63968,-1,-1,-1,-1,37.92177963256836,40,-9999,3110.594501625,-0.2370147705078125,1.132583618164062,-0.749267578125,3110.584507625,-1.14940477272248,-0.4536326679274202,-0.7400419510367346,-1.27445662021637,1.812867045402527,-2.383899450302124,0.02403363585472107,0.5076726078987122,-0.08793860673904419,XArbitraryZVertical,-0.4097316854874519,0.01556812507430567,-0.4255556540987115,0.8067092522656593,-0.3236093819141388,0.6743189096450806,-0.6637551784515381,0,0,0,-1,-1,3108.656895,unknown,2,2022-06-02T10:52:44.379+02:00,2022-06-02T10:17:13.754+02:00,516,1.505399,0,0,401.0887,0,0,2022-06-02T10:52:44.378+02:00,675852764.3783144,0,4.652344,101.3266,1,0.79
2022-06-02T10:52:46.326+02:00,1654159964.512815,53.22877926302944,10.39812440143782,42.63968,-1,-1,-1,-1,37.92177963256836,40,-9999,3110.604495625,-0.2023162841796875,1.099884033203125,-0.7481231689453125,3110.594501625,-1.184929465904868,-0.459168635700054,-0.739719247173379,-1.006011009216309,1.877685189247131,-2.346087217330933,0.08004570007324219,0.4898903369903564,-0.09099477529525757,XArbitraryZVertical,-0.4104922356759887,0.02053846390408007,-0.4387420749092432,0.7991118033004849,-0.3273753821849823,0.6740805506706238,-0.6621485948562622,0,0,0,-1,-1,3108.656895,unknown,2,2022-06-02T10:52:44.379+02:00,2022-06-02T10:17:13.754+02:00,516,1.505399,0,0,401.0887,0,0,2022-06-02T10:52:44.378+02:00,675852764.3783144,0,4.652344,101.3266,1,0.79
