,loggingTime(txt),locationTimestamp_since1970(s),locationLatitude(WGS84),locationLongitude(WGS84),locationAltitude(m),locationSpeed(m/s),locationSpeedAccuracy(m/s),locationCourse(°),locationCourseAccuracy(°),locationVerticalAccuracy(m),locationHorizontalAccuracy(m),locationFloor(Z),accelerometerTimestamp_sinceReboot(s),accelerometerAccelerationX(G),accelerometerAccelerationY(G),accelerometerAccelerationZ(G),motionTimestamp_sinceReboot(s),motionYaw(rad),motionRoll(rad),motionPitch(rad),motionRotationRateX(rad/s),motionRotationRateY(rad/s),motionRotationRateZ(rad/s),motionUserAccelerationX(G),motionUserAccelerationY(G),motionUserAccelerationZ(G),motionAttitudeReferenceFrame(txt),motionQuaternionX(R),motionQuaternionY(R),motionQuaternionZ(R),motionQuaternionW(R),motionGravityX(G),motionGravityY(G),motionGravityZ(G),motionMagneticFieldX(µT),motionMagneticFieldY(µT),motionMagneticFieldZ(µT),motionHeading(°),motionMagneticFieldCalibrationAccuracy(Z),activityTimestamp_sinceReboot(s),activity(txt),activityActivityConfidence(Z),activityActivityStartDate(txt),pedometerStartDate(txt),pedometerNumberofSteps(N),pedometerAverageActivePace(s/m),pedometerCurrentPace(s/m),pedometerCurrentCadence(steps/s),pedometerDistance(m),pedometerFloorAscended(N),pedometerFloorDescended(N),pedometerEndDate(txt),altimeterTimestamp_sinceReboot(s),altimeterReset(bool),altimeterRelativeAltitude(m),altimeterPressure(kPa),batteryState(N),batteryLevel(R)
304,2022-05-05T13:02:07.975+02:00,1651748526.99997,53.22894209733969,10.39802603934051,36.50116,0,20,-1,-1,2.400000095367432,7.999579855010836,-9999,5151.742045541667,0.352020263671875,0.1027069091796875,2.370086669921875,5151.732050541667,1.063591814868988,2.214625348843789,-0.0772500015609499,-3.055291652679443,6.036022663116455,0.0438964813947677,-0.2477811574935913,-0.0048922523856163,1.304390430450439,XArbitraryZVertical,-0.4681263213341141,0.7616389564222829,0.1967593240659855,0.4025540836208307,0.7974181771278381,0.0771731957793235,0.5984722971916199,0,0,0,-1,-1,5151.595370541667,unknown,2,2022-05-05T13:02:07.828+02:00,2022-05-05T12:55:18.700+02:00,270,0.8798907,0.7205021,1.900869,196.189,0,0,2022-05-05T13:02:05.264+02:00,673441327.8273628,0,1.37,101.4314,1,0.87
305,2022-05-05T13:02:07.985+02:00,1651748526.99997,53.22894209733969,10.39802603934051,36.50116,0,20,-1,-1,2.400000095367432,7.999579855010836,-9999,5151.752041541667,0.1948394775390625,0.135009765625,2.655609130859375,5151.742045541667,1.089988789108128,2.278800369019807,-0.0570928446032384,-3.599105358123779,6.443711280822754,-0.1923770308494568,-0.2711495161056519,0.0555328205227851,1.472124576568604,XArbitraryZVertical,-0.4809316363180851,0.7702820601305376,0.194509312886252,0.3708592600667642,0.7584238052368164,0.0570618323981761,0.6492593884468079,0,0,0,-1,-1,5151.595370541667,unknown,2,2022-05-05T13:02:07.828+02:00,2022-05-05T12:55:18.700+02:00,270,0.8798907,0.7205021,1.900869,196.189,0,0,2022-05-05T13:02:05.264+02:00,673441327.8273628,0,1.37,101.4314,1,0.87
306,2022-05-05T13:02:07.995+02:00,1651748526.99997,53.22894209733969,10.39802603934051,36.50116,0,20,-1,-1,2.400000095367432,7.999579855010836,-9999,5151.762036541667,-0.00848388671875,0.2024688720703125,2.957046508789062,5151.752041541667,1.121053190799545,2.346572462403003,-0.0329134117829188,-4.255963802337646,6.815672874450684,-0.4411016404628754,-0.3614709973335266,0.0697994828224182,1.670195579528809,XArbitraryZVertical,-0.4955089738224682,0.7774422686241761,0.1929286190967205,0.3359063244472157,0.7134912610054016,0.0329074710607528,0.6998912692070007,0,0,0,-1,-1,5151.595370541667,unknown,2,2022-05-05T13:02:07.828+02:00,2022-05-05T12:55:18.700+02:00,270,0.8798907,0.7205021,1.900869,196.189,0,0,2022-05-05T13:02:05.264+02:00,673441327.8273628,0,1.37,101.4314,1,0.87
307,2022-05-05T13:02:08.005+02:00,1651748526.99997,53.22894209733969,10.39802603934051,36.50116,0,20,-1,-1,2.400000095367432,7.999579855010836,-9999,5151.772032541667,-0.200714111328125,0.22784423828125,3.25341796875,5151.762036541667,1.156826036740874,2.417157643310216,-0.00378394572136,-4.920594215393066,7.124456882476807,-0.7124725580215454,-0.4678683280944824,0.1312258839607239,1.906740546226501,XArbitraryZVertical,-0.5117829681291064,0.7826318212179916,0.1922392107162142,0.2976740169665755,0.6627078056335449,0.003783936612308,0.7488687634468079,0,0,0,-1,-1,5151.595370541667,unknown,2,2022-05-05T13:02:07.828+02:00,2022-05-05T12:55:18.700+02:00,270,0.8798907,0.7205021,1.900869,196.189,0,0,2022-05-05T13:02:05.264+02:00,673441327.8273628,0,1.37,101.4314,1,0.87
308,2022-05-05T13:02:08.016+02:00,1651748526.99997,53.22894209733969,10.39802603934051,36.50116,0,20,-1,-1,2.400000095367432,7.999579855010836,-9999,5151.782027541667,-0.415008544921875,0.28204345703125,3.5927734375,5151.772032541667,1.19625196561098,2.489174483922277,0.0304579710365386,-5.345218181610107,7.367714881896973,-1.02642834186554,-0.6153120994567871,0.2329221963882446,2.162796974182129,XArbitraryZVertical,-0.529304725004815,0.7854688804284603,0.1923462329635918,0.2566675543210811,0.6068282723426819,-0.0304532628506422,0.7942497134208679,0,0,0,-1,-1,5151.595370541667,unknown,2,2022-05-05T13:02:07.828+02:00,2022-05-05T12:55:18.700+02:00,270,0.8798907,0.7205021,1.900869,196.189,0,0,2022-05-05T13:02:05.264+02:00,673441327.8273628,0,1.37,101.4314,1,0.87
309,2022-05-05T13:02:08.025+02:00,1651748526.99997,53.22894209733969,10.39802603934051,36.50116,0,20,-1,-1,2.400000095367432,7.999579855010836,-9999,5151.792023541667,-0.6049041748046875,0.2528839111328125,3.902999877929688,5151.782027541667,1.237939976275773,2.561393684876668,0.0686313752040059,-5.717166423797607,7.475167274475098,-1.367325663566589,-0.7476139664649963,0.2964218258857727,2.419033288955688,XArbitraryZVertical,-0.5476327218758548,0.785678473791336,0.1926423017558885,0.2137676408716456,0.5468997359275818,-0.0685775056481361,0.8343845009803772,0,0,0,-1,-1,5151.595370541667,unknown,2,2022-05-05T13:02:07.828+02:00,2022-05-05T12:55:18.700+02:00,270,0.8798907,0.7205021,1.900869,196.189,0,0,2022-05-05T13:02:05.264+02:00,673441327.8273628,0,1.37,101.4314,1,0.87
310,2022-05-05T13:02:08.036+02:00,1651748526.99997,53.22894209733969,10.39802603934051,36.50116,0,20,-1,-1,2.400000095367432,7.999579855010836,-9999,5151.802018541667,-0.7562408447265625,0.181884765625,4.20391845703125,5151.792023541667,1.282067598371481,2.632405408917518,0.1106288658916979,-6.019455909729004,7.498018264770508,-1.824074029922485,-0.8994964361190796,0.3924468755722046,2.724970102310181,XArbitraryZVertical,-0.5667025427694741,0.7827834054668185,0.1932657211326027,0.1695484315109575,0.4844877421855927,-0.1104033440351486,0.8678032755851746,0,0,0,-1,-1,5151.595370541667,unknown,2,2022-05-05T13:02:07.828+02:00,2022-05-05T12:55:18.700+02:00,270,0.8798907,0.7205021,1.900869,196.189,0,0,2022-05-05T13:02:05.264+02:00,673441327.8273628,0,1.37,101.4314,1,0.87
311,2022-05-05T13:02:08.046+02:00,1651748526.99997,53.22894209733969,10.39802603934051,36.50116,0,20,-1,-1,2.400000095367432,7.999579855010836,-9999,5151.812014541667,-0.8701934814453125,0.1872100830078125,4.472320556640625,5151.802018541667,1.329262556560672,2.700688366733662,0.1556308558622148,-6.243816375732422,7.405259132385254,-2.406694650650024,-1.026503801345825,0.4078872501850128,3.00956392288208,XArbitraryZVertical,-0.5866405536325663,0.776254463041513,0.1941705665812865,0.1248193425235594,0.421599805355072,-0.1550033539533615,0.8934362530708313,0,0,0,-1,-1,5151.595370541667,unknown,2,2022-05-05T13:02:07.828+02:00,2022-05-05T12:55:18.700+02:00,270,0.8798907,0.7205021,1.900869,196.189,0,0,2022-05-05T13:02:05.264+02:00,673441327.8273628,0,1.37,101.4314,1,0.87
312,2022-05-05T13:02:08.061+02:00,1651748526.99997,53.22894209733969,10.39802603934051,36.50116,0,20,-1,-1,2.400000095367432,7.999579855010836,-9999,5151.822009541667,-0.9580535888671876,0.1321868896484375,4.696121215820312,5151.812014541667,1.380669116127515,2.764862139397346,0.202789314557191,-6.396071910858154,7.218929767608643,-3.157962083816528,-1.116584777832031,0.3832870721817017,3.293100357055664,XArbitraryZVertical,-0.6077044320845993,0.7655745285613149,0.1952938388062126,0.0803200566127953,0.3603438436985016,-0.2014022618532181,0.910818099975586,0,0,0,-1,-1,5151.595370541667,unknown,2,2022-05-05T13:02:07.828+02:00,2022-05-05T12:55:18.700+02:00,270,0.8798907,0.7205021,1.900869,196.189,0,0,2022-05-05T13:02:05.264+02:00,673441327.8273628,0,1.37,101.4314,1,0.87
313,2022-05-05T13:02:08.065+02:00,1651748527.999988,53.22894468028685,10.39802757632392,36.51787,0,20,-1,-1,2.400000095367432,7.999579855010838,-9999,5151.832005541667,-1.093307495117188,0.069305419921875,4.983062744140625,5151.822009541667,1.437521722750051,2.822446076063306,0.2502196084174743,-6.260457992553711,6.834482669830322,-4.059458255767822,-1.174178957939148,0.4348267614841461,3.552386283874512,XArbitraryZVertical,-0.6300831368228103,0.7503082678417496,0.196530146987706,0.0375344545467715,0.3039854764938354,-0.2476167380809784,0.9199345111846924,0,0,0,-1,-1,5151.595370541667,unknown,2,2022-05-05T13:02:07.828+02:00,2022-05-05T12:55:18.700+02:00,270,0.8798907,0.7205021,1.900869,196.189,0,0,2022-05-05T13:02:05.264+02:00,673441327.8273628,0,1.37,101.4314,1,0.87
314,2022-05-05T13:02:08.075+02:00,1651748527.999988,53.22894468028685,10.39802757632392,36.51787,0,20,-1,-1,2.400000095367432,7.999579855010838,-9999,5151.842000541667,-1.264266967773438,-0.15216064453125,5.3133544921875,5151.832005541667,1.50153397530481,2.870829643041604,0.2952784473921493,-5.930600643157959,6.279501438140869,-5.148648262023926,-1.213944673538208,0.4231931567192078,3.774256229400635,XArbitraryZVertical,-0.6540871078753485,0.7301387556500252,0.1976465538514054,-0.0018250169638463,0.2558910846710205,-0.2910062670707703,0.9218651056289672,0,0,0,-1,-1,5151.595370541667,unknown,2,2022-05-05T13:02:07.828+02:00,2022-05-05T12:55:18.700+02:00,270,0.8798907,0.7205021,1.900869,196.189,0,0,2022-05-05T13:02:05.264+02:00,673441327.8273628,0,1.37,101.4314,1,0.87
315,2022-05-05T13:02:08.085+02:00,1651748527.999988,53.22894468028685,10.39802757632392,36.51787,0,20,-1,-1,2.400000095367432,7.999579855010838,-9999,5151.851996541667,-1.511886596679688,-0.51556396484375,5.623428344726562,5151.842000541667,1.575601580844344,2.906419610732894,0.3361192204549946,-5.46623420715332,5.407819747924805,-6.469579219818115,-1.313279986381531,0.3991313576698303,4.065006732940674,XArbitraryZVertical,-0.6801494520737691,0.7045742556813568,0.1991604745787649,-0.0361532900215631,0.2199724167585373,-0.3298259675502777,0.918056309223175,0,0,0,-1,-1,5151.595370541667,unknown,2,2022-05-05T13:02:07.828+02:00,2022-05-05T12:55:18.700+02:00,270,0.8798907,0.7205021,1.900869,196.189,0,0,2022-05-05T13:02:05.264+02:00,673441327.8273628,0,1.37,101.4314,1,0.87
316,2022-05-05T13:02:08.095+02:00,1651748527.999988,53.22894468028685,10.39802757632392,36.51787,0,20,-1,-1,2.400000095367432,7.999579855010838,-9999,5151.861991541667,-1.944229125976562,-0.82489013671875,5.86920166015625,5151.851996541667,1.663171240492193,2.924416232818961,0.3701389852441189,-4.78788423538208,4.241945266723633,-8.080528259277344,-1.465147852897644,0.2095844447612762,4.402976989746094,XArbitraryZVertical,-0.7086672295600737,0.6730375422380461,0.2019629909836793,-0.0634202163701208,0.2008807361125946,-0.3617449998855591,0.910377562046051,0,0,0,-1,-1,5151.595370541667,unknown,2,2022-05-05T13:02:07.828+02:00,2022-05-05T12:55:18.700+02:00,270,0.8798907,0.7205021,1.900869,196.189,0,0,2022-05-05T13:02:05.264+02:00,673441327.8273628,0,1.37,101.4314,1,0.87
317,2022-05-05T13:02:08.105+02:00,1651748527.999988,53.22894468028685,10.39802757632392,36.51787,0,20,-1,-1,2.400000095367432,7.999579855010838,-9999,5151.871987541667,-2.69775390625,-0.9170379638671876,6.3828125,5151.861991541667,1.76862814348854,2.919218796924163,0.3917348981630685,-3.593851804733276,2.468128442764282,-10.18605327606201,-1.715725541114807,-0.1337714493274689,4.721938133239746,XArbitraryZVertical,-0.7403190803457878,0.6345649405541444,0.2067735999542596,-0.0806205824156958,0.203838899731636,-0.3817924559116364,0.901490032672882,0,0,0,-1,-1,5151.595370541667,unknown,2,2022-05-05T13:02:07.828+02:00,2022-05-05T12:55:18.700+02:00,270,0.8798907,0.7205021,1.900869,196.189,0,0,2022-05-05T13:02:05.264+02:00,673441327.8273628,0,1.37,101.4314,1,0.87
318,2022-05-05T13:02:08.115+02:00,1651748527.999988,53.22894468028685,10.39802757632392,36.51787,0,20,-1,-1,2.400000095367432,7.999579855010838,-9999,5151.881982541667,-3.568313598632812,-0.4507293701171875,6.684585571289062,5151.871987541667,1.896948923191623,2.880898705589958,0.3928727324758533,-2.300230979919434,-0.414864182472229,-12.82738494873047,-2.182343006134033,-0.4420462846755981,4.976603031158447,XArbitraryZVertical,-0.775352787509801,0.5874754741856429,0.2163869284510714,-0.0829298831874546,0.2381138652563095,-0.3828438520431519,0.8925987482070923,0,0,0,-1,-1,5151.595370541667,unknown,2,2022-05-05T13:02:07.828+02:00,2022-05-05T12:55:18.700+02:00,270,0.8798907,0.7205021,1.900869,196.189,0,0,2022-05-05T13:02:05.264+02:00,673441327.8273628,0,1.37,101.4314,1,0.87
319,2022-05-05T13:02:08.125+02:00,1651748527.999988,53.22894468028685,10.39802757632392,36.51787,0,20,-1,-1,2.400000095367432,7.999579855010838,-9999,5151.891978541667,-4.68804931640625,0.4629058837890625,6.710647583007812,5151.881982541667,2.049069551609066,2.801005140497717,0.3685498904832615,-1.413849115371704,-4.438167572021484,-15.62457370758057,-3.009364366531372,-0.5567749738693237,5.503545761108398,XArbitraryZVertical,-0.8117232997374061,0.529847853186461,0.2361698048283326,-0.0677539669987886,0.3116104900836945,-0.3602630794048309,0.8792669177055359,0,0,0,-1,-1,5151.595370541667,unknown,2,2022-05-05T13:02:07.828+02:00,2022-05-05T12:55:18.700+02:00,270,0.8798907,0.7205021,1.900869,196.189,0,0,2022-05-05T13:02:05.264+02:00,673441327.8273628,0,1.37,101.4314,1,0.87
320,2022-05-05T13:02:08.135+02:00,1651748527.999988,53.22894468028685,10.39802757632392,36.51787,0,20,-1,-1,2.400000095367432,7.999579855010838,-9999,5151.901973541667,-5.622360229492188,0.8721923828125,6.35540771484375,5151.891978541667,2.219689380397231,2.673029413387677,0.3133482536116905,-1.219022393226624,-9.7815523147583,-18.2296028137207,-3.997928619384766,-0.1424838900566101,5.835812568664551,XArbitraryZVertical,-0.8443802820672643,0.4597920434855202,0.2728767356891008,-0.0339375943510982,0.4296149909496307,-0.3082455694675446,0.8487735390663147,0,0,0,-1,-1,5151.595370541667,unknown,2,2022-05-05T13:02:07.828+02:00,2022-05-05T12:55:18.700+02:00,270,0.8798907,0.7205021,1.900869,196.189,0,0,2022-05-05T13:02:05.264+02:00,673441327.8273628,0,1.37,101.4314,1,0.87
321,2022-05-05T13:02:08.145+02:00,1651748527.999988,53.22894468028685,10.39802757632392,36.51787,0,20,-1,-1,2.400000095367432,7.999579855010838,-9999,5151.911969541667,-7.228607177734375,1.044097900390625,5.24163818359375,5151.901973541667,2.398182879455589,2.500501096445217,0.2265398600840609,-2.071781396865845,-15.02919960021973,-20.05779075622559,-5.270838737487793,0.687512993812561,5.929681777954102,XArbitraryZVertical,-0.8656501691809554,0.3756764373729561,0.3306472212242066,0.0137616773374551,0.5827895402908325,-0.2246071398258209,0.7809659838676453,0,0,0,-1,-1,5151.595370541667,unknown,2,2022-05-05T13:02:07.828+02:00,2022-05-05T12:55:18.700+02:00,270,0.8798907,0.7205021,1.900869,196.189,0,0,2022-05-05T13:02:05.264+02:00,673441327.8273628,0,1.37,101.4314,1,0.87
322,2022-05-05T13:02:08.155+02:00,1651748527.999988,53.22894468028685,10.39802757632392,36.51787,0,20,-1,-1,2.400000095367432,7.999579855010838,-9999,5151.921964541667,-9.314605712890623,2.171463012695312,4.028427124023438,5151.911969541667,2.565152680910133,2.301096716497647,0.0998999386994741,-1.088262677192688,-19.12315368652344,-21.38078880310059,-6.363619804382324,0.971926212310791,5.691640377044678,XArbitraryZVertical,-0.8684463476744538,0.2787197738507204,0.4036274268515487,0.0721196167518292,0.7412598729133606,-0.0997338518500328,0.6637675166130066,0,0,0,-1,-1,5151.595370541667,unknown,2,2022-05-05T13:02:07.828+02:00,2022-05-05T12:55:18.700+02:00,270,0.8798907,0.7205021,1.900869,196.189,0,0,2022-05-05T13:02:05.264+02:00,673441327.8273628,0,1.37,101.4314,1,0.87
323,2022-05-05T13:02:08.165+02:00,1651748527.999988,53.22894468028685,10.39802757632392,36.51787,0,20,-1,-1,2.400000095367432,7.999579855010838,-9999,5151.931960541667,-11.34933471679688,4.530670166015625,4.001632690429688,5151.921964541667,2.675135675747407,2.084276771032888,-0.0828858054305178,5.731966018676758,-24.2291431427002,-20.79378700256348,-8.096656799316406,0.961306929588318,4.752112865447998,XArbitraryZVertical,-0.8442144941760145,0.1790660919520019,0.482029546129832,0.1512774471523967,0.8680499792098999,0.0827909335494041,0.4895255565643311,0,0,0,-1,-1,5151.595370541667,unknown,2,2022-05-05T13:02:07.828+02:00,2022-05-05T12:55:18.700+02:00,270,0.8798907,0.7205021,1.900869,196.189,0,0,2022-05-05T13:02:05.264+02:00,673441327.8273628,0,1.37,101.4314,1,0.87
324,2022-05-05T13:02:08.175+02:00,1651748527.999988,53.22894468028685,10.39802757632392,36.51787,0,20,-1,-1,2.400000095367432,7.999579855010838,-9999,5151.941955541667,-18.54443359375,5.91168212890625,5.929412841796875,5151.931960541667,2.640954241657644,1.794334789196949,-0.2924227141432832,15.63197040557861,-31.68258094787598,-15.76943206787109,-10.24832916259766,1.883190035820007,3.816156625747681,XArbitraryZVertical,-0.7716387131438053,0.1034845428352553,0.569728907557951,0.2631990844795542,0.9337238073349,0.2882729470729828,0.2122707068920135,0,0,0,-1,-1,5151.595370541667,unknown,2,2022-05-05T13:02:07.828+02:00,2022-05-05T12:55:18.700+02:00,270,0.8798907,0.7205021,1.900869,196.189,0,0,2022-05-05T13:02:05.264+02:00,673441327.8273628,0,1.37,101.4314,1,0.87
325,2022-05-05T13:02:08.185+02:00,1651748527.999988,53.22894468028685,10.39802757632392,36.51787,0,20,-1,-1,2.400000095367432,7.999579855010838,-9999,5151.951951541667,-23.98658752441406,3.245513916015625,5.475997924804688,5151.941955541667,2.453253244826977,1.394161231453159,-0.4271322761393918,19.72513389587402,-34.78791046142578,-11.00288200378418,-12.24533081054688,4.116407871246338,4.161563873291016,XArbitraryZVertical,-0.6454350871574893,0.058719737130706,0.6594480915715591,0.3809117880756142,0.8959959745407104,0.414262443780899,-0.1599310785531998,0,0,0,-1,-1,5151.595370541667,unknown,2,2022-05-05T13:02:07.828+02:00,2022-05-05T12:55:18.700+02:00,270,0.8798907,0.7205021,1.900869,196.189,0,0,2022-05-05T13:02:05.264+02:00,673441327.8273628,0,1.37,101.4314,1,0.87
326,2022-05-05T13:02:08.195+02:00,1651748527.999988,53.22894468028685,10.39802757632392,36.51787,0,20,-1,-1,2.400000095367432,7.999579855010838,-9999,5151.961946541667,-28.63796997070312,2.539794921875,4.650314331054688,5151.951951541667,2.206006614145992,0.9393386383103904,-0.4194294145832875,24.13522911071777,-35.1298942565918,-4.638704299926758,-19.28163719177246,5.504442691802979,6.46856689453125,XArbitraryZVertical,-0.4788244850673171,0.0339153847996574,0.7359927094537566,0.477379872621781,0.7372037172317505,0.4072393774986267,-0.5391536951065063,0,0,0,-1,-1,5151.595370541667,unknown,2,2022-05-05T13:02:07.828+02:00,2022-05-05T12:55:18.700+02:00,270,0.8798907,0.7205021,1.900869,196.189,0,0,2022-05-05T13:02:05.264+02:00,673441327.8273628,0,1.37,101.4314,1,0.87
327,2022-05-05T13:02:08.205+02:00,1651748527.999988,53.22894468028685,10.39802757632392,36.51787,0,20,-1,-1,2.400000095367432,7.999579855010838,-9999,5151.971942541667,-22.86494445800781,4.653121948242188,1.111557006835938,5151.961946541667,2.000498661663983,0.5637043209134324,-0.2174579780427977,32.09056091308594,-24.49253845214844,2.070394992828369,-24.50832557678223,3.029765844345093,6.301372528076172,XArbitraryZVertical,-0.2889933979888049,0.061608494984706,0.7873228334210088,0.5411191393425723,0.521737277507782,0.2157481610774994,-0.82537442445755,0,0,0,-1,-1,5151.595370541667,unknown,2,2022-05-05T13:02:07.828+02:00,2022-05-05T12:55:18.700+02:00,270,0.8798907,0.7205021,1.900869,196.189,0,0,2022-05-05T13:02:05.264+02:00,673441327.8273628,0,1.37,101.4314,1,0.87
328,2022-05-05T13:02:08.215+02:00,1651748527.999988,53.22894468028685,10.39802757632392,36.51787,0,20,-1,-1,2.400000095367432,7.999579855010838,-9999,5151.981937541667,-16.50715637207031,-4.984573364257812,3.792678833007812,5151.971942541667,1.888549849010349,0.3674830509942645,0.1079718907993219,35.06130981445312,-12.93639945983887,6.584965705871582,-28.99514579772949,2.647557020187378,5.57811450958252,XArbitraryZVertical,-0.1166864705797957,0.1499474646690393,0.8010563260705555,0.5676343825646603,0.3571755290031433,-0.1077622249722481,-0.9278000593185424,0,0,0,-1,-1,5151.595370541667,unknown,2,2022-05-05T13:02:07.828+02:00,2022-05-05T12:55:18.700+02:00,270,0.8798907,0.7205021,1.900869,196.189,0,0,2022-05-05T13:02:05.264+02:00,673441327.8273628,0,1.37,101.4314,1,0.87
329,2022-05-05T13:02:08.225+02:00,1651748527.999988,53.22894468028685,10.39802757632392,36.51787,0,20,-1,-1,2.400000095367432,7.999579855010838,-9999,5151.991933541667,-10.60517883300781,-12.98838806152344,-0.1736602783203125,5151.981937541667,1.862025875010233,0.3086619166794486,0.4688272572238469,34.95545196533203,-0.1874950677156448,12.2326192855835,-23.13595008850098,5.104962348937988,1.961496114730835,XArbitraryZVertical,0.0170790272088254,0.2733839758771454,0.7923273095751888,0.5451485471974948,0.271005392074585,-0.4518404006958008,-0.8499389886856079,0,0,0,-1,-1,5151.595370541667,unknown,2,2022-05-05T13:02:07.828+02:00,2022-05-05T12:55:18.700+02:00,270,0.8798907,0.7205021,1.900869,196.189,0,0,2022-05-05T13:02:05.264+02:00,673441327.8273628,0,1.37,101.4314,1,0.87
330,2022-05-05T13:02:08.235+02:00,1651748527.999988,53.22894468028685,10.39802757632392,36.51787,0,20,-1,-1,2.400000095367432,7.999579855010838,-9999,5152.001928541667,-3.141769409179688,-11.51463317871094,-4.131622314453125,5151.991933541667,1.928655851373661,0.3074931222422705,0.7981762056834761,21.86813354492188,7.420143127441406,16.98583793640137,-16.71842384338379,-4.268488883972168,4.457952499389648,XArbitraryZVertical,0.1029223060807051,0.3959420563082675,0.7820829455705726,0.4700885219273142,0.2112680673599243,-0.7160842418670654,-0.6652737855911255,0,0,0,-1,-1,5151.595370541667,unknown,2,2022-05-05T13:02:07.828+02:00,2022-05-05T12:55:18.700+02:00,270,0.8798907,0.7205021,1.900869,196.189,0,0,2022-05-05T13:02:05.264+02:00,673441327.8273628,0,1.37,101.4314,1,0.87
331,2022-05-05T13:02:08.245+02:00,1651748527.999988,53.22894468028685,10.39802757632392,36.51787,0,20,-1,-1,2.400000095367432,7.999579855010838,-9999,5152.011924541667,0.214935302734375,-8.151123046875,-3.151962280273438,5152.001928541667,2.133166745833379,0.2284755364901529,0.954489867484972,1.263534426689148,7.588759422302246,15.36020469665527,-10.73609733581543,-12.1723690032959,0.389343798160553,XArbitraryZVertical,0.1318138989399841,0.448467487492438,0.7979503188498426,0.3804963997091519,0.1309186369180679,-0.8160189986228943,-0.5630040168762207,0,0,0,-1,-1,5151.595370541667,unknown,2,2022-05-05T13:02:07.828+02:00,2022-05-05T12:55:18.700+02:00,270,0.8798907,0.7205021,1.900869,196.189,0,0,2022-05-05T13:02:05.264+02:00,673441327.8273628,0,1.37,101.4314,1,0.87
332,2022-05-05T13:02:08.255+02:00,1651748527.999988,53.22894468028685,10.39802757632392,36.51787,0,20,-1,-1,2.400000095367432,7.999579855010838,-9999,5152.021919541667,0.50311279296875,-4.60260009765625,-1.949600219726562,5152.011924541667,2.349871870045076,0.1053864793456958,0.932685685335876,-7.700715065002441,2.661679744720459,8.798916816711426,-3.204429626464844,-10.71141052246094,-3.539247989654541,XArbitraryZVertical,0.1297282395355157,0.4324159307036312,0.8321292678061788,0.3220992537988532,0.0626603662967681,-0.80322265625,-0.5923740863800049,0,0,0,-1,-1,5151.595370541667,unknown,2,2022-05-05T13:02:07.828+02:00,2022-05-05T12:55:18.700+02:00,270,0.8798907,0.7205021,1.900869,196.189,0,0,2022-05-05T13:02:05.264+02:00,673441327.8273628,0,1.37,101.4314,1,0.87
333,2022-05-05T13:02:08.265+02:00,1651748527.999988,53.22894468028685,10.39802757632392,36.51787,0,20,-1,-1,2.400000095367432,7.999579855010838,-9999,5152.031915541667,-3.186370849609375,-2.130752563476562,-1.797576904296875,5152.021919541667,2.47384841785618,0.0179446071013527,0.8574505022661363,-7.667134761810303,-0.2382553815841675,6.20597505569458,0.2031936198472977,-7.394946575164795,-2.497699975967407,XArbitraryZVertical,0.1285152766190675,0.3954146273803126,0.86046227558958,0.2945096323340708,0.0117417387664318,-0.7561767101287842,-0.6542621850967407,0,0,0,-1,-1,5151.595370541667,unknown,2,2022-05-05T13:02:07.828+02:00,2022-05-05T12:55:18.700+02:00,270,0.8798907,0.7205021,1.900869,196.189,0,0,2022-05-05T13:02:05.264+02:00,673441327.8273628,0,1.37,101.4314,1,0.87
334,2022-05-05T13:02:08.275+02:00,1651748527.999988,53.22894468028685,10.39802757632392,36.51787,0,20,-1,-1,2.400000095367432,7.999579855010838,-9999,5152.041910541667,-3.950759887695312,-0.3359832763671875,-1.82568359375,5152.031915541667,2.561160673777616,-0.0470613846656958,0.7990769088208114,-3.606848955154419,0.460696280002594,5.965768337249756,0.5359199047088623,-3.885887622833252,-1.253003597259521,XArbitraryZVertical,0.1320521714048269,0.3664204822795672,0.8798528846489838,0.2723182213627288,-0.0328070186078548,-0.7167126536369324,-0.6965965032577515,0,0,0,-1,-1,5151.595370541667,unknown,2,2022-05-05T13:02:07.828+02:00,2022-05-05T12:55:18.700+02:00,270,0.8798907,0.7205021,1.900869,196.189,0,0,2022-05-05T13:02:05.264+02:00,673441327.8273628,0,1.37,101.4314,1,0.87
335,2022-05-05T13:02:08.285+02:00,1651748527.999988,53.22894468028685,10.39802757632392,36.51787,0,20,-1,-1,2.400000095367432,7.999579855010838,-9999,5152.051906541667,-3.078201293945312,-1.775009155273438,-1.495574951171875,5152.041910541667,2.645966456705555,-0.0912232194207191,0.7824248375829368,0.96379953622818,2.664641141891479,6.165157794952393,-3.121764421463013,-1.425751447677612,-1.091319561004639,XArbitraryZVertical,0.1342952749667358,0.3589375453203411,0.8910099643093122,0.2433717080474313,-0.0646063685417175,-0.705001175403595,-0.7062572240829468,0,0,0,-1,-1,5151.595370541667,unknown,2,2022-05-05T13:02:07.828+02:00,2022-05-05T12:55:18.700+02:00,270,0.8798907,0.7205021,1.900869,196.189,0,0,2022-05-05T13:02:05.264+02:00,673441327.8273628,0,1.37,101.4314,1,0.87
336,2022-05-05T13:02:08.295+02:00,1651748527.999988,53.22894468028685,10.39802757632392,36.51787,0,20,-1,-1,2.400000095367432,7.999579855010838,-9999,5152.061901541667,-2.050308227539062,-1.91973876953125,-1.193099975585938,5152.051906541667,2.736466576420494,-0.1251976085011429,0.7895378017969671,1.185475587844849,3.037481546401978,6.405821323394775,-3.862829208374023,0.3740444779396057,-1.127021431922913,XArbitraryZVertical,0.1337871339976262,0.3643761147070658,0.8976009986689458,0.2089107896217734,-0.0879307240247726,-0.7100278735160828,-0.6986621022224426,0,0,0,-1,-1,5151.595370541667,unknown,2,2022-05-05T13:02:07.828+02:00,2022-05-05T12:55:18.700+02:00,270,0.8798907,0.7205021,1.900869,196.189,0,0,2022-05-05T13:02:05.264+02:00,673441327.8273628,0,1.37,101.4314,1,0.87
337,2022-05-05T13:02:08.305+02:00,1651748527.999988,53.22894468028685,10.39802757632392,36.51787,0,20,-1,-1,2.400000095367432,7.999579855010838,-9999,5152.071897541667,-2.337173461914062,-0.674041748046875,-0.9216156005859376,5152.061901541667,2.826239812973386,-0.1637681941078991,0.7829768882296558,-0.4918663501739502,2.000210285186768,6.280913829803467,-2.962637901306152,-1.069616675376892,-0.7962419986724854,XArbitraryZVertical,0.1343804895748507,0.3636969091235996,0.9049163485998362,0.1754795364428479,-0.1155634745955467,-0.705392599105835,-0.6993328928947449,0,0,0,-1,-1,5151.595370541667,unknown,2,2022-05-05T13:02:07.828+02:00,2022-05-05T12:55:18.700+02:00,270,0.8798907,0.7205021,1.900869,196.189,0,0,2022-05-05T13:02:05.264+02:00,673441327.8273628,0,1.37,101.4314,1,0.87
338,2022-05-05T13:02:08.315+02:00,1651748527.999988,53.22894468028685,10.39802757632392,36.51787,0,20,-1,-1,2.400000095367432,7.999579855010838,-9999,5152.081892541667,-2.80535888671875,-0.52386474609375,-0.8664703369140625,5152.071897541667,2.912118815760795,-0.2076004141123755,0.7685391932242976,0.2112979143857956,1.413080215454102,6.381148338317871,-1.902128458023071,-1.224653005599976,-0.4896095991134644,XArbitraryZVertical,0.1381135158979788,0.3594155075074126,0.9115729832729236,0.1441525631425942,-0.1481797695159912,-0.6950857639312744,-0.7034903168678284,0,0,0,-1,-1,5151.595370541667,unknown,2,2022-05-05T13:02:07.828+02:00,2022-05-05T12:55:18.700+02:00,270,0.8798907,0.7205021,1.900869,196.189,0,0,2022-05-05T13:02:05.264+02:00,673441327.8273628,0,1.37,101.4314,1,0.87
339,2022-05-05T13:02:08.325+02:00,1651748527.999988,53.22894468028685,10.39802757632392,36.51787,0,20,-1,-1,2.400000095367432,7.999579855010838,-9999,5152.091888541667,-2.737518310546875,-0.4805755615234375,-0.93585205078125,5152.081892541667,3.004272556144561,-0.2573623902503405,0.7637074278845248,1.864679217338562,1.409302115440369,6.775877952575684,-2.153331756591797,0.0175621509552002,-0.223127007484436,XArbitraryZVertical,0.144157219188167,0.3605196778250153,0.9148538639160974,0.1108454408517371,-0.1838416457176208,-0.69160395860672,-0.6984885334968567,0,0,0,-1,-1,5151.595370541667,unknown,2,2022-05-05T13:02:07.828+02:00,2022-05-05T12:55:18.700+02:00,270,0.8798907,0.7205021,1.900869,196.189,0,0,2022-05-05T13:02:05.264+02:00,673441327.8273628,0,1.37,101.4314,1,0.87
340,2022-05-05T13:02:08.335+02:00,1651748527.999988,53.22894468028685,10.39802757632392,36.51787,0,20,-1,-1,2.400000095367432,7.999579855010838,-9999,5152.101883541667,-2.658111572265625,-0.89501953125,-0.9091339111328124,5152.091888541667,3.105088668416818,-0.3132417073672458,0.767834173719041,2.875314712524414,1.404395222663879,6.891530990600586,-2.583674669265747,0.1707138419151306,-0.1820605993270874,XArbitraryZVertical,0.1513548120390819,0.3672694654988866,0.9146369185894718,0.0751291372668365,-0.2216841280460358,-0.6945787668228149,-0.6844097375869751,0,0,0,-1,-1,5151.595370541667,unknown,2,2022-05-05T13:02:07.828+02:00,2022-05-05T12:55:18.700+02:00,270,0.8798907,0.7205021,1.900869,196.189,0,0,2022-05-05T13:02:05.264+02:00,673441327.8273628,0,1.37,101.4314,1,0.87
341,2022-05-05T13:02:08.345+02:00,1651748527.999988,53.22894468028685,10.39802757632392,36.51787,0,20,-1,-1,2.400000095367432,7.999579855010838,-9999,5152.111879541667,-2.442306518554688,-1.28472900390625,-0.92828369140625,5152.101883541667,-3.075086131357905,-0.3704543444653269,0.7720923456407562,2.764286279678345,1.515759110450745,6.756325721740723,-2.478134632110596,0.2170602679252625,-0.2680014967918396,XArbitraryZVertical,0.1582171812151255,0.3755557012474852,0.9123604213323012,0.0390334198865968,-0.2593837380409241,-0.6976358294487,-0.6678504943847656,0,0,0,-1,-1,5151.595370541667,unknown,2,2022-05-05T13:02:07.828+02:00,2022-05-05T12:55:18.700+02:00,270,0.8798907,0.7205021,1.900869,196.189,0,0,2022-05-05T13:02:05.264+02:00,673441327.8273628,0,1.37,101.4314,1,0.87
342,2022-05-05T13:02:08.355+02:00,1651748527.999988,53.22894468028685,10.39802757632392,36.51787,0,20,-1,-1,2.400000095367432,7.999579855010838,-9999,5152.121874541667,-2.19134521484375,-1.394210815429688,-0.8387908935546875,5152.111879541667,-2.97642413375246,-0.42412731087056,0.767908957606582,1.887388586997986,1.471317648887634,6.632591247558594,-2.362074613571167,-0.2003870606422424,-0.253506064414978,XArbitraryZVertical,0.1642800083223179,0.3810487969344136,0.9098348874852258,0.0038031334678225,-0.2960370182991028,-0.6946325302124023,-0.6556277871131897,0,0,0,-1,-1,5151.595370541667,unknown,2,2022-05-05T13:02:07.828+02:00,2022-05-05T12:55:18.700+02:00,270,0.8798907,0.7205021,1.900869,196.189,0,0,2022-05-05T13:02:05.264+02:00,673441327.8273628,0,1.37,101.4314,1,0.87
343,2022-05-05T13:02:08.365+02:00,1651748527.999988,53.22894468028685,10.39802757632392,36.51787,0,20,-1,-1,2.400000095367432,7.999579855010838,-9999,5152.131870541667,-2.07061767578125,-1.191192626953125,-0.781951904296875,5152.121874541667,-2.886925951368924,-0.4718893351312822,0.7511584095071989,0.7400650382041931,1.334272742271423,6.512631893157959,-2.110061883926392,-0.602243185043335,-0.2772639989852905,XArbitraryZVertical,0.1704160523473048,0.3813771672667102,0.9080865406239786,-0.0298124707925768,-0.3322446346282959,-0.6824858784675598,-0.6510196328163147,0,0,0,-1,-1,5151.595370541667,unknown,2,2022-05-05T13:02:07.828+02:00,2022-05-05T12:55:18.700+02:00,270,0.8798907,0.7205021,1.900869,196.189,0,0,2022-05-05T13:02:05.264+02:00,673441327.8273628,0,1.37,101.4314,1,0.87
344,2022-05-05T13:02:08.375+02:00,1651748527.999988,53.22894468028685,10.39802757632392,36.51787,0,20,-1,-1,2.400000095367432,7.999579855010838,-9999,5152.141865875,-1.967269897460938,-0.86334228515625,-0.7557220458984375,5152.131870541667,-2.807827182153568,-0.5119272279266459,0.7246701468005289,0.2355798035860062,1.318817853927612,6.289272308349609,-1.824579358100891,-0.7313224077224731,-0.1860567331314087,XArbitraryZVertical,0.1764898141309307,0.3774709394680756,0.9069463987645674,-0.0617693061267574,-0.3667658269405365,-0.6628885269165039,-0.6527340412139893,0,0,0,-1,-1,5151.595370541667,unknown,2,2022-05-05T13:02:07.828+02:00,2022-05-05T12:55:18.700+02:00,270,0.8798907,0.7205021,1.900869,196.189,0,0,2022-05-05T13:02:05.264+02:00,673441327.8273628,0,1.37,101.4314,1,0.87
345,2022-05-05T13:02:08.385+02:00,1651748527.999988,53.22894468028685,10.39802757632392,36.51787,0,20,-1,-1,2.400000095367432,7.999579855010838,-9999,5152.151861875001,-1.869491577148438,-0.73797607421875,-0.780914306640625,5152.141865875,-2.735550905237378,-0.5451735180978989,0.6968293348866584,0.5625900030136108,1.492676496505737,5.980781555175781,-1.672938942909241,-0.5494033098220825,-0.1262399554252625,XArbitraryZVertical,0.1815540370818792,0.3730712994154124,0.9051528809095424,-0.0924896212048532,-0.3976787626743317,-0.6417893767356873,-0.6557118892669678,0,0,0,-1,-1,5151.595370541667,unknown,2,2022-05-05T13:02:07.828+02:00,2022-05-05T12:55:18.700+02:00,270,0.8798907,0.7205021,1.900869,196.189,0,0,2022-05-05T13:02:05.264+02:00,673441327.8273628,0,1.37,101.4314,1,0.87
346,2022-05-05T13:02:08.395+02:00,1651748527.999988,53.22894468028685,10.39802757632392,36.51787,0,20,-1,-1,2.400000095367432,7.999579855010838,-9999,5152.161856875,-1.870498657226562,-0.816986083984375,-0.8133697509765625,5152.151861875001,-2.665704260374244,-0.5734563673183554,0.6734339626670898,1.216139793395996,1.66809093952179,5.681101322174072,-1.54317569732666,-0.2396684288978577,-0.0990828275680542,XArbitraryZVertical,0.1847174235695091,0.3708906686822172,0.901828062835104,-0.1225799140203376,-0.4240942001342773,-0.6236739158630371,-0.6566391587257385,0,0,0,-1,-1,5151.595370541667,unknown,2,2022-05-05T13:02:07.828+02:00,2022-05-05T12:55:18.700+02:00,270,0.8798907,0.7205021,1.900869,196.189,0,0,2022-05-05T13:02:05.264+02:00,673441327.8273628,0,1.37,101.4314,1,0.87
347,2022-05-05T13:02:08.405+02:00,1651748527.999988,53.22894468028685,10.39802757632392,36.51787,0,20,-1,-1,2.400000095367432,7.999579855010838,-9999,5152.171852875001,-2.00189208984375,-0.803131103515625,-0.83087158203125,5152.161856875,-2.596832998533817,-0.5986245549028485,0.6548397891835704,1.65370762348175,1.801933646202087,5.424628257751465,-1.422548770904541,-0.1289439797401428,-0.1256875395774841,XArbitraryZVertical,0.1862336489136039,0.3710845187080092,0.8969317968880386,-0.1520746331248726,-0.4469428360462189,-0.609032154083252,-0.6552265882492065,0,0,0,-1,-1,5151.595370541667,unknown,2,2022-05-05T13:02:07.828+02:00,2022-05-05T12:55:18.700+02:00,270,0.8798907,0.7205021,1.900869,196.189,0,0,2022-05-05T13:02:05.264+02:00,673441327.8273628,0,1.37,101.4314,1,0.87
348,2022-05-05T13:02:08.416+02:00,1651748527.999988,53.22894468028685,10.39802757632392,36.51787,0,20,-1,-1,2.400000095367432,7.999579855010838,-9999,5152.181847875,-2.0469970703125,-0.8114776611328125,-0.836456298828125,5152.171852875001,-2.529779992088562,-0.6199671362134823,0.6387233102348889,1.808455109596252,2.019015312194824,5.200675964355469,-1.40403163433075,-0.2208151817321777,-0.1599258780479431,XArbitraryZVertical,0.1861279563616189,0.3723365430587405,0.8910495183001194,-0.1809767551647219,-0.4664669632911682,-0.5961709022521973,-0.6534437537193298,0,0,0,-1,-1,5151.595370541667,unknown,2,2022-05-05T13:02:07.828+02:00,2022-05-05T12:55:18.700+02:00,270,0.8798907,0.7205021,1.900869,196.189,0,0,2022-05-05T13:02:05.264+02:00,673441327.8273628,0,1.37,101.4314,1,0.87
349,2022-05-05T13:02:08.425+02:00,1651748527.999988,53.22894468028685,10.39802757632392,36.51787,0,20,-1,-1,2.400000095367432,7.999579855010838,-9999,5152.191843875,-1.936187744140625,-0.841705322265625,-0.8094329833984375,5152.181847875,-2.465585600579245,-0.6363432676859392,0.623460854893914,1.798795819282532,2.281148433685303,4.991366863250732,-1.519435882568359,-0.2192828059196472,-0.1779112815856934,XArbitraryZVertical,0.1843057161074714,0.3735656603208112,0.8846972356052609,-0.2092626999213991,-0.482456237077713,-0.5838484168052673,-0.6529601812362671,0,0,0,-1,-1,5151.595370541667,unknown,2,2022-05-05T13:02:07.828+02:00,2022-05-05T12:55:18.700+02:00,270,0.8798907,0.7205021,1.900869,196.189,0,0,2022-05-05T13:02:05.264+02:00,673441327.8273628,0,1.37,101.4314,1,0.87
350,2022-05-05T13:02:08.435+02:00,1651748527.999988,53.22894468028685,10.39802757632392,36.51787,0,20,-1,-1,2.400000095367432,7.999579855010838,-9999,5152.201838875,-1.798385620117188,-0.9232025146484376,-0.7551116943359375,5152.191843875,-2.404987715244483,-0.64741071981798,0.6079504958813858,1.60847806930542,2.507462501525879,4.788506507873535,-1.551941394805908,-0.2402913570404053,-0.181730329990387,XArbitraryZVertical,0.1809798270710978,0.3740098322670713,0.8782136516787865,-0.2368625729521305,-0.495055764913559,-0.571186363697052,-0.6547259092330933,0,0,0,-1,-1,5151.595370541667,unknown,2,2022-05-05T13:02:07.828+02:00,2022-05-05T12:55:18.700+02:00,270,0.8798907,0.7205021,1.900869,196.189,0,0,2022-05-05T13:02:05.264+02:00,673441327.8273628,0,1.37,101.4314,1,0.87
351,2022-05-05T13:02:08.445+02:00,1651748527.999988,53.22894468028685,10.39802757632392,36.51787,0,20,-1,-1,2.400000095367432,7.999579855010838,-9999,5152.211834875,-1.621719360351562,-0.9730377197265624,-0.6968994140625,5152.201838875,-2.349702684258021,-0.6525650990989466,0.5908167388109894,1.171108722686768,2.691586256027222,4.552862644195557,-1.431894659996033,-0.2846658825874329,-0.1495878100395203,XArbitraryZVertical,0.1765566456941087,0.3726998899722441,0.8720875181006434,-0.2634121897338258,-0.5042930841445923,-0.5570394992828369,-0.6598451137542725,0,0,0,-1,-1,5151.595370541667,unknown,2,2022-05-05T13:02:07.828+02:00,2022-05-05T12:55:18.700+02:00,270,0.8798907,0.7205021,1.900869,196.189,0,0,2022-05-05T13:02:05.264+02:00,673441327.8273628,0,1.37,101.4314,1,0.87
352,2022-05-05T13:02:08.455+02:00,1651748527.999988,53.22894468028685,10.39802757632392,36.51787,0,20,-1,-1,2.400000095367432,7.999579855010838,-9999,5152.221829875,-1.436859130859375,-1.000640869140625,-0.6173858642578125,5152.211834875,-2.301029238872471,-0.6517468311865844,0.5711896706096643,0.6441392302513123,2.815570116043091,4.296535491943359,-1.288098335266113,-0.3825693130493164,-0.0862897634506225,XArbitraryZVertical,0.1715368421172208,0.3690043196613214,0.8666908415597944,-0.2885446531542182,-0.5102872848510742,-0.5406332612037659,-0.6688218712806702,0,0,0,-1,-1,5151.595370541667,unknown,2,2022-05-05T13:02:07.828+02:00,2022-05-05T12:55:18.700+02:00,270,0.8798907,0.7205021,1.900869,196.189,0,0,2022-05-05T13:02:05.264+02:00,673441327.8273628,0,1.37,101.4314,1,0.87
353,2022-05-05T13:02:08.465+02:00,1651748527.999988,53.22894468028685,10.39802757632392,36.51787,0,20,-1,-1,2.400000095367432,7.999579855010838,-9999,5152.231825875,-1.28680419921875,-0.8645477294921875,-0.54644775390625,5152.221829875,-2.259222955367149,-0.6454579777971369,0.5492601456373541,0.1680078655481339,2.87569260597229,3.999927282333374,-1.108638525009155,-0.4509814381599426,-0.0155732035636901,XArbitraryZVertical,0.166216720895647,0.3629172862215176,0.8621536953057035,-0.312016192798242,-0.5130808353424072,-0.5220563411712646,-0.6813260912895203,0,0,0,-1,-1,5151.595370541667,unknown,2,2022-05-05T13:02:07.828+02:00,2022-05-05T12:55:18.700+02:00,270,0.8798907,0.7205021,1.900869,196.189,0,0,2022-05-05T13:02:05.264+02:00,673441327.8273628,0,1.37,101.4314,1,0.87
354,2022-05-05T13:02:08.475+02:00,1651748527.999988,53.22894468028685,10.39802757632392,36.51787,0,20,-1,-1,2.400000095367432,7.999579855010838,-9999,5152.241820875,-1.26513671875,-0.6742401123046875,-0.4844970703125,5152.231825875,-2.222673249261331,-0.6355216802413258,0.5271634096583285,0.1099336519837379,2.853427171707153,3.669005870819092,-0.9238499402999878,-0.4975570440292358,0.078119933605194,XArbitraryZVertical,0.1606101789806156,0.3556002235240341,0.8581153893123578,-0.3337527195205058,-0.5130091905593872,-0.5030838847160339,-0.695505678653717,0,0,0,-1,-1,5151.595370541667,unknown,2,2022-05-05T13:02:07.828+02:00,2022-05-05T12:55:18.700+02:00,270,0.8798907,0.7205021,1.900869,196.189,0,0,2022-05-05T13:02:05.264+02:00,673441327.8273628,0,1.37,101.4314,1,0.87
355,2022-05-05T13:02:08.485+02:00,1651748527.999988,53.22894468028685,10.39802757632392,36.51787,0,20,-1,-1,2.400000095367432,7.999579855010838,-9999,5152.251816875,-1.32830810546875,-0.6058197021484375,-0.4426727294921875,5152.241820875,-2.188247368435141,-0.6241168510426924,0.5088203309235406,0.4783025085926056,2.853551626205444,3.335250616073608,-0.776452898979187,-0.3774004876613617,0.1622334718704224,XArbitraryZVertical,0.1541155160988296,0.3491530294811417,0.8538480427774637,-0.3539549642055759,-0.5103513598442078,-0.4871473610401154,-0.7086811661720276,0,0,0,-1,-1,5151.595370541667,unknown,2,2022-05-05T13:02:07.828+02:00,2022-05-05T12:55:18.700+02:00,270,0.8798907,0.7205021,1.900869,196.189,0,0,2022-05-05T13:02:05.264+02:00,673441327.8273628,0,1.37,101.4314,1,0.87
356,2022-05-05T13:02:08.495+02:00,1651748527.999988,53.22894468028685,10.39802757632392,36.51787,0,20,-1,-1,2.400000095367432,7.999579855010838,-9999,5152.261811875001,-1.322509765625,-0.566558837890625,-0.427459716796875,5152.251816875,-2.153896577321563,-0.611703089826099,0.4963213611932983,0.9735274314880372,2.941046953201294,3.02740740776062,-0.7601645588874817,-0.1980461776256561,0.2353935837745667,XArbitraryZVertical,0.145980309586079,0.3445931786803909,0.8489868141545284,-0.3730507815325128,-0.5049722194671631,-0.4761939942836761,-0.7198905944824219,0,0,0,-1,-1,5151.595370541667,unknown,2,2022-05-05T13:02:07.828+02:00,2022-05-05T12:55:18.700+02:00,270,0.8798907,0.7205021,1.900869,196.189,0,0,2022-05-05T13:02:05.264+02:00,673441327.8273628,0,1.37,101.4314,1,0.87
357,2022-05-05T13:02:08.506+02:00,1651748527.999988,53.22894468028685,10.39802757632392,36.51787,0,20,-1,-1,2.400000095367432,7.999579855010838,-9999,5152.271807875,-1.276840209960938,-0.5377960205078125,-0.426788330078125,5152.261811875001,-2.118979422985721,-0.5985268715177772,0.4899604741599052,1.475564122200012,2.982359647750854,2.766879558563232,-0.8311684131622314,-0.1352287530899048,0.2862966060638428,XArbitraryZVertical,0.136031534786873,0.3420684199338004,0.8434504224720448,-0.3912493302590804,-0.4971397817134857,-0.4705910086631775,-0.7289692163467407,0,0,0,-1,-1,5151.595370541667,unknown,2,2022-05-05T13:02:07.828+02:00,2022-05-05T12:55:18.700+02:00,270,0.8798907,0.7205021,1.900869,196.189,0,0,2022-05-05T13:02:05.264+02:00,673441327.8273628,0,1.37,101.4314,1,0.87
358,2022-05-05T13:02:08.515+02:00,1651748527.999988,53.22894468028685,10.39802757632392,36.51787,0,20,-1,-1,2.400000095367432,7.999579855010838,-9999,5152.281802875001,-1.220199584960938,-0.6078033447265625,-0.406707763671875,5152.271807875,-2.083203207626035,-0.5856498792755398,0.4892981716312285,1.916636824607849,2.955691337585449,2.554734945297241,-0.8346257209777832,-0.0965524017810821,0.3081102967262268,XArbitraryZVertical,0.1246791343342972,0.3415701617783053,0.8371556419540327,-0.4086018505464896,-0.4878840744495392,-0.47000652551651,-0.7355698943138123,0,0,0,-1,-1,5151.595370541667,unknown,2,2022-05-05T13:02:07.828+02:00,2022-05-05T12:55:18.700+02:00,270,0.8798907,0.7205021,1.900869,196.189,0,0,2022-05-05T13:02:05.264+02:00,673441327.8273628,0,1.37,101.4314,1,0.87
359,2022-05-05T13:02:08.525+02:00,1651748527.999988,53.22894468028685,10.39802757632392,36.51787,0,20,-1,-1,2.400000095367432,7.999579855010838,-9999,5152.291798875,-1.101425170898438,-0.73297119140625,-0.3777313232421875,5152.281802875001,-2.0474788173526,-0.5731900951301363,0.492599140959518,2.036701202392578,2.89592456817627,2.368716716766357,-0.7990028858184814,-0.0648784935474395,0.3134957551956177,XArbitraryZVertical,0.1124913575981013,0.3423502601334432,0.8303532794948633,-0.4250358477266818,-0.4778374135494232,-0.4729176163673401,-0.7402839660644531,0,0,0,-1,-1,5151.595370541667,unknown,2,2022-05-05T13:02:07.828+02:00,2022-05-05T12:55:18.700+02:00,270,0.8798907,0.7205021,1.900869,196.189,0,0,2022-05-05T13:02:05.264+02:00,673441327.8273628,0,1.37,101.4314,1,0.87
360,2022-05-05T13:02:08.535+02:00,1651748527.999988,53.22894468028685,10.39802757632392,36.51787,0,20,-1,-1,2.400000095367432,7.999579855010838,-9999,5152.301793875,-1.016815185546875,-0.8100433349609375,-0.3745269775390625,5152.291798875,-2.013899021936042,-0.5609012746477576,0.4963450032469336,1.718468189239502,2.741450548171997,2.217949390411377,-0.7524409294128418,-0.1315886378288269,0.3378870487213135,XArbitraryZVertical,0.1006284657283319,0.3428943847557042,0.8236368602266947,-0.4403631032515988,-0.4677586853504181,-0.4762147963047028,-0.7445946931838989,0,0,0,-1,-1,5151.595370541667,unknown,2,2022-05-05T13:02:07.828+02:00,2022-05-05T12:55:18.700+02:00,270,0.8798907,0.7205021,1.900869,196.189,0,0,2022-05-05T13:02:05.264+02:00,673441327.8273628,0,1.37,101.4314,1,0.87
361,2022-05-05T13:02:08.545+02:00,1651748527.999988,53.22894468028685,10.39802757632392,36.51787,0,20,-1,-1,2.400000095367432,7.999579855010838,-9999,5152.311789875001,-1.012496948242188,-0.7557830810546875,-0.368560791015625,5152.301793875,-1.984570129253483,-0.5485494311959154,0.4971726740911938,1.128581643104553,2.529003620147705,2.077661752700806,-0.6431047916412354,-0.2560288310050964,0.3722476363182068,XArbitraryZVertical,0.0903071738567013,0.3418408641073073,0.8176430393283328,-0.454366961661336,-0.4583204686641693,-0.4769424200057983,-0.7499788999557495,0,0,0,-1,-1,5151.595370541667,unknown,2,2022-05-05T13:02:07.828+02:00,2022-05-05T12:55:18.700+02:00,270,0.8798907,0.7205021,1.900869,196.189,0,0,2022-05-05T13:02:05.264+02:00,673441327.8273628,0,1.37,101.4314,1,0.87
362,2022-05-05T13:02:08.555+02:00,1651748527.999988,53.22894468028685,10.39802757632392,36.51787,0,20,-1,-1,2.400000095367432,7.999579855010838,-9999,5152.321784875,-1.02093505859375,-0.632781982421875,-0.3825531005859375,5152.311789875001,-1.960214123088217,-0.5356293896014789,0.4939480512235375,0.5399873852729797,2.379534721374512,1.91741144657135,-0.5674399137496948,-0.3359376788139343,0.38262939453125,XArbitraryZVertical,0.0818164287183458,0.3387151295872655,0.8126751175442758,-0.4670517284851095,-0.449375331401825,-0.4741057157516479,-0.757156252861023,0,0,0,-1,-1,5151.595370541667,unknown,2,2022-05-05T13:02:07.828+02:00,2022-05-05T12:55:18.700+02:00,270,0.8798907,0.7205021,1.900869,196.189,0,0,2022-05-05T13:02:05.264+02:00,673441327.8273628,0,1.37,101.4314,1,0.87
363,2022-05-05T13:02:08.566+02:00,1651748527.999988,53.22894468028685,10.39802757632392,36.51787,0,20,-1,-1,2.400000095367432,7.999579855010838,-9999,5152.331780875001,-0.958770751953125,-0.4670257568359375,-0.3804473876953125,5152.321784875,-1.940373447086506,-0.521729740571047,0.4878439565375018,0.2394156455993652,2.262475252151489,1.729771733283997,-0.5722548365592957,-0.2870606780052185,0.3972631096839905,XArbitraryZVertical,0.0746093229281254,0.3339484184145926,0.8086871960918497,-0.4784735315628052,-0.4402421712875366,-0.4687224626541138,-0.7658237814903259,0,0,0,-1,-1,5151.595370541667,unknown,2,2022-05-05T13:02:07.828+02:00,2022-05-05T12:55:18.700+02:00,270,0.8798907,0.7205021,1.900869,196.189,0,0,2022-05-05T13:02:05.264+02:00,673441327.8273628,0,1.37,101.4314,1,0.87
