,loggingTime(txt),locationTimestamp_since1970(s),locationLatitude(WGS84),locationLongitude(WGS84),locationAltitude(m),locationSpeed(m/s),locationSpeedAccuracy(m/s),locationCourse(°),locationCourseAccuracy(°),locationVerticalAccuracy(m),locationHorizontalAccuracy(m),locationFloor(Z),accelerometerTimestamp_sinceReboot(s),accelerometerAccelerationX(G),accelerometerAccelerationY(G),accelerometerAccelerationZ(G),motionTimestamp_sinceReboot(s),motionYaw(rad),motionRoll(rad),motionPitch(rad),motionRotationRateX(rad/s),motionRotationRateY(rad/s),motionRotationRateZ(rad/s),motionUserAccelerationX(G),motionUserAccelerationY(G),motionUserAccelerationZ(G),motionAttitudeReferenceFrame(txt),motionQuaternionX(R),motionQuaternionY(R),motionQuaternionZ(R),motionQuaternionW(R),motionGravityX(G),motionGravityY(G),motionGravityZ(G),motionMagneticFieldX(µT),motionMagneticFieldY(µT),motionMagneticFieldZ(µT),motionHeading(°),motionMagneticFieldCalibrationAccuracy(Z),activityTimestamp_sinceReboot(s),activity(txt),activityActivityConfidence(Z),activityActivityStartDate(txt),pedometerStartDate(txt),pedometerNumberofSteps(N),pedometerAverageActivePace(s/m),pedometerCurrentPace(s/m),pedometerCurrentCadence(steps/s),pedometerDistance(m),pedometerFloorAscended(N),pedometerFloorDescended(N),pedometerEndDate(txt),altimeterTimestamp_sinceReboot(s),altimeterReset(bool),altimeterRelativeAltitude(m),altimeterPressure(kPa),batteryState(N),batteryLevel(R)
166,2022-06-02T10:48:19.859+02:00,1654159698.999806,53.22908797706415,10.39854607939638,37.05145,0,20,-1,-1,2.400000095367432,7.999579855010835,-9999,2844.136898625,0.656036376953125,0.3329315185546875,2.484909057617188,2844.126904625,-1.826729674775454,1.984187041008424,0.0648529592619841,-2.584992647171021,5.706977367401123,1.609698057174683,-0.2566428184509277,0.382327675819397,1.867880821228027,XArbitraryZVertical,0.6731637585642913,0.4972792488591206,-0.4161234076236008,0.3555350187610594,0.9138387441635132,-0.064807504415512,0.4008722007274628,0,0,0,-1,-1,2842.680245625,unknown,2,2022-06-02T10:48:18.402+02:00,2022-06-02T10:17:13.754+02:00,467,1.462823,0,0,361.8512,0,0,2022-06-02T10:48:18.402+02:00,675852498.401696,0,6.921875,101.2991,1,0.8
167,2022-06-02T10:48:19.869+02:00,1654159698.999806,53.22908797706415,10.39854607939638,37.05145,0,20,-1,-1,2.400000095367432,7.999579855010835,-9999,2844.146892625,0.6337890625,0.2516326904296875,2.654190063476562,2844.136898625,-1.807726566795092,2.040606322909903,0.091109161112202,-3.086203575134277,5.874660015106201,1.505537629127502,-0.2338728904724121,0.4448802769184113,1.949124097824097,XArbitraryZVertical,0.6836860093895198,0.5079300931572599,-0.3865831392426093,0.3537424921240511,0.887955904006958,-0.0909831672906875,0.4508390724658966,0,0,0,-1,-1,2842.680245625,unknown,2,2022-06-02T10:48:18.402+02:00,2022-06-02T10:17:13.754+02:00,467,1.462823,0,0,361.8512,0,0,2022-06-02T10:48:18.402+02:00,675852498.401696,0,6.921875,101.2991,1,0.8
168,2022-06-02T10:48:19.879+02:00,1654159698.999806,53.22908797706415,10.39854607939638,37.05145,0,20,-1,-1,2.400000095367432,7.999579855010835,-9999,2844.156887625,0.5996551513671875,0.1903076171875,2.8773193359375,2844.146892625,-1.785556876015179,2.097829881659605,0.1192097382269962,-3.446141481399536,6.050978660583496,1.299567937850952,-0.2085869908332825,0.4143683314323425,2.076037406921387,XArbitraryZVertical,0.6925715280426481,0.5196591341066119,-0.3551691908747697,0.352354522166705,0.8581686019897461,-0.1189275905489922,0.499401867389679,0,0,0,-1,-1,2842.680245625,unknown,2,2022-06-02T10:48:18.402+02:00,2022-06-02T10:17:13.754+02:00,467,1.462823,0,0,361.8512,0,0,2022-06-02T10:48:18.402+02:00,675852498.401696,0,6.921875,101.2991,1,0.8
169,2022-06-02T10:48:19.889+02:00,1654159698.999806,53.22908797706415,10.39854607939638,37.05145,0,20,-1,-1,2.400000095367432,7.999579855010835,-9999,2844.166881625,0.618316650390625,0.104888916015625,3.117767333984375,2844.156887625,-1.760141994643938,2.156333731865295,0.148050570830549,-3.919973134994507,6.338955879211426,0.9221162796020508,-0.2112151384353638,0.3600805401802063,2.198851108551025,XArbitraryZVertical,0.6995563652526392,0.5328429886417307,-0.3220241087136279,0.350712903160057,0.8242978453636169,-0.1475103050470352,0.5466015338897705,0,0,0,-1,-1,2842.680245625,unknown,2,2022-06-02T10:48:18.402+02:00,2022-06-02T10:17:13.754+02:00,467,1.462823,0,0,361.8512,0,0,2022-06-02T10:48:18.402+02:00,675852498.401696,0,6.921875,101.2991,1,0.8
170,2022-06-02T10:48:19.899+02:00,1654159698.999806,53.22908797706415,10.39854607939638,37.05145,0,20,-1,-1,2.400000095367432,7.999579855010835,-9999,2844.176875625,0.67279052734375,0.0803985595703125,3.391952514648438,2844.166881625,-1.730100197107521,2.215948593571903,0.1775569633829869,-4.297782897949219,6.547772407531738,0.446304053068161,-0.1816489100456238,0.3355153203010559,2.422003984451294,XArbitraryZVertical,0.7040471338102416,0.5479513600786954,-0.2870297897108798,0.3488276417231324,0.7864461541175842,-0.1766254752874374,0.591866135597229,0,0,0,-1,-1,2842.680245625,unknown,2,2022-06-02T10:48:18.402+02:00,2022-06-02T10:17:13.754+02:00,467,1.462823,0,0,361.8512,0,0,2022-06-02T10:48:18.402+02:00,675852498.401696,0,6.921875,101.2991,1,0.8
171,2022-06-02T10:48:19.909+02:00,1654159698.999806,53.22908797706415,10.39854607939638,37.05145,0,20,-1,-1,2.400000095367432,7.999579855010835,-9999,2844.186870625,0.7833251953125,0.1481475830078125,3.70648193359375,2844.176875625,-1.69539845812973,2.27573217820769,0.2067345699191796,-4.706329345703125,6.745776653289795,-0.1459478139877319,-0.1110963821411133,0.2702523469924927,2.591765165328979,XArbitraryZVertical,0.7055992045962678,0.5649984185196752,-0.2508915090103332,0.3463522287045558,0.7454346418380737,-0.2052651047706604,0.6341869235038757,0,0,0,-1,-1,2842.680245625,unknown,2,2022-06-02T10:48:18.402+02:00,2022-06-02T10:17:13.754+02:00,467,1.462823,0,0,361.8512,0,0,2022-06-02T10:48:18.402+02:00,675852498.401696,0,6.921875,101.2991,1,0.8
172,2022-06-02T10:48:19.919+02:00,1654159698.999806,53.22908797706415,10.39854607939638,37.05145,0,20,-1,-1,2.400000095367432,7.999579855010835,-9999,2844.196864625,0.8462371826171875,0.2271881103515625,3.925827026367188,2844.186870625,-1.654875650821089,2.334826722222112,0.236859739985897,-5.168516635894775,6.83317756652832,-0.6997855305671692,0.0272324681282043,0.3572861552238464,2.896464109420776,XArbitraryZVertical,0.7037558755412676,0.5839417974835684,-0.213413749694071,0.3437936645673977,0.7018933296203613,-0.2346512079238892,0.6725206971168518,0,0,0,-1,-1,2842.680245625,unknown,2,2022-06-02T10:48:18.402+02:00,2022-06-02T10:17:13.754+02:00,467,1.462823,0,0,361.8512,0,0,2022-06-02T10:48:18.402+02:00,675852498.401696,0,6.921875,101.2991,1,0.8
173,2022-06-02T10:48:19.929+02:00,1654159698.999806,53.22908797706415,10.39854607939638,37.05145,0,20,-1,-1,2.400000095367432,7.999579855010835,-9999,2844.206858625,0.8570404052734375,0.322845458984375,4.18255615234375,2844.196864625,-1.608897317002288,2.391371860734205,0.2670715233413815,-5.35435152053833,6.76873779296875,-1.430062651634216,0.1646213531494141,0.4373851716518402,3.115120887756348,XArbitraryZVertical,0.6982142681028107,0.6043993629674977,-0.1756914936147914,0.3410726418851989,0.6576287746429443,-0.2639079093933105,0.7056034803390503,0,0,0,-1,-1,2842.680245625,unknown,2,2022-06-02T10:48:18.402+02:00,2022-06-02T10:17:13.754+02:00,467,1.462823,0,0,361.8512,0,0,2022-06-02T10:48:18.402+02:00,675852498.401696,0,6.921875,101.2991,1,0.8
174,2022-06-02T10:48:19.939+02:00,1654159698.999806,53.22908797706415,10.39854607939638,37.05145,0,20,-1,-1,2.400000095367432,7.999579855010835,-9999,2844.216853625,0.7887420654296875,0.2403106689453125,4.422576904296875,2844.206858625,-1.55708747381542,2.443926653116831,0.2953229374915575,-5.512785911560059,6.585188865661621,-2.308927536010742,0.2425588965415955,0.5794246196746826,3.304949045181274,XArbitraryZVertical,0.6885688305134197,0.626463587562166,-0.1389801602378944,0.3377881928375546,0.6146188378334045,-0.2910488247871399,0.7331673502922058,0,0,0,-1,-1,2842.680245625,unknown,2,2022-06-02T10:48:18.402+02:00,2022-06-02T10:17:13.754+02:00,467,1.462823,0,0,361.8512,0,0,2022-06-02T10:48:18.402+02:00,675852498.401696,0,6.921875,101.2991,1,0.8
175,2022-06-02T10:48:19.949+02:00,1654159698.999806,53.22908797706415,10.39854607939638,37.05145,0,20,-1,-1,2.400000095367432,7.999579855010835,-9999,2844.226847625,0.5662078857421875,0.235931396484375,4.766647338867188,2844.216853625,-1.497183558501347,2.489139494980252,0.3211769795694373,-5.567782878875732,6.085515022277832,-3.444770574569702,0.2638898491859436,0.6256506443023682,3.57135272026062,XArbitraryZVertical,0.673959173961187,0.6502009735308173,-0.1043374161559556,0.334860158990075,0.5760911107063293,-0.3156835734844208,0.7539645433425903,0,0,0,-1,-1,2842.680245625,unknown,2,2022-06-02T10:48:18.402+02:00,2022-06-02T10:17:13.754+02:00,467,1.462823,0,0,361.8512,0,0,2022-06-02T10:48:18.402+02:00,675852498.401696,0,6.921875,101.2991,1,0.8
176,2022-06-02T10:48:19.959+02:00,1654159698.999806,53.22908797706415,10.39854607939638,37.05145,0,20,-1,-1,2.400000095367432,7.999579855010835,-9999,2844.236841625,0.303009033203125,0.5179290771484375,5.381210327148438,2844.226847625,-1.426337408121813,2.523905553740159,0.340528653487598,-5.5494384765625,5.430244445800781,-5.093056201934814,0.1423218250274658,0.5095988512039185,3.76052188873291,XArbitraryZVertical,0.6532179397679635,0.6763953494590567,-0.073898286440879,0.3321665895889725,0.5458952188491821,-0.333985447883606,0.7684087157249451,0,0,0,-1,-1,2842.680245625,unknown,2,2022-06-02T10:48:18.402+02:00,2022-06-02T10:17:13.754+02:00,467,1.462823,0,0,361.8512,0,0,2022-06-02T10:48:18.402+02:00,675852498.401696,0,6.921875,101.2991,1,0.8
177,2022-06-02T10:48:19.969+02:00,1654159698.999806,53.22908797706415,10.39854607939638,37.05145,0,20,-1,-1,2.400000095367432,7.999579855010835,-9999,2844.246836625,-0.056732177734375,0.4532318115234375,6.055572509765625,2844.236841625,-1.340542526806539,2.542887423328787,0.3524723756709733,-5.529942989349365,4.120675086975098,-6.826766490936279,-0.08607017993927,0.7424970865249634,4.312441825866699,XArbitraryZVertical,0.6248960940930419,0.7050853519766247,-0.0490709406429007,0.3315892403175988,0.528925895690918,-0.345219224691391,0.7752809524536133,0,0,0,-1,-1,2842.680245625,unknown,2,2022-06-02T10:48:18.402+02:00,2022-06-02T10:17:13.754+02:00,467,1.462823,0,0,361.8512,0,0,2022-06-02T10:48:18.402+02:00,675852498.401696,0,6.921875,101.2991,1,0.8
178,2022-06-02T10:48:19.979+02:00,1654159698.999806,53.22908797706415,10.39854607939638,37.05145,0,20,-1,-1,2.400000095367432,7.999579855010835,-9999,2844.256830625,-0.373992919921875,0.3828887939453125,7.100738525390625,2844.246836625,-1.239171226630078,2.539578564515912,0.3515916602737184,-5.04646110534668,2.136911630630493,-9.068222999572754,-0.4009842276573181,0.8647783398628235,4.898555755615234,XArbitraryZVertical,0.5882551819497929,0.7354211950799519,-0.0335320571711049,0.3346446558442592,0.5316603779792786,-0.3443925380706787,0.7737770080566406,0,0,0,-1,-1,2842.680245625,unknown,2,2022-06-02T10:48:18.402+02:00,2022-06-02T10:17:13.754+02:00,467,1.462823,0,0,361.8512,0,0,2022-06-02T10:48:18.402+02:00,675852498.401696,0,6.921875,101.2991,1,0.8
179,2022-06-02T10:48:19.989+02:00,1654159698.999806,53.22908797706415,10.39854607939638,37.05145,0,20,-1,-1,2.400000095367432,7.999579855010835,-9999,2844.266824625,-0.78106689453125,0.88775634765625,7.75177001953125,2844.256830625,-1.120976487247103,2.50661194854935,0.3320097762489787,-4.628003120422363,-0.9642725586891174,-11.30746841430664,-0.7873772382736206,0.7198035717010498,5.813376426696777,XArbitraryZVertical,0.5417820164431489,0.7661792768524409,-0.0307096006397548,0.3442360709757885,0.5607689023017883,-0.3259437084197998,0.7611168622970581,0,0,0,-1,-1,2842.680245625,unknown,2,2022-06-02T10:48:18.402+02:00,2022-06-02T10:17:13.754+02:00,467,1.462823,0,0,361.8512,0,0,2022-06-02T10:48:18.402+02:00,675852498.401696,0,6.921875,101.2991,1,0.8
180,2022-06-02T10:48:19.999+02:00,1654159698.999806,53.22908797706415,10.39854607939638,37.05145,0,20,-1,-1,2.400000095367432,7.999579855010835,-9999,2844.276819625,-1.836837768554688,1.880691528320312,7.958160400390625,2844.266824625,-0.9919413340509654,2.434619161518881,0.2928768409490696,-4.572307586669922,-5.697611331939697,-12.68560791015625,-1.155094981193542,0.7997093200683594,6.76548433303833,XArbitraryZVertical,0.4861092433143219,0.7922593549509466,-0.0425755101167248,0.3663471230846144,0.62187659740448,-0.2887077629566193,0.7279541492462158,0,0,0,-1,-1,2842.680245625,unknown,2,2022-06-02T10:48:18.402+02:00,2022-06-02T10:17:13.754+02:00,467,1.462823,0,0,361.8512,0,0,2022-06-02T10:48:18.402+02:00,675852498.401696,0,6.921875,101.2991,1,0.8
181,2022-06-02T10:48:20.009+02:00,1654159698.999806,53.22908797706415,10.39854607939638,37.05145,0,20,-1,-1,2.400000095367432,7.999579855010835,-9999,2844.286813625,-3.5484619140625,2.295303344726562,7.383590698242188,2844.276819625,-0.8590743593020321,2.315373250844202,0.2383137872669648,-5.352415084838867,-11.12303066253662,-13.35957527160645,-1.921286582946777,1.654719829559326,7.2783203125,XArbitraryZVertical,0.4221007185193998,0.8068983918047722,-0.0670176461536415,0.4077430498410619,0.7145907878875732,-0.2360644042491913,0.6585080623626709,0,0,0,-1,-1,2842.680245625,unknown,2,2022-06-02T10:48:18.402+02:00,2022-06-02T10:17:13.754+02:00,467,1.462823,0,0,361.8512,0,0,2022-06-02T10:48:18.402+02:00,675852498.401696,0,6.921875,101.2991,1,0.8
182,2022-06-02T10:48:20.021+02:00,1654159698.999806,53.22908797706415,10.39854607939638,37.05145,0,20,-1,-1,2.400000095367432,7.999579855010835,-9999,2844.296807625,-5.901962280273438,2.48272705078125,6.885665893554688,2844.286813625,-0.7274365953873037,2.152591749265759,0.1663814677421757,-5.876577854156494,-16.09908866882324,-13.93686962127686,-3.446650981903076,2.333934545516968,7.211191654205322,XArbitraryZVertical,0.3489081092190014,0.8057488245855733,-0.0998972902646485,0.4680302904286713,0.8239396810531616,-0.1656148731708527,0.5419360995292664,0,0,0,-1,-1,2842.680245625,unknown,2,2022-06-02T10:48:18.402+02:00,2022-06-02T10:17:13.754+02:00,467,1.462823,0,0,361.8512,0,0,2022-06-02T10:48:18.402+02:00,675852498.401696,0,6.921875,101.2991,1,0.8
183,2022-06-02T10:48:20.030+02:00,1654159698.999806,53.22908797706415,10.39854607939638,37.05145,0,20,-1,-1,2.400000095367432,7.999579855010835,-9999,2844.306802625,-8.547149658203125,3.6431884765625,6.960830688476562,2844.296807625,-0.6154783559381503,1.953927084117583,0.0645346344199946,-3.968518257141113,-20.85809707641602,-14.35986804962158,-5.579269886016846,2.375662326812744,6.658308982849121,XArbitraryZVertical,0.2681211974054074,0.7839865883317261,-0.1439172294740675,0.541076586371461,0.9255681037902832,-0.0644898489117622,0.3730478882789612,0,0,0,-1,-1,2842.680245625,unknown,2,2022-06-02T10:48:18.402+02:00,2022-06-02T10:17:13.754+02:00,467,1.462823,0,0,361.8512,0,0,2022-06-02T10:48:18.402+02:00,675852498.401696,0,6.921875,101.2991,1,0.8
184,2022-06-02T10:48:20.039+02:00,1654159698.999806,53.22908797706415,10.39854607939638,37.05145,0,20,-1,-1,2.400000095367432,7.999579855010835,-9999,2844.316796625,-13.16812133789062,4.588333129882812,8.0418701171875,2844.306802625,-0.5676418671129657,1.723701442901852,-0.0668326609522836,2.614400863647461,-25.36114311218262,-13.84797763824463,-8.152599334716797,2.91228199005127,6.800865173339844,XArbitraryZVertical,0.1915536323889062,0.7343651586874117,-0.2065497676869741,0.6175371966254015,0.9861263036727904,0.066782921552658,0.1519699543714523,0,0,0,-1,-1,2842.680245625,unknown,2,2022-06-02T10:48:18.402+02:00,2022-06-02T10:17:13.754+02:00,467,1.462823,0,0,361.8512,0,0,2022-06-02T10:48:18.402+02:00,675852498.401696,0,6.921875,101.2991,1,0.8
185,2022-06-02T10:48:20.049+02:00,1654159698.999806,53.22908797706415,10.39854607939638,37.05145,0,20,-1,-1,2.400000095367432,7.999579855010835,-9999,2844.326790625,-20.64042663574219,5.320220947265625,9.653030395507812,2844.316796625,-0.6318290095539485,1.437291597382193,-0.1990466700941111,11.09316921234131,-29.81614685058594,-12.48607063293457,-11.31332969665527,4.134662628173828,7.459871768951416,XArbitraryZVertical,0.1324464464636019,0.6459239650947594,-0.2948728896630247,0.6915852527287708,0.971532702445984,0.1977349072694778,-0.1304803341627121,0,0,0,-1,-1,2842.680245625,unknown,2,2022-06-02T10:48:18.402+02:00,2022-06-02T10:17:13.754+02:00,467,1.462823,0,0,361.8512,0,0,2022-06-02T10:48:18.402+02:00,675852498.401696,0,6.921875,101.2991,1,0.8
186,2022-06-02T10:48:20.059+02:00,1654159698.999806,53.22908797706415,10.39854607939638,37.05145,0,20,-1,-1,2.400000095367432,7.999579855010835,-9999,2844.336785625,-31.46658325195312,8.670440673828125,14.03865051269531,2844.326790625,-0.8589732528845166,1.050679977569432,-0.2253341044359848,29.45278739929199,-35.11092376708984,-5.906302452087402,-17.71478080749512,3.923845767974854,8.95260238647461,XArbitraryZVertical,0.1190713754357756,0.4935721134011229,-0.4092324542273323,0.7581142875064228,0.8458238840103149,0.2234320342540741,-0.4844171404838562,0,0,0,-1,-1,2842.680245625,unknown,2,2022-06-02T10:48:18.402+02:00,2022-06-02T10:17:13.754+02:00,467,1.462823,0,0,361.8512,0,0,2022-06-02T10:48:18.402+02:00,675852498.401696,0,6.921875,101.2991,1,0.8
187,2022-06-02T10:48:20.070+02:00,1654159698.999806,53.22908797706415,10.39854607939638,37.05145,0,20,-1,-1,2.400000095367432,7.999579855010835,-9999,2844.346779625,-32.02946472167969,6.510986328125,10.43092346191406,2844.336785625,-1.120941090050145,0.662417835720174,-0.017422518193197,35.20695877075195,-35.12069702148438,2.615542650222778,-26.79747200012207,7.845386505126953,13.1834077835083,XArbitraryZVertical,0.1658802806163761,0.2798031836280454,-0.5050734127112821,0.7994339649961287,0.6149317622184753,0.0174216367304325,-0.7883878350257874,0,0,0,-1,-1,2842.680245625,unknown,2,2022-06-02T10:48:18.402+02:00,2022-06-02T10:17:13.754+02:00,467,1.462823,0,0,361.8512,0,0,2022-06-02T10:48:18.402+02:00,675852498.401696,0,6.921875,101.2991,1,0.8
188,2022-06-02T10:48:20.081+02:00,1654159698.999806,53.22908797706415,10.39854607939638,37.05145,0,20,-1,-1,2.400000095367432,7.999579855010835,-9999,2844.356773625,-27.709228515625,-4.40087890625,28.99403381347656,2844.346779625,-1.268713130061993,0.4507259284151321,0.303368189663707,35.06803131103516,-8.988953590393066,4.559749603271484,-32.45936584472656,7.626723766326904,13.20154094696045,XArbitraryZVertical,0.2495440454645993,0.0906319304845362,-0.543843458127829,0.7960827977600237,0.4157268404960632,-0.2987362742424011,-0.8590272665023804,0,0,0,-1,-1,2842.680245625,unknown,2,2022-06-02T10:48:18.402+02:00,2022-06-02T10:17:13.754+02:00,467,1.462823,0,0,361.8512,0,0,2022-06-02T10:48:18.402+02:00,675852498.401696,0,6.921875,101.2991,1,0.8
189,2022-06-02T10:48:20.092+02:00,1654159698.999806,53.22908797706415,10.39854607939638,37.05145,0,20,-1,-1,2.400000095367432,7.999579855010835,-9999,2844.366768625,-8.037185668945312,-30.44255065917969,18.84519958496094,2844.356773625,-1.419392623703515,0.5761066802142666,0.6285693417945247,34.93864059448242,15.5030460357666,4.073972225189209,-31.73322868347168,5.606283664703369,18.45031356811523,XArbitraryZVertical,0.4008811585781851,0.0118060310588936,-0.5275367814594857,0.7489057076277265,0.4406423270702362,-0.5879881381988525,-0.6783098578453064,0,0,0,-1,-1,2842.680245625,unknown,2,2022-06-02T10:48:18.402+02:00,2022-06-02T10:17:13.754+02:00,467,1.462823,0,0,361.8512,0,0,2022-06-02T10:48:18.402+02:00,675852498.401696,0,6.921875,101.2991,1,0.8
190,2022-06-02T10:48:20.099+02:00,1654159699.999807,53.22909654586624,10.39853876937869,37.0164,0,20,-1,-1,2.400000095367432,7.999579855010835,-9999,2844.376762625,11.87216186523438,-23.91751098632812,-1.17144775390625,2844.366768625,-1.630507386212916,0.909120467638374,0.8476129515725359,2.119402885437012,8.16407585144043,8.764513969421387,-18.95157432556152,-18.36029815673828,31.92457962036133,XArbitraryZVertical,0.5446646546720744,0.005486300528471,-0.4723201228381791,0.6929818451708619,0.52211594581604,-0.7497028708457947,-0.4066206216812134,0,0,0,-1,-1,2842.680245625,unknown,2,2022-06-02T10:48:18.402+02:00,2022-06-02T10:17:13.754+02:00,467,1.462823,0,0,361.8512,0,0,2022-06-02T10:48:18.402+02:00,675852498.401696,0,6.921875,101.2991,1,0.8
191,2022-06-02T10:48:20.109+02:00,1654159699.999807,53.22909654586624,10.39853876937869,37.0164,0,20,-1,-1,2.400000095367432,7.999579855010835,-9999,2844.386756625,-0.54266357421875,5.210601806640625,2.842681884765625,2844.376762625,-1.212511772868391,0.6515869989749024,0.8064651424252943,-34.93921661376953,13.13262462615967,13.99785041809082,6.460034370422363,-31.3272876739502,5.085301876068115,XArbitraryZVertical,0.4732439488335148,0.0301039988357363,-0.3933185128056639,0.7876765224043395,0.419695645570755,-0.7218453884124756,-0.5502678155899048,0,0,0,-1,-1,2842.680245625,unknown,2,2022-06-02T10:48:18.402+02:00,2022-06-02T10:17:13.754+02:00,467,1.462823,0,0,361.8512,0,0,2022-06-02T10:48:18.402+02:00,675852498.401696,0,6.921875,101.2991,1,0.8
192,2022-06-02T10:48:20.119+02:00,1654159699.999807,53.22909654586624,10.39853876937869,37.0164,0,20,-1,-1,2.400000095367432,7.999579855010835,-9999,2844.396751625,-2.771194458007812,0.1695556640625,2.836227416992188,2844.386756625,-0.9202378160719245,0.6158222577580106,0.536085286708036,-35.08649826049805,13.75711536407471,-3.451545000076294,4.488693714141846,-4.999921798706055,0.9980030059814452,XArbitraryZVertical,0.3559134550770894,0.1497784105846829,-0.3361408961605127,0.8590117438565655,0.4965969622135162,-0.5107743740081787,-0.701784074306488,0,0,0,-1,-1,2842.680245625,unknown,2,2022-06-02T10:48:18.402+02:00,2022-06-02T10:17:13.754+02:00,467,1.462823,0,0,361.8512,0,0,2022-06-02T10:48:18.402+02:00,675852498.401696,0,6.921875,101.2991,1,0.8
193,2022-06-02T10:48:20.129+02:00,1654159699.999807,53.22909654586624,10.39853876937869,37.0164,0,20,-1,-1,2.400000095367432,7.999579855010835,-9999,2844.406745625,-4.742523193359375,-3.675140380859375,0.7065582275390625,2844.396751625,-0.7837758995815113,0.6395567718220053,0.307552136066689,-10.76267719268799,0.4615067839622498,-2.971748828887939,-2.019106149673462,5.581001281738281,4.757341384887695,XArbitraryZVertical,0.2530290206269176,0.231561076584801,-0.3137934980035263,0.8853752449980596,0.5688346028327942,-0.302726536989212,-0.7647115588188171,0,0,0,-1,-1,2842.680245625,unknown,2,2022-06-02T10:48:18.402+02:00,2022-06-02T10:17:13.754+02:00,467,1.462823,0,0,361.8512,0,0,2022-06-02T10:48:18.402+02:00,675852498.401696,0,6.921875,101.2991,1,0.8
194,2022-06-02T10:48:20.139+02:00,1654159699.999807,53.22909654586624,10.39853876937869,37.0164,0,20,-1,-1,2.400000095367432,7.999579855010835,-9999,2844.416739625,-5.329299926757812,1.6973876953125,1.837722778320312,2844.406745625,-0.7494834011380748,0.5766494257912587,0.2783873274911541,-0.7130002975463867,-8.558298110961914,6.991230010986328,-4.422359466552734,-3.411244869232178,2.305256843566895,XArbitraryZVertical,0.2268596899428093,0.2133655105029871,-0.3108151914484664,0.8979997863084859,0.5242272615432739,-0.2748054265975952,-0.80601966381073,0,0,0,-1,-1,2842.680245625,unknown,2,2022-06-02T10:48:18.402+02:00,2022-06-02T10:17:13.754+02:00,467,1.462823,0,0,361.8512,0,0,2022-06-02T10:48:18.402+02:00,675852498.401696,0,6.921875,101.2991,1,0.8
195,2022-06-02T10:48:20.149+02:00,1654159699.999807,53.22909654586624,10.39853876937869,37.0164,0,20,-1,-1,2.400000095367432,7.999579855010835,-9999,2844.426734625,-5.075637817382812,0.9493255615234376,-2.069610595703125,2844.416739625,-0.6501323183833752,0.4931615513159918,0.3154356620804433,-2.544023036956787,-1.542955160140991,10.09859752655029,-5.406354427337646,-0.7051959037780762,1.910226583480835,XArbitraryZVertical,0.2213249678174548,0.1797908732716989,-0.2695372119611918,0.9198043338527968,0.4500554800033569,-0.3102306723594666,-0.8373810052871704,0,0,0,-1,-1,2842.680245625,unknown,2,2022-06-02T10:48:18.402+02:00,2022-06-02T10:17:13.754+02:00,467,1.462823,0,0,361.8512,0,0,2022-06-02T10:48:18.402+02:00,675852498.401696,0,6.921875,101.2991,1,0.8
196,2022-06-02T10:48:20.159+02:00,1654159699.999807,53.22909654586624,10.39853876937869,37.0164,0,20,-1,-1,2.400000095367432,7.999579855010835,-9999,2844.436728625,-4.594161987304688,-3.23089599609375,-3.472488403320312,2844.426734625,-0.5833699016975088,0.4520753791545842,0.3583718924204408,4.34638500213623,-2.806652069091797,6.300937652587891,-5.768501758575439,2.453197479248047,1.354448199272156,XArbitraryZVertical,0.2297749655357525,0.1612656370984707,-0.2375072602150886,0.9299393095655942,0.4090809524059296,-0.3507500290870667,-0.842393696308136,0,0,0,-1,-1,2842.680245625,unknown,2,2022-06-02T10:48:18.402+02:00,2022-06-02T10:17:13.754+02:00,467,1.462823,0,0,361.8512,0,0,2022-06-02T10:48:18.402+02:00,675852498.401696,0,6.921875,101.2991,1,0.8
197,2022-06-02T10:48:20.169+02:00,1654159699.999807,53.22909654586624,10.39853876937869,37.0164,0,20,-1,-1,2.400000095367432,7.999579855010835,-9999,2844.446722625,-4.2252197265625,-5.565902709960938,-1.4674072265625,2844.436728625,-0.5420706352860981,0.4185924394584649,0.4302569692976511,4.980786800384521,-0.0331145450472831,6.722639083862305,-4.909009456634521,-0.4030097424983978,-2.609689235687256,XArbitraryZVertical,0.2555357256078152,0.1396664654546272,-0.213115360926848,0.932618134331361,0.3694281280040741,-0.4171043634414673,-0.8303895592689514,0,0,0,-1,-1,2842.680245625,unknown,2,2022-06-02T10:48:18.402+02:00,2022-06-02T10:17:13.754+02:00,467,1.462823,0,0,361.8512,0,0,2022-06-02T10:48:18.402+02:00,675852498.401696,0,6.921875,101.2991,1,0.8
198,2022-06-02T10:48:20.179+02:00,1654159699.999807,53.22909654586624,10.39853876937869,37.0164,0,20,-1,-1,2.400000095367432,7.999579855010835,-9999,2844.456717625,-3.746109008789062,-4.758026123046875,-0.6824188232421875,2844.446722625,-0.482338087962884,0.4067115653610586,0.4981819881646343,3.016995429992676,2.445332527160645,8.625734329223633,-4.89928150177002,-4.655410289764404,-1.869490385055542,XArbitraryZVertical,0.2812022038903926,0.1323938634032103,-0.1783509831948961,0.933588776791822,0.3475082218647003,-0.4778292775154114,-0.8067943453788757,0,0,0,-1,-1,2842.680245625,unknown,2,2022-06-02T10:48:18.402+02:00,2022-06-02T10:17:13.754+02:00,467,1.462823,0,0,361.8512,0,0,2022-06-02T10:48:18.402+02:00,675852498.401696,0,6.921875,101.2991,1,0.8
199,2022-06-02T10:48:20.189+02:00,1654159699.999807,53.22909654586624,10.39853876937869,37.0164,0,20,-1,-1,2.400000095367432,7.999579855010835,-9999,2844.466711625,-3.1085205078125,-4.672821044921875,-1.47296142578125,2844.456717625,-0.3996218398305894,0.3927682529575449,0.5563262299268869,2.372690439224243,3.388622522354126,8.73779010772705,-4.139665603637695,-4.623602390289307,0.0783752799034118,XArbitraryZVertical,0.3011940133903303,0.1304369169953308,-0.1346729444322444,0.9349499361963208,0.3250293433666229,-0.5280699729919434,-0.7845367789268494,0,0,0,-1,-1,2842.680245625,unknown,2,2022-06-02T10:48:18.402+02:00,2022-06-02T10:17:13.754+02:00,467,1.462823,0,0,361.8512,0,0,2022-06-02T10:48:18.402+02:00,675852498.401696,0,6.921875,101.2991,1,0.8
200,2022-06-02T10:48:20.199+02:00,1654159699.999807,53.22909654586624,10.39853876937869,37.0164,0,20,-1,-1,2.400000095367432,7.999579855010835,-9999,2844.476705625,-1.777572631835938,-4.62481689453125,-1.850296020507812,2844.466711625,-0.3221729668662011,0.390184421865069,0.6072207767335845,1.951916933059692,4.41312313079834,7.090256214141846,-3.889559030532837,-4.034042358398438,-0.3074741363525391,XArbitraryZVertical,0.3191696288099194,0.1355537173869858,-0.0929449012594338,0.9333364858878364,0.3123648464679718,-0.5705872774124146,-0.7595118880271912,0,0,0,-1,-1,2842.680245625,unknown,2,2022-06-02T10:48:18.402+02:00,2022-06-02T10:17:13.754+02:00,467,1.462823,0,0,361.8512,0,0,2022-06-02T10:48:18.402+02:00,675852498.401696,0,6.921875,101.2991,1,0.8
201,2022-06-02T10:48:20.209+02:00,1654159699.999807,53.22909654586624,10.39853876937869,37.0164,0,20,-1,-1,2.400000095367432,7.999579855010835,-9999,2844.486700625,-1.386962890625,-3.695709228515625,-1.521453857421875,2844.476705625,-0.2544658322001309,0.3916783464567566,0.6432195257956037,0.43343386054039,3.743461847305298,5.917218208312988,-2.665304660797119,-4.158190250396729,-1.010031461715698,XArbitraryZVertical,0.3309712764834755,0.1437779702224466,-0.0570713117829205,0.9308751972334116,0.3054566085338593,-0.5997747182846069,-0.7395718097686768,0,0,0,-1,-1,2842.680245625,unknown,2,2022-06-02T10:48:18.402+02:00,2022-06-02T10:17:13.754+02:00,467,1.462823,0,0,361.8512,0,0,2022-06-02T10:48:18.402+02:00,675852498.401696,0,6.921875,101.2991,1,0.8
202,2022-06-02T10:48:20.219+02:00,1654159699.999807,53.22909654586624,10.39853876937869,37.0164,0,20,-1,-1,2.400000095367432,7.999579855010835,-9999,2844.496694625,-1.506088256835938,-2.815093994140625,-1.126251220703125,2844.486700625,-0.1922112983367412,0.3879137347841787,0.6633957733798409,-0.1911608129739761,3.108845233917236,4.729944705963135,-1.743298292160034,-3.595232963562012,-1.007986068725586,XArbitraryZVertical,0.3355551942579313,0.1507332510213213,-0.026549065200103,0.929503716369138,0.2980315983295441,-0.6157959699630737,-0.7293643951416016,0,0,0,-1,-1,2842.680245625,unknown,2,2022-06-02T10:48:18.402+02:00,2022-06-02T10:17:13.754+02:00,467,1.462823,0,0,361.8512,0,0,2022-06-02T10:48:18.402+02:00,675852498.401696,0,6.921875,101.2991,1,0.8
203,2022-06-02T10:48:20.229+02:00,1654159699.999807,53.22909654586624,10.39853876937869,37.0164,0,20,-1,-1,2.400000095367432,7.999579855010835,-9999,2844.506688625,-1.713577270507812,-2.613845825195312,-0.9469451904296876,2844.496694625,-0.1433834712624076,0.3854844715337103,0.6808431567173001,0.5622091293334961,2.500324010848999,3.779667615890503,-1.702544093132019,-2.572455883026123,-0.5838587284088135,XArbitraryZVertical,0.3397935668868765,0.1566215175103504,-0.0024778181995417,0.9273639009122648,0.2921741902828217,-0.629448413848877,-0.720020055770874,0,0,0,-1,-1,2842.680245625,unknown,2,2022-06-02T10:48:18.402+02:00,2022-06-02T10:17:13.754+02:00,467,1.462823,0,0,361.8512,0,0,2022-06-02T10:48:18.402+02:00,675852498.401696,0,6.921875,101.2991,1,0.8
204,2022-06-02T10:48:20.239+02:00,1654159699.999807,53.22909654586624,10.39853876937869,37.0164,0,20,-1,-1,2.400000095367432,7.999579855010835,-9999,2844.516683625,-1.734222412109375,-2.665679931640625,-0.80596923828125,2844.506688625,-0.1047313784974926,0.38460570126146,0.7011699210777077,0.8081725835800171,2.282929420471191,3.329373121261597,-1.894697904586792,-1.976622581481934,-0.3079361915588379,XArbitraryZVertical,0.3460493421547527,0.1616030553063164,0.0172978270521555,0.9240319368455292,0.2866809666156769,-0.6451120376586914,-0.7082685828208923,0,0,0,-1,-1,2842.680245625,unknown,2,2022-06-02T10:48:18.402+02:00,2022-06-02T10:17:13.754+02:00,467,1.462823,0,0,361.8512,0,0,2022-06-02T10:48:18.402+02:00,675852498.401696,0,6.921875,101.2991,1,0.8
205,2022-06-02T10:48:20.249+02:00,1654159699.999807,53.22909654586624,10.39853876937869,37.0164,0,20,-1,-1,2.400000095367432,7.999579855010835,-9999,2844.526677625,-1.621047973632812,-2.52154541015625,-0.72174072265625,2844.526677625,-0.0302854226959174,0.3838214717287444,0.7259181043137892,-0.7190491557121277,2.598375558853149,2.666568517684937,-1.968826413154602,-1.934581518173218,-0.0780560970306396,XArbitraryZVertical,0.3511840726016132,0.1730107500597255,0.0538154016784,0.9186081145898852,0.2800599336624146,-0.6638223528862,-0.6934740543365479,0,0,0,-1,-1,2842.680245625,unknown,2,2022-06-02T10:48:18.402+02:00,2022-06-02T10:17:13.754+02:00,467,1.462823,0,0,361.8512,0,0,2022-06-02T10:48:18.402+02:00,675852498.401696,0,6.921875,101.2991,1,0.8
206,2022-06-02T10:48:20.259+02:00,1654159699.999807,53.22909654586624,10.39853876937869,37.0164,0,20,-1,-1,2.400000095367432,7.999579855010835,-9999,2844.536671625,-1.285934448242188,-2.42120361328125,-0.5134429931640625,2844.526677625,-0.0302854226959174,0.3838214717287444,0.7259181043137892,-0.7190491557121277,2.598375558853149,2.666568517684937,-1.968826413154602,-1.934581518173218,-0.0780560970306396,XArbitraryZVertical,0.3511840726016132,0.1730107500597255,0.0538154016784,0.9186081145898852,0.2800599336624146,-0.6638223528862,-0.6934740543365479,0,0,0,-1,-1,2842.680245625,unknown,2,2022-06-02T10:48:18.402+02:00,2022-06-02T10:17:13.754+02:00,467,1.462823,0,0,361.8512,0,0,2022-06-02T10:48:18.402+02:00,675852498.401696,0,6.921875,101.2991,1,0.8
207,2022-06-02T10:48:20.269+02:00,1654159699.999807,53.22909654586624,10.39853876937869,37.0164,0,20,-1,-1,2.400000095367432,7.999579855010835,-9999,2844.546666625,-0.8054046630859375,-2.13238525390625,-0.1457977294921875,2844.536671625,0.0047355294240993,0.387335354146615,0.7259097365760214,-1.22064197063446,2.730020999908447,2.228965044021606,-1.764812231063843,-1.809602975845337,0.0486767292022705,XArbitraryZVertical,0.347973717427004,0.1807453506213509,0.0705023318917666,0.917210318042988,0.2824970781803131,-0.6638160943984985,-0.692490816116333,0,0,0,-1,-1,2842.680245625,unknown,2,2022-06-02T10:48:18.402+02:00,2022-06-02T10:17:13.754+02:00,467,1.462823,0,0,361.8512,0,0,2022-06-02T10:48:18.402+02:00,675852498.401696,0,6.921875,101.2991,1,0.8
208,2022-06-02T10:48:20.279+02:00,1654159699.999807,53.22909654586624,10.39853876937869,37.0164,0,20,-1,-1,2.400000095367432,7.999579855010835,-9999,2844.556660625,-0.4652862548828125,-1.714675903320312,-0.1036529541015625,2844.546666625,0.037092166201382,0.392743564727385,0.721158598180675,-1.420628190040588,2.598452091217041,1.898191928863525,-1.328121900558472,-1.648750424385071,0.3744924068450928,XArbitraryZVertical,0.3425903840996334,0.1889508350124307,0.085845868093391,0.916274948429989,0.2874419093132019,-0.6602552533149719,-0.693858802318573,0,0,0,-1,-1,2842.680245625,unknown,2,2022-06-02T10:48:18.402+02:00,2022-06-02T10:17:13.754+02:00,467,1.462823,0,0,361.8512,0,0,2022-06-02T10:48:18.402+02:00,675852498.401696,0,6.921875,101.2991,1,0.8
209,2022-06-02T10:48:20.289+02:00,1654159699.999807,53.22909654586624,10.39853876937869,37.0164,0,20,-1,-1,2.400000095367432,7.999579855010835,-9999,2844.566654625,-0.4795074462890625,-1.331680297851562,-0.2412261962890625,2844.556660625,0.0640682664318583,0.3987319824805614,0.7174739179750641,-0.7354186773300171,2.100351810455322,1.583387613296509,-0.8947683572769165,-1.272936344146729,0.6076009273529053,XArbitraryZVertical,0.3380216211793604,0.1963675266231797,0.0988930731489401,0.9150963017540265,0.2925344109535217,-0.6574834585189819,-0.6943623423576355,0,0,0,-1,-1,2842.680245625,unknown,2,2022-06-02T10:48:18.402+02:00,2022-06-02T10:17:13.754+02:00,467,1.462823,0,0,361.8512,0,0,2022-06-02T10:48:18.402+02:00,675852498.401696,0,6.921875,101.2991,1,0.8
210,2022-06-02T10:48:20.299+02:00,1654159699.999807,53.22909654586624,10.39853876937869,37.0164,0,20,-1,-1,2.400000095367432,7.999579855010835,-9999,2844.576649625,-0.8514862060546875,-1.330642700195312,-0.4442138671875,2844.566654625,0.0825550808284206,0.4042014634743756,0.7211471141404766,0.3248186111450195,1.447215557098389,1.253039598464966,-0.7111475467681885,-0.8331310153007507,0.5318812727928162,XArbitraryZVertical,0.337585271708697,0.2019225988119374,0.1085849549925678,0.912947311363415,0.2953760325908661,-0.6602466702461243,-0.6905269026756287,0,0,0,-1,-1,2842.680245625,unknown,2,2022-06-02T10:48:18.402+02:00,2022-06-02T10:17:13.754+02:00,467,1.462823,0,0,361.8512,0,0,2022-06-02T10:48:18.402+02:00,675852498.401696,0,6.921875,101.2991,1,0.8
211,2022-06-02T10:48:20.309+02:00,1654159699.999807,53.22909654586624,10.39853876937869,37.0164,0,20,-1,-1,2.400000095367432,7.999579855010835,-9999,2844.586643625,-1.176895141601562,-1.54693603515625,-0.5862884521484375,2844.576649625,0.0915129599821865,0.4111037075132657,0.7312713565632016,0.8868271112442017,1.180192112922668,0.7859280705451965,-0.9370054006576538,-0.6091610193252563,0.3430755734443665,XArbitraryZVertical,0.340931033190318,0.2064256683795523,0.114718473178317,0.9099418104602104,0.2974485158920288,-0.6678164601325989,-0.6823089718818665,0,0,0,-1,-1,2842.680245625,unknown,2,2022-06-02T10:48:18.402+02:00,2022-06-02T10:17:13.754+02:00,467,1.462823,0,0,361.8512,0,0,2022-06-02T10:48:18.402+02:00,675852498.401696,0,6.921875,101.2991,1,0.8
212,2022-06-02T10:48:20.319+02:00,1654159699.999807,53.22909654586624,10.39853876937869,37.0164,0,20,-1,-1,2.400000095367432,7.999579855010835,-9999,2844.596637625,-1.234893798828125,-1.5455322265625,-0.5419158935546875,2844.586643625,0.0952649733140726,0.4203638334794748,0.740668810828285,0.4955540299415588,1.186735391616821,0.5264535546302795,-1.344682335853577,-0.7702256441116333,0.134795069694519,XArbitraryZVertical,0.3443000659007668,0.2111266265604766,0.1188357495886356,0.9070617995201696,0.3011794686317444,-0.6747816801071167,-0.673766016960144,0,0,0,-1,-1,2842.680245625,unknown,2,2022-06-02T10:48:18.402+02:00,2022-06-02T10:17:13.754+02:00,467,1.462823,0,0,361.8512,0,0,2022-06-02T10:48:18.402+02:00,675852498.401696,0,6.921875,101.2991,1,0.8
213,2022-06-02T10:48:20.329+02:00,1654159699.999807,53.22909654586624,10.39853876937869,37.0164,0,20,-1,-1,2.400000095367432,7.999579855010835,-9999,2844.606632625,-1.192672729492188,-1.311813354492188,-0.589324951171875,2844.596637625,0.1018195553453279,0.4279111816364486,0.7429247960772553,-0.5336073040962219,1.199481010437012,0.5689752101898193,-1.542500972747803,-0.9083786606788636,0.0944339036941528,XArbitraryZVertical,0.3441746249645239,0.2156394171324915,0.1233062254573384,0.9054495654798096,0.305623471736908,-0.6764448881149292,-0.6700869202613831,0,0,0,-1,-1,2842.680245625,unknown,2,2022-06-02T10:48:18.402+02:00,2022-06-02T10:17:13.754+02:00,467,1.462823,0,0,361.8512,0,0,2022-06-02T10:48:18.402+02:00,675852498.401696,0,6.921875,101.2991,1,0.8
214,2022-06-02T10:48:20.339+02:00,1654159699.999807,53.22909654586624,10.39853876937869,37.0164,0,20,-1,-1,2.400000095367432,7.999579855010835,-9999,2844.616626625,-1.157791137695312,-1.103317260742188,-0.573150634765625,2844.606632625,0.1151317973619539,0.4313197469622319,0.7353043088956583,-1.625732064247131,1.294966220855713,0.5537090301513672,-1.518349647521973,-0.7661377787590027,0.1270279288291931,XArbitraryZVertical,0.3390288833512902,0.2195612236898709,0.129232450000228,0.9056219554028472,0.3100518584251404,-0.6708128452301025,-0.6737045645713806,0,0,0,-1,-1,2842.680245625,unknown,2,2022-06-02T10:48:18.402+02:00,2022-06-02T10:17:13.754+02:00,467,1.462823,0,0,361.8512,0,0,2022-06-02T10:48:18.402+02:00,675852498.401696,0,6.921875,101.2991,1,0.8
215,2022-06-02T10:48:20.349+02:00,1654159699.999807,53.22909654586624,10.39853876937869,37.0164,0,20,-1,-1,2.400000095367432,7.999579855010835,-9999,2844.626620875,-1.077224731445312,-0.8760528564453125,-0.4591064453125,2844.616626625,0.1323575552965734,0.4336122691121846,0.7190140106015946,-2.366714000701904,1.44452166557312,0.4402304589748383,-1.4992356300354,-0.5448023080825806,0.0702241659164428,XArbitraryZVertical,0.329508576156701,0.2236397430909051,0.1359669770077472,0.9071506521218948,0.3161453008651733,-0.6586430668830872,-0.6828187108039856,0,0,0,-1,-1,2842.680245625,unknown,2,2022-06-02T10:48:18.402+02:00,2022-06-02T10:17:13.754+02:00,467,1.462823,0,0,361.8512,0,0,2022-06-02T10:48:18.402+02:00,675852498.401696,0,6.921875,101.2991,1,0.8
216,2022-06-02T10:48:20.359+02:00,1654159699.999807,53.22909654586624,10.39853876937869,37.0164,0,20,-1,-1,2.400000095367432,7.999579855010835,-9999,2844.636615875,-0.9791412353515624,-0.5555877685546875,-0.33660888671875,2844.626620875,0.151641523602291,0.4360261529026075,0.6984435234751325,-2.558164358139038,1.545615434646606,0.4897155165672302,-1.441901087760925,-0.3569430112838745,0.1747192144393921,XArbitraryZVertical,0.3177128366910225,0.2279558118410294,0.1432857885458608,0.9091555726422108,0.3234471380710602,-0.6430264711380005,-0.6941894292831421,0,0,0,-1,-1,2842.680245625,unknown,2,2022-06-02T10:48:18.402+02:00,2022-06-02T10:17:13.754+02:00,467,1.462823,0,0,361.8512,0,0,2022-06-02T10:48:18.402+02:00,675852498.401696,0,6.921875,101.2991,1,0.8
217,2022-06-02T10:48:20.369+02:00,1654159699.999807,53.22909654586624,10.39853876937869,37.0164,0,20,-1,-1,2.400000095367432,7.999579855010835,-9999,2844.646609875,-0.8480987548828125,-0.337310791015625,-0.3268890380859375,2844.636615875,0.1708451724221185,0.4397879281356871,0.6781892508391203,-2.301888704299927,1.656887054443359,0.4756606817245483,-1.363577365875244,-0.0914728045463562,0.3130232095718384,XArbitraryZVertical,0.3058896220115238,0.2326516563745978,0.1508144211588944,0.9108016665507734,0.3315339088439941,-0.6273840069770813,-0.7046095132827759,0,0,0,-1,-1,2842.680245625,unknown,2,2022-06-02T10:48:18.402+02:00,2022-06-02T10:17:13.754+02:00,467,1.462823,0,0,361.8512,0,0,2022-06-02T10:48:18.402+02:00,675852498.401696,0,6.921875,101.2991,1,0.8
218,2022-06-02T10:48:20.379+02:00,1654159699.999807,53.22909654586624,10.39853876937869,37.0164,0,20,-1,-1,2.400000095367432,7.999579855010835,-9999,2844.656603875,-0.7190704345703125,-0.3616790771484375,-0.381011962890625,2844.646609875,0.1870864494867495,0.4465798366316629,0.6626087286841535,-1.557949900627136,1.705111145973206,0.4863215088844299,-1.257530450820923,0.1986870169639587,0.3961002826690674,XArbitraryZVertical,0.296255600572337,0.2381103003879379,0.1578485947441409,0.9113834221108108,0.3404924869537354,-0.6151756644248962,-0.7110722064971924,0,0,0,-1,-1,2842.680245625,unknown,2,2022-06-02T10:48:18.402+02:00,2022-06-02T10:17:13.754+02:00,467,1.462823,0,0,361.8512,0,0,2022-06-02T10:48:18.402+02:00,675852498.401696,0,6.921875,101.2991,1,0.8
219,2022-06-02T10:48:20.389+02:00,1654159699.999807,53.22909654586624,10.39853876937869,37.0164,0,20,-1,-1,2.400000095367432,7.999579855010835,-9999,2844.666598875,-0.6567840576171875,-0.5161895751953125,-0.3837127685546875,2844.656603875,0.1989136653515204,0.4561717987903369,0.6543539708086753,-0.7713019847869873,1.654571533203125,0.4765149652957916,-1.128559947013855,0.2827648520469666,0.3584569692611694,XArbitraryZVertical,0.2902403722271408,0.2441441940184375,0.1638978403429031,0.9106544479251348,0.3495224416255951,-0.608646810054779,-0.7123082876205444,0,0,0,-1,-1,2842.680245625,unknown,2,2022-06-02T10:48:18.402+02:00,2022-06-02T10:17:13.754+02:00,467,1.462823,0,0,361.8512,0,0,2022-06-02T10:48:18.402+02:00,675852498.401696,0,6.921875,101.2991,1,0.8
220,2022-06-02T10:48:20.399+02:00,1654159699.999807,53.22909654586624,10.39853876937869,37.0164,0,20,-1,-1,2.400000095367432,7.999579855010835,-9999,2844.676592875,-0.6343841552734375,-0.7087554931640625,-0.3460693359375,2844.676592875,0.2144422687762647,0.4785010667905675,0.6503986387318391,-0.4296355843544006,1.498388886451721,0.464068740606308,-1.013051509857178,-0.0119736790657043,0.3364936709403992,XArbitraryZVertical,0.2845837176585959,0.2564819126686951,0.1737963631068913,0.9072066112510216,0.3664449453353882,-0.6055036783218384,-0.7064582705497742,0,0,0,-1,-1,2842.680245625,unknown,2,2022-06-02T10:48:18.402+02:00,2022-06-02T10:17:13.754+02:00,467,1.462823,0,0,361.8512,0,0,2022-06-02T10:48:18.402+02:00,675852498.401696,0,6.921875,101.2991,1,0.8
221,2022-06-02T10:48:20.409+02:00,1654159699.999807,53.22909654586624,10.39853876937869,37.0164,0,20,-1,-1,2.400000095367432,7.999579855010835,-9999,2844.686586875,-0.595428466796875,-0.8186492919921875,-0.3084564208984375,2844.676592875,0.2144422687762647,0.4785010667905675,0.6503986387318391,-0.4296355843544006,1.498388886451721,0.464068740606308,-1.013051509857178,-0.0119736790657043,0.3364936709403992,XArbitraryZVertical,0.2845837176585959,0.2564819126686951,0.1737963631068913,0.9072066112510216,0.3664449453353882,-0.6055036783218384,-0.7064582705497742,0,0,0,-1,-1,2842.680245625,unknown,2,2022-06-02T10:48:18.402+02:00,2022-06-02T10:17:13.754+02:00,467,1.462823,0,0,361.8512,0,0,2022-06-02T10:48:18.402+02:00,675852498.401696,0,6.921875,101.2991,1,0.8
222,2022-06-02T10:48:20.419+02:00,1654159699.999807,53.22909654586624,10.39853876937869,37.0164,0,20,-1,-1,2.400000095367432,7.999579855010835,-9999,2844.696581875,-0.56011962890625,-0.8606414794921875,-0.264495849609375,2844.686586875,0.2238259322973355,0.4872735343577911,0.6468566768034275,-0.9337871074676514,1.394197463989258,0.5341624021530151,-0.9897341728210448,-0.1740370392799377,0.3789657950401306,XArbitraryZVertical,0.2809594232644599,0.2617407556842754,0.1789508796394546,0.9058311491638904,0.3736299872398376,-0.6026811003684998,-0.7051071524620056,0,0,0,-1,-1,2842.680245625,unknown,2,2022-06-02T10:48:18.402+02:00,2022-06-02T10:17:13.754+02:00,467,1.462823,0,0,361.8512,0,0,2022-06-02T10:48:18.402+02:00,675852498.401696,0,6.921875,101.2991,1,0.8
223,2022-06-02T10:48:20.429+02:00,1654159699.999807,53.22909654586624,10.39853876937869,37.0164,0,20,-1,-1,2.400000095367432,7.999579855010835,-9999,2844.706575875,-0.5258026123046875,-0.8282470703125,-0.239990234375,2844.696581875,0.2372280249012909,0.4927448366796483,0.6382302014624134,-1.610676646232605,1.306950092315674,0.5216096043586731,-0.9565724730491638,-0.2493482828140259,0.4185899496078491,XArbitraryZVertical,0.2747116168280677,0.2659514667024754,0.1849451278973917,0.9053168348614976,0.3799275159835815,-0.5957749485969543,-0.7076066732406616,0,0,0,-1,-1,2842.680245625,unknown,2,2022-06-02T10:48:18.402+02:00,2022-06-02T10:17:13.754+02:00,467,1.462823,0,0,361.8512,0,0,2022-06-02T10:48:18.402+02:00,675852498.401696,0,6.921875,101.2991,1,0.8
224,2022-06-02T10:48:20.439+02:00,1654159699.999807,53.22909654586624,10.39853876937869,37.0164,0,20,-1,-1,2.400000095367432,7.999579855010835,-9999,2844.716569875,-0.49407958984375,-0.7313690185546875,-0.2090911865234375,2844.706575875,0.2538694449647378,0.4954169923368842,0.6230389230017992,-2.34421968460083,1.191273212432861,0.4070029258728027,-0.930295467376709,-0.2732141613960266,0.4656139612197876,XArbitraryZVertical,0.2652143080085122,0.2691219061428143,0.1913682509938668,0.9058768631160724,0.3860754072666168,-0.5835058093070984,-0.7144695520401001,0,0,0,-1,-1,2842.680245625,unknown,2,2022-06-02T10:48:18.402+02:00,2022-06-02T10:17:13.754+02:00,467,1.462823,0,0,361.8512,0,0,2022-06-02T10:48:18.402+02:00,675852498.401696,0,6.921875,101.2991,1,0.8
225,2022-06-02T10:48:20.449+02:00,1654159699.999807,53.22909654586624,10.39853876937869,37.0164,0,20,-1,-1,2.400000095367432,7.999579855010835,-9999,2844.726564875,-0.475067138671875,-0.6260986328125,-0.1781768798828125,2844.716569875,0.2736906517407297,0.4951888372425052,0.6010304955686647,-3.0695481300354,1.042893290519714,0.3639470636844635,-0.9014730453491212,-0.2201518416404724,0.4974268674850464,XArbitraryZVertical,0.2523683567288971,0.2710510390470159,0.1981975146938558,0.9075016366630256,0.3919209539890289,-0.5654926896095276,-0.7256830930709839,0,0,0,-1,-1,2842.680245625,unknown,2,2022-06-02T10:48:18.402+02:00,2022-06-02T10:17:13.754+02:00,467,1.462823,0,0,361.8512,0,0,2022-06-02T10:48:18.402+02:00,675852498.401696,0,6.921875,101.2991,1,0.8
