,loggingTime(txt),locationTimestamp_since1970(s),locationLatitude(WGS84),locationLongitude(WGS84),locationAltitude(m),locationSpeed(m/s),locationSpeedAccuracy(m/s),locationCourse(°),locationCourseAccuracy(°),locationVerticalAccuracy(m),locationHorizontalAccuracy(m),locationFloor(Z),accelerometerTimestamp_sinceReboot(s),accelerometerAccelerationX(G),accelerometerAccelerationY(G),accelerometerAccelerationZ(G),motionTimestamp_sinceReboot(s),motionYaw(rad),motionRoll(rad),motionPitch(rad),motionRotationRateX(rad/s),motionRotationRateY(rad/s),motionRotationRateZ(rad/s),motionUserAccelerationX(G),motionUserAccelerationY(G),motionUserAccelerationZ(G),motionAttitudeReferenceFrame(txt),motionQuaternionX(R),motionQuaternionY(R),motionQuaternionZ(R),motionQuaternionW(R),motionGravityX(G),motionGravityY(G),motionGravityZ(G),motionMagneticFieldX(µT),motionMagneticFieldY(µT),motionMagneticFieldZ(µT),motionHeading(°),motionMagneticFieldCalibrationAccuracy(Z),activityTimestamp_sinceReboot(s),activity(txt),activityActivityConfidence(Z),activityActivityStartDate(txt),pedometerStartDate(txt),pedometerNumberofSteps(N),pedometerAverageActivePace(s/m),pedometerCurrentPace(s/m),pedometerCurrentCadence(steps/s),pedometerDistance(m),pedometerFloorAscended(N),pedometerFloorDescended(N),pedometerEndDate(txt),altimeterTimestamp_sinceReboot(s),altimeterReset(bool),altimeterRelativeAltitude(m),altimeterPressure(kPa),batteryState(N),batteryLevel(R)
796,2022-06-02T10:49:23.815+02:00,1654159762.999828,53.22911112226996,10.3985582517897,36.89058,0,20,-1,-1,2.400000095367432,7.999579855010836,-9999,2908.09276025,1.139480590820312,-0.008514404296875,-0.1829376220703125,2908.08276625,-2.220907403532337,1.093111544230814,0.7837738758552021,1.748506546020508,6.012880325317383,-3.05920672416687,0.4193052053451538,0.6401004195213318,-0.5020043849945068,XArbitraryZVertical,0.5752992030317219,-0.0789298222972187,-0.6191729509651548,0.5286074437315285,0.6289736032485962,-0.705957293510437,-0.3256018161773682,0,0,0,-1,-1,2906.638374791667,unknown,2,2022-06-02T10:49:22.360+02:00,2022-06-02T10:17:13.754+02:00,467,1.474645,0,0,361.8512,0,0,2022-06-02T10:49:22.360+02:00,675852562.3598071,0,6.53125,101.3034,1,0.8
797,2022-06-02T10:49:23.825+02:00,1654159762.999828,53.22911112226996,10.3985582517897,36.89058,0,20,-1,-1,2.400000095367432,7.999579855010836,-9999,2908.10275425,1.2144775390625,0.04296875,0.35089111328125,2908.09276025,-2.261842349939686,1.186248834546803,0.7624716152275905,1.767235040664673,6.91127347946167,-3.27347207069397,0.3867025971412659,0.6841649413108826,-0.3373216986656189,XArbitraryZVertical,0.6008102296893179,-0.0582193211283851,-0.6078392059432686,0.5159157186866673,0.6703194975852966,-0.6907108426094055,-0.2712751626968384,0,0,0,-1,-1,2906.638374791667,unknown,2,2022-06-02T10:49:22.360+02:00,2022-06-02T10:17:13.754+02:00,467,1.474645,0,0,361.8512,0,0,2022-06-02T10:49:22.360+02:00,675852562.3598071,0,6.53125,101.3034,1,0.8
798,2022-06-02T10:49:23.835+02:00,1654159762.999828,53.22911112226996,10.3985582517897,36.89058,0,20,-1,-1,2.400000095367432,7.999579855010836,-9999,2908.11274925,1.113601684570312,0.1132049560546875,0.7902984619140625,2908.10275425,-2.298257822798717,1.284570707371229,0.7356348745588339,1.450664758682251,7.801946640014648,-3.547407150268555,0.4282388091087341,0.6625436544418335,0.0263856649398803,XArbitraryZVertical,0.6278430310732939,-0.0339330509731569,-0.5935665562384654,0.5023349072118511,0.7112417221069336,-0.6710579991340637,-0.2093233466148376,0,0,0,-1,-1,2906.638374791667,unknown,2,2022-06-02T10:49:22.360+02:00,2022-06-02T10:17:13.754+02:00,467,1.474645,0,0,361.8512,0,0,2022-06-02T10:49:22.360+02:00,675852562.3598071,0,6.53125,101.3034,1,0.8
799,2022-06-02T10:49:23.845+02:00,1654159762.999828,53.22911112226996,10.3985582517897,36.89058,0,20,-1,-1,2.400000095367432,7.999579855010836,-9999,2908.12274325,0.974151611328125,0.19293212890625,1.134735107421875,2908.11274925,-2.324112317466347,1.383842560262109,0.702349331410985,0.7419143319129944,8.62041187286377,-3.860629558563232,0.4644519686698914,0.6889816522598267,0.4927679896354675,XArbitraryZVertical,0.6550091071679616,-0.0049612167612652,-0.5762326847773993,0.4887681239935549,0.7500255703926086,-0.6460127830505371,-0.1418769061565399,0,0,0,-1,-1,2906.638374791667,unknown,2,2022-06-02T10:49:22.360+02:00,2022-06-02T10:17:13.754+02:00,467,1.474645,0,0,361.8512,0,0,2022-06-02T10:49:22.360+02:00,675852562.3598071,0,6.53125,101.3034,1,0.8
800,2022-06-02T10:49:23.855+02:00,1654159762.999828,53.22911112226996,10.3985582517897,36.89058,0,20,-1,-1,2.400000095367432,7.999579855010836,-9999,2908.13273725,0.7544403076171875,0.2524566650390625,1.52490234375,2908.12274325,-2.335215650756036,1.480537165024807,0.6626527827327849,-0.1626368761062622,9.32485580444336,-4.253387451171875,0.3284478187561035,0.7284153699874878,0.8613588213920593,XArbitraryZVertical,0.6808884432430764,0.0293381163954455,-0.556067469194363,0.4757301439289522,0.785153865814209,-0.6152103543281555,-0.0710604041814804,0,0,0,-1,-1,2906.638374791667,unknown,2,2022-06-02T10:49:22.360+02:00,2022-06-02T10:17:13.754+02:00,467,1.474645,0,0,361.8512,0,0,2022-06-02T10:49:22.360+02:00,675852562.3598071,0,6.53125,101.3034,1,0.8
801,2022-06-02T10:49:23.865+02:00,1654159762.999828,53.22911112226996,10.3985582517897,36.89058,0,20,-1,-1,2.400000095367432,7.999579855010836,-9999,2908.14273125,0.5763397216796875,0.198394775390625,1.87493896484375,2908.13273725,-2.327977535759338,1.572670885054844,0.6181815855254756,-1.41634202003479,9.966778755187988,-4.571128845214844,0.1592194437980652,0.7724865078926086,1.133207440376282,XArbitraryZVertical,0.7042332853627687,0.0694211749104521,-0.5328549599395642,0.46400609051564,0.814932107925415,-0.5795542597770691,0.0015276394551619,0,0,0,-1,-1,2906.638374791667,unknown,2,2022-06-02T10:49:22.360+02:00,2022-06-02T10:17:13.754+02:00,467,1.474645,0,0,361.8512,0,0,2022-06-02T10:49:22.360+02:00,675852562.3598071,0,6.53125,101.3034,1,0.8
802,2022-06-02T10:49:23.875+02:00,1654159762.999828,53.22911112226996,10.3985582517897,36.89058,0,20,-1,-1,2.400000095367432,7.999579855010836,-9999,2908.15272625,0.4800872802734375,0.2060699462890625,2.329437255859375,2908.14273125,-2.300634212639308,1.660052439326467,0.5725576636566031,-2.657599449157715,10.58405208587646,-4.74401330947876,-0.0827317833900451,0.794240415096283,1.449980497360229,XArbitraryZVertical,0.7240412862410922,0.1150004476736921,-0.5059360438923404,0.4544970959972771,0.8371719121932983,-0.5417835712432861,0.0749217718839645,0,0,0,-1,-1,2906.638374791667,unknown,2,2022-06-02T10:49:22.360+02:00,2022-06-02T10:17:13.754+02:00,467,1.474645,0,0,361.8512,0,0,2022-06-02T10:49:22.360+02:00,675852562.3598071,0,6.53125,101.3034,1,0.8
803,2022-06-02T10:49:23.885+02:00,1654159762.999828,53.22911112226996,10.3985582517897,36.89058,0,20,-1,-1,2.400000095367432,7.999579855010836,-9999,2908.16272025,0.620880126953125,0.09027099609375,2.946640014648438,2908.15272625,-2.255506904786692,1.745814687969725,0.5293237259487685,-3.840615510940552,11.28685855865479,-4.819619655609131,-0.2736229300498962,0.7033446431159973,1.724642157554626,XArbitraryZVertical,0.740182424819166,0.165161670377517,-0.4744245195913641,0.4469595613699668,0.8499625325202942,-0.5049497485160828,0.1502967923879623,0,0,0,-1,-1,2906.638374791667,unknown,2,2022-06-02T10:49:22.360+02:00,2022-06-02T10:17:13.754+02:00,467,1.474645,0,0,361.8512,0,0,2022-06-02T10:49:22.360+02:00,675852562.3598071,0,6.53125,101.3034,1,0.8
804,2022-06-02T10:49:23.895+02:00,1654159762.999828,53.22911112226996,10.3985582517897,36.89058,0,20,-1,-1,2.400000095367432,7.999579855010836,-9999,2908.17271425,1.032211303710938,0.112091064453125,3.6793212890625,2908.16272025,-2.193219404941739,1.83230288268411,0.4921240814750951,-5.224629878997803,12.10332870483398,-4.782792568206787,-0.3712800145149231,0.678568959236145,2.10158109664917,XArbitraryZVertical,0.7522040489521168,0.2193559948409086,-0.4371492963974707,0.4415567893522075,0.851367175579071,-0.4724989831447601,0.2278559654951096,0,0,0,-1,-1,2906.638374791667,unknown,2,2022-06-02T10:49:22.360+02:00,2022-06-02T10:17:13.754+02:00,467,1.474645,0,0,361.8512,0,0,2022-06-02T10:49:22.360+02:00,675852562.3598071,0,6.53125,101.3034,1,0.8
805,2022-06-02T10:49:23.905+02:00,1654159762.999828,53.22911112226996,10.3985582517897,36.89058,0,20,-1,-1,2.400000095367432,7.999579855010836,-9999,2908.18270825,1.263397216796875,0.2245025634765625,4.445404052734375,2908.17271425,-2.113696452673936,1.921296681295865,0.465090172369826,-6.662861347198486,13.07212257385254,-4.630182266235352,-0.2185599803924561,0.5387744903564453,2.639744281768799,XArbitraryZVertical,0.7593912499308993,0.2770788971971384,-0.3926805913836922,0.4385818299292109,0.8394399285316467,-0.4485034048557281,0.3068955838680267,0,0,0,-1,-1,2906.638374791667,unknown,2,2022-06-02T10:49:22.360+02:00,2022-06-02T10:17:13.754+02:00,467,1.474645,0,0,361.8512,0,0,2022-06-02T10:49:22.360+02:00,675852562.3598071,0,6.53125,101.3034,1,0.8
806,2022-06-02T10:49:23.915+02:00,1654159762.999828,53.22911112226996,10.3985582517897,36.89058,0,20,-1,-1,2.400000095367432,7.999579855010836,-9999,2908.19270325,1.286590576171875,0.0824737548828125,5.360260009765625,2908.18270825,-2.017011701796798,2.015084646418327,0.4527985417913717,-8.515040397644043,14.25185871124268,-4.299215316772461,0.2202848196029663,0.5495749711990356,3.292819976806641,XArbitraryZVertical,0.7609845512949001,0.3378655544929339,-0.3390207767980167,0.4379659552360402,0.8119263648986816,-0.4374837577342987,0.3865012526512146,0,0,0,-1,-1,2906.638374791667,unknown,2,2022-06-02T10:49:22.360+02:00,2022-06-02T10:17:13.754+02:00,467,1.474645,0,0,361.8512,0,0,2022-06-02T10:49:22.360+02:00,675852562.3598071,0,6.53125,101.3034,1,0.8
807,2022-06-02T10:49:23.925+02:00,1654159762.999828,53.22911112226996,10.3985582517897,36.89058,0,20,-1,-1,2.400000095367432,7.999579855010836,-9999,2908.20269725,1.1934814453125,-0.1681671142578125,6.296173095703125,2908.19270325,-1.901466626638211,2.112059863097832,0.4620656325580418,-10.70019245147705,15.34737777709961,-3.868825912475586,0.4962155818939209,0.6703007221221924,3.984213829040527,XArbitraryZVertical,0.7550621490147513,0.4005947237414922,-0.2742185052905418,0.4406915691288626,0.7671814560890198,-0.4457980692386627,0.4611899554729462,0,0,0,-1,-1,2906.638374791667,unknown,2,2022-06-02T10:49:22.360+02:00,2022-06-02T10:17:13.754+02:00,467,1.474645,0,0,361.8512,0,0,2022-06-02T10:49:22.360+02:00,675852562.3598071,0,6.53125,101.3034,1,0.8
808,2022-06-02T10:49:23.935+02:00,1654159762.999828,53.22911112226996,10.3985582517897,36.89058,0,20,-1,-1,2.400000095367432,7.999579855010836,-9999,2908.21269125,0.9871826171875,-0.685150146484375,7.213516235351562,2908.20269725,-1.769902372517896,2.2096694580679,0.4979064518858977,-12.65788555145264,16.28689193725586,-3.165204524993896,0.5812910795211792,0.5600610971450806,4.836367607116699,XArbitraryZVertical,0.740173936908193,0.4626969693148873,-0.1975638658503491,0.4461192153634242,0.7052992582321167,-0.4775872230529785,0.5238918662071228,0,0,0,-1,-1,2906.638374791667,unknown,2,2022-06-02T10:49:22.360+02:00,2022-06-02T10:17:13.754+02:00,467,1.474645,0,0,361.8512,0,0,2022-06-02T10:49:22.360+02:00,675852562.3598071,0,6.53125,101.3034,1,0.8
809,2022-06-02T10:49:23.945+02:00,1654159762.999828,53.22911112226996,10.3985582517897,36.89058,0,20,-1,-1,2.400000095367432,7.999579855010836,-9999,2908.22268525,0.72393798828125,-1.721893310546875,8.074569702148438,2908.21269125,-1.629505693525016,2.304492915667444,0.5615818456557742,-13.99137020111084,16.68373489379883,-2.316440343856812,0.564846396446228,0.3643587231636047,5.729397773742676,XArbitraryZVertical,0.715988349991986,0.5203347904742082,-0.1104201868026618,0.4521279495243703,0.6286349296569824,-0.5325257778167725,0.5667752027511597,0,0,0,-1,-1,2906.638374791667,unknown,2,2022-06-02T10:49:22.360+02:00,2022-06-02T10:17:13.754+02:00,467,1.474645,0,0,361.8512,0,0,2022-06-02T10:49:22.360+02:00,675852562.3598071,0,6.53125,101.3034,1,0.8
810,2022-06-02T10:49:23.955+02:00,1654159762.999828,53.22911112226996,10.3985582517897,36.89058,0,20,-1,-1,2.400000095367432,7.999579855010836,-9999,2908.23268025,0.2533111572265625,-3.111907958984375,9.015029907226562,2908.22268525,-1.491613374497949,2.394504764856404,0.6451049676235754,-13.78346633911133,16.81598854064941,-1.853926062583923,0.4442331194877625,-0.0838678479194641,6.627286434173584,XArbitraryZVertical,0.6841576085143571,0.5701256776546905,-0.0180658194605722,0.4544873010185939,0.5429494976997375,-0.6012822985649109,0.5862298607826233,0,0,0,-1,-1,2906.638374791667,unknown,2,2022-06-02T10:49:22.360+02:00,2022-06-02T10:17:13.754+02:00,467,1.474645,0,0,361.8512,0,0,2022-06-02T10:49:22.360+02:00,675852562.3598071,0,6.53125,101.3034,1,0.8
811,2022-06-02T10:49:23.965+02:00,1654159762.999828,53.22911112226996,10.3985582517897,36.89058,0,20,-1,-1,2.400000095367432,7.999579855010836,-9999,2908.24267425,-0.156982421875,-4.578628540039062,10.12615966796875,2908.23268025,-1.36606583315013,2.481006225888363,0.7289403635022774,-11.33812427520752,16.44480323791504,-2.281338930130005,0.2662805318832397,-1.055813550949097,7.485598087310791,XArbitraryZVertical,0.6474864263522895,0.6125741580008864,0.0702946701878452,0.4478535968930629,0.4576573967933655,-0.6660796403884888,0.5889715552330017,0,0,0,-1,-1,2906.638374791667,unknown,2,2022-06-02T10:49:22.360+02:00,2022-06-02T10:17:13.754+02:00,467,1.474645,0,0,361.8512,0,0,2022-06-02T10:49:22.360+02:00,675852562.3598071,0,6.53125,101.3034,1,0.8
812,2022-06-02T10:49:23.975+02:00,1654159762.999828,53.22911112226996,10.3985582517897,36.89058,0,20,-1,-1,2.400000095367432,7.999579855010836,-9999,2908.25266825,-0.74530029296875,-5.308273315429688,11.57771301269531,2908.24267425,-1.251799831975845,2.562940127311776,0.7879369075802903,-7.7087721824646,15.56474304199219,-4.548465728759766,-0.1324199438095093,-2.403008222579956,8.424544334411621,XArbitraryZVertical,0.6072208202517392,0.6530891916860779,0.1438245068162326,0.4290360150514532,0.3857311010360718,-0.7088996767997742,0.5904852151870728,0,0,0,-1,-1,2906.638374791667,unknown,2,2022-06-02T10:49:22.360+02:00,2022-06-02T10:17:13.754+02:00,467,1.474645,0,0,361.8512,0,0,2022-06-02T10:49:22.360+02:00,675852562.3598071,0,6.53125,101.3034,1,0.8
813,2022-06-02T10:49:23.985+02:00,1654159762.999828,53.22911112226996,10.3985582517897,36.89058,0,20,-1,-1,2.400000095367432,7.999579855010836,-9999,2908.26266225,-1.848037719726562,-3.919692993164062,13.3240966796875,2908.25266825,-1.130104753314075,2.6229499330353,0.8019839078391043,-3.5771324634552,13.72019290924072,-8.744406700134277,-0.5016350746154785,-3.859891653060913,9.52231216430664,XArbitraryZVertical,0.5610336361216953,0.6979720336253494,0.1922231326746359,0.4014056462337241,0.344652533531189,-0.7187368869781494,0.6038473844528198,0,0,0,-1,-1,2906.638374791667,unknown,2,2022-06-02T10:49:22.360+02:00,2022-06-02T10:17:13.754+02:00,467,1.474645,0,0,361.8512,0,0,2022-06-02T10:49:22.360+02:00,675852562.3598071,0,6.53125,101.3034,1,0.8
814,2022-06-02T10:49:23.995+02:00,1654159762.999828,53.22911112226996,10.3985582517897,36.89058,0,20,-1,-1,2.400000095367432,7.999579855010836,-9999,2908.27265725,-3.311782836914062,-1.056289672851562,15.23768615722656,2908.26266225,-0.9693056553249496,2.628151815339282,0.7657153662281158,-1.597919940948486,9.698880195617676,-14.8069372177124,-1.099383473396301,-4.615220546722412,10.94977760314941,XArbitraryZVertical,0.5019373591926781,0.7496842581865264,0.2099857953146794,0.376746995004402,0.3540831506252289,-0.6930528879165649,0.6279351711273193,0,0,0,-1,-1,2906.638374791667,unknown,2,2022-06-02T10:49:22.360+02:00,2022-06-02T10:17:13.754+02:00,467,1.474645,0,0,361.8512,0,0,2022-06-02T10:49:22.360+02:00,675852562.3598071,0,6.53125,101.3034,1,0.8
815,2022-06-02T10:49:24.005+02:00,1654159762.999828,53.22911112226996,10.3985582517897,36.89058,0,20,-1,-1,2.400000095367432,7.999579855010836,-9999,2908.28265125,-6.049911499023438,1.637298583984375,17.24114990234375,2908.27265725,-0.7473024550508441,2.543015120518155,0.6891191879466689,-3.194036245346069,2.270577430725098,-21.45083618164062,-2.282925844192505,-3.283835411071777,12.68647766113281,XArbitraryZVertical,0.4210105894966525,0.8009739488295723,0.1991996073925214,0.3761784480328278,0.4348879754543304,-0.6358576416969299,0.637618362903595,0,0,0,-1,-1,2906.638374791667,unknown,2,2022-06-02T10:49:22.360+02:00,2022-06-02T10:17:13.754+02:00,467,1.474645,0,0,361.8512,0,0,2022-06-02T10:49:22.360+02:00,675852562.3598071,0,6.53125,101.3034,1,0.8
816,2022-06-02T10:49:24.015+02:00,1654159762.999828,53.22911112226996,10.3985582517897,36.89058,0,20,-1,-1,2.400000095367432,7.999579855010836,-9999,2908.29264525,-11.13095092773438,4.19927978515625,15.78985595703125,2908.28265125,-0.4743884474873368,2.352975697015079,0.5757387762091856,-7.927482604980469,-7.736949920654297,-26.45775032043457,-3.906803131103516,-0.5118349194526672,14.646484375,XArbitraryZVertical,0.3140335727260081,0.8348555827801066,0.1682279944585599,0.4196405730288543,0.595020055770874,-0.5444546341896057,0.5912018418312073,0,0,0,-1,-1,2906.638374791667,unknown,2,2022-06-02T10:49:22.360+02:00,2022-06-02T10:17:13.754+02:00,467,1.474645,0,0,361.8512,0,0,2022-06-02T10:49:22.360+02:00,675852562.3598071,0,6.53125,101.3034,1,0.8
817,2022-06-02T10:49:24.025+02:00,1654159762.999828,53.22911112226996,10.3985582517897,36.89058,0,20,-1,-1,2.400000095367432,7.999579855010836,-9999,2908.30263925,-19.75985717773438,4.086090087890625,12.44065856933594,2908.29264525,-0.1772873387659918,2.087600309778008,0.4139101894846824,-13.72265338897705,-16.69961166381836,-31.06385803222656,-6.845897674560547,2.039491176605225,16.78877067565918,XArbitraryZVertical,0.1778222652755463,0.8334080125030646,0.1333304127534039,0.5059971508225725,0.7959859371185303,-0.4021923840045929,0.4523793458938599,0,0,0,-1,-1,2906.638374791667,unknown,2,2022-06-02T10:49:22.360+02:00,2022-06-02T10:17:13.754+02:00,467,1.474645,0,0,361.8512,0,0,2022-06-02T10:49:22.360+02:00,675852562.3598071,0,6.53125,101.3034,1,0.8
818,2022-06-02T10:49:24.035+02:00,1654159762.999828,53.22911112226996,10.3985582517897,36.89058,0,20,-1,-1,2.400000095367432,7.999579855010836,-9999,2908.31263425,-31.10025024414062,2.95172119140625,12.64790344238281,2908.30263925,0.0798890922194962,1.804038511997972,0.1526375118892577,-12.14630508422852,-24.07345199584961,-34.90726089477539,-12.09256172180176,4.351325511932373,15.56140995025635,XArbitraryZVertical,0.0159958702152963,0.7835604819078568,0.084460428065851,0.6153400047455224,0.9616101980209352,-0.1520455032587051,0.2284457981586456,0,0,0,-1,-1,2906.638374791667,unknown,2,2022-06-02T10:49:22.360+02:00,2022-06-02T10:17:13.754+02:00,467,1.474645,0,0,361.8512,0,0,2022-06-02T10:49:22.360+02:00,675852562.3598071,0,6.53125,101.3034,1,0.8
819,2022-06-02T10:49:24.045+02:00,1654159762.999828,53.22911112226996,10.3985582517897,36.89058,0,20,-1,-1,2.400000095367432,7.999579855010836,-9999,2908.32262825,-32.03640747070312,10.90274047851562,13.573486328125,2908.31263425,0.1876128198327765,1.525043552536989,-0.1842969875658863,0.4768264591693878,-32.56337738037109,-34.86489105224609,-20.74189376831055,3.902834415435791,12.48562049865723,XArbitraryZVertical,-0.1306724694728564,0.6785599255174006,0.0041624523800018,0.7228164403686111,0.9820363521575928,0.1832554787397385,-0.0449622645974159,0,0,0,-1,-1,2906.638374791667,unknown,2,2022-06-02T10:49:22.360+02:00,2022-06-02T10:17:13.754+02:00,467,1.474645,0,0,361.8512,0,0,2022-06-02T10:49:22.360+02:00,675852562.3598071,0,6.53125,101.3034,1,0.8
820,2022-06-02T10:49:24.055+02:00,1654159762.999828,53.22911112226996,10.3985582517897,36.89058,0,20,-1,-1,2.400000095367432,7.999579855010836,-9999,2908.33262225,-31.93772888183594,24.26681518554688,18.79849243164062,2908.32262825,-0.0493995461700113,1.094408346569869,-0.4632098956394146,28.14060020446777,-35.17387008666992,-32.30998992919922,-31.895263671875,2.504899024963379,13.05815315246582,XArbitraryZVertical,-0.1834563643562669,0.511096005459444,-0.1399214645265039,0.8279773989024678,0.795012891292572,0.4468220472335815,-0.410249263048172,0,0,0,-1,-1,2906.638374791667,unknown,2,2022-06-02T10:49:22.360+02:00,2022-06-02T10:17:13.754+02:00,467,1.474645,0,0,361.8512,0,0,2022-06-02T10:49:22.360+02:00,675852562.3598071,0,6.53125,101.3034,1,0.8
821,2022-06-02T10:49:24.065+02:00,1654159762.999828,53.22911112226996,10.3985582517897,36.89058,0,20,-1,-1,2.400000095367432,7.999579855010836,-9999,2908.34261725,-26.61514282226562,26.80767822265625,28.36184692382812,2908.33262225,-0.5585408889597682,0.5038864917805048,-0.4562859992714602,35.44299697875977,-35.17197799682617,-26.0794734954834,-32.46984481811523,10.46212291717529,14.35960960388184,XArbitraryZVertical,-0.1436066649141141,0.2937952195545919,-0.3142312079054829,0.8912464468251668,0.4334365129470825,0.4406171143054962,-0.7861229777336121,0,0,0,-1,-1,2906.638374791667,unknown,2,2022-06-02T10:49:22.360+02:00,2022-06-02T10:17:13.754+02:00,467,1.474645,0,0,361.8512,0,0,2022-06-02T10:49:22.360+02:00,675852562.3598071,0,6.53125,101.3034,1,0.8
822,2022-06-02T10:49:24.075+02:00,1654159762.999828,53.22911112226996,10.3985582517897,36.89058,0,20,-1,-1,2.400000095367432,7.999579855010836,-9999,2908.35261125,-26.19277954101562,-24.10893249511719,25.24653625488281,2908.34261725,-0.8704916131580414,0.0722414848599452,-0.1757411827741037,35.32548904418945,-26.27412414550781,-15.28901863098145,-32.00879669189453,24.09197807312012,19.78052139282227,XArbitraryZVertical,-0.0643560504101995,0.0695969982821167,-0.4226063463193287,0.9013424922306223,0.0710669159889221,0.1748379468917847,-0.982029139995575,0,0,0,-1,-1,2906.638374791667,unknown,2,2022-06-02T10:49:22.360+02:00,2022-06-02T10:17:13.754+02:00,467,1.474645,0,0,361.8512,0,0,2022-06-02T10:49:22.360+02:00,675852562.3598071,0,6.53125,101.3034,1,0.8
823,2022-06-02T10:49:24.096+02:00,1654159762.999828,53.22911112226996,10.3985582517897,36.89058,0,20,-1,-1,2.400000095367432,7.999579855010836,-9999,2908.36260525,-16.92637634277344,-29.42445373535156,2.638473510742188,2908.35261125,-0.8510170612965898,-0.0815615493741256,0.1616126205397731,30.90196228027344,-0.119474396109581,16.2166805267334,-26.53473281860352,26.96858787536621,29.34553527832031,XArbitraryZVertical,0.056685454772567,-0.0703044109548624,-0.4140924122177245,0.9057435979836792,-0.0804095044732093,-0.1609100252389908,-0.9836881160736084,0,0,0,-1,-1,2906.638374791667,unknown,2,2022-06-02T10:49:22.360+02:00,2022-06-02T10:17:13.754+02:00,467,1.474645,0,0,361.8512,0,0,2022-06-02T10:49:22.360+02:00,675852562.3598071,0,6.53125,101.3034,1,0.8
824,2022-06-02T10:49:24.099+02:00,1654159763.999829,53.22911133739114,10.39856400420454,36.86279,0,20,-1,-1,2.400000095367432,7.999579855010837,-9999,2908.37259925,0.4686737060546875,-8.040603637695312,-2.2061767578125,2908.36260525,-0.6528529206976088,-0.022322957979822,0.2826625894680965,-0.4817446172237396,13.47056102752686,18.51085090637207,-26.17134475708008,-23.83001899719238,26.20661354064941,XArbitraryZVertical,0.1298713865270856,-0.055632255465254,-0.3189324496235741,0.9371875727068624,-0.0214353185147047,-0.2789135575294495,-0.9600769281387328,0,0,0,-1,-1,2906.638374791667,unknown,2,2022-06-02T10:49:22.360+02:00,2022-06-02T10:17:13.754+02:00,467,1.474645,0,0,361.8512,0,0,2022-06-02T10:49:22.360+02:00,675852562.3598071,0,6.53125,101.3034,1,0.8
825,2022-06-02T10:49:24.105+02:00,1654159763.999829,53.22911133739114,10.39856400420454,36.86279,0,20,-1,-1,2.400000095367432,7.999579855010837,-9999,2908.38259425,-7.553619384765625,-2.099411010742188,-3.01092529296875,2908.37259925,-0.4727739251281031,-0.0172975144905426,0.2028845210470447,-10.86652946472168,-2.17001748085022,16.93668746948242,-16.9094352722168,-29.22295761108398,3.61781644821167,XArbitraryZVertical,0.0964334353040685,-0.0320802283825711,-0.233830434097818,0.9669512186875124,-0.0169418882578611,-0.2014955282211304,-0.9793428778648376,0,0,0,-1,-1,2906.638374791667,unknown,2,2022-06-02T10:49:22.360+02:00,2022-06-02T10:17:13.754+02:00,467,1.474645,0,0,361.8512,0,0,2022-06-02T10:49:22.360+02:00,675852562.3598071,0,6.53125,101.3034,1,0.8
826,2022-06-02T10:49:24.117+02:00,1654159763.999829,53.22911133739114,10.39856400420454,36.86279,0,20,-1,-1,2.400000095367432,7.999579855010837,-9999,2908.39258825,-10.58451843261719,-1.392852783203125,1.844345092773438,2908.38259425,-0.3003755172841225,-0.0742862478755454,0.110787665664956,-5.788501739501953,-0.9808984994888306,17.00637817382812,0.5424366593360901,-7.930042266845703,-1.215048432350159,XArbitraryZVertical,0.0491568080991249,-0.0449385272357544,-0.151324074580965,0.9862378523784284,-0.0737629383802413,-0.1105611696839333,-0.9911282658576964,0,0,0,-1,-1,2906.638374791667,unknown,2,2022-06-02T10:49:22.360+02:00,2022-06-02T10:17:13.754+02:00,467,1.474645,0,0,361.8512,0,0,2022-06-02T10:49:22.360+02:00,675852562.3598071,0,6.53125,101.3034,1,0.8
827,2022-06-02T10:49:24.125+02:00,1654159763.999829,53.22911133739114,10.39856400420454,36.86279,0,20,-1,-1,2.400000095367432,7.999579855010837,-9999,2908.40258225,-3.777084350585938,-1.84552001953125,1.293075561523438,2908.39258825,-0.1588329181636462,-0.0572075342547559,0.0483294015747091,-4.955220699310303,5.737150192260742,12.26291561126709,-7.496509552001953,-2.051100492477417,-2.013726949691772,XArbitraryZVertical,0.0218080911003969,-0.0304174916677666,-0.0799662699654072,0.996094586875074,-0.0571095757186412,-0.0483105890452861,-0.9971983432769777,0,0,0,-1,-1,2906.638374791667,unknown,2,2022-06-02T10:49:22.360+02:00,2022-06-02T10:17:13.754+02:00,467,1.474645,0,0,361.8512,0,0,2022-06-02T10:49:22.360+02:00,675852562.3598071,0,6.53125,101.3034,1,0.8
828,2022-06-02T10:49:24.135+02:00,1654159763.999829,53.22911133739114,10.39856400420454,36.86279,0,20,-1,-1,2.400000095367432,7.999579855010837,-9999,2908.41257625,-3.4837646484375,3.622833251953125,2.074417114257812,2908.40258225,-0.0431535830885557,-0.015438393714173,0.012074637508249,-0.975686490535736,1.12946629524231,11.4101390838623,-10.56908130645752,-1.380778431892395,2.844152927398682,XArbitraryZVertical,0.0058691595310918,-0.0078474346450586,-0.021620674891307,0.9997181346361504,-0.0154366549104452,-0.0120743438601493,-0.9998079538345336,0,0,0,-1,-1,2906.638374791667,unknown,2,2022-06-02T10:49:22.360+02:00,2022-06-02T10:17:13.754+02:00,467,1.474645,0,0,361.8512,0,0,2022-06-02T10:49:22.360+02:00,675852562.3598071,0,6.53125,101.3034,1,0.8
829,2022-06-02T10:49:24.144+02:00,1654159763.999829,53.22911133739114,10.39856400420454,36.86279,0,20,-1,-1,2.400000095367432,7.999579855010837,-9999,2908.42257125,-6.146255493164062,2.331314086914062,2.651687622070312,2908.41257625,0.0574366642546617,-0.042224525244088,0.02624374504231,5.155864238739014,-4.717872619628906,8.052870750427246,-3.734886884689331,-1.819279313087463,2.291840076446533,XArbitraryZVertical,0.0137192910902251,-0.02072348138022,0.028428624931668,0.9992867937081384,-0.0421974435448646,-0.0262407325208187,-0.9987646341323853,0,0,0,-1,-1,2906.638374791667,unknown,2,2022-06-02T10:49:22.360+02:00,2022-06-02T10:17:13.754+02:00,467,1.474645,0,0,361.8512,0,0,2022-06-02T10:49:22.360+02:00,675852562.3598071,0,6.53125,101.3034,1,0.8
830,2022-06-02T10:49:24.154+02:00,1654159763.999829,53.22911133739114,10.39856400420454,36.86279,0,20,-1,-1,2.400000095367432,7.999579855010837,-9999,2908.43256525,-5.708969116210938,-0.7382965087890625,2.375503540039062,2908.42257125,0.131177634825199,-0.0986317672401653,0.1040481052829799,10.36755275726318,-6.138432025909424,6.061546325683594,-3.385825157165527,3.726693630218506,3.064175128936768,XArbitraryZVertical,0.0550522660646863,-0.0457192832102502,0.0628156490026132,0.9954562273328064,-0.0979393795132637,-0.103860467672348,-0.9897580146789552,0,0,0,-1,-1,2906.638374791667,unknown,2,2022-06-02T10:49:22.360+02:00,2022-06-02T10:17:13.754+02:00,467,1.474645,0,0,361.8512,0,0,2022-06-02T10:49:22.360+02:00,675852562.3598071,0,6.53125,101.3034,1,0.8
831,2022-06-02T10:49:24.164+02:00,1654159763.999829,53.22911133739114,10.39856400420454,36.86279,0,20,-1,-1,2.400000095367432,7.999579855010837,-9999,2908.44255925,-8.1611328125,0.70782470703125,1.437515258789062,2908.43256525,0.2105768937502612,-0.188711069682487,0.1998200408630401,10.81909847259521,-8.843653678894043,6.593966960906982,-5.962395191192627,2.529807090759277,3.614389896392822,XArbitraryZVertical,0.1086024339054637,-0.0827907572901515,0.0947594016503613,0.9860891380940509,-0.1838603317737579,-0.1984929591417313,-0.9627023935317992,0,0,0,-1,-1,2906.638374791667,unknown,2,2022-06-02T10:49:22.360+02:00,2022-06-02T10:17:13.754+02:00,467,1.474645,0,0,361.8512,0,0,2022-06-02T10:49:22.360+02:00,675852562.3598071,0,6.53125,101.3034,1,0.8
832,2022-06-02T10:49:24.174+02:00,1654159763.999829,53.22911133739114,10.39856400420454,36.86279,0,20,-1,-1,2.400000095367432,7.999579855010837,-9999,2908.45255325,-7.878219604492188,-0.8077392578125,0.58673095703125,2908.44255925,0.3036462162599853,-0.2895860365904754,0.2939082832728402,11.70706176757812,-6.474493980407715,6.663600921630859,-5.43565845489502,-0.4486014246940613,3.292770147323608,XArbitraryZVertical,0.1648137707704111,-0.1191768056681972,0.1271604433340704,0.9708056237087868,-0.2733106017112732,-0.2896951138973236,-0.917266607284546,0,0,0,-1,-1,2906.638374791667,unknown,2,2022-06-02T10:49:22.360+02:00,2022-06-02T10:17:13.754+02:00,467,1.474645,0,0,361.8512,0,0,2022-06-02T10:49:22.360+02:00,675852562.3598071,0,6.53125,101.3034,1,0.8
833,2022-06-02T10:49:24.184+02:00,1654159763.999829,53.22911133739114,10.39856400420454,36.86279,0,20,-1,-1,2.400000095367432,7.999579855010837,-9999,2908.46254825,-6.753829956054688,-1.39532470703125,-0.0200958251953125,2908.45255325,0.4149151702789708,-0.3787998522897254,0.3792725695889009,11.20821189880371,-4.131484508514404,7.521472930908203,-7.817607402801514,1.078069567680359,2.300596475601196,XArbitraryZVertical,0.2192443914561935,-0.1427980101317012,0.163934697911594,0.9511393358212528,-0.3435251414775848,-0.3702448308467865,-0.8630812764167786,0,0,0,-1,-1,2906.638374791667,unknown,2,2022-06-02T10:49:22.360+02:00,2022-06-02T10:17:13.754+02:00,467,1.474645,0,0,361.8512,0,0,2022-06-02T10:49:22.360+02:00,675852562.3598071,0,6.53125,101.3034,1,0.8
834,2022-06-02T10:49:24.194+02:00,1654159763.999829,53.22911133739114,10.39856400420454,36.86279,0,20,-1,-1,2.400000095367432,7.999579855010837,-9999,2908.47254225,-5.782806396484375,-2.254837036132812,-0.2827911376953125,2908.46254825,0.5409583820060493,-0.4620330746352548,0.4444200142469326,10.03652191162109,-2.404952526092529,8.251574516296387,-7.475752353668213,-0.3778049349784851,1.394924521446228,XArbitraryZVertical,0.2664056622079793,-0.157896362379068,0.2050735038322255,0.9284619235475938,-0.4024670124053955,-0.4299342930316925,-0.8081935048103333,0,0,0,-1,-1,2906.638374791667,unknown,2,2022-06-02T10:49:22.360+02:00,2022-06-02T10:17:13.754+02:00,467,1.474645,0,0,361.8512,0,0,2022-06-02T10:49:22.360+02:00,675852562.3598071,0,6.53125,101.3034,1,0.8
835,2022-06-02T10:49:24.204+02:00,1654159763.999829,53.22911133739114,10.39856400420454,36.86279,0,20,-1,-1,2.400000095367432,7.999579855010837,-9999,2908.48253625,-4.665237426757812,-2.529693603515625,-0.4197998046875,2908.47254225,0.6726166260149308,-0.5387048754044985,0.4834883386701447,8.021079063415527,-1.205697894096375,8.596456527709961,-6.299608707427979,-0.9304541945457458,0.7398900985717773,XArbitraryZVertical,0.303100108053435,-0.167742010385224,0.2487194005251106,0.9045062478369996,-0.4542211592197418,-0.4648705124855042,-0.7599858641624451,0,0,0,-1,-1,2906.638374791667,unknown,2,2022-06-02T10:49:22.360+02:00,2022-06-02T10:17:13.754+02:00,467,1.474645,0,0,361.8512,0,0,2022-06-02T10:49:22.360+02:00,675852562.3598071,0,6.53125,101.3034,1,0.8
836,2022-06-02T10:49:24.215+02:00,1654159763.999829,53.22911133739114,10.39856400420454,36.86279,0,20,-1,-1,2.400000095367432,7.999579855010837,-9999,2908.49253125,-3.843460083007812,-1.924285888671875,-0.414276123046875,2908.48253625,0.7963573160273885,-0.6064032964439044,0.495001884896686,5.801032543182373,-0.7498638033866882,8.45700454711914,-5.281298637390137,-1.77980375289917,0.4402811527252197,XArbitraryZVertical,0.3277586880807001,-0.1761762916270082,0.2913534294790058,0.881277086535717,-0.5015075206756592,-0.475033313035965,-0.7230722904205322,0,0,0,-1,-1,2906.638374791667,unknown,2,2022-06-02T10:49:22.360+02:00,2022-06-02T10:17:13.754+02:00,467,1.474645,0,0,361.8512,0,0,2022-06-02T10:49:22.360+02:00,675852562.3598071,0,6.53125,101.3034,1,0.8
837,2022-06-02T10:49:24.225+02:00,1654159763.999829,53.22911133739114,10.39856400420454,36.86279,0,20,-1,-1,2.400000095367432,7.999579855010837,-9999,2908.50252525,-3.452133178710938,-1.152786254882812,-0.3274383544921875,2908.49253125,0.9048488979921984,-0.6651491138213796,0.4864427814935477,4.293018817901611,-0.7877809405326843,7.931676864624023,-4.11965274810791,-2.062209367752075,0.2757543921470642,XArbitraryZVertical,0.3432500800754033,-0.185478611277184,0.3303171761899514,0.8594576416823629,-0.5455847978591919,-0.4674842655658722,-0.6955541372299194,0,0,0,-1,-1,2906.638374791667,unknown,2,2022-06-02T10:49:22.360+02:00,2022-06-02T10:17:13.754+02:00,467,1.474645,0,0,361.8512,0,0,2022-06-02T10:49:22.360+02:00,675852562.3598071,0,6.53125,101.3034,1,0.8
838,2022-06-02T10:49:24.234+02:00,1654159763.999829,53.22911133739114,10.39856400420454,36.86279,0,20,-1,-1,2.400000095367432,7.999579855010837,-9999,2908.51251925,-3.324722290039062,-0.5280609130859375,-0.305694580078125,2908.50252525,0.9986242521214403,-0.7173325903814048,0.4683498450531151,3.644602060317993,-1.038073062896729,7.197303771972656,-3.25687313079834,-1.472871541976929,0.2581380605697632,XArbitraryZVertical,0.3542393877107806,-0.1957226920099522,0.3646071977511574,0.8386112171179733,-0.5865869522094727,-0.4514144361019135,-0.6724141836166382,0,0,0,-1,-1,2906.638374791667,unknown,2,2022-06-02T10:49:22.360+02:00,2022-06-02T10:17:13.754+02:00,467,1.474645,0,0,361.8512,0,0,2022-06-02T10:49:22.360+02:00,675852562.3598071,0,6.53125,101.3034,1,0.8
839,2022-06-02T10:49:24.244+02:00,1654159763.999829,53.22911133739114,10.39856400420454,36.86279,0,20,-1,-1,2.400000095367432,7.999579855010837,-9999,2908.52251325,-3.29791259765625,-0.1316375732421875,-0.3329620361328125,2908.51251925,1.081784836792624,-0.7656970831394997,0.4494348463584435,3.688230752944946,-1.235304951667786,6.365411281585693,-2.827917337417603,-0.718329668045044,0.3218705654144287,XArbitraryZVertical,0.3647050306208454,-0.2057566024462944,0.3942568411595626,0.8180562644780709,-0.624215841293335,-0.4344565868377686,-0.6493089199066162,0,0,0,-1,-1,2906.638374791667,unknown,2,2022-06-02T10:49:22.360+02:00,2022-06-02T10:17:13.754+02:00,467,1.474645,0,0,361.8512,0,0,2022-06-02T10:49:22.360+02:00,675852562.3598071,0,6.53125,101.3034,1,0.8
840,2022-06-02T10:49:24.254+02:00,1654159763.999829,53.22911133739114,10.39856400420454,36.86279,0,20,-1,-1,2.400000095367432,7.999579855010837,-9999,2908.53250825,-3.266357421875,0.09820556640625,-0.349639892578125,2908.52251325,1.158800202116839,-0.8108344146819522,0.4345323985457109,4.110052108764648,-1.169620156288147,5.574383735656738,-2.667223453521729,-0.1070746183395386,0.3191782832145691,XArbitraryZVertical,0.3766246714316571,-0.2138163257925442,0.4201681241902607,0.797430381201879,-0.6574986577033997,-0.4209862947463989,-0.6248728632926941,0,0,0,-1,-1,2906.638374791667,unknown,2,2022-06-02T10:49:22.360+02:00,2022-06-02T10:17:13.754+02:00,467,1.474645,0,0,361.8512,0,0,2022-06-02T10:49:22.360+02:00,675852562.3598071,0,6.53125,101.3034,1,0.8
841,2022-06-02T10:49:24.264+02:00,1654159763.999829,53.22911133739114,10.39856400420454,36.86279,0,20,-1,-1,2.400000095367432,7.999579855010837,-9999,2908.54250225,-3.12152099609375,0.12017822265625,-0.368896484375,2908.53250825,1.232309030359459,-0.8512331594723114,0.4249396633239584,4.453578472137451,-0.7604568600654602,4.881381988525391,-2.612707376480103,0.2806282639503479,0.2674800157546997,XArbitraryZVertical,0.3899824455696265,-0.2183864797618296,0.4434518515529697,0.7768985456101614,-0.6852051615715027,-0.412265807390213,-0.6004420518875122,0,0,0,-1,-1,2906.638374791667,unknown,2,2022-06-02T10:49:22.360+02:00,2022-06-02T10:17:13.754+02:00,467,1.474645,0,0,361.8512,0,0,2022-06-02T10:49:22.360+02:00,675852562.3598071,0,6.53125,101.3034,1,0.8
842,2022-06-02T10:49:24.274+02:00,1654159763.999829,53.22911133739114,10.39856400420454,36.86279,0,20,-1,-1,2.400000095367432,7.999579855010837,-9999,2908.55249625,-2.931640625,0.0313720703125,-0.37762451171875,2908.54250225,1.302992787935215,-0.8851384078763616,0.4188225113107281,4.568471908569336,-0.2241622507572174,4.415484428405762,-2.559252977371216,0.5048905611038208,0.2288155555725098,XArbitraryZVertical,0.4033935632462767,-0.2191937913177383,0.46519047511666,0.7568523672890206,-0.7071043848991394,-0.4066850244998932,-0.5784554481506348,0,0,0,-1,-1,2906.638374791667,unknown,2,2022-06-02T10:49:22.360+02:00,2022-06-02T10:17:13.754+02:00,467,1.474645,0,0,361.8512,0,0,2022-06-02T10:49:22.360+02:00,675852562.3598071,0,6.53125,101.3034,1,0.8
843,2022-06-02T10:49:24.284+02:00,1654159763.999829,53.22911133739114,10.39856400420454,36.86279,0,20,-1,-1,2.400000095367432,7.999579855010837,-9999,2908.56249025,-2.7054443359375,-0.112762451171875,-0.348968505859375,2908.55249625,1.370104632619503,-0.9116397550563344,0.4134495471424961,4.350695610046387,0.3720057308673859,4.085320472717285,-2.397619962692261,0.5219488143920898,0.1919490098953247,XArbitraryZVertical,0.4153080752124303,-0.217017201002538,0.4860494543507852,0.7376846520210242,-0.7239010334014893,-0.4017705917358398,-0.5608454942703247,0,0,0,-1,-1,2906.638374791667,unknown,2,2022-06-02T10:49:22.360+02:00,2022-06-02T10:17:13.754+02:00,467,1.474645,0,0,361.8512,0,0,2022-06-02T10:49:22.360+02:00,675852562.3598071,0,6.53125,101.3034,1,0.8
844,2022-06-02T10:49:24.295+02:00,1654159763.999829,53.22911133739114,10.39856400420454,36.86279,0,20,-1,-1,2.400000095367432,7.999579855010837,-9999,2908.57248525,-2.37713623046875,-0.205230712890625,-0.290496826171875,2908.56249025,1.431957687349605,-0.929446228909985,0.4069816353006804,3.892340421676636,0.9884188175201416,3.808801889419556,-2.195801258087158,0.4272114038467407,0.171785831451416,XArbitraryZVertical,0.4243900345806625,-0.2125745381217361,0.5063087763965668,0.7199698038209922,-0.735839307308197,-0.3958393037319183,-0.549410343170166,0,0,0,-1,-1,2906.638374791667,unknown,2,2022-06-02T10:49:22.360+02:00,2022-06-02T10:17:13.754+02:00,467,1.474645,0,0,361.8512,0,0,2022-06-02T10:49:22.360+02:00,675852562.3598071,0,6.53125,101.3034,1,0.8
845,2022-06-02T10:49:24.304+02:00,1654159763.999829,53.22911133739114,10.39856400420454,36.86279,0,20,-1,-1,2.400000095367432,7.999579855010837,-9999,2908.58247925,-2.0677490234375,-0.116851806640625,-0.1862335205078125,2908.57248525,1.487538509104043,-0.9394189339383444,0.3989624788732021,3.379709720611572,1.343557715415955,3.563863277435303,-1.961624145507812,0.2757000923156738,0.1949325203895569,XArbitraryZVertical,0.430418954959551,-0.2068550376242486,0.5257606526201323,0.7039362286683966,-0.7438201904296875,-0.3884625136852264,-0.5439010262489319,0,0,0,-1,-1,2906.638374791667,unknown,2,2022-06-02T10:49:22.360+02:00,2022-06-02T10:17:13.754+02:00,467,1.474645,0,0,361.8512,0,0,2022-06-02T10:49:22.360+02:00,675852562.3598071,0,6.53125,101.3034,1,0.8
846,2022-06-02T10:49:24.315+02:00,1654159763.999829,53.22911133739114,10.39856400420454,36.86279,0,20,-1,-1,2.400000095367432,7.999579855010837,-9999,2908.59247325,-1.871368408203125,0.05950927734375,-0.1056365966796875,2908.58247925,1.537078383144851,-0.9446718431172858,0.3897692375093795,2.975682735443115,1.389306306838989,3.313792705535889,-1.627606987953186,0.1747442781925201,0.2515593767166138,XArbitraryZVertical,0.4342339366749092,-0.2010292575859993,0.5439203518666228,0.6893320963252502,-0.7495291829109192,-0.3799749612808228,-0.5420562624931335,0,0,0,-1,-1,2906.638374791667,unknown,2,2022-06-02T10:49:22.360+02:00,2022-06-02T10:17:13.754+02:00,467,1.474645,0,0,361.8512,0,0,2022-06-02T10:49:22.360+02:00,675852562.3598071,0,6.53125,101.3034,1,0.8
847,2022-06-02T10:49:24.325+02:00,1654159763.999829,53.22911133739114,10.39856400420454,36.86279,0,20,-1,-1,2.400000095367432,7.999579855010837,-9999,2908.60246725,-1.788162231445312,0.2305908203125,-0.0767059326171875,2908.59247325,1.5827705610934,-0.9483787145499508,0.3806233696704449,2.869364023208618,1.293404221534729,3.129987239837646,-1.313423633575439,0.2546475231647491,0.3550440669059753,XArbitraryZVertical,0.4372269330219289,-0.1954323968959158,0.5607059070250366,0.6754610166855375,-0.7543253898620605,-0.3714993000030518,-0.5412775874137878,0,0,0,-1,-1,2906.638374791667,unknown,2,2022-06-02T10:49:22.360+02:00,2022-06-02T10:17:13.754+02:00,467,1.474645,0,0,361.8512,0,0,2022-06-02T10:49:22.360+02:00,675852562.3598071,0,6.53125,101.3034,1,0.8
848,2022-06-02T10:49:24.335+02:00,1654159763.999829,53.22911133739114,10.39856400420454,36.86279,0,20,-1,-1,2.400000095367432,7.999579855010837,-9999,2908.61246225,-1.775405883789062,0.3666839599609375,-0.055908203125,2908.60246725,1.627456901231821,-0.9526822150284192,0.3727673783727911,3.002891063690186,1.135867357254028,2.988778829574585,-1.112365484237671,0.4237034320831299,0.4340643882751465,XArbitraryZVertical,0.4406117683659163,-0.1897650547293859,0.5763955255264398,0.6615275002379453,-0.7590029239654541,-0.3641941547393799,-0.539700984954834,0,0,0,-1,-1,2906.638374791667,unknown,2,2022-06-02T10:49:22.360+02:00,2022-06-02T10:17:13.754+02:00,467,1.474645,0,0,361.8512,0,0,2022-06-02T10:49:22.360+02:00,675852562.3598071,0,6.53125,101.3034,1,0.8
849,2022-06-02T10:49:24.344+02:00,1654159763.999829,53.22911133739114,10.39856400420454,36.86279,0,20,-1,-1,2.400000095367432,7.999579855010837,-9999,2908.62245625,-1.767868041992188,0.376373291015625,-0.0711822509765625,2908.61246225,1.67232640991327,-0.958033064884377,0.3669561833751432,3.148768186569214,1.062740087509155,2.77570366859436,-1.024563789367676,0.5893667936325073,0.4601341485977173,XArbitraryZVertical,0.4448214457077348,-0.1836132300295737,0.5911326441574192,0.647288346390458,-0.7635983824729919,-0.3587759137153625,-0.5368401408195496,0,0,0,-1,-1,2906.638374791667,unknown,2,2022-06-02T10:49:22.360+02:00,2022-06-02T10:17:13.754+02:00,467,1.474645,0,0,361.8512,0,0,2022-06-02T10:49:22.360+02:00,675852562.3598071,0,6.53125,101.3034,1,0.8
850,2022-06-02T10:49:24.355+02:00,1654159763.999829,53.22911133739114,10.39856400420454,36.86279,0,20,-1,-1,2.400000095367432,7.999579855010837,-9999,2908.63245025,-1.699325561523438,0.3253936767578125,-0.0876007080078125,2908.62245625,1.716596371637593,-0.9628608965459334,0.3635075705022569,3.222100496292114,1.140371322631836,2.535377502441406,-1.008213520050049,0.7222387790679932,0.4779427051544189,XArbitraryZVertical,0.449363521002952,-0.1764850539881459,0.6049526270300293,0.633212255889419,-0.7671923041343689,-0.3555547893047333,-0.533850908279419,0,0,0,-1,-1,2906.638374791667,unknown,2,2022-06-02T10:49:22.360+02:00,2022-06-02T10:17:13.754+02:00,467,1.474645,0,0,361.8512,0,0,2022-06-02T10:49:22.360+02:00,675852562.3598071,0,6.53125,101.3034,1,0.8
851,2022-06-02T10:49:24.364+02:00,1654159763.999829,53.22911133739114,10.39856400420454,36.86279,0,20,-1,-1,2.400000095367432,7.999579855010837,-9999,2908.64244425,-1.593170166015625,0.2788848876953125,-0.0843505859375,2908.63245025,1.75936592887802,-0.9661268922032096,0.3616540718341889,3.130248546600342,1.24136483669281,2.343509674072266,-0.9983954429626464,0.7301951050758362,0.4605338573455811,XArbitraryZVertical,0.4535890189033577,-0.1685198303080007,0.6179976423456287,0.6196264497746778,-0.769472599029541,-0.3538217842578888,-0.5317161083221436,0,0,0,-1,-1,2906.638374791667,unknown,2,2022-06-02T10:49:22.360+02:00,2022-06-02T10:17:13.754+02:00,467,1.474645,0,0,361.8512,0,0,2022-06-02T10:49:22.360+02:00,675852562.3598071,0,6.53125,101.3034,1,0.8
852,2022-06-02T10:49:24.375+02:00,1654159763.999829,53.22911133739114,10.39856400420454,36.86279,0,20,-1,-1,2.400000095367432,7.999579855010837,-9999,2908.65243925,-1.474105834960938,0.261260986328125,-0.056182861328125,2908.64244425,1.799799141617204,-0.9677280854996267,0.3602618847874723,2.918209552764893,1.294754028320312,2.180209636688232,-0.928597629070282,0.6779130101203918,0.4431615471839905,XArbitraryZVertical,0.4570762228668539,-0.1603128339260609,0.6303159255889538,0.6066983526884028,-0.7707279324531555,-0.352519303560257,-0.530762255191803,0,0,0,-1,-1,2906.638374791667,unknown,2,2022-06-02T10:49:22.360+02:00,2022-06-02T10:17:13.754+02:00,467,1.474645,0,0,361.8512,0,0,2022-06-02T10:49:22.360+02:00,675852562.3598071,0,6.53125,101.3034,1,0.8
853,2022-06-02T10:49:24.384+02:00,1654159763.999829,53.22911133739114,10.39856400420454,36.86279,0,20,-1,-1,2.400000095367432,7.999579855010837,-9999,2908.66243325,-1.343994140625,0.2444000244140625,-0.012054443359375,2908.65243925,1.83665639782449,-0.9676462599873672,0.3585451038823139,2.56701397895813,1.305379033088684,2.025366067886353,-0.8219883441925049,0.6297971606254578,0.4468172192573547,XArbitraryZVertical,0.4595293443880602,-0.152475838003044,0.6417541278116152,0.5947566045587912,-0.7711817026138306,-0.3509122431278229,-0.5311678051948547,0,0,0,-1,-1,2906.638374791667,unknown,2,2022-06-02T10:49:22.360+02:00,2022-06-02T10:17:13.754+02:00,467,1.474645,0,0,361.8512,0,0,2022-06-02T10:49:22.360+02:00,675852562.3598071,0,6.53125,101.3034,1,0.8
854,2022-06-02T10:49:24.394+02:00,1654159763.999829,53.22911133739114,10.39856400420454,36.86279,0,20,-1,-1,2.400000095367432,7.999579855010837,-9999,2908.67242725,-1.249343872070312,0.2075653076171875,0.015869140625,2908.66243325,1.869534924235572,-0.966342145214626,0.3560657442075557,2.229533433914185,1.252073764801025,1.881241798400879,-0.7029038667678833,0.6098505258560181,0.4764830470085144,XArbitraryZVertical,0.4609894883790703,-0.1454501847286482,0.6522390219960749,0.5838810265808693,-0.7712018489837646,-0.3485894501209259,-0.5326658487319946,0,0,0,-1,-1,2906.638374791667,unknown,2,2022-06-02T10:49:22.360+02:00,2022-06-02T10:17:13.754+02:00,467,1.474645,0,0,361.8512,0,0,2022-06-02T10:49:22.360+02:00,675852562.3598071,0,6.53125,101.3034,1,0.8
855,2022-06-02T10:49:24.404+02:00,1654159763.999829,53.22911133739114,10.39856400420454,36.86279,0,20,-1,-1,2.400000095367432,7.999579855010837,-9999,2908.68242125,-1.16717529296875,0.190093994140625,0.0157470703125,2908.67242725,1.898692379228454,-0.9642240921289532,0.3531486509289491,1.946859955787659,1.195968389511108,1.712799072265625,-0.5730898976325989,0.5902539491653442,0.5228211283683777,XArbitraryZVertical,0.4617173286287534,-0.1392097048833083,0.661744561028231,0.5740486189480657,-0.7709041237831116,-0.345853865146637,-0.5348755121231079,0,0,0,-1,-1,2906.638374791667,unknown,2,2022-06-02T10:49:22.360+02:00,2022-06-02T10:17:13.754+02:00,467,1.474645,0,0,361.8512,0,0,2022-06-02T10:49:22.360+02:00,675852562.3598071,0,6.53125,101.3034,1,0.8
