,loggingTime(txt),locationTimestamp_since1970(s),locationLatitude(WGS84),locationLongitude(WGS84),locationAltitude(m),locationSpeed(m/s),locationSpeedAccuracy(m/s),locationCourse(°),locationCourseAccuracy(°),locationVerticalAccuracy(m),locationHorizontalAccuracy(m),locationFloor(Z),accelerometerTimestamp_sinceReboot(s),accelerometerAccelerationX(G),accelerometerAccelerationY(G),accelerometerAccelerationZ(G),motionTimestamp_sinceReboot(s),motionYaw(rad),motionRoll(rad),motionPitch(rad),motionRotationRateX(rad/s),motionRotationRateY(rad/s),motionRotationRateZ(rad/s),motionUserAccelerationX(G),motionUserAccelerationY(G),motionUserAccelerationZ(G),motionAttitudeReferenceFrame(txt),motionQuaternionX(R),motionQuaternionY(R),motionQuaternionZ(R),motionQuaternionW(R),motionGravityX(G),motionGravityY(G),motionGravityZ(G),motionMagneticFieldX(µT),motionMagneticFieldY(µT),motionMagneticFieldZ(µT),motionHeading(°),motionMagneticFieldCalibrationAccuracy(Z),activityTimestamp_sinceReboot(s),activity(txt),activityActivityConfidence(Z),activityActivityStartDate(txt),pedometerStartDate(txt),pedometerNumberofSteps(N),pedometerAverageActivePace(s/m),pedometerCurrentPace(s/m),pedometerCurrentCadence(steps/s),pedometerDistance(m),pedometerFloorAscended(N),pedometerFloorDescended(N),pedometerEndDate(txt),altimeterTimestamp_sinceReboot(s),altimeterReset(bool),altimeterRelativeAltitude(m),altimeterPressure(kPa),batteryState(N),batteryLevel(R)
273,2022-05-12T10:34:42.680+02:00,1652344480.999603,53.22900305041413,10.39846745320633,37.61728,0.17,0.8,350.15625,21.67754851985433,3,5,-9999,2980.263194625,0.3884124755859375,0.442474365234375,2.044647216796875,2980.258197625,-1.81401549044852,2.234437091387233,-0.0391092109510741,-3.441911935806274,6.675756931304932,-0.988868534564972,-0.268231213092804,0.4892665445804596,1.02876877784729,XArbitraryZVertical,-0.7026050545740263,-0.5604509353929147,0.3559048294255409,-0.25607213103326,0.7871527671813965,0.0390992425382137,0.6155182123184204,0,0,0,-1,-1,2979.704357916667,walking,2,2022-05-12T10:34:42.120+02:00,2022-05-11T22:15:20.957+02:00,464,0.8430042,0.7690485,2.39026,367.4152,0,0,2022-05-12T10:34:42.120+02:00,674037282.1201915,0,-0.2299995,100.9111,1,0.95
274,2022-05-12T10:34:42.690+02:00,1652344480.999603,53.22900305041413,10.39846745320633,37.61728,0.17,0.8,350.15625,21.67754851985433,3,5,-9999,2980.273190625,0.2785186767578125,0.4115753173828125,2.311767578125,2980.268192625,-1.780927903071025,2.304638863001894,-0.0236791878789231,-3.626240968704224,7.163378238677979,-0.9148123264312744,-0.2803770303726196,0.4225812554359436,1.238158941268921,XArbitraryZVertical,-0.7072079097576863,-0.5784696873189876,0.3226794659621364,-0.2472000098056322,0.7423983812332153,0.0236769746989011,0.6695404052734375,0,0,0,-1,-1,2979.704357916667,walking,2,2022-05-12T10:34:42.120+02:00,2022-05-11T22:15:20.957+02:00,464,0.8430042,0.7690485,2.39026,367.4152,0,0,2022-05-12T10:34:42.120+02:00,674037282.1201915,0,-0.2299995,100.9111,1,0.95
275,2022-05-12T10:34:42.700+02:00,1652344480.999603,53.22900305041413,10.39846745320633,37.61728,0.17,0.8,350.15625,21.67754851985433,3,5,-9999,2980.283185625,0.1624908447265625,0.368896484375,2.579360961914062,2980.278187625,-1.7480934728623,2.378987507600929,-0.0040181962334506,-3.84480619430542,7.615227699279785,-0.8578739166259766,-0.3552454710006714,0.4318030476570129,1.452915787696838,XArbitraryZVertical,-0.7113703579996546,-0.596212034636408,0.2865944610774878,-0.2373756119373419,0.6908019781112671,0.0040181851945817,0.7230331301689148,0,0,0,-1,-1,2979.704357916667,walking,2,2022-05-12T10:34:42.120+02:00,2022-05-11T22:15:20.957+02:00,464,0.8430042,0.7690485,2.39026,367.4152,0,0,2022-05-12T10:34:42.120+02:00,674037282.1201915,0,-0.2299995,100.9111,1,0.95
276,2022-05-12T10:34:42.710+02:00,1652344480.999603,53.22900305041413,10.39846745320633,37.61728,0.17,0.8,350.15625,21.67754851985433,3,5,-9999,2980.293180625,-0.013397216796875,0.3442230224609375,2.845870971679688,2980.288182625,-1.714934291279881,2.456908866621835,0.0201769261786384,-4.177481651306152,8.007877349853516,-0.9143849611282348,-0.4056907892227173,0.4015229344367981,1.67432975769043,XArbitraryZVertical,-0.7144866323504006,-0.6137912599192183,0.2476165303711788,-0.2268378908744361,0.6322996020317078,-0.0201755575835704,0.7744617462158203,0,0,0,-1,-1,2979.704357916667,walking,2,2022-05-12T10:34:42.120+02:00,2022-05-11T22:15:20.957+02:00,464,0.8430042,0.7690485,2.39026,367.4152,0,0,2022-05-12T10:34:42.120+02:00,674037282.1201915,0,-0.2299995,100.9111,1,0.95
277,2022-05-12T10:34:42.720+02:00,1652344480.999603,53.22900305041413,10.39846745320633,37.61728,0.17,0.8,350.15625,21.67754851985433,3,5,-9999,2980.303175625,-0.1279144287109375,0.339324951171875,3.158782958984375,2980.298177625,-1.681457925598211,2.537544845355505,0.0485985117349693,-4.39669132232666,8.338418006896973,-1.031483054161072,-0.4933178424835205,0.4129895269870758,1.883570909500122,XArbitraryZVertical,-0.7160121868099436,-0.631159596498653,0.2061050742895949,-0.215603715001666,0.5673081874847412,-0.0485793836414814,0.8220717906951904,0,0,0,-1,-1,2979.704357916667,walking,2,2022-05-12T10:34:42.120+02:00,2022-05-11T22:15:20.957+02:00,464,0.8430042,0.7690485,2.39026,367.4152,0,0,2022-05-12T10:34:42.120+02:00,674037282.1201915,0,-0.2299995,100.9111,1,0.95
278,2022-05-12T10:34:42.730+02:00,1652344480.999603,53.22900305041413,10.39846745320633,37.61728,0.17,0.8,350.15625,21.67754851985433,3,5,-9999,2980.313170625,-0.2804718017578125,0.379791259765625,3.488601684570312,2980.308172625,-1.64781367331359,2.620000047055266,0.0803122616577336,-4.559445381164551,8.572966575622559,-1.281784653663635,-0.5688292384147644,0.4112804234027863,2.134424924850464,XArbitraryZVertical,-0.715452722495167,-0.6482619484112734,0.1627083904456663,-0.2034944170958326,0.4966557025909424,-0.0802259519696235,0.8642323017120361,0,0,0,-1,-1,2979.704357916667,walking,2,2022-05-12T10:34:42.120+02:00,2022-05-11T22:15:20.957+02:00,464,0.8430042,0.7690485,2.39026,367.4152,0,0,2022-05-12T10:34:42.120+02:00,674037282.1201915,0,-0.2299995,100.9111,1,0.95
279,2022-05-12T10:34:42.740+02:00,1652344480.999603,53.22900305041413,10.39846745320633,37.61728,0.17,0.8,350.15625,21.67754851985433,3,5,-9999,2980.323165625,-0.425628662109375,0.3907470703125,3.831573486328125,2980.318167625,-1.613143950333961,2.703013113451078,0.1146634281509238,-4.734306335449219,8.690370559692383,-1.690903663635254,-0.6243337392807007,0.4747942090034485,2.426333665847778,XArbitraryZVertical,-0.7120986375817073,-0.6652976031112343,0.1180847836167033,-0.1906585449395107,0.4218653738498688,-0.1144123300909996,0.8994107246398926,0,0,0,-1,-1,2979.704357916667,walking,2,2022-05-12T10:34:42.120+02:00,2022-05-11T22:15:20.957+02:00,464,0.8430042,0.7690485,2.39026,367.4152,0,0,2022-05-12T10:34:42.120+02:00,674037282.1201915,0,-0.2299995,100.9111,1,0.95
280,2022-05-12T10:34:42.750+02:00,1652344480.999603,53.22900305041413,10.39846745320633,37.61728,0.17,0.8,350.15625,21.67754851985433,3,5,-9999,2980.333160625,-0.52117919921875,0.332427978515625,4.158706665039062,2980.328163625,-1.576019029555195,2.78493142374906,0.1517610259799283,-4.95780611038208,8.667685508728027,-2.24671483039856,-0.7011215686798096,0.5379434823989868,2.728273868560791,XArbitraryZVertical,-0.7051838812382165,-0.6825426760316398,0.0727806267655868,-0.1776351711855574,0.3451346158981323,-0.1511791497468948,0.9262976050376892,0,0,0,-1,-1,2979.704357916667,walking,2,2022-05-12T10:34:42.120+02:00,2022-05-11T22:15:20.957+02:00,464,0.8430042,0.7690485,2.39026,367.4152,0,0,2022-05-12T10:34:42.120+02:00,674037282.1201915,0,-0.2299995,100.9111,1,0.95
281,2022-05-12T10:34:42.760+02:00,1652344480.999603,53.22900305041413,10.39846745320633,37.61728,0.17,0.8,350.15625,21.67754851985433,3,5,-9999,2980.343155625,-0.644317626953125,0.2257080078125,4.4525146484375,2980.338158625,-1.53487787004437,2.863849324530281,0.1920859886607324,-5.244565010070801,8.5075101852417,-2.974649429321289,-0.745049238204956,0.5662729740142822,3.059489250183105,XArbitraryZVertical,-0.6939947955811654,-0.7002614235111925,0.0273146247298599,-0.1651033190349527,0.2691433727741241,-0.1909069269895554,0.9439896941184998,0,0,0,-1,-1,2979.704357916667,walking,2,2022-05-12T10:34:42.120+02:00,2022-05-11T22:15:20.957+02:00,464,0.8430042,0.7690485,2.39026,367.4152,0,0,2022-05-12T10:34:42.120+02:00,674037282.1201915,0,-0.2299995,100.9111,1,0.95
282,2022-05-12T10:34:42.770+02:00,1652344480.999603,53.22900305041413,10.39846745320633,37.61728,0.17,0.8,350.15625,21.67754851985433,3,5,-9999,2980.353150625,-0.782928466796875,0.11798095703125,4.738388061523438,2980.348153625,-1.487835829392476,2.937198474367121,0.2364631455422517,-5.567239284515381,8.148796081542969,-3.86163854598999,-0.7768235206604004,0.5128299593925476,3.353743076324463,XArbitraryZVertical,-0.6777946554521181,-0.7187228692347223,-0.0177391579863315,-0.1540043042997866,0.197325810790062,-0.2342656701803207,0.9519363045692444,0,0,0,-1,-1,2979.704357916667,walking,2,2022-05-12T10:34:42.120+02:00,2022-05-11T22:15:20.957+02:00,464,0.8430042,0.7690485,2.39026,367.4152,0,0,2022-05-12T10:34:42.120+02:00,674037282.1201915,0,-0.2299995,100.9111,1,0.95
283,2022-05-12T10:34:42.780+02:00,1652344480.999603,53.22900305041413,10.39846745320633,37.61728,0.17,0.8,350.15625,21.67754851985433,3,5,-9999,2980.363145625,-1.030685424804688,0.0633544921875,5.024261474609375,2980.358148625,-1.433311434425921,3.001890936948527,0.2850029577240851,-5.756740093231201,7.577938079833984,-4.893994331359863,-0.8368465900421143,0.4498764872550964,3.649999618530273,XArbitraryZVertical,-0.6560968438205544,-0.7380331479597098,-0.0614419344070344,-0.1451522918971902,0.1336306929588318,-0.281160295009613,0.9503120183944702,0,0,0,-1,-1,2979.704357916667,walking,2,2022-05-12T10:34:42.120+02:00,2022-05-11T22:15:20.957+02:00,464,0.8430042,0.7690485,2.39026,367.4152,0,0,2022-05-12T10:34:42.120+02:00,674037282.1201915,0,-0.2299995,100.9111,1,0.95
284,2022-05-12T10:34:42.790+02:00,1652344480.999603,53.22900305041413,10.39846745320633,37.61728,0.17,0.8,350.15625,21.67754851985433,3,5,-9999,2980.373140625,-1.331954956054688,-0.1518096923828125,5.30096435546875,2980.368143625,-1.36890959483271,3.053666152078436,0.3357815301852613,-5.66145133972168,6.67389440536499,-6.176328659057617,-0.9781569838523864,0.4254696667194366,3.935714721679688,XArbitraryZVertical,-0.6284484719161464,-0.7584888920918565,-0.1019442413220302,-0.1391203997318365,0.0829091519117355,-0.3295071423053741,0.9405057430267334,0,0,0,-1,-1,2979.704357916667,walking,2,2022-05-12T10:34:42.120+02:00,2022-05-11T22:15:20.957+02:00,464,0.8430042,0.7690485,2.39026,367.4152,0,0,2022-05-12T10:34:42.120+02:00,674037282.1201915,0,-0.2299995,100.9111,1,0.95
285,2022-05-12T10:34:42.800+02:00,1652344480.999603,53.22900305041413,10.39846745320633,37.61728,0.17,0.8,350.15625,21.67754851985433,3,5,-9999,2980.383136625,-1.682373046875,-0.4725799560546875,5.721084594726562,2980.378138625,-1.290936133023334,3.086773083666212,0.3858434696277824,-5.343838691711426,5.439516544342041,-7.712729930877686,-1.225781559944153,0.3511483669281006,4.237706184387207,XArbitraryZVertical,-0.5943878227507199,-0.7805434341098043,-0.1369166450500136,-0.1367810262405889,0.0507638901472091,-0.3763407170772552,0.9250898957252502,0,0,0,-1,-1,2979.704357916667,walking,2,2022-05-12T10:34:42.120+02:00,2022-05-11T22:15:20.957+02:00,464,0.8430042,0.7690485,2.39026,367.4152,0,0,2022-05-12T10:34:42.120+02:00,674037282.1201915,0,-0.2299995,100.9111,1,0.95
286,2022-05-12T10:34:42.810+02:00,1652344480.999603,53.22900305041413,10.39846745320633,37.61728,0.17,0.8,350.15625,21.67754851985433,3,5,-9999,2980.393131625,-2.274627685546875,-0.99212646484375,6.225479125976562,2980.388133625,-1.194436065236159,3.095004055809827,0.4329812356904461,-4.906239032745361,3.861171722412109,-9.534862518310549,-1.534415125846863,0.1363602876663208,4.574924945831299,XArbitraryZVertical,-0.5532057636789345,-0.8045686165491265,-0.164781017219804,-0.1395715003786056,0.0422740802168846,-0.4195787906646729,0.9067345261573792,0,0,0,-1,-1,2979.704357916667,walking,2,2022-05-12T10:34:42.120+02:00,2022-05-11T22:15:20.957+02:00,464,0.8430042,0.7690485,2.39026,367.4152,0,0,2022-05-12T10:34:42.120+02:00,674037282.1201915,0,-0.2299995,100.9111,1,0.95
287,2022-05-12T10:34:42.820+02:00,1652344480.999603,53.22900305041413,10.39846745320633,37.61728,0.17,0.8,350.15625,21.67754851985433,3,5,-9999,2980.403126625,-3.239456176757812,-1.273193359375,6.620529174804688,2980.398128625,-1.07395273793145,3.070948839842579,0.472897835295053,-4.2939453125,1.821448087692261,-11.68920135498047,-1.998888254165649,-0.2895575761795044,5.089934349060059,XArbitraryZVertical,-0.5041051403394553,-0.8305985581126509,-0.1835953272569451,-0.1492545483468742,0.0628385320305824,-0.4554679989814758,0.8880318999290466,0,0,0,-1,-1,2979.704357916667,walking,2,2022-05-12T10:34:42.120+02:00,2022-05-11T22:15:20.957+02:00,464,0.8430042,0.7690485,2.39026,367.4152,0,0,2022-05-12T10:34:42.120+02:00,674037282.1201915,0,-0.2299995,100.9111,1,0.95
288,2022-05-12T10:34:42.830+02:00,1652344480.999603,53.22900305041413,10.39846745320633,37.61728,0.17,0.8,350.15625,21.67754851985433,3,5,-9999,2980.413121625,-4.522064208984375,-0.6969757080078125,6.736495971679688,2980.408123625,-0.923449154209134,3.004692338306543,0.4982530744039721,-3.423818826675415,-1.081341624259949,-14.3906364440918,-2.810996294021606,-0.7042064070701599,5.579079627990723,XArbitraryZVertical,-0.4458263795107427,-0.8581018881295033,-0.1906929208557276,-0.1689265512818886,0.1198805198073387,-0.477891743183136,0.8702000379562378,0,0,0,-1,-1,2979.704357916667,walking,2,2022-05-12T10:34:42.120+02:00,2022-05-11T22:15:20.957+02:00,464,0.8430042,0.7690485,2.39026,367.4152,0,0,2022-05-12T10:34:42.120+02:00,674037282.1201915,0,-0.2299995,100.9111,1,0.95
289,2022-05-12T10:34:42.840+02:00,1652344480.999603,53.22900305041413,10.39846745320633,37.61728,0.17,0.8,350.15625,21.67754851985433,3,5,-9999,2980.423116625,-5.920700073242188,0.5562744140625,6.446182250976562,2980.418118625,-0.7386530409042981,2.886102022610517,0.4971945383313339,-2.682608127593994,-5.077414989471436,-17.54327964782715,-4.090651512145996,-0.6328555345535278,5.877023220062256,XArbitraryZVertical,-0.3762711479065381,-0.885221354071025,-0.1830089475259682,-0.2032507343288314,0.2221218049526215,-0.4769616425037384,0.8503936529159546,0,0,0,-1,-1,2979.704357916667,walking,2,2022-05-12T10:34:42.120+02:00,2022-05-11T22:15:20.957+02:00,464,0.8430042,0.7690485,2.39026,367.4152,0,0,2022-05-12T10:34:42.120+02:00,674037282.1201915,0,-0.2299995,100.9111,1,0.95
290,2022-05-12T10:34:42.850+02:00,1652344480.999603,53.22900305041413,10.39846745320633,37.61728,0.17,0.8,350.15625,21.67754851985433,3,5,-9999,2980.433111625,-7.086395263671875,1.436782836914062,5.717803955078125,2980.428113625,-0.5276628201159838,2.713482717178764,0.4575528815919928,-2.41483736038208,-9.992478370666504,-20.37706184387207,-5.601146221160889,0.342343270778656,5.825597763061523,XArbitraryZVertical,-0.2946977896576301,-0.9062224200049528,-0.1599891626166283,-0.2575222930258525,0.372448056936264,-0.4417540431022644,0.8161717057228088,0,0,0,-1,-1,2979.704357916667,walking,2,2022-05-12T10:34:42.120+02:00,2022-05-11T22:15:20.957+02:00,464,0.8430042,0.7690485,2.39026,367.4152,0,0,2022-05-12T10:34:42.120+02:00,674037282.1201915,0,-0.2299995,100.9111,1,0.95
291,2022-05-12T10:34:42.860+02:00,1652344480.999603,53.22900305041413,10.39846745320633,37.61728,0.17,0.8,350.15625,21.67754851985433,3,5,-9999,2980.443106625,-8.048492431640625,1.648117065429688,4.662734985351562,2980.438109625,-0.313483833931761,2.49772132808916,0.3657204637804812,-1.672905087471008,-15.95021057128906,-22.74786567687988,-7.079440593719482,1.470491886138916,5.392167568206787,XArbitraryZVertical,-0.202442669288133,-0.9123923736937684,-0.1218185691580842,-0.3342416340444327,0.5605964660644531,-0.3576222062110901,0.7468857765197754,0,0,0,-1,-1,2979.704357916667,walking,2,2022-05-12T10:34:42.120+02:00,2022-05-11T22:15:20.957+02:00,464,0.8430042,0.7690485,2.39026,367.4152,0,0,2022-05-12T10:34:42.120+02:00,674037282.1201915,0,-0.2299995,100.9111,1,0.95
292,2022-05-12T10:34:42.870+02:00,1652344480.999603,53.22900305041413,10.39846745320633,37.61728,0.17,0.8,350.15625,21.67754851985433,3,5,-9999,2980.453101625,-9.22674560546875,1.168548583984375,3.442062377929688,2980.448104625,-0.1349406629721702,2.256286555020513,0.2100552365407204,0.919337511062622,-21.77578735351562,-23.29911613464355,-8.354368209838867,1.813693284988403,4.594973564147949,XArbitraryZVertical,-0.1053880080784226,-0.8935672040596309,-0.0657958766614634,-0.4313956072249265,0.7570937275886536,-0.2085139155387878,0.6191379427909851,0,0,0,-1,-1,2979.704357916667,walking,2,2022-05-12T10:34:42.120+02:00,2022-05-11T22:15:20.957+02:00,464,0.8430042,0.7690485,2.39026,367.4152,0,0,2022-05-12T10:34:42.120+02:00,674037282.1201915,0,-0.2299995,100.9111,1,0.95
293,2022-05-12T10:34:42.880+02:00,1652344480.999603,53.22900305041413,10.39846745320633,37.61728,0.17,0.8,350.15625,21.67754851985433,3,5,-9999,2980.463096625,-11.10336303710938,1.684036254882812,3.441650390625,2980.458099625,-0.0530466990967168,1.998591712671382,0.0007523700770108,8.255708694458008,-27.59833145141602,-20.73993873596191,-9.46437168121338,1.45789098739624,3.64423131942749,XArbitraryZVertical,-0.0225093162108148,-0.8407890816038226,0.0140283623400962,-0.5407129553541152,0.909882664680481,-0.000752369989641,0.4148659110069275,0,0,0,-1,-1,2979.704357916667,walking,2,2022-05-12T10:34:42.120+02:00,2022-05-11T22:15:20.957+02:00,464,0.8430042,0.7690485,2.39026,367.4152,0,0,2022-05-12T10:34:42.120+02:00,674037282.1201915,0,-0.2299995,100.9111,1,0.95
294,2022-05-12T10:34:42.903+02:00,1652344480.999603,53.22900305041413,10.39846745320633,37.61728,0.17,0.8,350.15625,21.67754851985433,3,5,-9999,2980.473091625,-15.48777770996094,2.507583618164062,5.43731689453125,2980.468094625,-0.1234627707323516,1.695472559564866,-0.2070821776685597,16.40472984313965,-30.77694320678711,-16.28043556213379,-10.97773742675781,0.969154179096222,2.906882762908936,XArbitraryZVertical,0.0222505684800994,-0.7485674738335825,0.1179492337881934,-0.6521041505543108,0.971039056777954,0.2056052982807159,0.1216967031359673,0,0,0,-1,-1,2979.704357916667,walking,2,2022-05-12T10:34:42.120+02:00,2022-05-11T22:15:20.957+02:00,464,0.8430042,0.7690485,2.39026,367.4152,0,0,2022-05-12T10:34:42.120+02:00,674037282.1201915,0,-0.2299995,100.9111,1,0.95
295,2022-05-12T10:34:42.935+02:00,1652344480.999603,53.22900305041413,10.39846745320633,37.61728,0.17,0.8,350.15625,21.67754851985433,3,5,-9999,2980.483086625,-19.92169189453125,1.818222045898438,7.509674072265625,2980.478089625,-0.3394048419091888,1.301218872891093,-0.340052856028739,23.82437133789062,-35.07122039794922,-13.07559013366699,-14.02158832550049,1.989522695541382,4.643941402435303,XArbitraryZVertical,0.0318912558572479,-0.6111023674864537,0.2334621892598829,-0.7556668355711808,0.90868878364563,0.3335369229316711,-0.2510736882686615,0,0,0,-1,-1,2979.704357916667,walking,2,2022-05-12T10:34:42.120+02:00,2022-05-11T22:15:20.957+02:00,464,0.8430042,0.7690485,2.39026,367.4152,0,0,2022-05-12T10:34:42.120+02:00,674037282.1201915,0,-0.2299995,100.9111,1,0.95
296,2022-05-12T10:34:42.953+02:00,1652344480.999603,53.22900305041413,10.39846745320633,37.61728,0.17,0.8,350.15625,21.67754851985433,3,5,-9999,2980.493082625,-31.16514587402344,-1.252517700195312,7.837188720703125,2980.488084625,-0.6277958910214083,0.8532414404594019,-0.3195250087906905,25.63898658752441,-35.14019012451172,-9.331850051879885,-17.97776412963867,2.029787302017212,7.12761926651001,XArbitraryZVertical,0.0116081317541516,-0.4332827092230123,0.3401253852060806,-0.8345335116497002,0.7152814269065857,0.3141156435012817,-0.6242626905441284,0,0,0,-1,-1,2979.704357916667,walking,2,2022-05-12T10:34:42.120+02:00,2022-05-11T22:15:20.957+02:00,464,0.8430042,0.7690485,2.39026,367.4152,0,0,2022-05-12T10:34:42.120+02:00,674037282.1201915,0,-0.2299995,100.9111,1,0.95
297,2022-05-12T10:34:42.959+02:00,1652344480.999603,53.22900305041413,10.39846745320633,37.61728,0.17,0.8,350.15625,21.67754851985433,3,5,-9999,2980.503077625,-29.54690551757812,-0.64801025390625,-1.779937744140625,2980.498079625,-0.8441198717247549,0.4703142917768299,-0.1264302079824689,32.63959121704102,-31.37105178833008,-1.220834016799927,-25.95878219604492,0.5438742637634277,9.352145195007324,XArbitraryZVertical,-0.0392105690214475,-0.2372911787861895,0.4109979565466177,-0.8793384855373694,0.4495494663715363,0.1260936558246613,-0.8843108415603638,0,0,0,-1,-1,2979.704357916667,walking,2,2022-05-12T10:34:42.120+02:00,2022-05-11T22:15:20.957+02:00,464,0.8430042,0.7690485,2.39026,367.4152,0,0,2022-05-12T10:34:42.120+02:00,674037282.1201915,0,-0.2299995,100.9111,1,0.95
298,2022-05-12T10:34:42.962+02:00,1652344480.999603,53.22900305041413,10.39846745320633,37.61728,0.17,0.8,350.15625,21.67754851985433,3,5,-9999,2980.513072625,-19.211669921875,4.021484375,2.628829956054688,2980.508074625,-0.9635070248287017,0.2010070514786565,0.1961926502800058,35.17673492431641,-21.64322471618652,-1.207959532737732,-32.20287704467773,-2.385767221450806,4.05648136138916,XArbitraryZVertical,-0.1326188704979872,-0.043337778882112,0.4500712152267018,-0.8820261264086394,0.1958259791135788,-0.1949364393949509,-0.9610681533813475,0,0,0,-1,-1,2979.704357916667,walking,2,2022-05-12T10:34:42.120+02:00,2022-05-11T22:15:20.957+02:00,464,0.8430042,0.7690485,2.39026,367.4152,0,0,2022-05-12T10:34:42.120+02:00,674037282.1201915,0,-0.2299995,100.9111,1,0.95
299,2022-05-12T10:34:42.964+02:00,1652344480.999603,53.22900305041413,10.39846745320633,37.61728,0.17,0.8,350.15625,21.67754851985433,3,5,-9999,2980.523067625,-13.14533996582031,-6.671051025390625,5.053009033203125,2980.518069625,-1.002010454351423,0.0740491771864493,0.5447774915189476,35.05536270141602,-6.111480712890625,4.037734508514404,-24.31974220275879,4.193688869476318,-0.5275790691375732,XArbitraryZVertical,-0.2529306897697591,0.0978600983734811,0.4535473149933317,-0.8489666383791648,0.0632721558213233,-0.5182278156280518,-0.8528989553451538,0,0,0,-1,-1,2979.704357916667,walking,2,2022-05-12T10:34:42.120+02:00,2022-05-11T22:15:20.957+02:00,464,0.8430042,0.7690485,2.39026,367.4152,0,0,2022-05-12T10:34:42.120+02:00,674037282.1201915,0,-0.2299995,100.9111,1,0.95
300,2022-05-12T10:34:42.987+02:00,1652344480.999603,53.22900305041413,10.39846745320633,37.61728,0.17,0.8,350.15625,21.67754851985433,3,5,-9999,2980.533062625,-5.385009765625,-11.45010375976562,0.201873779296875,2980.528064625,-0.9247545154185812,0.0124193214360373,0.8589004046408716,25.66580581665039,2.89024019241333,9.392858505249023,-15.84096908569336,-0.2095500230789185,6.129126071929932,XArbitraryZVertical,-0.3751610409801441,0.1806770207984015,0.4032490568035272,-0.8148620784648509,0.0081129660829901,-0.757124662399292,-0.653219997882843,0,0,0,-1,-1,2979.704357916667,walking,2,2022-05-12T10:34:42.120+02:00,2022-05-11T22:15:20.957+02:00,464,0.8430042,0.7690485,2.39026,367.4152,0,0,2022-05-12T10:34:42.120+02:00,674037282.1201915,0,-0.2299995,100.9111,1,0.95
301,2022-05-12T10:34:42.990+02:00,1652344480.999603,53.22900305041413,10.39846745320633,37.61728,0.17,0.8,350.15625,21.67754851985433,3,5,-9999,2980.543057625,0.695709228515625,-10.60781860351562,-2.164810180664062,2980.538059625,-0.7750958544602642,-0.062675029070197,1.041864924387298,11.41814804077148,5.735092163085938,6.641511917114258,-9.638134002685549,-9.161250114440918,3.172687530517578,XArbitraryZVertical,-0.4502830290499496,0.2131547821578192,0.3420667442975215,-0.7967438460747531,-0.0316058211028575,-0.8633468151092529,-0.503620445728302,0,0,0,-1,-1,2979.704357916667,walking,2,2022-05-12T10:34:42.120+02:00,2022-05-11T22:15:20.957+02:00,464,0.8430042,0.7690485,2.39026,367.4152,0,0,2022-05-12T10:34:42.120+02:00,674037282.1201915,0,-0.2299995,100.9111,1,0.95
302,2022-05-12T10:34:42.995+02:00,1652344480.999603,53.22900305041413,10.39846745320633,37.61728,0.17,0.8,350.15625,21.67754851985433,3,5,-9999,2980.553052625,-2.547744750976562,-6.018218994140625,-2.743270874023438,2980.548055625,-0.6281322768473947,-0.1518072738501072,1.087185968966534,0.1439330726861954,2.66364574432373,7.171785354614258,-1.48661482334137,-10.89852142333984,-1.036874890327454,XArbitraryZVertical,-0.4704491037815514,0.2210477853999691,0.3009392050718662,-0.7995318322510045,-0.0703163221478462,-0.8853219747543335,-0.4596310257911682,0,0,0,-1,-1,2979.704357916667,walking,2,2022-05-12T10:34:42.120+02:00,2022-05-11T22:15:20.957+02:00,464,0.8430042,0.7690485,2.39026,367.4152,0,0,2022-05-12T10:34:42.120+02:00,674037282.1201915,0,-0.2299995,100.9111,1,0.95
303,2022-05-12T10:34:43.001+02:00,1652344480.999603,53.22900305041413,10.39846745320633,37.61728,0.17,0.8,350.15625,21.67754851985433,3,5,-9999,2980.563047625,-4.857208251953125,-3.707015991210938,-3.651901245117188,2980.558050625,-0.483265220638811,-0.2416604587012477,1.048732945535972,-4.373775959014893,4.522586345672607,7.872034549713135,0.2980344295501709,-7.4213547706604,-1.83977997303009,XArbitraryZVertical,-0.4576076256841471,0.220239563854221,0.264222468967433,-0.8199247074165493,-0.1193392872810364,-0.8667920827865601,-0.4841795861721039,0,0,0,-1,-1,2979.704357916667,walking,2,2022-05-12T10:34:42.120+02:00,2022-05-11T22:15:20.957+02:00,464,0.8430042,0.7690485,2.39026,367.4152,0,0,2022-05-12T10:34:42.120+02:00,674037282.1201915,0,-0.2299995,100.9111,1,0.95
304,2022-05-12T10:34:43.003+02:00,1652344480.999603,53.22900305041413,10.39846745320633,37.61728,0.17,0.8,350.15625,21.67754851985433,3,5,-9999,2980.573042625,-3.970626831054688,-2.319473266601562,-2.695709228515625,2980.568045625,-0.3608453258113265,-0.3036578848696314,0.9736554484781316,-6.558840751647949,3.856338024139404,8.499654769897461,-4.541161060333252,-3.71144437789917,-2.844441175460815,XArbitraryZVertical,-0.4309490108858223,0.2144880991492168,0.2263813759924325,-0.8467758138344288,-0.1681290119886398,-0.8269466161727905,-0.5365555882453918,0,0,0,-1,-1,2979.704357916667,walking,2,2022-05-12T10:34:42.120+02:00,2022-05-11T22:15:20.957+02:00,464,0.8430042,0.7690485,2.39026,367.4152,0,0,2022-05-12T10:34:42.120+02:00,674037282.1201915,0,-0.2299995,100.9111,1,0.95
305,2022-05-12T10:34:43.006+02:00,1652344480.999603,53.22900305041413,10.39846745320633,37.61728,0.17,0.8,350.15625,21.67754851985433,3,5,-9999,2980.583037625,-3.987884521484375,-1.33648681640625,-1.186004638671875,2980.578040625,-0.2675620537768447,-0.3413312089710552,0.8795732645954503,-7.351029396057129,3.582448720932007,8.155667304992676,-4.055362224578857,-2.310801029205322,-2.758641004562378,XArbitraryZVertical,-0.3953144226512282,0.2082658135786695,0.1905985619967231,-0.8740847095608502,-0.2133911997079849,-0.7704669237136841,-0.6007037162780762,0,0,0,-1,-1,2979.704357916667,walking,2,2022-05-12T10:34:42.120+02:00,2022-05-11T22:15:20.957+02:00,464,0.8430042,0.7690485,2.39026,367.4152,0,0,2022-05-12T10:34:42.120+02:00,674037282.1201915,0,-0.2299995,100.9111,1,0.95
306,2022-05-12T10:34:43.014+02:00,1652344480.999603,53.22900305041413,10.39846745320633,37.61728,0.17,0.8,350.15625,21.67754851985433,3,5,-9999,2980.593032625,-3.591278076171875,-1.39410400390625,-0.5483856201171875,2980.588035625,-0.1837736427646783,-0.3675254913475737,0.7898036488657559,-5.365042686462402,3.619002342224121,8.693900108337402,-3.7218918800354,-0.8881580233573914,-1.232050776481628,XArbitraryZVertical,-0.3611680111196069,0.2026611168166553,0.1532723146263675,-0.897214538701082,-0.2529468834400177,-0.7102150321006775,-0.6569722890853882,0,0,0,-1,-1,2979.704357916667,walking,2,2022-05-12T10:34:42.120+02:00,2022-05-11T22:15:20.957+02:00,464,0.8430042,0.7690485,2.39026,367.4152,0,0,2022-05-12T10:34:42.120+02:00,674037282.1201915,0,-0.2299995,100.9111,1,0.95
307,2022-05-12T10:34:43.020+02:00,1652344480.999603,53.22900305041413,10.39846745320633,37.61728,0.17,0.8,350.15625,21.67754851985433,3,5,-9999,2980.603028625,-2.89453125,-1.354934692382812,-0.5437469482421875,2980.598030625,-0.09279162415135,-0.3933519128357494,0.7173699381528432,-3.279292345046997,3.57802414894104,8.984844207763672,-3.589536666870117,-0.7404980063438416,-0.0439400076866149,XArbitraryZVertical,-0.3354189248863096,0.1987446891852014,0.1111140180353779,-0.9141381279876044,-0.2888207137584686,-0.6574050784111023,-0.6959893703460693,0,0,0,-1,-1,2979.704357916667,walking,2,2022-05-12T10:34:42.120+02:00,2022-05-11T22:15:20.957+02:00,464,0.8430042,0.7690485,2.39026,367.4152,0,0,2022-05-12T10:34:42.120+02:00,674037282.1201915,0,-0.2299995,100.9111,1,0.95
308,2022-05-12T10:34:43.030+02:00,1652344480.999603,53.22900305041413,10.39846745320633,37.61728,0.17,0.8,350.15625,21.67754851985433,3,5,-9999,2980.613023625,-2.808197021484375,-1.419586181640625,-0.63226318359375,2980.608025625,-0.0005473890157052,-0.4184257754472409,0.6575959927900045,-2.131540536880493,3.088180065155029,8.820060729980469,-2.886998414993286,-0.7078754901885986,0.2125943303108215,XArbitraryZVertical,-0.3158107463377208,0.19665072356441,0.0673176376217904,-0.92577567038514,-0.3215896487236023,-0.6112159490585327,-0.7231841087341309,0,0,0,-1,-1,2979.704357916667,walking,2,2022-05-12T10:34:42.120+02:00,2022-05-11T22:15:20.957+02:00,464,0.8430042,0.7690485,2.39026,367.4152,0,0,2022-05-12T10:34:42.120+02:00,674037282.1201915,0,-0.2299995,100.9111,1,0.95
309,2022-05-12T10:34:43.040+02:00,1652344480.999603,53.22900305041413,10.39846745320633,37.61728,0.17,0.8,350.15625,21.67754851985433,3,5,-9999,2980.623018625,-2.856903076171875,-1.22503662109375,-0.6144866943359375,2980.618020625,0.0900400488711785,-0.4425319951476532,0.6072006778139081,-0.8745750188827515,2.829566478729248,8.721420288085938,-2.420549869537354,-0.8711097240447998,0.1501271724700928,XArbitraryZVertical,-0.3007990469615391,0.1960892502468808,0.0236446972564904,-0.9330112967764717,-0.3516823649406433,-0.5705707669258118,-0.7421378493309021,0,0,0,-1,-1,2979.704357916667,walking,2,2022-05-12T10:34:42.120+02:00,2022-05-11T22:15:20.957+02:00,464,0.8430042,0.7690485,2.39026,367.4152,0,0,2022-05-12T10:34:42.120+02:00,674037282.1201915,0,-0.2299995,100.9111,1,0.95
310,2022-05-12T10:34:43.050+02:00,1652344480.999603,53.22900305041413,10.39846745320633,37.61728,0.17,0.8,350.15625,21.67754851985433,3,5,-9999,2980.633013625,-2.641677856445312,-1.386703491210938,-0.4517669677734375,2980.628015625,0.18220551782324,-0.4652085810137964,0.5665758476736641,0.2485051900148392,2.838571310043335,8.608564376831055,-2.49185037612915,-0.7552609443664551,0.1029847860336304,XArbitraryZVertical,-0.2909939694749971,0.1956622904394692,-0.0208339437653477,-0.9362718563185696,-0.3785113096237183,-0.536746084690094,-0.7540775537490845,0,0,0,-1,-1,2979.704357916667,walking,2,2022-05-12T10:34:42.120+02:00,2022-05-11T22:15:20.957+02:00,464,0.8430042,0.7690485,2.39026,367.4152,0,0,2022-05-12T10:34:42.120+02:00,674037282.1201915,0,-0.2299995,100.9111,1,0.95
311,2022-05-12T10:34:43.061+02:00,1652344480.999603,53.22900305041413,10.39846745320633,37.61728,0.17,0.8,350.15625,21.67754851985433,3,5,-9999,2980.643008625,-2.441482543945312,-1.30084228515625,-0.5025787353515625,2980.638010625,0.2738030131873503,-0.4850064685823039,0.5340156304571234,1.100167274475098,2.750588893890381,8.242424011230469,-2.36781644821167,-0.7890859842300415,0.2336668968200684,XArbitraryZVertical,-0.2853405936983867,0.1945023438906688,-0.0650209865197903,-0.9362275306672572,-0.4013031423091888,-0.5089939832687378,-0.7614991664886475,0,0,0,-1,-1,2979.704357916667,walking,2,2022-05-12T10:34:42.120+02:00,2022-05-11T22:15:20.957+02:00,464,0.8430042,0.7690485,2.39026,367.4152,0,0,2022-05-12T10:34:42.120+02:00,674037282.1201915,0,-0.2299995,100.9111,1,0.95
312,2022-05-12T10:34:43.070+02:00,1652344480.999603,53.22900305041413,10.39846745320633,37.61728,0.17,0.8,350.15625,21.67754851985433,3,5,-9999,2980.653003625,-2.365005493164062,-1.27490234375,-0.68670654296875,2980.648005625,0.3630290299331937,-0.5028910480245407,0.5088456094689187,1.741682410240173,2.561681747436523,7.780025005340576,-2.099959135055542,-0.8869298100471497,0.3225128650665283,XArbitraryZVertical,-0.2832355513393593,0.1928334161373235,-0.1076223585714302,-0.9332793949178276,-0.4208998680114746,-0.4871694445610046,-0.7651857733726501,0,0,0,-1,-1,2979.704357916667,walking,2,2022-05-12T10:34:42.120+02:00,2022-05-11T22:15:20.957+02:00,464,0.8430042,0.7690485,2.39026,367.4152,0,0,2022-05-12T10:34:42.120+02:00,674037282.1201915,0,-0.2299995,100.9111,1,0.95
313,2022-05-12T10:34:43.080+02:00,1652344480.999603,53.22900305041413,10.39846745320633,37.61728,0.17,0.8,350.15625,21.67754851985433,3,5,-9999,2980.662998625,-2.213363647460938,-1.413604736328125,-0.8215789794921875,2980.658000625,0.4480940400939027,-0.5188020045594008,0.4878019954246751,1.821879506111145,2.373037815093994,7.320447444915771,-1.961329936981201,-0.7815430164337158,0.1743528842926025,XArbitraryZVertical,-0.2828789979074138,0.1908303003790686,-0.1479939738441707,-0.9282570535004668,-0.4380079209804535,-0.4686853885650635,-0.7671265602111816,0,0,0,-1,-1,2979.704357916667,walking,2,2022-05-12T10:34:42.120+02:00,2022-05-11T22:15:20.957+02:00,464,0.8430042,0.7690485,2.39026,367.4152,0,0,2022-05-12T10:34:42.120+02:00,674037282.1201915,0,-0.2299995,100.9111,1,0.95
314,2022-05-12T10:34:43.090+02:00,1652344480.999603,53.22900305041413,10.39846745320633,37.61728,0.17,0.8,350.15625,21.67754851985433,3,5,-9999,2980.672993625,-2.097808837890625,-1.399261474609375,-0.860870361328125,2980.667996625,0.526495215257665,-0.5330257427536939,0.4669666389074762,1.555225849151611,1.967973113059998,6.830025672912598,-1.848217248916626,-0.8999326229095459,-0.0001167058944702,XArbitraryZVertical,-0.2821837923420186,0.1893155854309864,-0.1853834508029157,-0.9220439383171588,-0.4537389874458313,-0.4501797556877136,-0.7690638303756714,0,0,0,-1,-1,2979.704357916667,walking,2,2022-05-12T10:34:42.120+02:00,2022-05-11T22:15:20.957+02:00,464,0.8430042,0.7690485,2.39026,367.4152,0,0,2022-05-12T10:34:42.120+02:00,674037282.1201915,0,-0.2299995,100.9111,1,0.95
315,2022-05-12T10:34:43.100+02:00,1652344480.999603,53.22900305041413,10.39846745320633,37.61728,0.17,0.8,350.15625,21.67754851985433,3,5,-9999,2980.682988625,-2.12249755859375,-1.325057983398438,-0.8877410888671875,2980.677991625,0.5976435292488654,-0.5464987753160794,0.4453459962500162,1.309666633605957,1.627758860588074,6.362655639648438,-1.663895487785339,-0.9983370304107666,-0.0757844448089599,XArbitraryZVertical,-0.2807048941415596,0.1889338103680391,-0.2195188237190098,-0.915052107714154,-0.4690085649490356,-0.4307701587677002,-0.7710175514221191,0,0,0,-1,-1,2979.704357916667,walking,2,2022-05-12T10:34:42.120+02:00,2022-05-11T22:15:20.957+02:00,464,0.8430042,0.7690485,2.39026,367.4152,0,0,2022-05-12T10:34:42.120+02:00,674037282.1201915,0,-0.2299995,100.9111,1,0.95
316,2022-05-12T10:34:43.110+02:00,1652344480.999603,53.22900305041413,10.39846745320633,37.61728,0.17,0.8,350.15625,21.67754851985433,3,5,-9999,2980.692983625,-2.1239013671875,-1.265411376953125,-0.906585693359375,2980.687986625,0.6623226389009156,-0.5583889081892145,0.4233809423320744,1.12764573097229,1.462518811225891,5.937339305877686,-1.621238470077515,-0.9483004212379456,-0.1037273406982422,XArbitraryZVertical,-0.2786052679452987,0.1891192008185673,-0.2508171440565686,-0.9075813553783336,-0.483040064573288,-0.4108452200889587,-0.7732260823249817,0,0,0,-1,-1,2979.704357916667,walking,2,2022-05-12T10:34:42.120+02:00,2022-05-11T22:15:20.957+02:00,464,0.8430042,0.7690485,2.39026,367.4152,0,0,2022-05-12T10:34:42.120+02:00,674037282.1201915,0,-0.2299995,100.9111,1,0.95
317,2022-05-12T10:34:43.120+02:00,1652344480.999603,53.22900305041413,10.39846745320633,37.61728,0.17,0.8,350.15625,21.67754851985433,3,5,-9999,2980.702978625,-2.045089721679688,-1.148483276367188,-0.91650390625,2980.697981625,0.721515847552558,-0.567854409880041,0.401857711803093,1.036121129989624,1.40536892414093,5.537750720977783,-1.637238144874573,-0.9096673130989076,-0.1208942532539368,XArbitraryZVertical,-0.2761474134514814,0.189195143301885,-0.2797248591082657,-0.8998344374147195,-0.494979202747345,-0.3911287486553192,-0.7758955955505371,0,0,0,-1,-1,2979.704357916667,walking,2,2022-05-12T10:34:42.120+02:00,2022-05-11T22:15:20.957+02:00,464,0.8430042,0.7690485,2.39026,367.4152,0,0,2022-05-12T10:34:42.120+02:00,674037282.1201915,0,-0.2299995,100.9111,1,0.95
318,2022-05-12T10:34:43.130+02:00,1652344480.999603,53.22900305041413,10.39846745320633,37.61728,0.17,0.8,350.15625,21.67754851985433,3,5,-9999,2980.712973625,-1.94610595703125,-1.07757568359375,-0.9281005859375,2980.707976625,0.7760172804445427,-0.5748236777576653,0.381450290839665,0.970519721508026,1.357942342758179,5.163619995117188,-1.587690591812134,-0.8379377126693726,-0.1317256689071655,XArbitraryZVertical,-0.2735863958102926,0.1888597442243516,-0.3065039958761417,-0.8919293003455006,-0.5046097040176392,-0.3722669184207916,-0.7789649367332458,0,0,0,-1,-1,2979.704357916667,walking,2,2022-05-12T10:34:42.120+02:00,2022-05-11T22:15:20.957+02:00,464,0.8430042,0.7690485,2.39026,367.4152,0,0,2022-05-12T10:34:42.120+02:00,674037282.1201915,0,-0.2299995,100.9111,1,0.95
319,2022-05-12T10:34:43.140+02:00,1652344480.999603,53.22900305041413,10.39846745320633,37.61728,0.17,0.8,350.15625,21.67754851985433,3,5,-9999,2980.722969625,-1.931793212890625,-0.967315673828125,-0.92218017578125,2980.717971625,0.8261005788547415,-0.5792768717799137,0.3618757457478792,0.8372410535812378,1.421373009681702,4.785746574401855,-1.476377129554749,-0.7514848709106445,-0.1443278789520264,XArbitraryZVertical,-0.2707252504590502,0.1880912115557864,-0.3313323927539962,-0.8840522606563008,-0.5119650363922119,-0.35402911901474,-0.7826590538024902,0,0,0,-1,-1,2979.704357916667,walking,2,2022-05-12T10:34:42.120+02:00,2022-05-11T22:15:20.957+02:00,464,0.8430042,0.7690485,2.39026,367.4152,0,0,2022-05-12T10:34:42.120+02:00,674037282.1201915,0,-0.2299995,100.9111,1,0.95
320,2022-05-12T10:34:43.150+02:00,1652344480.999603,53.22900305041413,10.39846745320633,37.61728,0.17,0.8,350.15625,21.67754851985433,3,5,-9999,2980.732964625,-1.86273193359375,-0.8408050537109375,-0.92608642578125,2980.727966625,0.8716729316641958,-0.5798053496061483,0.3434461512085352,0.7834402918815613,1.633777976036072,4.396476268768311,-1.419711351394653,-0.6993526220321655,-0.133322536945343,XArbitraryZVertical,-0.2673477317714752,0.1861945941249357,-0.3543209283127559,-0.8765349538812045,-0.5158659219741821,-0.3367339670658112,-0.7877135276794434,0,0,0,-1,-1,2979.704357916667,walking,2,2022-05-12T10:34:42.120+02:00,2022-05-11T22:15:20.957+02:00,464,0.8430042,0.7690485,2.39026,367.4152,0,0,2022-05-12T10:34:42.120+02:00,674037282.1201915,0,-0.2299995,100.9111,1,0.95
321,2022-05-12T10:34:43.160+02:00,1652344480.999603,53.22900305041413,10.39846745320633,37.61728,0.17,0.8,350.15625,21.67754851985433,3,5,-9999,2980.742959291667,-1.754730224609375,-0.7822418212890625,-0.9363555908203124,2980.737961291667,0.9136273731711676,-0.5763616067921861,0.3269633600002369,0.7905786037445068,1.805791020393372,4.045165538787842,-1.392921805381775,-0.5727059245109558,-0.1324671506881714,XArbitraryZVertical,-0.2637328646547952,0.1828365260455149,-0.3757493571714058,-0.8693838054989189,-0.5161051154136658,-0.3211687505245209,-0.79403156042099,0,0,0,-1,-1,2979.704357916667,walking,2,2022-05-12T10:34:42.120+02:00,2022-05-11T22:15:20.957+02:00,464,0.8430042,0.7690485,2.39026,367.4152,0,0,2022-05-12T10:34:42.120+02:00,674037282.1201915,0,-0.2299995,100.9111,1,0.95
322,2022-05-12T10:34:43.170+02:00,1652344480.999603,53.22900305041413,10.39846745320633,37.61728,0.17,0.8,350.15625,21.67754851985433,3,5,-9999,2980.752954291667,-1.66424560546875,-0.7231597900390625,-0.9394073486328124,2980.747956291667,0.9521813297241264,-0.5696619824576732,0.312260330173686,0.6938624382019043,1.962191343307495,3.713146686553955,-1.293756365776062,-0.5026950836181641,-0.1271665692329407,XArbitraryZVertical,-0.2598519323662679,0.1783148976657472,-0.3956576457947586,-0.8626330864398992,-0.5132654905319214,-0.3072104454040527,-0.8013615608215332,0,0,0,-1,-1,2979.704357916667,walking,2,2022-05-12T10:34:42.120+02:00,2022-05-11T22:15:20.957+02:00,464,0.8430042,0.7690485,2.39026,367.4152,0,0,2022-05-12T10:34:42.120+02:00,674037282.1201915,0,-0.2299995,100.9111,1,0.95
323,2022-05-12T10:34:43.180+02:00,1652344480.999603,53.22900305041413,10.39846745320633,37.61728,0.17,0.8,350.15625,21.67754851985433,3,5,-9999,2980.762949291667,-1.539962768554688,-0.679962158203125,-0.944183349609375,2980.757951291667,0.987218470202447,-0.5598644005208303,0.2985374335612092,0.5600974559783936,2.092464685440063,3.410654067993164,-1.200838804244995,-0.4566398561000824,-0.1256229877471924,XArbitraryZVertical,-0.2553176347188318,0.1728842373519845,-0.4141166694081561,-0.8564060559533997,-0.5075808167457581,-0.2941226363182068,-0.809847891330719,0,0,0,-1,-1,2979.704357916667,walking,2,2022-05-12T10:34:42.120+02:00,2022-05-11T22:15:20.957+02:00,464,0.8430042,0.7690485,2.39026,367.4152,0,0,2022-05-12T10:34:42.120+02:00,674037282.1201915,0,-0.2299995,100.9111,1,0.95
324,2022-05-12T10:34:43.190+02:00,1652344480.999603,53.22900305041413,10.39846745320633,37.61728,0.17,0.8,350.15625,21.67754851985433,3,5,-9999,2980.772944291667,-1.429000854492188,-0.634185791015625,-0.93524169921875,2980.767946291667,1.018860528185858,-0.5478894034837137,0.2853951756273898,0.3935939967632294,2.115314245223999,3.133569002151489,-1.108001232147217,-0.4207944571971893,-0.1258495450019836,XArbitraryZVertical,-0.2501178322544307,0.1670105794628499,-0.4311349510182407,-0.8506887661400226,-0.4998171329498291,-0.2815366685390472,-0.819097101688385,0,0,0,-1,-1,2979.704357916667,walking,2,2022-05-12T10:34:42.120+02:00,2022-05-11T22:15:20.957+02:00,464,0.8430042,0.7690485,2.39026,367.4152,0,0,2022-05-12T10:34:42.120+02:00,674037282.1201915,0,-0.2299995,100.9111,1,0.95
325,2022-05-12T10:34:43.200+02:00,1652344480.999603,53.22900305041413,10.39846745320633,37.61728,0.17,0.8,350.15625,21.67754851985433,3,5,-9999,2980.782939291667,-1.378753662109375,-0.5350341796875,-0.928131103515625,2980.777941291667,1.047227413273119,-0.5345502276769241,0.2724245293230662,0.1896997392177582,2.126095771789551,2.880063056945801,-0.9846602082252502,-0.3925838470458984,-0.1098960638046265,XArbitraryZVertical,-0.2442547780677844,0.1611138088395452,-0.4467344841553835,-0.8454645863250365,-0.4906660914421082,-0.2690673470497131,-0.8287639021873474,0,0,0,-1,-1,2979.704357916667,walking,2,2022-05-12T10:34:42.120+02:00,2022-05-11T22:15:20.957+02:00,464,0.8430042,0.7690485,2.39026,367.4152,0,0,2022-05-12T10:34:42.120+02:00,674037282.1201915,0,-0.2299995,100.9111,1,0.95
326,2022-05-12T10:34:43.210+02:00,1652344480.999603,53.22900305041413,10.39846745320633,37.61728,0.17,0.8,350.15625,21.67754851985433,3,5,-9999,2980.792934291667,-1.339752197265625,-0.4571533203125,-0.930084228515625,2980.787937291667,1.072311908884088,-0.5196483992256664,0.2592113896317268,-0.027143832296133,2.164195537567139,2.63019323348999,-0.9179633259773254,-0.3287642300128937,-0.0930108428001403,XArbitraryZVertical,-0.2375165332555229,0.1552023238620556,-0.461003695876272,-0.8408173764116083,-0.4799856245517731,-0.2563183605670929,-0.8389962911605835,0,0,0,-1,-1,2979.704357916667,walking,2,2022-05-12T10:34:42.120+02:00,2022-05-11T22:15:20.957+02:00,464,0.8430042,0.7690485,2.39026,367.4152,0,0,2022-05-12T10:34:42.120+02:00,674037282.1201915,0,-0.2299995,100.9111,1,0.95
327,2022-05-12T10:34:43.219+02:00,1652344480.999603,53.22900305041413,10.39846745320633,37.61728,0.17,0.8,350.15625,21.67754851985433,3,5,-9999,2980.802929291667,-1.3157958984375,-0.3635711669921875,-0.9474639892578124,2980.797932291667,1.094373410131851,-0.5036176859725079,0.2461030125508059,-0.1491296589374542,2.132331848144531,2.383481025695801,-0.8918373584747314,-0.2507886290550232,-0.0783736109733581,XArbitraryZVertical,-0.2301667162307241,0.1493217406337671,-0.4739521216915272,-0.8367173337425197,-0.4680561721324921,-0.2436262518167496,-0.8494526147842407,0,0,0,-1,-1,2979.704357916667,walking,2,2022-05-12T10:34:42.120+02:00,2022-05-11T22:15:20.957+02:00,464,0.8430042,0.7690485,2.39026,367.4152,0,0,2022-05-12T10:34:42.120+02:00,674037282.1201915,0,-0.2299995,100.9111,1,0.95
328,2022-05-12T10:34:43.230+02:00,1652344480.999603,53.22900305041413,10.39846745320633,37.61728,0.17,0.8,350.15625,21.67754851985433,3,5,-9999,2980.812924291667,-1.32281494140625,-0.3015289306640625,-0.9297332763671876,2980.807927291667,1.114108730091408,-0.487172479194999,0.2336440023202731,-0.2270931005477905,2.107318162918091,2.180097103118896,-0.8678779006004333,-0.1813478767871857,-0.0806728601455688,XArbitraryZVertical,-0.2226566705018461,0.1435230614163517,-0.48572221001058,-0.8330060828174646,-0.4554097354412079,-0.2315240502357483,-0.8596502542495728,0,0,0,-1,-1,2979.704357916667,walking,2,2022-05-12T10:34:42.120+02:00,2022-05-11T22:15:20.957+02:00,464,0.8430042,0.7690485,2.39026,367.4152,0,0,2022-05-12T10:34:42.120+02:00,674037282.1201915,0,-0.2299995,100.9111,1,0.95
329,2022-05-12T10:34:43.240+02:00,1652344480.999603,53.22900305041413,10.39846745320633,37.61728,0.17,0.8,350.15625,21.67754851985433,3,5,-9999,2980.822919291667,-1.300094604492188,-0.2929840087890625,-0.920989990234375,2980.817922291667,1.132041930267422,-0.4699258494257216,0.2214325152768224,-0.3288684487342834,2.158817529678345,2.04764461517334,-0.8768696784973145,-0.1033855378627777,-0.0721692442893981,XArbitraryZVertical,-0.2147806052043285,0.1376702621803423,-0.4966380284711407,-0.829618581088164,-0.4417640566825867,-0.2196273803710938,-0.8698323965072632,0,0,0,-1,-1,2979.704357916667,walking,2,2022-05-12T10:34:42.120+02:00,2022-05-11T22:15:20.957+02:00,464,0.8430042,0.7690485,2.39026,367.4152,0,0,2022-05-12T10:34:42.120+02:00,674037282.1201915,0,-0.2299995,100.9111,1,0.95
330,2022-05-12T10:34:43.250+02:00,1652344480.999603,53.22900305041413,10.39846745320633,37.61728,0.17,0.8,350.15625,21.67754851985433,3,5,-9999,2980.832914291667,-1.254714965820312,-0.2414093017578125,-0.9200592041015624,2980.827917291667,1.148779701634482,-0.4520003432778946,0.2092591267938598,-0.4007426202297211,2.135247230529785,1.98145580291748,-0.8894733190536499,-0.0877661406993866,-0.041359543800354,XArbitraryZVertical,-0.206531771342235,0.1317918043418936,-0.5069633217410641,-0.8264163556970738,-0.427237868309021,-0.2077352404594421,-0.8799511194229126,0,0,0,-1,-1,2979.704357916667,walking,2,2022-05-12T10:34:42.120+02:00,2022-05-11T22:15:20.957+02:00,464,0.8430042,0.7690485,2.39026,367.4152,0,0,2022-05-12T10:34:42.120+02:00,674037282.1201915,0,-0.2299995,100.9111,1,0.95
331,2022-05-12T10:34:43.260+02:00,1652344480.999603,53.22900305041413,10.39846745320633,37.61728,0.17,0.8,350.15625,21.67754851985433,3,5,-9999,2980.842909291667,-1.235031127929688,-0.2058258056640625,-0.9117584228515624,2980.837912291667,1.165061202499423,-0.4340129235459523,0.1969526749353475,-0.451101154088974,2.119849681854248,1.947370529174805,-0.8623334765434265,-0.0791743695735931,-0.036905825138092,XArbitraryZVertical,-0.1980515158210643,0.1261066394479331,-0.5169561389626071,-0.8231823751289395,-0.4123854339122772,-0.1956818252801895,-0.8897454142570496,0,0,0,-1,-1,2979.704357916667,walking,2,2022-05-12T10:34:42.120+02:00,2022-05-11T22:15:20.957+02:00,464,0.8430042,0.7690485,2.39026,367.4152,0,0,2022-05-12T10:34:42.120+02:00,674037282.1201915,0,-0.2299995,100.9111,1,0.95
332,2022-05-12T10:34:43.269+02:00,1652344480.999603,53.22900305041413,10.39846745320633,37.61728,0.17,0.8,350.15625,21.67754851985433,3,5,-9999,2980.852905291667,-1.195602416992188,-0.1659393310546875,-0.9147491455078124,2980.847907291667,1.181115274697127,-0.4158834539140838,0.1849116869938415,-0.4429078698158264,2.114727258682251,1.918123960494995,-0.8494858741760254,-0.0363089740276336,-0.0139970779418945,XArbitraryZVertical,-0.1894986480882213,0.1204473461459419,-0.5266703610855952,-0.8198787285912199,-0.3971110880374908,-0.183859720826149,-0.8991653919219971,0,0,0,-1,-1,2979.704357916667,walking,2,2022-05-12T10:34:42.120+02:00,2022-05-11T22:15:20.957+02:00,464,0.8430042,0.7690485,2.39026,367.4152,0,0,2022-05-12T10:34:42.120+02:00,674037282.1201915,0,-0.2299995,100.9111,1,0.95
