,loggingTime(txt),locationTimestamp_since1970(s),locationLatitude(WGS84),locationLongitude(WGS84),locationAltitude(m),locationSpeed(m/s),locationSpeedAccuracy(m/s),locationCourse(°),locationCourseAccuracy(°),locationVerticalAccuracy(m),locationHorizontalAccuracy(m),locationFloor(Z),accelerometerTimestamp_sinceReboot(s),accelerometerAccelerationX(G),accelerometerAccelerationY(G),accelerometerAccelerationZ(G),motionTimestamp_sinceReboot(s),motionYaw(rad),motionRoll(rad),motionPitch(rad),motionRotationRateX(rad/s),motionRotationRateY(rad/s),motionRotationRateZ(rad/s),motionUserAccelerationX(G),motionUserAccelerationY(G),motionUserAccelerationZ(G),motionAttitudeReferenceFrame(txt),motionQuaternionX(R),motionQuaternionY(R),motionQuaternionZ(R),motionQuaternionW(R),motionGravityX(G),motionGravityY(G),motionGravityZ(G),motionMagneticFieldX(µT),motionMagneticFieldY(µT),motionMagneticFieldZ(µT),motionHeading(°),motionMagneticFieldCalibrationAccuracy(Z),activityTimestamp_sinceReboot(s),activity(txt),activityActivityConfidence(Z),activityActivityStartDate(txt),pedometerStartDate(txt),pedometerNumberofSteps(N),pedometerAverageActivePace(s/m),pedometerCurrentPace(s/m),pedometerCurrentCadence(steps/s),pedometerDistance(m),pedometerFloorAscended(N),pedometerFloorDescended(N),pedometerEndDate(txt),altimeterTimestamp_sinceReboot(s),altimeterReset(bool),altimeterRelativeAltitude(m),altimeterPressure(kPa),batteryState(N),batteryLevel(R)
244,2022-06-02T10:52:48.006+02:00,1654159964.512815,53.22877926302944,10.39812440143782,42.63968,-1.0,-1.0,-1.0,-1.0,37.92177963256836,40,-9999,3112.2835185,1.982742309570312,-0.8203582763671875,-3.408737182617188,3112.2735245,-1.953145272021713,0.2303318864666424,0.4689854392501222,5.299431324005127,2.110813140869141,-1.994694709777832,1.876381993293762,-0.9086599349975586,-3.100051641464233,XArbitraryZVertical,0.2218308774176662,-0.1286714178454223,-0.7856201946149171,0.5630590666807322,0.2036504149436951,-0.4519815146923065,-0.8684694766998291,0,0,0,-1,-1,3111.2157105,unknown,2,2022-06-02T10:52:46.937+02:00,2022-06-02T10:17:13.754+02:00,516,1.513865,0,0,401.0887,0,0,2022-06-02T10:52:46.937+02:00,675852766.9371569,0,4.832031,101.3262,1,0.79
245,2022-06-02T10:52:48.016+02:00,1654159964.512815,53.22877926302944,10.39812440143782,42.63968,-1.0,-1.0,-1.0,-1.0,37.92177963256836,40,-9999,3112.2935125,1.62530517578125,-0.359649658203125,-3.060516357421875,3112.2835185,-1.994809662248881,0.2799881987427137,0.5184905809843315,6.087832450866699,3.907871961593628,-2.609148740768433,1.832089185714722,-0.6033682227134705,-2.782061100006104,XArbitraryZVertical,0.2510093838134504,-0.1400777831806037,-0.7846452520476189,0.5492761473049179,0.2400238662958145,-0.4955696761608124,-0.8347449898719788,0,0,0,-1,-1,3111.2157105,unknown,2,2022-06-02T10:52:46.937+02:00,2022-06-02T10:17:13.754+02:00,516,1.513865,0,0,401.0887,0,0,2022-06-02T10:52:46.937+02:00,675852766.9371569,0,4.832031,101.3262,1,0.79
246,2022-06-02T10:52:48.026+02:00,1654159964.512815,53.22877926302944,10.39812440143782,42.63968,-1.0,-1.0,-1.0,-1.0,37.92177963256836,40,-9999,3112.3035075,1.142074584960938,-0.0518798828125,-2.798187255859375,3112.2935125,-2.049433273304277,0.3576146230758862,0.5693279911855705,6.461028575897217,5.993259906768799,-3.086602210998535,1.530597686767578,-0.0089379549026489,-2.423257350921631,XArbitraryZVertical,0.289397033548156,-0.1475153429954281,-0.7811592961111716,0.5331778893328051,0.2948265373706818,-0.5390661358833313,-0.7889771461486816,0,0,0,-1,-1,3111.2157105,unknown,2,2022-06-02T10:52:46.937+02:00,2022-06-02T10:17:13.754+02:00,516,1.513865,0,0,401.0887,0,0,2022-06-02T10:52:46.937+02:00,675852766.9371569,0,4.832031,101.3262,1,0.79
247,2022-06-02T10:52:48.036+02:00,1654159964.512815,53.22877926302944,10.39812440143782,42.63968,-1.0,-1.0,-1.0,-1.0,37.92177963256836,40,-9999,3112.3135015,0.5559539794921875,0.318450927734375,-2.188919067382812,3112.3035075,-2.117586083415906,0.4671138127374583,0.615770700416901,6.53231954574585,8.303062438964844,-3.580546140670776,1.036176204681396,0.358929455280304,-2.221166133880615,XArbitraryZVertical,0.336710900683159,-0.1489544934289272,-0.7738539110910703,0.5153527895521087,0.3676018714904785,-0.5775878429412842,-0.7288766503334045,0,0,0,-1,-1,3111.2157105,unknown,2,2022-06-02T10:52:46.937+02:00,2022-06-02T10:17:13.754+02:00,516,1.513865,0,0,401.0887,0,0,2022-06-02T10:52:46.937+02:00,675852766.9371569,0,4.832031,101.3262,1,0.79
248,2022-06-02T10:52:48.046+02:00,1654159964.512815,53.22877926302944,10.39812440143782,42.63968,-1.0,-1.0,-1.0,-1.0,37.92177963256836,40,-9999,3112.3234955,0.238006591796875,0.5323638916015625,-1.60784912109375,3112.3135015,-2.198543594169623,0.6095650778617486,0.6512054052565593,6.218478202819824,10.57172203063965,-3.998827695846558,0.382282555103302,0.7506768703460693,-1.871634483337402,XArbitraryZVertical,0.3919000080222193,-0.1426894357220052,-0.7615636312591576,0.4960594435444334,0.4553487002849579,-0.6061455607414246,-0.6521081924438477,0,0,0,-1,-1,3111.2157105,unknown,2,2022-06-02T10:52:46.937+02:00,2022-06-02T10:17:13.754+02:00,516,1.513865,0,0,401.0887,0,0,2022-06-02T10:52:46.937+02:00,675852766.9371569,0,4.832031,101.3262,1,0.79
249,2022-06-02T10:52:48.056+02:00,1654159964.512815,53.22877926302944,10.39812440143782,42.63968,-1.0,-1.0,-1.0,-1.0,37.92177963256836,40,-9999,3112.3334895,-0.1419525146484375,0.8368988037109375,-1.066635131835938,3112.3234955,-2.287039210429153,0.7809044045722869,0.6700437351391866,5.598174095153809,12.8210334777832,-4.354299068450928,-0.1839324235916138,1.067431449890137,-1.327596545219421,XArbitraryZVertical,0.4531250568910148,-0.1277575784319982,-0.7429535282107794,0.4757896006097223,0.5517302751541138,-0.6210202574729919,-0.5567113757133484,0,0,0,-1,-1,3111.2157105,unknown,2,2022-06-02T10:52:46.937+02:00,2022-06-02T10:17:13.754+02:00,516,1.513865,0,0,401.0887,0,0,2022-06-02T10:52:46.937+02:00,675852766.9371569,0,4.832031,101.3262,1,0.79
250,2022-06-02T10:52:48.066+02:00,1654159964.512815,53.22877926302944,10.39812440143782,42.63968,-1.0,-1.0,-1.0,-1.0,37.92177963256836,40,-9999,3112.3434835,-0.5233612060546875,1.2340087890625,-0.0838623046875,3112.3334895,-2.372891274001423,0.9733748445563012,0.6673919525241052,4.305810928344727,15.02791786193848,-4.721269607543945,-0.5667043924331665,1.263287901878357,-0.9219658970832824,XArbitraryZVertical,0.5182135317866242,-0.1026901695907833,-0.7167613299505623,0.4551511291187381,0.649391770362854,-0.6189396381378174,-0.4418189227581024,0,0,0,-1,-1,3111.2157105,unknown,2,2022-06-02T10:52:46.937+02:00,2022-06-02T10:17:13.754+02:00,516,1.513865,0,0,401.0887,0,0,2022-06-02T10:52:46.937+02:00,675852766.9371569,0,4.832031,101.3262,1,0.79
251,2022-06-02T10:52:48.076+02:00,1654159964.512815,53.22877926302944,10.39812440143782,42.63968,-1.0,-1.0,-1.0,-1.0,37.92177963256836,40,-9999,3112.3534785,-0.6772918701171875,1.455032348632812,1.22479248046875,3112.3434835,-2.437666529154305,1.173576065097028,0.6411818114979279,2.141402244567871,17.09652328491211,-4.78972864151001,-1.11162805557251,1.647261142730713,-0.3208367228507996,XArbitraryZVertical,0.5837303008183802,-0.0651733625067617,-0.681697392861599,0.4362339309456101,0.7389931678771973,-0.5981429219245911,-0.3100227415561676,0,0,0,-1,-1,3111.2157105,unknown,2,2022-06-02T10:52:46.937+02:00,2022-06-02T10:17:13.754+02:00,516,1.513865,0,0,401.0887,0,0,2022-06-02T10:52:46.937+02:00,675852766.9371569,0,4.832031,101.3262,1,0.79
252,2022-06-02T10:52:48.086+02:00,1654159964.512815,53.22877926302944,10.39812440143782,42.63968,-1.0,-1.0,-1.0,-1.0,37.92177963256836,40,-9999,3112.3634725,-0.92877197265625,1.385086059570312,2.656875610351562,3112.3534785,-2.460973224597782,1.368334412713698,0.5991753535585295,-1.200221061706543,19.13878631591797,-4.384817123413086,-1.407062768936157,1.944836378097534,0.6959146857261658,XArbitraryZVertical,0.6455822981106838,-0.0140295711398541,-0.6357064591259551,0.4229703130163329,0.8089334964752197,-0.5639616847038269,-0.1660533398389816,0,0,0,-1,-1,3111.2157105,unknown,2,2022-06-02T10:52:46.937+02:00,2022-06-02T10:17:13.754+02:00,516,1.513865,0,0,401.0887,0,0,2022-06-02T10:52:46.937+02:00,675852766.9371569,0,4.832031,101.3262,1,0.79
253,2022-06-02T10:52:48.096+02:00,1654159964.512815,53.22877926302944,10.39812440143782,42.63968,-1.0,-1.0,-1.0,-1.0,37.92177963256836,40,-9999,3112.3734665,-0.93487548828125,1.109359741210938,3.942062377929688,3112.3634725,-2.42653292734346,1.550284210264694,0.5573495462828055,-5.573647499084473,20.94967651367188,-3.30426287651062,-1.646561861038208,1.969277024269104,1.974544644355774,XArbitraryZVertical,0.6990392186608829,0.0513894630726291,-0.5759653891629605,0.4206744148405453,0.8484812378883362,-0.5289387106895447,-0.0174065884202718,0,0,0,-1,-1,3111.2157105,unknown,2,2022-06-02T10:52:46.937+02:00,2022-06-02T10:17:13.754+02:00,516,1.513865,0,0,401.0887,0,0,2022-06-02T10:52:46.937+02:00,675852766.9371569,0,4.832031,101.3262,1,0.79
254,2022-06-02T10:52:48.105+02:00,1654159964.512815,53.22877926302944,10.39812440143782,42.63968,-1.0,-1.0,-1.0,-1.0,37.92177963256836,40,-9999,3112.3834605,-0.7871246337890625,0.326416015625,5.076950073242188,3112.3734665,-2.333947290921174,1.719074203104983,0.5374513719110566,-10.01488399505615,22.40218162536621,-1.737578153610229,-1.840267062187195,1.802475810050964,3.180649280548096,XArbitraryZVertical,0.7397095995199015,0.1276054062060419,-0.4997064430142769,0.4322499204423288,0.8495901823043823,-0.5119483470916748,0.1269068568944931,0,0,0,-1,-1,3111.2157105,unknown,2,2022-06-02T10:52:46.937+02:00,2022-06-02T10:17:13.754+02:00,516,1.513865,0,0,401.0887,0,0,2022-06-02T10:52:46.937+02:00,675852766.9371569,0,4.832031,101.3262,1,0.79
255,2022-06-02T10:52:48.116+02:00,1654159964.512815,53.22877926302944,10.39812440143782,42.63968,-1.0,-1.0,-1.0,-1.0,37.92177963256836,40,-9999,3112.3934545,-0.6974334716796875,-1.021713256835938,5.690704345703125,3112.3834605,-2.196117488555241,1.876292525169615,0.5569065604840541,-13.77473545074463,23.20409965515137,0.1789844632148743,-1.646243214607239,1.322584390640259,4.283346652984619,XArbitraryZVertical,0.7643599518119,0.2083585568597829,-0.4052248719368269,0.4562162535413253,0.8095884323120117,-0.5285627245903015,0.2553188502788544,0,0,0,-1,-1,3111.2157105,unknown,2,2022-06-02T10:52:46.937+02:00,2022-06-02T10:17:13.754+02:00,516,1.513865,0,0,401.0887,0,0,2022-06-02T10:52:46.937+02:00,675852766.9371569,0,4.832031,101.3262,1,0.79
256,2022-06-02T10:52:48.125+02:00,1654159964.512815,53.22877926302944,10.39812440143782,42.63968,-1.0,-1.0,-1.0,-1.0,37.92177963256836,40,-9999,3112.4034485,-0.92333984375,-2.626907348632812,6.48291015625,3112.3934545,-2.043122634443308,2.022573738582902,0.6220492928789209,-14.14659118652344,22.89370536804199,2.531710386276245,-1.487910985946655,0.2972861528396606,5.116950035095215,XArbitraryZVertical,0.7729799105097032,0.2826611754047831,-0.2955867667380928,0.4850084784118284,0.7311514019966125,-0.5827018022537231,0.3547905683517456,0,0,0,-1,-1,3111.2157105,unknown,2,2022-06-02T10:52:46.937+02:00,2022-06-02T10:17:13.754+02:00,516,1.513865,0,0,401.0887,0,0,2022-06-02T10:52:46.937+02:00,675852766.9371569,0,4.832031,101.3262,1,0.79
257,2022-06-02T10:52:48.135+02:00,1654159964.512815,53.22877926302944,10.39812440143782,42.63968,-1.0,-1.0,-1.0,-1.0,37.92177963256836,40,-9999,3112.4134435,-0.64410400390625,-4.376327514648438,7.195114135742188,3112.4034485,-1.923991246137383,2.173577611287659,0.7143890772055191,-11.30318260192871,21.92395401000977,3.794261693954468,-1.399507403373718,-1.170405387878418,5.568097591400146,XArbitraryZVertical,0.7733239417037276,0.3407758280838644,-0.1806422420382624,0.503199867461929,0.6223466396331787,-0.6551560163497925,0.4283161759376526,0,0,0,-1,-1,3111.2157105,unknown,2,2022-06-02T10:52:46.937+02:00,2022-06-02T10:17:13.754+02:00,516,1.513865,0,0,401.0887,0,0,2022-06-02T10:52:46.937+02:00,675852766.9371569,0,4.832031,101.3262,1,0.79
258,2022-06-02T10:52:48.145+02:00,1654159964.512815,53.22877926302944,10.39812440143782,42.63968,-1.0,-1.0,-1.0,-1.0,37.92177963256836,40,-9999,3112.4234375,-0.883087158203125,-5.082687377929688,8.839263916015625,3112.4134435,-1.859885685492346,2.343523566755113,0.8012970033533312,-6.912131309509277,20.91597938537598,3.713949203491211,-1.327100396156311,-2.810198307037354,6.37648344039917,XArbitraryZVertical,0.7707166735996916,0.3858146757717005,-0.0719129841277813,0.5019673986720874,0.4981818497180939,-0.7182590961456299,0.485714316368103,0,0,0,-1,-1,3111.2157105,unknown,2,2022-06-02T10:52:46.937+02:00,2022-06-02T10:17:13.754+02:00,516,1.513865,0,0,401.0887,0,0,2022-06-02T10:52:46.937+02:00,675852766.9371569,0,4.832031,101.3262,1,0.79
259,2022-06-02T10:52:48.156+02:00,1654159964.512815,53.22877926302944,10.39812440143782,42.63968,-1.0,-1.0,-1.0,-1.0,37.92177963256836,40,-9999,3112.4334315,-0.893951416015625,-4.731735229492188,12.08226013183594,3112.4234375,-1.841967312048651,2.534709456450122,0.8533218393069005,-2.627512454986572,19.87360954284668,0.8102216124534607,-1.050888180732727,-4.089228630065918,7.278191089630127,XArbitraryZVertical,0.7665223801273156,0.4271787798328459,0.0223646465850286,0.4790213750975872,0.3749695420265198,-0.7534686326980591,0.5400765538215637,0,0,0,-1,-1,3111.2157105,unknown,2,2022-06-02T10:52:46.937+02:00,2022-06-02T10:17:13.754+02:00,516,1.513865,0,0,401.0887,0,0,2022-06-02T10:52:46.937+02:00,675852766.9371569,0,4.832031,101.3262,1,0.79
260,2022-06-02T10:52:48.166+02:00,1654159964.512815,53.22877926302944,10.39812440143782,42.63968,-1.0,-1.0,-1.0,-1.0,37.92177963256836,40,-9999,3112.4434255,-0.223724365234375,-3.301361083984375,15.47491455078125,3112.4334315,-1.80551437678757,2.697077709410567,0.8613584139943463,-1.452658534049988,17.9041633605957,-4.413521289825439,-1.292447328567505,-4.309707641601562,9.704560279846191,XArbitraryZVertical,0.7528097072657634,0.4767904693770455,0.0950055577636442,0.4437593246894102,0.2801182270050049,-0.7587281465530396,0.5881032347679138,0,0,0,-1,-1,3111.2157105,unknown,2,2022-06-02T10:52:46.937+02:00,2022-06-02T10:17:13.754+02:00,516,1.513865,0,0,401.0887,0,0,2022-06-02T10:52:46.937+02:00,675852766.9371569,0,4.832031,101.3262,1,0.79
261,2022-06-02T10:52:48.175+02:00,1654159964.512815,53.22877926302944,10.39812440143782,42.63968,-1.0,-1.0,-1.0,-1.0,37.92177963256836,40,-9999,3112.4534195,-0.3452301025390625,-1.334243774414062,17.25852966308594,3112.4434255,-1.677267600211026,2.764356342462193,0.8562644350895603,-4.737773895263672,14.79832077026367,-11.67009162902832,-0.7904555797576904,-3.375733852386475,13.28793525695801,XArbitraryZVertical,0.7166415716693465,0.5394623542339204,0.1457476203953949,0.4173281129804329,0.2413680106401443,-0.7554000616073608,0.6091895699501038,0,0,0,-1,-1,3111.2157105,unknown,2,2022-06-02T10:52:46.937+02:00,2022-06-02T10:17:13.754+02:00,516,1.513865,0,0,401.0887,0,0,2022-06-02T10:52:46.937+02:00,675852766.9371569,0,4.832031,101.3262,1,0.79
262,2022-06-02T10:52:48.185+02:00,1654159964.512815,53.22877926302944,10.39812440143782,42.63968,-1.0,-1.0,-1.0,-1.0,37.92177963256836,40,-9999,3112.4634145,-2.551101684570312,0.6695404052734375,18.1806640625,3112.4534195,-1.411471380124391,2.689583463385441,0.866178313205304,-10.93203830718994,10.41629505157471,-19.24910545349121,-0.3796578347682953,-1.555218696594238,16.02688217163086,XArbitraryZVertical,0.6453201493538792,0.6122967625855523,0.1793854603206644,0.4200897520649206,0.2829170823097229,-0.7618590593338013,0.5826908349990845,0,0,0,-1,-1,3111.2157105,unknown,2,2022-06-02T10:52:46.937+02:00,2022-06-02T10:17:13.754+02:00,516,1.513865,0,0,401.0887,0,0,2022-06-02T10:52:46.937+02:00,675852766.9371569,0,4.832031,101.3262,1,0.79
263,2022-06-02T10:52:48.196+02:00,1654159964.512815,53.22877926302944,10.39812440143782,42.63968,-1.0,-1.0,-1.0,-1.0,37.92177963256836,40,-9999,3112.4734085,-7.111282348632812,2.052261352539062,16.990478515625,3112.4634145,-1.001152797914469,2.446179356423839,0.8646146804718338,-17.31672096252441,3.07503342628479,-25.48201751708984,-1.575288772583008,0.3963279724121094,17.23346138000488,XArbitraryZVertical,0.5349440027347347,0.6804093194405729,0.1970778767761746,0.460476258157101,0.4157734215259552,-0.7608452439308167,0.4982438683509827,0,0,0,-1,-1,3111.2157105,unknown,2,2022-06-02T10:52:46.937+02:00,2022-06-02T10:17:13.754+02:00,516,1.513865,0,0,401.0887,0,0,2022-06-02T10:52:46.937+02:00,675852766.9371569,0,4.832031,101.3262,1,0.79
264,2022-06-02T10:52:48.205+02:00,1654159964.512815,53.22877926302944,10.39812440143782,42.63968,-1.0,-1.0,-1.0,-1.0,37.92177963256836,40,-9999,3112.4834025,-15.56034851074219,1.581329345703125,14.27655029296875,3112.4734085,-0.5206829666403524,2.097636779254623,0.7765748255648955,-20.19330406188965,-1.207883834838867,-30.16966438293457,-5.035720825195312,2.292652606964111,17.74828910827637,XArbitraryZVertical,0.3889312528567129,0.726678957928295,0.1983380992049003,0.5304074257212027,0.6165920495986938,-0.7008402943611145,0.3586596548557281,0,0,0,-1,-1,3111.2157105,unknown,2,2022-06-02T10:52:46.937+02:00,2022-06-02T10:17:13.754+02:00,516,1.513865,0,0,401.0887,0,0,2022-06-02T10:52:46.937+02:00,675852766.9371569,0,4.832031,101.3262,1,0.79
265,2022-06-02T10:52:48.215+02:00,1654159964.512815,53.22877926302944,10.39812440143782,42.63968,-1.0,-1.0,-1.0,-1.0,37.92177963256836,40,-9999,3112.4933965,-25.171875,3.0933837890625,15.28675842285156,3112.4834025,-0.1491512046789738,1.835886625005033,0.5424770187697273,-15.53885173797607,-5.285714149475098,-34.78828048706055,-11.71685123443604,2.405663251876831,15.18470573425293,XArbitraryZVertical,0.2193207224189501,0.751058927173829,0.1686310078235406,0.5994766982421859,0.8265160918235779,-0.516258955001831,0.2243821769952774,0,0,0,-1,-1,3111.2157105,unknown,2,2022-06-02T10:52:46.937+02:00,2022-06-02T10:17:13.754+02:00,516,1.513865,0,0,401.0887,0,0,2022-06-02T10:52:46.937+02:00,675852766.9371569,0,4.832031,101.3262,1,0.79
266,2022-06-02T10:52:48.225+02:00,1654159964.512815,53.22877926302944,10.39812440143782,42.63968,-1.0,-1.0,-1.0,-1.0,37.92177963256836,40,-9999,3112.5033905,-32.115478515625,4.26422119140625,17.85942077636719,3112.4933965,0.0608412752372713,1.644811053446243,0.2224084707541108,-12.22981834411621,-16.42761039733887,-34.92649078369141,-21.49276351928711,2.327589273452759,14.42070293426514,XArbitraryZVertical,0.0533286043327437,0.7302184202175143,0.1018523210326172,0.6734709009145785,0.972698450088501,-0.2205794155597687,0.0721257627010345,0,0,0,-1,-1,3111.2157105,unknown,2,2022-06-02T10:52:46.937+02:00,2022-06-02T10:17:13.754+02:00,516,1.513865,0,0,401.0887,0,0,2022-06-02T10:52:46.937+02:00,675852766.9371569,0,4.832031,101.3262,1,0.79
267,2022-06-02T10:52:48.236+02:00,1654159964.512815,53.22877926302944,10.39812440143782,42.63968,-1.0,-1.0,-1.0,-1.0,37.92177963256836,40,-9999,3112.5133855,-32.04409790039062,8.124725341796875,14.50917053222656,3112.5033905,0.1709418036595069,1.447107004038469,-0.1287452544725872,-9.881509780883787,-21.64155960083008,-34.93064880371094,-30.80896186828613,3.638532161712646,16.69728851318359,XArbitraryZVertical,-0.1044355321715567,0.6541534039016685,0.0214132207811791,0.7488109761142149,0.9841470718383788,0.1283898800611496,-0.1223530843853951,0,0,0,-1,-1,3111.2157105,unknown,2,2022-06-02T10:52:46.937+02:00,2022-06-02T10:17:13.754+02:00,516,1.513865,0,0,401.0887,0,0,2022-06-02T10:52:46.937+02:00,675852766.9371569,0,4.832031,101.3262,1,0.79
268,2022-06-02T10:52:48.245+02:00,1654159964.512815,53.22877926302944,10.39812440143782,42.63968,-1.0,-1.0,-1.0,-1.0,37.92177963256836,40,-9999,3112.5233795,-31.97938537597656,21.93685913085938,15.49678039550781,3112.5133855,0.1066107487356159,1.144054242262936,-0.4692508761303159,7.395912647247314,-34.62102127075195,-34.83707046508789,-32.92106628417969,5.263769626617432,18.33352279663086,XArbitraryZVertical,-0.2232439984132435,0.5153432646702605,-0.0820999044478053,0.8233121613948114,0.8119201064109802,0.4522182643413544,-0.3691668808460236,0,0,0,-1,-1,3111.2157105,unknown,2,2022-06-02T10:52:46.937+02:00,2022-06-02T10:17:13.754+02:00,516,1.513865,0,0,401.0887,0,0,2022-06-02T10:52:46.937+02:00,675852766.9371569,0,4.832031,101.3262,1,0.79
269,2022-06-02T10:52:48.255+02:00,1654159964.512815,53.22877926302944,10.39812440143782,42.63968,-1.0,-1.0,-1.0,-1.0,37.92177963256836,40,-9999,3112.5333735,-22.16163635253906,30.01553344726562,31.61026000976562,3112.5233795,-0.3675630137289553,0.546035475625104,-0.5575989499358507,35.2420654296875,-35.18620300292969,-34.4446907043457,-32.35588073730469,11.65998268127441,11.50492858886719,XArbitraryZVertical,-0.2131724268390674,0.3032914710278567,-0.2421401568292799,0.896626931849049,0.4406433999538422,0.5291503667831421,-0.7251436114311218,0,0,0,-1,-1,3111.2157105,unknown,2,2022-06-02T10:52:46.937+02:00,2022-06-02T10:17:13.754+02:00,516,1.513865,0,0,401.0887,0,0,2022-06-02T10:52:46.937+02:00,675852766.9371569,0,4.832031,101.3262,1,0.79
270,2022-06-02T10:52:48.265+02:00,1654159964.512815,53.22877926302944,10.39812440143782,42.63968,-1.0,-1.0,-1.0,-1.0,37.92177963256836,40,-9999,3112.5433675,-18.93865966796875,-10.01657104492188,31.38421630859375,3112.5333735,-0.8191843377300173,-0.0062721960673404,-0.3021756430621999,35.48835372924805,-35.17698287963867,-29.24127960205078,-31.37160682678223,30.78452491760254,27.10274314880371,XArbitraryZVertical,-0.1392976597612694,0.0570956405960825,-0.3932636348891353,0.907017027185846,-0.0059879715554416,0.2975979745388031,-0.9546725153923036,0,0,0,-1,-1,3111.2157105,unknown,2,2022-06-02T10:52:46.937+02:00,2022-06-02T10:17:13.754+02:00,516,1.513865,0,0,401.0887,0,0,2022-06-02T10:52:46.937+02:00,675852766.9371569,0,4.832031,101.3262,1,0.79
271,2022-06-02T10:52:48.275+02:00,1654159964.512815,53.22877926302944,10.39812440143782,42.63968,-1.0,-1.0,-1.0,-1.0,37.92177963256836,40,-9999,3112.5533615,-23.52253723144531,-26.752685546875,12.70309448242188,3112.5433675,-0.916481645906198,-0.3216834237610814,0.0669865353822628,35.14515686035156,-17.67242622375488,0.8403967022895813,-11.79443836212158,16.64525985717773,32.63985824584961,XArbitraryZVertical,-0.0411610196718034,-0.1581687942342509,-0.4412260887401405,0.8823876059344443,-0.3154549896717072,-0.0669364482164382,-0.9465768337249756,0,0,0,-1,-1,3111.2157105,unknown,2,2022-06-02T10:52:46.937+02:00,2022-06-02T10:17:13.754+02:00,516,1.513865,0,0,401.0887,0,0,2022-06-02T10:52:46.937+02:00,675852766.9371569,0,4.832031,101.3262,1,0.79
272,2022-06-02T10:52:48.285+02:00,1654159964.512815,53.22877926302944,10.39812440143782,42.63968,-1.0,-1.0,-1.0,-1.0,37.92177963256836,40,-9999,3112.5633565,-7.307785034179688,-9.06610107421875,0.1532440185546875,3112.5533615,-0.6963909900557905,-0.4490641657986095,0.2881365538755836,17.60993576049805,-3.599644422531128,16.01750946044922,-28.91667556762695,-29.79629325866699,26.61081695556641,XArbitraryZVertical,0.0563854608995131,-0.2548776645650348,-0.3592390617594654,0.8959939854359972,-0.4162259995937347,-0.2841660976409912,-0.8637161254882812,0,0,0,-1,-1,3111.2157105,unknown,2,2022-06-02T10:52:46.937+02:00,2022-06-02T10:17:13.754+02:00,516,1.513865,0,0,401.0887,0,0,2022-06-02T10:52:46.937+02:00,675852766.9371569,0,4.832031,101.3262,1,0.79
273,2022-06-02T10:52:48.296+02:00,1654159964.512815,53.22877926302944,10.39812440143782,42.63968,-1.0,-1.0,-1.0,-1.0,37.92177963256836,40,-9999,3112.5733505,-6.646438598632812,-3.974685668945312,1.516128540039062,3112.5633565,-0.5269148120479553,-0.533501102768156,0.2951771762222156,-0.2291498631238937,-4.275539398193359,12.46122264862061,-12.21435546875,-15.06182765960693,3.822633028030396,XArbitraryZVertical,0.069057849876624,-0.288677389565918,-0.2859043185361023,0.9111284502192432,-0.4865565001964569,-0.2909093797206879,-0.8237927556037903,0,0,0,-1,-1,3111.2157105,unknown,2,2022-06-02T10:52:46.937+02:00,2022-06-02T10:17:13.754+02:00,516,1.513865,0,0,401.0887,0,0,2022-06-02T10:52:46.937+02:00,675852766.9371569,0,4.832031,101.3262,1,0.79
274,2022-06-02T10:52:48.306+02:00,1654159964.512815,53.22877926302944,10.39812440143782,42.63968,-1.0,-1.0,-1.0,-1.0,37.92177963256836,40,-9999,3112.5833445,-12.69500732421875,1.723587036132812,4.515625,3112.5733505,-0.4197711632409929,-0.6454559823292613,0.1869547940042338,-4.679245948791504,-12.13387107849121,16.82077980041504,-5.278273582458496,-6.555114269256592,0.8478788137435913,XArbitraryZVertical,0.0207897149316882,-0.3272840719361755,-0.2256831146527595,0.9173440186028712,-0.591080367565155,-0.1858676224946976,-0.7849058508872986,0,0,0,-1,-1,3111.2157105,unknown,2,2022-06-02T10:52:46.937+02:00,2022-06-02T10:17:13.754+02:00,516,1.513865,0,0,401.0887,0,0,2022-06-02T10:52:46.937+02:00,675852766.9371569,0,4.832031,101.3262,1,0.79
275,2022-06-02T10:52:48.315+02:00,1654159964.512815,53.22877926302944,10.39812440143782,42.63968,-1.0,-1.0,-1.0,-1.0,37.92177963256836,40,-9999,3112.5933385,-10.74923706054688,0.8657379150390625,5.778182983398438,3112.5833445,-0.3231675847032573,-0.7418856453413983,0.0521086725277319,-1.984409332275391,-2.37468147277832,14.10036849975586,-8.8576021194458,-0.6759880781173706,3.804600238800049,XArbitraryZVertical,-0.0343356013950933,-0.3615570430571321,-0.1592089477225076,0.9180141943376076,-0.6747620701789856,-0.052085094153881,-0.7361951470375061,0,0,0,-1,-1,3111.2157105,unknown,2,2022-06-02T10:52:46.937+02:00,2022-06-02T10:17:13.754+02:00,516,1.513865,0,0,401.0887,0,0,2022-06-02T10:52:46.937+02:00,675852766.9371569,0,4.832031,101.3262,1,0.79
276,2022-06-02T10:52:48.325+02:00,1654159964.512815,53.22877926302944,10.39812440143782,42.63968,-1.0,-1.0,-1.0,-1.0,37.92177963256836,40,-9999,3112.6033325,-5.646316528320312,0.0135040283203125,6.456283569335938,3112.5933385,-0.2252411688414791,-0.7167940177124308,-0.0357275896791785,1.561071157455444,5.487612247467041,12.82711029052734,-12.68440628051758,2.177292585372925,6.30795431137085,XArbitraryZVertical,-0.0560364478512191,-0.3466158578322495,-0.0989989944661113,0.9310835727279876,-0.6565517783164978,0.0357199907302856,-0.7534347176551819,0,0,0,-1,-1,3111.2157105,unknown,2,2022-06-02T10:52:46.937+02:00,2022-06-02T10:17:13.754+02:00,516,1.513865,0,0,401.0887,0,0,2022-06-02T10:52:46.937+02:00,675852766.9371569,0,4.832031,101.3262,1,0.79
277,2022-06-02T10:52:48.335+02:00,1654159964.512815,53.22877926302944,10.39812440143782,42.63968,-1.0,-1.0,-1.0,-1.0,37.92177963256836,40,-9999,3112.6133275,-5.447982788085938,1.715728759765625,5.082168579101562,3112.6033325,-0.1153311858506182,-0.6730112840159675,-0.1030561758576231,2.264786720275879,1.342465758323669,12.13799476623535,-6.92210865020752,-0.5301200151443481,6.79945182800293,XArbitraryZVertical,-0.0675406018172619,-0.3264024259383009,-0.0373507051422545,0.942074629947508,-0.620036244392395,0.1028738543391228,-0.7777994275093079,0,0,0,-1,-1,3111.2157105,unknown,2,2022-06-02T10:52:46.937+02:00,2022-06-02T10:17:13.754+02:00,516,1.513865,0,0,401.0887,0,0,2022-06-02T10:52:46.937+02:00,675852766.9371569,0,4.832031,101.3262,1,0.79
278,2022-06-02T10:52:48.345+02:00,1654159964.512815,53.22877926302944,10.39812440143782,42.63968,-1.0,-1.0,-1.0,-1.0,37.92177963256836,40,-9999,3112.6233215,-6.938888549804688,0.4494781494140625,4.8387451171875,3112.6133275,-0.0046153133412443,-0.6776282831467895,-0.1383396321418565,5.774055480957031,-5.261098861694336,9.407217025756836,-4.639540672302246,0.963633120059967,6.752881050109863,XArbitraryZVertical,-0.0659504538571573,-0.3314227997230869,0.0208002491847514,0.940944598111248,-0.6209574341773987,0.1378988027572632,-0.7716189026832581,0,0,0,-1,-1,3111.2157105,unknown,2,2022-06-02T10:52:46.937+02:00,2022-06-02T10:17:13.754+02:00,516,1.513865,0,0,401.0887,0,0,2022-06-02T10:52:46.937+02:00,675852766.9371569,0,4.832031,101.3262,1,0.79
279,2022-06-02T10:52:48.356+02:00,1654159964.512815,53.22877926302944,10.39812440143782,42.63968,-1.0,-1.0,-1.0,-1.0,37.92177963256836,40,-9999,3112.6333155,-8.724258422851562,1.401931762695312,5.25244140625,3112.6333155,0.2081214984113309,-0.8179931518097334,-0.151285185482657,7.408889293670654,-9.354701995849608,7.414668560028076,-7.346812725067139,0.4810050129890442,5.756886959075928,XArbitraryZVertical,-0.0277713404667848,-0.4016088537158152,0.1249240771887591,0.9068257278199456,-0.7214398384094238,0.1507087647914886,-0.6758781671524048,0,0,0,-1,-1,3111.2157105,unknown,2,2022-06-02T10:52:46.937+02:00,2022-06-02T10:17:13.754+02:00,516,1.513865,0,0,401.0887,0,0,2022-06-02T10:52:46.937+02:00,675852766.9371569,0,4.832031,101.3262,1,0.79
280,2022-06-02T10:52:48.365+02:00,1654159964.512815,53.22877926302944,10.39812440143782,42.63968,-1.0,-1.0,-1.0,-1.0,37.92177963256836,40,-9999,3112.6433095,-8.367645263671875,1.830230712890625,5.14849853515625,3112.6333155,0.2081214984113309,-0.8179931518097334,-0.151285185482657,7.408889293670654,-9.354701995849608,7.414668560028076,-7.346812725067139,0.4810050129890442,5.756886959075928,XArbitraryZVertical,-0.0277713404667848,-0.4016088537158152,0.1249240771887591,0.9068257278199456,-0.7214398384094238,0.1507087647914886,-0.6758781671524048,0,0,0,-1,-1,3111.2157105,unknown,2,2022-06-02T10:52:46.937+02:00,2022-06-02T10:17:13.754+02:00,516,1.513865,0,0,401.0887,0,0,2022-06-02T10:52:46.937+02:00,675852766.9371569,0,4.832031,101.3262,1,0.79
281,2022-06-02T10:52:48.376+02:00,1654159964.512815,53.22877926302944,10.39812440143782,42.63968,-1.0,-1.0,-1.0,-1.0,37.92177963256836,40,-9999,3112.6533035,-8.3753662109375,1.489334106445312,4.624465942382812,3112.6433095,0.3190495341710443,-0.8946384235147823,-0.1526208364727924,8.959846496582031,-9.402652740478516,7.089873790740967,-7.912890911102295,1.707330703735352,5.928905487060547,XArbitraryZVertical,0.0006474681376826,-0.436733665386614,0.1753604096019628,0.8823332372568964,-0.7709163427352905,0.1520290225744247,-0.6185265779495239,0,0,0,-1,-1,3111.2157105,unknown,2,2022-06-02T10:52:46.937+02:00,2022-06-02T10:17:13.754+02:00,516,1.513865,0,0,401.0887,0,0,2022-06-02T10:52:46.937+02:00,675852766.9371569,0,4.832031,101.3262,1,0.79
282,2022-06-02T10:52:48.385+02:00,1654159964.512815,53.22877926302944,10.39812440143782,42.63968,-1.0,-1.0,-1.0,-1.0,37.92177963256836,40,-9999,3112.6632985,-8.505996704101562,1.130218505859375,4.040130615234375,3112.6533035,0.4384776458920203,-0.9699476429444008,-0.1513860554955256,10.14004707336426,-9.137216567993164,6.786912441253662,-7.441383361816406,1.52732253074646,5.453133583068848,XArbitraryZVertical,0.035799448043921,-0.4682733798068353,0.22626622378532,0.8533709590512507,-0.8154222369194031,0.1508084833621979,-0.5588768720626831,0,0,0,-1,-1,3111.2157105,unknown,2,2022-06-02T10:52:46.937+02:00,2022-06-02T10:17:13.754+02:00,516,1.513865,0,0,401.0887,0,0,2022-06-02T10:52:46.937+02:00,675852766.9371569,0,4.832031,101.3262,1,0.79
283,2022-06-02T10:52:48.396+02:00,1654159964.512815,53.22877926302944,10.39812440143782,42.63968,-1.0,-1.0,-1.0,-1.0,37.92177963256836,40,-9999,3112.6732925,-7.814926147460938,0.60986328125,3.526016235351562,3112.6732925,0.6919423703393917,-1.088917790894039,-0.1577260266137751,10.65950584411621,-6.625747203826904,6.745395183563232,-7.367473125457764,0.732972264289856,4.210957050323486,XArbitraryZVertical,0.1117011541708514,-0.5086029190824756,0.3275634742971552,0.7883831266787754,-0.8751263618469238,0.1570728719234467,-0.4576918482780457,0,0,0,-1,-1,3111.2157105,unknown,2,2022-06-02T10:52:46.937+02:00,2022-06-02T10:17:13.754+02:00,516,1.513865,0,0,401.0887,0,0,2022-06-02T10:52:46.937+02:00,675852766.9371569,0,4.832031,101.3262,1,0.79
284,2022-06-02T10:52:48.405+02:00,1654159964.512815,53.22877926302944,10.39812440143782,42.63968,-1.0,-1.0,-1.0,-1.0,37.92177963256836,40,-9999,3112.6832865,-6.908111572265625,0.2453155517578125,3.130783081054688,3112.6732925,0.6919423703393917,-1.088917790894039,-0.1577260266137751,10.65950584411621,-6.625747203826904,6.745395183563232,-7.367473125457764,0.732972264289856,4.210957050323486,XArbitraryZVertical,0.1117011541708514,-0.5086029190824756,0.3275634742971552,0.7883831266787754,-0.8751263618469238,0.1570728719234467,-0.4576918482780457,0,0,0,-1,-1,3111.2157105,unknown,2,2022-06-02T10:52:46.937+02:00,2022-06-02T10:17:13.754+02:00,516,1.513865,0,0,401.0887,0,0,2022-06-02T10:52:46.937+02:00,675852766.9371569,0,4.832031,101.3262,1,0.79
285,2022-06-02T10:52:48.415+02:00,1654159964.512815,53.22877926302944,10.39812440143782,42.63968,-1.0,-1.0,-1.0,-1.0,37.92177963256836,40,-9999,3112.6932805,-6.1517333984375,0.1353912353515625,2.7178955078125,3112.6832865,0.816807458966441,-1.130459718879175,-0.1730302996683185,10.02511596679688,-5.81087064743042,6.923743724822998,-6.460843563079834,0.2008938938379288,3.751971244812012,XArbitraryZVertical,0.1449523996068951,-0.5186995749730614,0.3765950804837417,0.7537344398853532,-0.8911001682281494,0.172168180346489,-0.4198791086673737,0,0,0,-1,-1,3111.2157105,unknown,2,2022-06-02T10:52:46.937+02:00,2022-06-02T10:17:13.754+02:00,516,1.513865,0,0,401.0887,0,0,2022-06-02T10:52:46.937+02:00,675852766.9371569,0,4.832031,101.3262,1,0.79
286,2022-06-02T10:52:48.430+02:00,1654159964.512815,53.22877926302944,10.39812440143782,42.63968,-1.0,-1.0,-1.0,-1.0,37.92177963256836,40,-9999,3112.7032745,-5.707748413085938,0.0021820068359375,2.2857666015625,3112.6932805,0.9349034735215748,-1.163829854266696,-0.1979424573864949,9.076696395874023,-5.180916786193848,7.163392066955566,-5.605190753936768,0.0013456046581268,3.31424355506897,XArbitraryZVertical,0.1727648238641193,-0.52545619417546,0.4230871037910078,0.7176666240285775,-0.9003939032554626,0.1966523826122284,-0.3880962133407593,0,0,0,-1,-1,3111.2157105,unknown,2,2022-06-02T10:52:46.937+02:00,2022-06-02T10:17:13.754+02:00,516,1.513865,0,0,401.0887,0,0,2022-06-02T10:52:46.937+02:00,675852766.9371569,0,4.832031,101.3262,1,0.79
287,2022-06-02T10:52:48.435+02:00,1654159964.580909,53.22890393440913,10.39865269326642,39.12729,0.0,0.06,-1.0,65.06141773144168,4.0,5,-9999,3112.7132685,-5.385528564453125,-0.0740203857421875,1.889633178710938,3112.7132685,1.142159204520793,-1.204260825198774,-0.2726765683795166,6.821902275085449,-3.451920986175537,7.324868679046631,-4.637828826904297,-0.2835160493850708,2.425312042236328,XArbitraryZVertical,0.2090824911023549,-0.5326475399792052,0.5061094473208247,0.6453094801181227,-0.8990822434425354,0.2693100869655609,-0.3451422154903412,0,0,0,-1,-1,3111.2157105,unknown,2,2022-06-02T10:52:46.937+02:00,2022-06-02T10:17:13.754+02:00,516,1.513865,0,0,401.0887,0,0,2022-06-02T10:52:46.937+02:00,675852766.9371569,0,4.832031,101.3262,1,0.79
288,2022-06-02T10:52:48.446+02:00,1654159964.580909,53.22890393440913,10.39865269326642,39.12729,0.0,0.06,-1.0,65.06141773144168,4.0,5,-9999,3112.7232635,-5.085311889648438,-0.1099853515625,1.536239624023438,3112.7132685,1.142159204520793,-1.204260825198774,-0.2726765683795166,6.821902275085449,-3.451920986175537,7.324868679046631,-4.637828826904297,-0.2835160493850708,2.425312042236328,XArbitraryZVertical,0.2090824911023549,-0.5326475399792052,0.5061094473208247,0.6453094801181227,-0.8990822434425354,0.2693100869655609,-0.3451422154903412,0,0,0,-1,-1,3111.2157105,unknown,2,2022-06-02T10:52:46.937+02:00,2022-06-02T10:17:13.754+02:00,516,1.513865,0,0,401.0887,0,0,2022-06-02T10:52:46.937+02:00,675852766.9371569,0,4.832031,101.3262,1,0.79
289,2022-06-02T10:52:48.455+02:00,1654159964.580909,53.22890393440913,10.39865269326642,39.12729,0.0,0.06,-1.0,65.06141773144168,4.0,5,-9999,3112.7332575,-4.533370971679688,-0.112701416015625,1.328262329101562,3112.7232635,1.229837807509887,-1.207522832013063,-0.3183444147461099,5.659633636474609,-2.319854497909546,7.173007488250732,-4.378951072692871,-0.4269625246524811,2.04201078414917,XArbitraryZVertical,0.2168083772328443,-0.5331538978732543,0.5424016777102503,0.6119979096045545,-0.8877726197242737,0.3129945993423462,-0.3374820947647095,0,0,0,-1,-1,3111.2157105,unknown,2,2022-06-02T10:52:46.937+02:00,2022-06-02T10:17:13.754+02:00,516,1.513865,0,0,401.0887,0,0,2022-06-02T10:52:46.937+02:00,675852766.9371569,0,4.832031,101.3262,1,0.79
290,2022-06-02T10:52:48.465+02:00,1654159964.580909,53.22890393440913,10.39865269326642,39.12729,0.0,0.06,-1.0,65.06141773144168,4.0,5,-9999,3112.7432515,-4.17230224609375,-0.20831298828125,1.282760620117188,3112.7332575,1.307821980641691,-1.200502553821373,-0.3663854880031123,4.622404098510742,-1.582064747810364,7.071347236633301,-3.94978141784668,-0.4539158344268799,1.742090702056885,XArbitraryZVertical,0.2185312610836626,-0.5322678338225498,0.5752338557227022,0.5814128986903895,-0.8703479170799255,0.3582431674003601,-0.3378700911998749,0,0,0,-1,-1,3111.2157105,unknown,2,2022-06-02T10:52:46.937+02:00,2022-06-02T10:17:13.754+02:00,516,1.513865,0,0,401.0887,0,0,2022-06-02T10:52:46.937+02:00,675852766.9371569,0,4.832031,101.3262,1,0.79
291,2022-06-02T10:52:48.475+02:00,1654159964.580909,53.22890393440913,10.39865269326642,39.12729,0.0,0.06,-1.0,65.06141773144168,4.0,5,-9999,3112.7532455,-4.044998168945312,-0.237091064453125,1.181854248046875,3112.7432515,1.376329677508959,-1.188291782457674,-0.4168953138767176,3.434864521026611,-1.21776008605957,6.965155124664307,-3.453988552093506,-0.549485445022583,1.640135526657104,XArbitraryZVertical,0.21539388977074,-0.5319464420230892,0.6043669731431345,0.552611043184207,-0.8482728600502014,0.4049236476421356,-0.3412769138813019,0,0,0,-1,-1,3111.2157105,unknown,2,2022-06-02T10:52:46.937+02:00,2022-06-02T10:17:13.754+02:00,516,1.513865,0,0,401.0887,0,0,2022-06-02T10:52:46.937+02:00,675852766.9371569,0,4.832031,101.3262,1,0.79
292,2022-06-02T10:52:48.485+02:00,1654159964.580909,53.22890393440913,10.39865269326642,39.12729,0.0,0.06,-1.0,65.06141773144168,4.0,5,-9999,3112.7632395,-4.086029052734375,-0.2747039794921875,1.012130737304688,3112.7532455,1.435344674015034,-1.174897194606583,-0.4679538987962532,2.606672286987305,-1.16703987121582,6.572221755981445,-3.287976026535034,-0.7134207487106323,1.588258743286133,XArbitraryZVertical,0.2091748624760763,-0.5330631081438262,0.6292739497144616,0.5254559575701319,-0.8234589695930481,0.4510610997676849,-0.3441792130470276,0,0,0,-1,-1,3111.2157105,unknown,2,2022-06-02T10:52:46.937+02:00,2022-06-02T10:17:13.754+02:00,516,1.513865,0,0,401.0887,0,0,2022-06-02T10:52:46.937+02:00,675852766.9371569,0,4.832031,101.3262,1,0.79
293,2022-06-02T10:52:48.495+02:00,1654159964.580909,53.22890393440913,10.39865269326642,39.12729,0.0,0.06,-1.0,65.06141773144168,4.0,5,-9999,3112.7732345,-4.2320556640625,-0.3937835693359375,0.8658447265625,3112.7632395,1.487639725984949,-1.16128800858405,-0.5189412369545601,1.87881064414978,-0.9942574501037598,6.410603046417236,-3.21880316734314,-0.713444709777832,1.451451539993286,XArbitraryZVertical,0.2011380647100939,-0.5354196005026519,0.6507540117960873,0.499387974351244,-0.796546995639801,0.4959610402584076,-0.3457386493682861,0,0,0,-1,-1,3111.2157105,unknown,2,2022-06-02T10:52:46.937+02:00,2022-06-02T10:17:13.754+02:00,516,1.513865,0,0,401.0887,0,0,2022-06-02T10:52:46.937+02:00,675852766.9371569,0,4.832031,101.3262,1,0.79
294,2022-06-02T10:52:48.505+02:00,1654159964.580909,53.22890393440913,10.39865269326642,39.12729,0.0,0.06,-1.0,65.06141773144168,4.0,5,-9999,3112.7832285,-4.020584106445312,-0.3677978515625,0.87445068359375,3112.7732345,1.533671265005197,-1.144948123248235,-0.5706689256017677,1.149753332138062,-0.4682711362838745,6.255057334899902,-3.428534984588623,-0.8942906260490417,1.269524693489075,XArbitraryZVertical,0.1902975064740725,-0.5384882805870266,0.6694545112469492,0.4750238814445187,-0.7663806080818176,0.540195107460022,-0.3476344645023346,0,0,0,-1,-1,3111.2157105,unknown,2,2022-06-02T10:52:46.937+02:00,2022-06-02T10:17:13.754+02:00,516,1.513865,0,0,401.0887,0,0,2022-06-02T10:52:46.937+02:00,675852766.9371569,0,4.832031,101.3262,1,0.79
295,2022-06-02T10:52:48.516+02:00,1654159964.580909,53.22890393440913,10.39865269326642,39.12729,0.0,0.06,-1.0,65.06141773144168,4.0,5,-9999,3112.7932225,-3.527053833007812,-0.31304931640625,0.8731536865234375,3112.7932225,1.6121277175875,-1.094712657262338,-0.6795878527152919,-0.0306362397968769,0.5758960247039795,6.146911144256592,-3.118953227996826,-0.9810879230499268,1.24446702003479,XArbitraryZVertical,0.1570142586829442,-0.5450739720750676,0.7010109709026098,0.4322319952243701,-0.6913342475891113,0.6284725069999695,-0.3564817607402802,0,0,0,-1,-1,3111.2157105,unknown,2,2022-06-02T10:52:46.937+02:00,2022-06-02T10:17:13.754+02:00,516,1.513865,0,0,401.0887,0,0,2022-06-02T10:52:46.937+02:00,675852766.9371569,0,4.832031,101.3262,1,0.79
296,2022-06-02T10:52:48.525+02:00,1654159964.580909,53.22890393440913,10.39865269326642,39.12729,0.0,0.06,-1.0,65.06141773144168,4.0,5,-9999,3112.8032165,-2.98394775390625,-0.313873291015625,0.8625335693359375,3112.7932225,1.6121277175875,-1.094712657262338,-0.6795878527152919,-0.0306362397968769,0.5758960247039795,6.146911144256592,-3.118953227996826,-0.9810879230499268,1.24446702003479,XArbitraryZVertical,0.1570142586829442,-0.5450739720750676,0.7010109709026098,0.4322319952243701,-0.6913342475891113,0.6284725069999695,-0.3564817607402802,0,0,0,-1,-1,3111.2157105,unknown,2,2022-06-02T10:52:46.937+02:00,2022-06-02T10:17:13.754+02:00,516,1.513865,0,0,401.0887,0,0,2022-06-02T10:52:46.937+02:00,675852766.9371569,0,4.832031,101.3262,1,0.79
297,2022-06-02T10:52:48.535+02:00,1654159964.580909,53.22890393440913,10.39865269326642,39.12729,0.0,0.06,-1.0,65.06141773144168,4.0,5,-9999,3112.8132105,-2.584396362304688,-0.5003662109375,0.82183837890625,3112.8032165,1.646603642558883,-1.066401189298768,-0.7338470247599674,-0.4633726477622986,0.5981701016426086,5.920740604400635,-2.579092979431152,-0.9562762975692748,1.223599433898926,XArbitraryZVertical,0.1379423160328951,-0.5491174696384974,0.7135070747488096,0.412734121667132,-0.6501246690750122,0.6697313785552979,-0.3588838577270508,0,0,0,-1,-1,3111.2157105,unknown,2,2022-06-02T10:52:46.937+02:00,2022-06-02T10:17:13.754+02:00,516,1.513865,0,0,401.0887,0,0,2022-06-02T10:52:46.937+02:00,675852766.9371569,0,4.832031,101.3262,1,0.79
298,2022-06-02T10:52:48.545+02:00,1654159964.580909,53.22890393440913,10.39865269326642,39.12729,0.0,0.06,-1.0,65.06141773144168,4.0,5,-9999,3112.8232045,-2.16400146484375,-0.552001953125,0.688323974609375,3112.8132105,1.677243671214016,-1.039187788909205,-0.7868299569476292,-0.9104454517364502,0.6048956513404846,5.459932804107666,-2.174677610397339,-1.120990991592407,1.212761163711548,XArbitraryZVertical,0.1186275795916377,-0.5540404675935408,0.7234897737527178,0.3943717744515544,-0.6086475253105164,0.7081184983253479,-0.3579333126544952,0,0,0,-1,-1,3111.2157105,unknown,2,2022-06-02T10:52:46.937+02:00,2022-06-02T10:17:13.754+02:00,516,1.513865,0,0,401.0887,0,0,2022-06-02T10:52:46.937+02:00,675852766.9371569,0,4.832031,101.3262,1,0.79
299,2022-06-02T10:52:48.555+02:00,1654159964.580909,53.22890393440913,10.39865269326642,39.12729,0.0,0.06,-1.0,65.06141773144168,4.0,5,-9999,3112.8331995,-1.704055786132812,-0.457244873046875,0.5347442626953125,3112.8232045,1.702717000118835,-1.013835441466543,-0.8378934034279394,-1.421965003013611,0.8077340722084045,5.051852226257324,-1.805099844932556,-1.286875605583191,1.114290475845337,XArbitraryZVertical,0.0992353204165848,-0.5597542047101822,0.7308583350657154,0.377721652157014,-0.5679165124893188,0.7432354092597961,-0.3536551594734192,0,0,0,-1,-1,3111.2157105,unknown,2,2022-06-02T10:52:46.937+02:00,2022-06-02T10:17:13.754+02:00,516,1.513865,0,0,401.0887,0,0,2022-06-02T10:52:46.937+02:00,675852766.9371569,0,4.832031,101.3262,1,0.79
300,2022-06-02T10:52:48.565+02:00,1654159964.580909,53.22890393440913,10.39865269326642,39.12729,0.0,0.06,-1.0,65.06141773144168,4.0,5,-9999,3112.8431935,-1.14794921875,-0.3526458740234375,0.3413543701171875,3112.8331995,1.719991089632068,-0.9920107458657668,-0.8869787586606008,-1.925404191017151,0.9343447089195251,4.446121215820312,-1.422005653381348,-1.289128303527832,0.9645792245864868,XArbitraryZVertical,0.0795561958478654,-0.5664652159812904,0.7352711011335509,0.3635443306985792,-0.5288611650466919,0.7751665711402893,-0.3455759286880493,0,0,0,-1,-1,3111.2157105,unknown,2,2022-06-02T10:52:46.937+02:00,2022-06-02T10:17:13.754+02:00,516,1.513865,0,0,401.0887,0,0,2022-06-02T10:52:46.937+02:00,675852766.9371569,0,4.832031,101.3262,1,0.79
301,2022-06-02T10:52:48.575+02:00,1654159964.580909,53.22890393440913,10.39865269326642,39.12729,0.0,0.06,-1.0,65.06141773144168,4.0,5,-9999,3112.8531875,-0.6508026123046875,-0.178192138671875,0.20904541015625,3112.8431935,1.730365319412644,-0.9745797945429318,-0.9322321477319212,-1.970406770706177,0.8760531544685364,3.792451143264771,-0.937336564064026,-1.212376356124878,0.7678694128990173,XArbitraryZVertical,0.0608759050559228,-0.5735418861842227,0.7373246061050617,0.3517047843207686,-0.4932054579257965,0.8029524087905884,-0.3346876502037048,0,0,0,-1,-1,3111.2157105,unknown,2,2022-06-02T10:52:46.937+02:00,2022-06-02T10:17:13.754+02:00,516,1.513865,0,0,401.0887,0,0,2022-06-02T10:52:46.937+02:00,675852766.9371569,0,4.832031,101.3262,1,0.79
302,2022-06-02T10:52:48.585+02:00,1654159964.580909,53.22890393440913,10.39865269326642,39.12729,0.0,0.06,-1.0,65.06141773144168,4.0,5,-9999,3112.8631815,-0.3054351806640625,-0.03424072265625,0.06500244140625,3112.8531875,1.737081151083569,-0.9618738415036018,-0.9712624835708678,-1.812134385108948,0.5446728467941284,3.062237024307251,-0.4193462729454041,-1.096732258796692,0.5943679213523865,XArbitraryZVertical,0.0450175825701364,-0.5801726359567105,0.7380184578957848,0.3416164230360967,-0.4628406167030334,0.8255987167358398,-0.3227462470531464,0,0,0,-1,-1,3111.2157105,unknown,2,2022-06-02T10:52:46.937+02:00,2022-06-02T10:17:13.754+02:00,516,1.513865,0,0,401.0887,0,0,2022-06-02T10:52:46.937+02:00,675852766.9371569,0,4.832031,101.3262,1,0.79
303,2022-06-02T10:52:48.595+02:00,1654159964.580909,53.22890393440913,10.39865269326642,39.12729,0.0,0.06,-1.0,65.06141773144168,4.0,5,-9999,3112.8731755,-0.136749267578125,0.0172576904296875,-0.0929107666015625,3112.8631815,1.739764103066977,-0.9567615150664136,-1.002878711004282,-1.571663975715637,0.0182328000664711,2.285529375076294,-0.0184759199619293,-0.9392449259757996,0.4499388039112091,XArbitraryZVertical,0.0333029946738048,-0.5864609826348558,0.7376428448712338,0.3329223882183879,-0.4396234154701233,0.843022882938385,-0.3099088668823242,0,0,0,-1,-1,3111.2157105,unknown,2,2022-06-02T10:52:46.937+02:00,2022-06-02T10:17:13.754+02:00,516,1.513865,0,0,401.0887,0,0,2022-06-02T10:52:46.937+02:00,675852766.9371569,0,4.832031,101.3262,1,0.79
