loggingTime(txt),locationTimestamp_since1970(s),locationLatitude(WGS84),locationLongitude(WGS84),locationAltitude(m),locationSpeed(m/s),locationSpeedAccuracy(m/s),locationCourse(°),locationCourseAccuracy(°),locationVerticalAccuracy(m),locationHorizontalAccuracy(m),locationFloor(Z),accelerometerTimestamp_sinceReboot(s),accelerometerAccelerationX(G),accelerometerAccelerationY(G),accelerometerAccelerationZ(G),motionTimestamp_sinceReboot(s),motionYaw(rad),motionRoll(rad),motionPitch(rad),motionRotationRateX(rad/s),motionRotationRateY(rad/s),motionRotationRateZ(rad/s),motionUserAccelerationX(G),motionUserAccelerationY(G),motionUserAccelerationZ(G),motionAttitudeReferenceFrame(txt),motionQuaternionX(R),motionQuaternionY(R),motionQuaternionZ(R),motionQuaternionW(R),motionGravityX(G),motionGravityY(G),motionGravityZ(G),motionMagneticFieldX(µT),motionMagneticFieldY(µT),motionMagneticFieldZ(µT),motionHeading(°),motionMagneticFieldCalibrationAccuracy(Z),activityTimestamp_sinceReboot(s),activity(txt),activityActivityConfidence(Z),activityActivityStartDate(txt),pedometerStartDate(txt),pedometerNumberofSteps(N),pedometerAverageActivePace(s/m),pedometerCurrentPace(s/m),pedometerCurrentCadence(steps/s),pedometerDistance(m),pedometerFloorAscended(N),pedometerFloorDescended(N),pedometerEndDate(txt),altimeterTimestamp_sinceReboot(s),altimeterReset(bool),altimeterRelativeAltitude(m),altimeterPressure(kPa),batteryState(N),batteryLevel(R)
2022-06-02T10:48:18.234+02:00,1654159697.999805,53.2290918149494,10.39854737502938,37.12632,0,20,-1,-1,2.400000095367432,7.999579855010837,-9999,2842.477842375,-0.1169281005859375,-0.347869873046875,-0.9168853759765625,2842.467847375,0.02238821918747244,-0.07379278764203757,0.351423122423372,0.1170966252684593,0.1642216295003891,-0.1457036137580872,-0.07116085290908813,0.04215604066848755,-0.03980660438537598,XArbitraryZVertical,0.1750854380334169,-0.03436230574383127,0.004566068898316348,0.9839427748112538,-0.06921999156475067,-0.3442342877388,-0.936328649520874,0,0,0,-1,-1,2840.121929791667,unknown,2,2022-06-02T10:48:15.844+02:00,2022-06-02T10:17:13.754+02:00,465,1.464781,0,0,360.0712,0,0,2022-06-02T10:48:15.843+02:00,675852495.8433312,0,6.800781,101.3,1,0.8
2022-06-02T10:48:18.237+02:00,1654159697.999805,53.2290918149494,10.39854737502938,37.12632,0,20,-1,-1,2.400000095367432,7.999579855010837,-9999,2842.487836375,-0.0800933837890625,-0.35333251953125,-0.9302825927734375,2842.477842375,0.02166467185262538,-0.07173294535365518,0.3528751584894505,0.09186370670795441,0.1487539857625961,-0.003649795427918434,-0.07185909897089005,0.01458832621574402,0.01887071132659912,XArbitraryZVertical,0.1757828027543011,-0.03339994282304636,0.004363406594032646,0.9838525200380467,-0.06725525856018066,-0.3455972373485565,-0.9359697103500366,0,0,0,-1,-1,2840.121929791667,unknown,2,2022-06-02T10:48:15.844+02:00,2022-06-02T10:17:13.754+02:00,465,1.464781,0,0,360.0712,0,0,2022-06-02T10:48:15.843+02:00,675852495.8433312,0,6.800781,101.3,1,0.8
2022-06-02T10:48:18.239+02:00,1654159697.999805,53.2290918149494,10.39854737502938,37.12632,0,20,-1,-1,2.400000095367432,7.999579855010837,-9999,2842.497830375,-0.0352935791015625,-0.298980712890625,-0.9165802001953125,2842.487836375,0.02154238358911634,-0.06988140322428224,0.3536866340018862,0.07082510739564896,0.1748643517494202,-0.02645810693502426,-0.03239782154560089,-0.01242133975028992,0.01016867160797119,XArbitraryZVertical,0.1761758343501303,-0.03249306453395524,0.004451260539460555,0.9838121790632072,-0.06550255417823792,-0.346358597278595,-0.9358125329017639,0,0,0,-1,-1,2840.121929791667,unknown,2,2022-06-02T10:48:15.844+02:00,2022-06-02T10:17:13.754+02:00,465,1.464781,0,0,360.0712,0,0,2022-06-02T10:48:15.843+02:00,675852495.8433312,0,6.800781,101.3,1,0.8
2022-06-02T10:48:18.246+02:00,1654159697.999805,53.2290918149494,10.39854737502938,37.12632,0,20,-1,-1,2.400000095367432,7.999579855010837,-9999,2842.507825375,-0.0478363037109375,-0.2660064697265625,-0.920928955078125,2842.507825375,0.02120809265293432,-0.06726786981943358,0.3554657196521038,0.1638210564851761,0.1088730171322823,-0.02535389363765717,0.02979666739702225,0.07335352897644043,0.0209355354309082,XArbitraryZVertical,0.1770396537810054,-0.0312223158495515,0.004485925122943542,0.9836980654466239,-0.06301503628492355,-0.3480270206928253,-0.9353642463684082,0,0,0,-1,-1,2840.121929791667,unknown,2,2022-06-02T10:48:15.844+02:00,2022-06-02T10:17:13.754+02:00,465,1.464781,0,0,360.0712,0,0,2022-06-02T10:48:15.843+02:00,675852495.8433312,0,6.800781,101.3,1,0.8
2022-06-02T10:48:18.248+02:00,1654159697.999805,53.2290918149494,10.39854737502938,37.12632,0,20,-1,-1,2.400000095367432,7.999579855010837,-9999,2842.517819375,-0.0691070556640625,-0.2843780517578125,-0.946807861328125,2842.507825375,0.02120809265293432,-0.06726786981943358,0.3554657196521038,0.1638210564851761,0.1088730171322823,-0.02535389363765717,0.02979666739702225,0.07335352897644043,0.0209355354309082,XArbitraryZVertical,0.1770396537810054,-0.0312223158495515,0.004485925122943542,0.9836980654466239,-0.06301503628492355,-0.3480270206928253,-0.9353642463684082,0,0,0,-1,-1,2840.121929791667,unknown,2,2022-06-02T10:48:15.844+02:00,2022-06-02T10:17:13.754+02:00,465,1.464781,0,0,360.0712,0,0,2022-06-02T10:48:15.843+02:00,675852495.8433312,0,6.800781,101.3,1,0.8
2022-06-02T10:48:18.265+02:00,1654159697.999805,53.2290918149494,10.39854737502938,37.12632,0,20,-1,-1,2.400000095367432,7.999579855010837,-9999,2842.527813375,-0.0712738037109375,-0.31585693359375,-0.9602813720703125,2842.517819375,0.02105366666528045,-0.06635227448740492,0.3568305440746111,0.1496059000492096,0.09995888918638229,-0.03394365310668945,0.002556752413511276,0.07919511198997498,0.001642942428588867,XArbitraryZVertical,0.1777063696216113,-0.03077457088106501,0.004467469697972934,0.9835920760827391,-0.06212704256176949,-0.34930619597435,-0.9349467158317566,0,0,0,-1,-1,2840.121929791667,unknown,2,2022-06-02T10:48:15.844+02:00,2022-06-02T10:17:13.754+02:00,465,1.464781,0,0,360.0712,0,0,2022-06-02T10:48:15.843+02:00,675852495.8433312,0,6.800781,101.3,1,0.8
2022-06-02T10:48:18.271+02:00,1654159697.999805,53.2290918149494,10.39854737502938,37.12632,0,20,-1,-1,2.400000095367432,7.999579855010837,-9999,2842.537808375,-0.0662994384765625,-0.323150634765625,-0.9541473388671875,2842.527813375,0.0207827410451412,-0.06526762435721627,0.3577686784312945,0.05458824336528778,0.1045175567269325,-0.02822890877723694,-0.008183367550373077,0.04940381646156311,-0.02107858657836914,XArbitraryZVertical,0.1781611309266544,-0.03025769899768105,0.004414674974975598,0.9835260510503846,-0.06109151616692543,-0.3501850664615631,-0.9346861839294434,0,0,0,-1,-1,2840.121929791667,unknown,2,2022-06-02T10:48:15.844+02:00,2022-06-02T10:17:13.754+02:00,465,1.464781,0,0,360.0712,0,0,2022-06-02T10:48:15.843+02:00,675852495.8433312,0,6.800781,101.3,1,0.8
2022-06-02T10:48:18.272+02:00,1654159697.999805,53.2290918149494,10.39854737502938,37.12632,0,20,-1,-1,2.400000095367432,7.999579855010837,-9999,2842.547802375,-0.05255126953125,-0.3051300048828125,-0.927947998046875,2842.537808375,0.02012518641673995,-0.06307036439734294,0.3572954097681232,-0.06379538774490356,0.1089194938540459,-0.02590290270745754,-0.01028785482048988,0.02752187848091125,-0.02680850028991699,XArbitraryZVertical,0.177913852848863,-0.02923939102442219,0.004294798204796588,0.9836021184101894,-0.05904806032776833,-0.3497417271137238,-0.9349834322929382,0,0,0,-1,-1,2840.121929791667,unknown,2,2022-06-02T10:48:15.844+02:00,2022-06-02T10:17:13.754+02:00,465,1.464781,0,0,360.0712,0,0,2022-06-02T10:48:15.843+02:00,675852495.8433312,0,6.800781,101.3,1,0.8
2022-06-02T10:48:18.280+02:00,1654159697.999805,53.2290918149494,10.39854737502938,37.12632,0,20,-1,-1,2.400000095367432,7.999579855010837,-9999,2842.557796375,-0.057281494140625,-0.2926788330078125,-0.899993896484375,2842.547802375,0.01996896297722978,-0.06245438660263967,0.355841587514401,-0.1294993460178375,0.1029877662658691,-0.02498697489500046,-0.001615814864635468,0.03180524706840515,-0.005925893783569336,XArbitraryZVertical,0.177195284258505,-0.02896151019254145,0.004296383699590472,0.9837400995354043,-0.05850379541516304,-0.3483793437480927,-0.9355261325836182,0,0,0,-1,-1,2840.121929791667,unknown,2,2022-06-02T10:48:15.844+02:00,2022-06-02T10:17:13.754+02:00,465,1.464781,0,0,360.0712,0,0,2022-06-02T10:48:15.843+02:00,675852495.8433312,0,6.800781,101.3,1,0.8
2022-06-02T10:48:18.289+02:00,1654159697.999805,53.2290918149494,10.39854737502938,37.12632,0,20,-1,-1,2.400000095367432,7.999579855010837,-9999,2842.567791375,-0.0473480224609375,-0.28155517578125,-0.8556060791015625,2842.557796375,0.01970377588703837,-0.06191307517665275,0.3544493957126129,-0.1293475329875946,0.1013770923018456,-0.03679623082280159,0.006193242967128754,0.05285406112670898,0.01851463317871094,XArbitraryZVertical,0.1765055482537758,-0.0287292997457196,0.004236320382764061,0.9838712065109385,-0.05802733078598976,-0.347074031829834,-0.9360408186912537,0,0,0,-1,-1,2840.121929791667,unknown,2,2022-06-02T10:48:15.844+02:00,2022-06-02T10:17:13.754+02:00,465,1.464781,0,0,360.0712,0,0,2022-06-02T10:48:15.843+02:00,675852495.8433312,0,6.800781,101.3,1,0.8
2022-06-02T10:48:18.300+02:00,1654159697.999805,53.2290918149494,10.39854737502938,37.12632,0,20,-1,-1,2.400000095367432,7.999579855010837,-9999,2842.577785375,-0.04278564453125,-0.2877655029296875,-0.859405517578125,2842.567791375,0.01940185551650818,-0.06111938827566753,0.3532806211534051,-0.1210019439458847,0.07671761512756348,-0.02382110990583897,0.004376407712697983,0.05946344137191772,0.06587016582489014,XArbitraryZVertical,0.1759246462804854,-0.0283742215417916,0.004176411245963609,0.9839857429393556,-0.05730912461876869,-0.3459776937961578,-0.9364908337593079,0,0,0,-1,-1,2840.121929791667,unknown,2,2022-06-02T10:48:15.844+02:00,2022-06-02T10:17:13.754+02:00,465,1.464781,0,0,360.0712,0,0,2022-06-02T10:48:15.843+02:00,675852495.8433312,0,6.800781,101.3,1,0.8
2022-06-02T10:48:18.309+02:00,1654159697.999805,53.2290918149494,10.39854737502938,37.12632,0,20,-1,-1,2.400000095367432,7.999579855010837,-9999,2842.587779375,-0.0368194580078125,-0.27166748046875,-0.8721466064453125,2842.577785375,0.01907607009731602,-0.06030948613308726,0.3521218850701348,-0.1067186295986176,0.05691860988736153,-0.01277458388358355,0.01179024204611778,0.05817762017250061,0.08349716663360596,XArbitraryZVertical,0.175348317786382,-0.0280129121329718,0.004105530956552673,0.9840992348159531,-0.05657476559281349,-0.3448902666568756,-0.9369364976882935,0,0,0,-1,-1,2840.121929791667,unknown,2,2022-06-02T10:48:15.844+02:00,2022-06-02T10:17:13.754+02:00,465,1.464781,0,0,360.0712,0,0,2022-06-02T10:48:15.843+02:00,675852495.8433312,0,6.800781,101.3,1,0.8
2022-06-02T10:48:18.320+02:00,1654159697.999805,53.2290918149494,10.39854737502938,37.12632,0,20,-1,-1,2.400000095367432,7.999579855010837,-9999,2842.597774375,-0.0362091064453125,-0.291015625,-0.891021728515625,2842.587779375,0.01904145210915625,-0.05967500476843931,0.3505281519838465,-0.1205064803361893,0.03935719281435013,0.02157593332231045,0.01511946320533752,0.06534823775291443,0.07033222913742065,XArbitraryZVertical,0.1745623449465363,-0.0277153700153336,0.0041688558847412,0.9842471297046684,-0.05601299554109573,-0.3433938920497894,-0.9375196695327759,0,0,0,-1,-1,2840.121929791667,unknown,2,2022-06-02T10:48:15.844+02:00,2022-06-02T10:17:13.754+02:00,465,1.464781,0,0,360.0712,0,0,2022-06-02T10:48:15.843+02:00,675852495.8433312,0,6.800781,101.3,1,0.8
2022-06-02T10:48:18.329+02:00,1654159697.999805,53.2290918149494,10.39854737502938,37.12632,0,20,-1,-1,2.400000095367432,7.999579855010837,-9999,2842.607768375,-0.0309295654296875,-0.306060791015625,-0.92413330078125,2842.597774375,0.01927250661801501,-0.05955224594037726,0.348592627402144,-0.1441465616226196,0.01303690578788519,0.03478121757507324,0.01692065969109535,0.06136301159858704,0.05740523338317871,XArbitraryZVertical,0.1736127726709546,-0.02764897890883704,0.004323270761071353,0.9844163066857989,-0.05593736097216606,-0.341575413942337,-0.9381882548332214,0,0,0,-1,-1,2840.121929791667,unknown,2,2022-06-02T10:48:15.844+02:00,2022-06-02T10:17:13.754+02:00,465,1.464781,0,0,360.0712,0,0,2022-06-02T10:48:15.843+02:00,675852495.8433312,0,6.800781,101.3,1,0.8
2022-06-02T10:48:18.339+02:00,1654159697.999805,53.2290918149494,10.39854737502938,37.12632,0,20,-1,-1,2.400000095367432,7.999579855010837,-9999,2842.617762375,-0.038909912109375,-0.3188323974609375,-0.951385498046875,2842.607768375,0.01964418219972442,-0.05971600291285471,0.3465076014409775,-0.1943240165710449,0.00387902744114399,0.04177367687225342,0.02209103852510452,0.03988665342330933,0.03114265203475952,XArbitraryZVertical,0.1725920406418229,-0.02771278092359116,0.004524418459714826,0.984592992390975,-0.05613337829709053,-0.3396150469779968,-0.9388879537582397,0,0,0,-1,-1,2840.121929791667,unknown,2,2022-06-02T10:48:15.844+02:00,2022-06-02T10:17:13.754+02:00,465,1.464781,0,0,360.0712,0,0,2022-06-02T10:48:15.843+02:00,675852495.8433312,0,6.800781,101.3,1,0.8
2022-06-02T10:48:18.349+02:00,1654159697.999805,53.2290918149494,10.39854737502938,37.12632,0,20,-1,-1,2.400000095367432,7.999579855010837,-9999,2842.627754625,-0.054473876953125,-0.3000946044921875,-0.9557342529296875,2842.617762375,0.02005402732269877,-0.06010884102299403,0.3438584751535632,-0.2194466590881348,-0.001277917879633605,0.04277609288692474,0.02307828515768051,0.02419492602348328,0.00108569860458374,XArbitraryZVertical,0.1712944855866971,-0.0278907184576455,0.004733771460772864,0.9848135260736711,-0.05655604973435402,-0.3371222019195557,-0.9397606253623962,0,0,0,-1,-1,2840.121929791667,unknown,2,2022-06-02T10:48:15.844+02:00,2022-06-02T10:17:13.754+02:00,465,1.464781,0,0,360.0712,0,0,2022-06-02T10:48:15.843+02:00,675852495.8433312,0,6.800781,101.3,1,0.8
2022-06-02T10:48:18.359+02:00,1654159697.999805,53.2290918149494,10.39854737502938,37.12632,0,20,-1,-1,2.400000095367432,7.999579855010837,-9999,2842.637749625,-0.060333251953125,-0.26318359375,-0.951934814453125,2842.627754625,0.02039571499976947,-0.06028921979666033,0.3414687860375948,-0.1774928271770477,0.006761100143194199,0.04282349720597267,0.009593784809112549,0.01904502511024475,-0.01887500286102295,XArbitraryZVertical,0.1701229891885237,-0.02796841221390507,0.004924131654413178,0.9850134855312339,-0.05677394196391106,-0.3348714411258698,-0.9405518770217896,0,0,0,-1,-1,2840.121929791667,unknown,2,2022-06-02T10:48:15.844+02:00,2022-06-02T10:17:13.754+02:00,465,1.464781,0,0,360.0712,0,0,2022-06-02T10:48:15.843+02:00,675852495.8433312,0,6.800781,101.3,1,0.8
2022-06-02T10:48:18.369+02:00,1654159697.999805,53.2290918149494,10.39854737502938,37.12632,0,20,-1,-1,2.400000095367432,7.999579855010837,-9999,2842.647743625,-0.051025390625,-0.2728729248046875,-0.9474029541015625,2842.637749625,0.02078960993583616,-0.06028532098448282,0.3393783528546967,-0.113066703081131,0.01753864623606205,0.05160952731966972,-0.003429349511861801,0.05670163035392761,-0.008961737155914307,XArbitraryZVertical,0.1690989577556873,-0.02794902556838671,0.005151342427101482,0.9851891502447319,-0.05681232735514641,-0.3329009711742401,-0.9412487745285034,0,0,0,-1,-1,2840.121929791667,unknown,2,2022-06-02T10:48:15.844+02:00,2022-06-02T10:17:13.754+02:00,465,1.464781,0,0,360.0712,0,0,2022-06-02T10:48:15.843+02:00,675852495.8433312,0,6.800781,101.3,1,0.8
2022-06-02T10:48:18.379+02:00,1654159697.999805,53.2290918149494,10.39854737502938,37.12632,0,20,-1,-1,2.400000095367432,7.999579855010837,-9999,2842.657737625,-0.0291748046875,-0.30169677734375,-0.92132568359375,2842.647743625,0.02132786091344731,-0.06027202080761224,0.3380839789974967,-0.0655180886387825,0.02516221068799496,0.05823547765612602,0.0008870139718055725,0.06780987977981567,-0.01404011249542236,XArbitraryZVertical,0.1684688559761399,-0.02790704828588704,0.005437990138661683,0.9852968311315623,-0.05682571604847908,-0.3316801488399506,-0.9416788816452026,0,0,0,-1,-1,2840.121929791667,unknown,2,2022-06-02T10:48:15.844+02:00,2022-06-02T10:17:13.754+02:00,465,1.464781,0,0,360.0712,0,0,2022-06-02T10:48:15.843+02:00,675852495.8433312,0,6.800781,101.3,1,0.8
2022-06-02T10:48:18.389+02:00,1654159697.999805,53.2290918149494,10.39854737502938,37.12632,0,20,-1,-1,2.400000095367432,7.999579855010837,-9999,2842.667732625,-0.0147705078125,-0.3521881103515625,-0.895965576171875,2842.667732625,0.02231363407889963,-0.06020187872239326,0.3356082206948494,-0.1334801018238068,-0.01817034929990768,0.03790729865431786,0.03657576441764832,0.004453390836715698,0.03765350580215454,XArbitraryZVertical,0.1672627380130022,-0.02780931011126018,0.00596857764938721,0.985501872359561,-0.05680889636278152,-0.3293435275554657,-0.9424996376037598,0,0,0,-1,-1,2840.121929791667,unknown,2,2022-06-02T10:48:15.844+02:00,2022-06-02T10:17:13.754+02:00,465,1.464781,0,0,360.0712,0,0,2022-06-02T10:48:15.843+02:00,675852495.8433312,0,6.800781,101.3,1,0.8
2022-06-02T10:48:18.400+02:00,1654159697.999805,53.2290918149494,10.39854737502938,37.12632,0,20,-1,-1,2.400000095367432,7.999579855010837,-9999,2842.677726625,-0.0188751220703125,-0.395751953125,-0.8930206298828125,2842.667732625,0.02231363407889963,-0.06020187872239326,0.3356082206948494,-0.1334801018238068,-0.01817034929990768,0.03790729865431786,0.03657576441764832,0.004453390836715698,0.03765350580215454,XArbitraryZVertical,0.1672627380130022,-0.02780931011126018,0.00596857764938721,0.985501872359561,-0.05680889636278152,-0.3293435275554657,-0.9424996376037598,0,0,0,-1,-1,2840.121929791667,unknown,2,2022-06-02T10:48:15.844+02:00,2022-06-02T10:17:13.754+02:00,465,1.464781,0,0,360.0712,0,0,2022-06-02T10:48:15.843+02:00,675852495.8433312,0,6.800781,101.3,1,0.8
2022-06-02T10:48:18.409+02:00,1654159697.999805,53.2290918149494,10.39854737502938,37.12632,0,20,-1,-1,2.400000095367432,7.999579855010837,-9999,2842.687720625,-0.0386810302734375,-0.390228271484375,-0.900390625,2842.677726625,0.0223896680781064,-0.06026384465477658,0.3333258158560906,-0.2256989777088165,-0.03635308146476746,0.01620520278811455,0.04240133240818977,-0.05197808146476746,0.04953670501708984,XArbitraryZVertical,0.1661393412019505,-0.027851798462836,0.006036886435794654,0.985690285677587,-0.05691242218017578,-0.3271875977516174,-0.9432439804077148,0,0,0,-1,-1,2842.680245625,unknown,2,2022-06-02T10:48:18.402+02:00,2022-06-02T10:17:13.754+02:00,467,1.462823,0,0,361.8512,0,0,2022-06-02T10:48:18.402+02:00,675852498.401696,0,6.921875,101.2991,1,0.8
2022-06-02T10:48:18.419+02:00,1654159697.999805,53.2290918149494,10.39854737502938,37.12632,0,20,-1,-1,2.400000095367432,7.999579855010837,-9999,2842.697715625,-0.060211181640625,-0.3408660888671875,-0.94940185546875,2842.687720625,0.02232990860926773,-0.06030984205766191,0.3305904123410475,-0.2732654213905334,-0.04409462213516235,0.02735132910311222,0.02995572984218597,-0.07487353682518005,0.05036294460296631,XArbitraryZVertical,0.1647905071853394,-0.0279012970645778,0.006046802654689645,0.9859152683701087,-0.05700954049825668,-0.3246015310287476,-0.9441311955451965,0,0,0,-1,-1,2842.680245625,unknown,2,2022-06-02T10:48:18.402+02:00,2022-06-02T10:17:13.754+02:00,467,1.462823,0,0,361.8512,0,0,2022-06-02T10:48:18.402+02:00,675852498.401696,0,6.921875,101.2991,1,0.8
2022-06-02T10:48:18.429+02:00,1654159697.999805,53.2290918149494,10.39854737502938,37.12632,0,20,-1,-1,2.400000095367432,7.999579855010837,-9999,2842.707709625,-0.069976806640625,-0.281036376953125,-1.015045166015625,2842.697715625,0.02235747000842077,-0.06039601658563664,0.3278414854747951,-0.2501491904258728,-0.04066047817468643,0.03476423770189285,0.006241247057914734,-0.04714038968086243,0.02583926916122437,XArbitraryZVertical,0.1634360434065549,-0.02796345574684832,0.006096741736931918,0.9861386575738031,-0.05714454501867294,-0.3220002353191376,-0.9450134038925171,0,0,0,-1,-1,2842.680245625,unknown,2,2022-06-02T10:48:18.402+02:00,2022-06-02T10:17:13.754+02:00,467,1.462823,0,0,361.8512,0,0,2022-06-02T10:48:18.402+02:00,675852498.401696,0,6.921875,101.2991,1,0.8
2022-06-02T10:48:18.439+02:00,1654159697.999805,53.2290918149494,10.39854737502938,37.12632,0,20,-1,-1,2.400000095367432,7.999579855010837,-9999,2842.717703625,-0.0778045654296875,-0.264556884765625,-1.047027587890625,2842.707709625,0.02267076031646804,-0.06064929980821482,0.3254890541822456,-0.184299498796463,-0.02539477311074734,0.06442819535732269,-0.008122090250253677,0.009850919246673584,-0.03763079643249512,XArbitraryZVertical,0.1622813261613613,-0.02808168775041781,0.006267870012972158,0.9863248979837327,-0.05742965266108513,-0.3197722136974335,-0.9457523822784424,0,0,0,-1,-1,2842.680245625,unknown,2,2022-06-02T10:48:18.402+02:00,2022-06-02T10:17:13.754+02:00,467,1.462823,0,0,361.8512,0,0,2022-06-02T10:48:18.402+02:00,675852498.401696,0,6.921875,101.2991,1,0.8
2022-06-02T10:48:18.449+02:00,1654159697.999805,53.2290918149494,10.39854737502938,37.12632,0,20,-1,-1,2.400000095367432,7.999579855010837,-9999,2842.727698625,-0.0786285400390625,-0.2935943603515625,-1.031845092773438,2842.717703625,0.02335019385612691,-0.06105192037391584,0.3233272490088105,-0.120775118470192,0.00570349209010601,0.06891694664955139,-0.01561857759952545,0.05305942893028259,-0.09081447124481201,XArbitraryZVertical,0.161226096062016,-0.02824288749543645,0.006604862118123295,0.9864911596235554,-0.05785246938467026,-0.3177231550216675,-0.946416974067688,0,0,0,-1,-1,2842.680245625,unknown,2,2022-06-02T10:48:18.402+02:00,2022-06-02T10:17:13.754+02:00,467,1.462823,0,0,361.8512,0,0,2022-06-02T10:48:18.402+02:00,675852498.401696,0,6.921875,101.2991,1,0.8
2022-06-02T10:48:18.459+02:00,1654159697.999805,53.2290918149494,10.39854737502938,37.12632,0,20,-1,-1,2.400000095367432,7.999579855010837,-9999,2842.737692625,-0.066314697265625,-0.32916259765625,-0.990753173828125,2842.727698625,0.02384163032627977,-0.06101581900874542,0.3215526511297584,-0.1175446957349777,0.03331967443227768,0.0389164425432682,-0.0241938978433609,0.04042050242424011,-0.09774315357208252,XArbitraryZVertical,0.16035763279891,-0.02820024246758892,0.006878580853552341,0.9866320738037766,-0.05785259231925011,-0.3160400092601776,-0.946980357170105,0,0,0,-1,-1,2842.680245625,unknown,2,2022-06-02T10:48:18.402+02:00,2022-06-02T10:17:13.754+02:00,467,1.462823,0,0,361.8512,0,0,2022-06-02T10:48:18.402+02:00,675852498.401696,0,6.921875,101.2991,1,0.8
2022-06-02T10:48:18.469+02:00,1654159697.999805,53.2290918149494,10.39854737502938,37.12632,0,20,-1,-1,2.400000095367432,7.999579855010837,-9999,2842.747686625,-0.0578460693359375,-0.342498779296875,-0.95294189453125,2842.737692625,0.02398211099341244,-0.06050044605722671,0.3197990814738155,-0.1846771389245987,0.04921847954392433,0.01807587221264839,-0.01392160356044769,0.001112878322601318,-0.06667464971542358,XArbitraryZVertical,0.1594927891107032,-0.02794934367495532,0.007017059020155723,0.9867784036830364,-0.05739795789122581,-0.3143758475780487,-0.9475617408752441,0,0,0,-1,-1,2842.680245625,unknown,2,2022-06-02T10:48:18.402+02:00,2022-06-02T10:17:13.754+02:00,467,1.462823,0,0,361.8512,0,0,2022-06-02T10:48:18.402+02:00,675852498.401696,0,6.921875,101.2991,1,0.8
2022-06-02T10:48:18.479+02:00,1654159697.999805,53.2290918149494,10.39854737502938,37.12632,0,20,-1,-1,2.400000095367432,7.999579855010837,-9999,2842.757681625,-0.05859375,-0.339599609375,-0.9091339111328125,2842.747686625,0.02378524594470277,-0.0594987462009074,0.317742867222583,-0.3047161102294922,0.04223473742604256,-0.0006505437195301056,-0.005356777459383011,-0.02668815851211548,-0.02166283130645752,XArbitraryZVertical,0.1584720560890992,-0.02748773087677849,0.007031938494971307,0.9869556896736946,-0.056487075984478,-0.3124231994152069,-0.9482620358467102,0,0,0,-1,-1,2842.680245625,unknown,2,2022-06-02T10:48:18.402+02:00,2022-06-02T10:17:13.754+02:00,467,1.462823,0,0,361.8512,0,0,2022-06-02T10:48:18.402+02:00,675852498.401696,0,6.921875,101.2991,1,0.8
2022-06-02T10:48:18.489+02:00,1654159697.999805,53.2290918149494,10.39854737502938,37.12632,0,20,-1,-1,2.400000095367432,7.999579855010837,-9999,2842.767675625,-0.06024169921875,-0.3430328369140625,-0.87799072265625,2842.757681625,0.02318594277942305,-0.05830763551684288,0.3153075155010628,-0.4461281001567841,0.02736364677548409,-0.03042122162878513,-0.001193102449178696,-0.03193217515945435,0.01767373085021973,XArbitraryZVertical,0.1572579611579206,-0.02696694930384614,0.006867840974572113,0.9871654457157666,-0.05540172755718231,-0.3101088404655457,-0.9490854144096375,0,0,0,-1,-1,2842.680245625,unknown,2,2022-06-02T10:48:18.402+02:00,2022-06-02T10:17:13.754+02:00,467,1.462823,0,0,361.8512,0,0,2022-06-02T10:48:18.402+02:00,675852498.401696,0,6.921875,101.2991,1,0.8
2022-06-02T10:48:18.499+02:00,1654159697.999805,53.2290918149494,10.39854737502938,37.12632,0,20,-1,-1,2.400000095367432,7.999579855010837,-9999,2842.777669625,-0.0654449462890625,-0.3605194091796875,-0.86505126953125,2842.767675625,0.02221735768293811,-0.05747384919340803,0.311511110055796,-0.6227922439575195,-0.007890679873526096,-0.06737104803323746,-0.004724841564893723,-0.03192734718322754,0.05903393030166626,XArbitraryZVertical,0.1553682634832898,-0.02666089189472967,0.006512475627778213,0.9874752358498766,-0.05467760562896729,-0.3064973652362823,-0.9502997994422913,0,0,0,-1,-1,2842.680245625,unknown,2,2022-06-02T10:48:18.402+02:00,2022-06-02T10:17:13.754+02:00,467,1.462823,0,0,361.8512,0,0,2022-06-02T10:48:18.402+02:00,675852498.401696,0,6.921875,101.2991,1,0.8
2022-06-02T10:48:18.509+02:00,1654159697.999805,53.2290918149494,10.39854737502938,37.12632,0,20,-1,-1,2.400000095367432,7.999579855010837,-9999,2842.787663625,-0.0877685546875,-0.37542724609375,-0.845184326171875,2842.777669625,0.02080836986577242,-0.05724083596789042,0.3050064032291427,-0.8747035264968872,-0.0428481288254261,-0.1130727604031563,-0.006572868674993515,-0.05042397975921631,0.08198255300521851,XArbitraryZVertical,0.1521366126717834,-0.0267030044832887,0.005932058035792886,0.9879807535116577,-0.05456907674670219,-0.3002992868423462,-0.9522827863693237,0,0,0,-1,-1,2842.680245625,unknown,2,2022-06-02T10:48:18.402+02:00,2022-06-02T10:17:13.754+02:00,467,1.462823,0,0,361.8512,0,0,2022-06-02T10:48:18.402+02:00,675852498.401696,0,6.921875,101.2991,1,0.8
2022-06-02T10:48:18.519+02:00,1654159697.999805,53.2290918149494,10.39854737502938,37.12632,0,20,-1,-1,2.400000095367432,7.999579855010837,-9999,2842.797658625,-0.12054443359375,-0.3886260986328125,-0.8137664794921875,2842.787663625,0.01874414804219885,-0.0571902639392998,0.2946495539395504,-1.228119611740112,-0.06693954765796661,-0.1663299351930618,-0.02085047960281372,-0.08003309369087219,0.09622395038604736,XArbitraryZVertical,0.1469910314966071,-0.02690510917326094,0.005069831181930671,0.9887587375201666,-0.05469576269388199,-0.2904045283794403,-0.9553394913673401,0,0,0,-1,-1,2842.680245625,unknown,2,2022-06-02T10:48:18.402+02:00,2022-06-02T10:17:13.754+02:00,467,1.462823,0,0,361.8512,0,0,2022-06-02T10:48:18.402+02:00,675852498.401696,0,6.921875,101.2991,1,0.8
2022-06-02T10:48:18.529+02:00,1654159697.999805,53.2290918149494,10.39854737502938,37.12632,0,20,-1,-1,2.400000095367432,7.999579855010837,-9999,2842.807652625,-0.1742706298828125,-0.4020843505859375,-0.774200439453125,2842.797658625,0.01576058556511456,-0.05716049227917309,0.2804465721484547,-1.648560523986816,-0.09247260540723801,-0.2525524199008942,-0.04726013541221619,-0.1031895577907562,0.1291165947914124,XArbitraryZVertical,0.1399257729217191,-0.02719407262677611,0.003805851123074441,0.9897811853575803,-0.05489743500947952,-0.2767848074436188,-0.9593625068664551,0,0,0,-1,-1,2842.680245625,unknown,2,2022-06-02T10:48:18.402+02:00,2022-06-02T10:17:13.754+02:00,467,1.462823,0,0,361.8512,0,0,2022-06-02T10:48:18.402+02:00,675852498.401696,0,6.921875,101.2991,1,0.8
2022-06-02T10:48:18.539+02:00,1654159697.999805,53.2290918149494,10.39854737502938,37.12632,0,20,-1,-1,2.400000095367432,7.999579855010837,-9999,2842.817646625,-0.244537353515625,-0.39239501953125,-0.7199554443359375,2842.807652625,0.01127258251756057,-0.05694265859348931,0.2618291149917272,-2.130059480667114,-0.09952066093683243,-0.4081042110919952,-0.09039823710918427,-0.1395744979381561,0.1688203811645508,XArbitraryZVertical,0.1306450300529646,-0.0274879720099501,0.001869654023080051,0.9910462921595226,-0.05497222766280174,-0.2588477730751038,-0.964352548122406,0,0,0,-1,-1,2842.680245625,unknown,2,2022-06-02T10:48:18.402+02:00,2022-06-02T10:17:13.754+02:00,467,1.462823,0,0,361.8512,0,0,2022-06-02T10:48:18.402+02:00,675852498.401696,0,6.921875,101.2991,1,0.8
2022-06-02T10:48:18.549+02:00,1654159697.999805,53.2290918149494,10.39854737502938,37.12632,0,20,-1,-1,2.400000095367432,7.999579855010837,-9999,2842.827641625,-0.2676239013671875,-0.3850860595703125,-0.656341552734375,2842.817646625,0.004719209542187819,-0.05621153761834871,0.2382182469155996,-2.671495676040649,-0.08029823005199432,-0.5765337347984314,-0.1580968797206879,-0.1657160818576813,0.2193248271942139,XArbitraryZVertical,0.1188462716743926,-0.02762260992263419,-0.0009973355252401294,0.9925278439766575,-0.05459535866975784,-0.2359715700149536,-0.9702250957489014,0,0,0,-1,-1,2842.680245625,unknown,2,2022-06-02T10:48:18.402+02:00,2022-06-02T10:17:13.754+02:00,467,1.462823,0,0,361.8512,0,0,2022-06-02T10:48:18.402+02:00,675852498.401696,0,6.921875,101.2991,1,0.8
2022-06-02T10:48:18.559+02:00,1654159697.999805,53.2290918149494,10.39854737502938,37.12632,0,20,-1,-1,2.400000095367432,7.999579855010837,-9999,2842.837635625,-0.2745513916015625,-0.3683013916015625,-0.6141357421875,2842.827641625,-0.003626776258746211,-0.05520443401138407,0.2091290945133044,-3.230620384216309,-0.08306692540645599,-0.7376378774642944,-0.2057456076145172,-0.1741363406181335,0.2965309023857117,XArbitraryZVertical,0.1042844069075418,-0.02763712595968975,-0.004683382338707594,0.9941523574883304,-0.0539742186665535,-0.2076080441474915,-0.9767218828201294,0,0,0,-1,-1,2842.680245625,unknown,2,2022-06-02T10:48:18.402+02:00,2022-06-02T10:17:13.754+02:00,467,1.462823,0,0,361.8512,0,0,2022-06-02T10:48:18.402+02:00,675852498.401696,0,6.921875,101.2991,1,0.8
2022-06-02T10:48:18.569+02:00,1654159697.999805,53.2290918149494,10.39854737502938,37.12632,0,20,-1,-1,2.400000095367432,7.999579855010837,-9999,2842.847629625,-0.2824859619140625,-0.3333587646484375,-0.55535888671875,2842.837635625,-0.01397913489909913,-0.05410174631410165,0.1744910334607883,-3.808938503265381,-0.08548960089683533,-0.926780104637146,-0.2191303968429565,-0.2119674533605576,0.3425049781799316,XArbitraryZVertical,0.0869125371181106,-0.02755284753042479,-0.009317107676203595,0.9957912992223887,-0.05325422435998917,-0.1736069172620773,-0.9833741188049316,0,0,0,-1,-1,2842.680245625,unknown,2,2022-06-02T10:48:18.402+02:00,2022-06-02T10:17:13.754+02:00,467,1.462823,0,0,361.8512,0,0,2022-06-02T10:48:18.402+02:00,675852498.401696,0,6.921875,101.2991,1,0.8
2022-06-02T10:48:18.579+02:00,1654159697.999805,53.2290918149494,10.39854737502938,37.12632,0,20,-1,-1,2.400000095367432,7.999579855010837,-9999,2842.857624625,-0.295562744140625,-0.3467254638671875,-0.5298919677734375,2842.847629625,-0.0267205543561513,-0.05300488782895686,0.1342974083347852,-4.345313549041748,-0.08432327210903168,-1.161173224449158,-0.2244287133216858,-0.2129382193088531,0.4068096876144409,XArbitraryZVertical,0.06671548081522777,-0.02733337479423363,-0.0151029931347516,0.9972831317354401,-0.05250301957130432,-0.1338940858840942,-0.9896038770675659,0,0,0,-1,-1,2842.680245625,unknown,2,2022-06-02T10:48:18.402+02:00,2022-06-02T10:17:13.754+02:00,467,1.462823,0,0,361.8512,0,0,2022-06-02T10:48:18.402+02:00,675852498.401696,0,6.921875,101.2991,1,0.8
2022-06-02T10:48:18.589+02:00,1654159697.999805,53.2290918149494,10.39854737502938,37.12632,0,20,-1,-1,2.400000095367432,7.999579855010837,-9999,2842.867618625,-0.334197998046875,-0.374237060546875,-0.5560760498046875,2842.857624625,-0.04216071059177338,-0.05214746692028781,0.08950216547442234,-4.749100208282471,-0.08521383255720139,-1.440831303596497,-0.2357739806175232,-0.2445254027843475,0.4605858325958252,XArbitraryZVertical,0.0441620188023483,-0.02698155759740541,-0.02221658252982862,0.9984127176887486,-0.05191520228981972,-0.08938271552324295,-0.9946434497833252,0,0,0,-1,-1,2842.680245625,unknown,2,2022-06-02T10:48:18.402+02:00,2022-06-02T10:17:13.754+02:00,467,1.462823,0,0,361.8512,0,0,2022-06-02T10:48:18.402+02:00,675852498.401696,0,6.921875,101.2991,1,0.8
2022-06-02T10:48:18.600+02:00,1654159697.999805,53.2290918149494,10.39854737502938,37.12632,0,20,-1,-1,2.400000095367432,7.999579855010837,-9999,2842.877612625,-0.403045654296875,-0.384765625,-0.5975189208984375,2842.867618625,-0.06063261819890135,-0.05174252829171955,0.04135122597911425,-5.055315017700195,-0.06354948133230209,-1.741486191749573,-0.2578797936439514,-0.3218808174133301,0.4597220420837402,XArbitraryZVertical,0.01987377984920835,-0.02647742470068486,-0.03082960802862175,0.9989761752107946,-0.0516752302646637,-0.0413394421339035,-0.9978079795837402,0,0,0,-1,-1,2842.680245625,unknown,2,2022-06-02T10:48:18.402+02:00,2022-06-02T10:17:13.754+02:00,467,1.462823,0,0,361.8512,0,0,2022-06-02T10:48:18.402+02:00,675852498.401696,0,6.921875,101.2991,1,0.8
2022-06-02T10:48:18.610+02:00,1654159697.999805,53.2290918149494,10.39854737502938,37.12632,0,20,-1,-1,2.400000095367432,7.999579855010837,-9999,2842.887607625,-0.492431640625,-0.358001708984375,-0.61920166015625,2842.877612625,-0.08208305285862476,-0.05183023875895711,-0.009343617272436166,-5.284702777862549,-0.0160426814109087,-2.016995191574097,-0.3143603801727295,-0.3906606733798981,0.4214650988578796,XArbitraryZVertical,-0.005729457916665349,-0.02569849922564702,-0.04089483067483286,0.9988163831354316,-0.05180477350950241,0.009343481622636318,-0.9986135363578796,0,0,0,-1,-1,2842.680245625,unknown,2,2022-06-02T10:48:18.402+02:00,2022-06-02T10:17:13.754+02:00,467,1.462823,0,0,361.8512,0,0,2022-06-02T10:48:18.402+02:00,675852498.401696,0,6.921875,101.2991,1,0.8
2022-06-02T10:48:18.620+02:00,1654159697.999805,53.2290918149494,10.39854737502938,37.12632,0,20,-1,-1,2.400000095367432,7.999579855010837,-9999,2842.897601625,-0.5758056640625,-0.269378662109375,-0.60772705078125,2842.887607625,-0.106158044759756,-0.05280673803365656,-0.06210322657641915,-5.526147365570068,-0.00449861166998744,-2.226398944854736,-0.3938527405261993,-0.4437772333621979,0.3830640316009521,XArbitraryZVertical,-0.03239206305305015,-0.02470383568983432,-0.05219155950305233,0.9978058131624221,-0.05268044769763947,0.0620633140206337,-0.9966809749603271,0,0,0,-1,-1,2842.680245625,unknown,2,2022-06-02T10:48:18.402+02:00,2022-06-02T10:17:13.754+02:00,467,1.462823,0,0,361.8512,0,0,2022-06-02T10:48:18.402+02:00,675852498.401696,0,6.921875,101.2991,1,0.8
2022-06-02T10:48:18.630+02:00,1654159697.999805,53.2290918149494,10.39854737502938,37.12632,0,20,-1,-1,2.400000095367432,7.999579855010837,-9999,2842.907595625,-0.6620330810546875,-0.2181549072265625,-0.60321044921875,2842.897601625,-0.1320843598299939,-0.05521176313789625,-0.1181695662308962,-5.981392383575439,0.008372978307306767,-2.316086292266846,-0.4811813235282898,-0.4339805841445923,0.3753172755241394,XArbitraryZVertical,-0.0607176479553372,-0.02359864216184097,-0.06422754192757706,0.9958068776808919,-0.05479887127876282,0.1178947389125824,-0.9915129542350769,0,0,0,-1,-1,2842.680245625,unknown,2,2022-06-02T10:48:18.402+02:00,2022-06-02T10:17:13.754+02:00,467,1.462823,0,0,361.8512,0,0,2022-06-02T10:48:18.402+02:00,675852498.401696,0,6.921875,101.2991,1,0.8
2022-06-02T10:48:18.640+02:00,1654159697.999805,53.2290918149494,10.39854737502938,37.12632,0,20,-1,-1,2.400000095367432,7.999579855010837,-9999,2842.917590625,-0.7442169189453125,-0.1656494140625,-0.5721435546875,2842.907595625,-0.159445247252084,-0.05865644514122911,-0.179133669586328,-6.517044067382812,0.130122646689415,-2.402243852615356,-0.5602961778640747,-0.4157718420028687,0.3757540583610535,XArbitraryZVertical,-0.09145064523530372,-0.02199336603072314,-0.07667025485971021,0.9926099817347505,-0.0576847568154335,0.1781771779060364,-0.9823061227798462,0,0,0,-1,-1,2842.680245625,unknown,2,2022-06-02T10:48:18.402+02:00,2022-06-02T10:17:13.754+02:00,467,1.462823,0,0,361.8512,0,0,2022-06-02T10:48:18.402+02:00,675852498.401696,0,6.921875,101.2991,1,0.8
2022-06-02T10:48:18.650+02:00,1654159697.999805,53.2290918149494,10.39854737502938,37.12632,0,20,-1,-1,2.400000095367432,7.999579855010837,-9999,2842.927584625,-0.79339599609375,-0.1110992431640625,-0.549896240234375,2842.917590625,-0.1889486829245902,-0.06272033405215698,-0.245589842142877,-7.11303186416626,0.3043985962867737,-2.556565999984741,-0.6454697847366333,-0.4400432407855988,0.3778157830238342,XArbitraryZVertical,-0.1248159540061318,-0.01943120853510828,-0.0897540720044166,0.9879208654991685,-0.06079847365617752,0.2431285083293915,-0.968086838722229,0,0,0,-1,-1,2842.680245625,unknown,2,2022-06-02T10:48:18.402+02:00,2022-06-02T10:17:13.754+02:00,467,1.462823,0,0,361.8512,0,0,2022-06-02T10:48:18.402+02:00,675852498.401696,0,6.921875,101.2991,1,0.8
2022-06-02T10:48:18.660+02:00,1654159697.999805,53.2290918149494,10.39854737502938,37.12632,0,20,-1,-1,2.400000095367432,7.999579855010837,-9999,2842.937578625,-0.8358001708984375,-0.0996551513671875,-0.5371246337890625,2842.927584625,-0.2215093950117941,-0.06774889569589906,-0.3176831697021812,-7.669949054718018,0.5150986909866333,-2.755335807800293,-0.7083649039268494,-0.4451638162136078,0.3897227048873901,XArbitraryZVertical,-0.1608114089295866,-0.01576396968046271,-0.1037501509945386,0.9813903488811162,-0.06430963426828384,0.3123665153980255,-0.9477823972702026,0,0,0,-1,-1,2842.680245625,unknown,2,2022-06-02T10:48:18.402+02:00,2022-06-02T10:17:13.754+02:00,467,1.462823,0,0,361.8512,0,0,2022-06-02T10:48:18.402+02:00,675852498.401696,0,6.921875,101.2991,1,0.8
2022-06-02T10:48:18.670+02:00,1654159697.999805,53.2290918149494,10.39854737502938,37.12632,0,20,-1,-1,2.400000095367432,7.999579855010837,-9999,2842.947573625,-0.8772430419921875,-0.05511474609375,-0.5674896240234375,2842.937578625,-0.2579312952662671,-0.07383928420725404,-0.3941759991978114,-8.06539249420166,0.8231257200241089,-2.971787214279175,-0.7449496984481812,-0.4885703027248383,0.3794308304786682,XArbitraryZVertical,-0.1987112745321528,-0.01072984489720206,-0.1188650391956735,0.9727639162035415,-0.06811486184597015,0.3840475082397461,-0.9207974076271057,0,0,0,-1,-1,2842.680245625,unknown,2,2022-06-02T10:48:18.402+02:00,2022-06-02T10:17:13.754+02:00,467,1.462823,0,0,361.8512,0,0,2022-06-02T10:48:18.402+02:00,675852498.401696,0,6.921875,101.2991,1,0.8
2022-06-02T10:48:18.680+02:00,1654159697.999805,53.2290918149494,10.39854737502938,37.12632,0,20,-1,-1,2.400000095367432,7.999579855010837,-9999,2842.957567625,-0.9198150634765625,0.0483551025390625,-0.5815277099609375,2842.947573625,-0.2986849340041278,-0.08099856264745714,-0.4736090617211181,-8.333023071289062,1.18329906463623,-3.167540073394775,-0.7847463488578796,-0.54008549451828,0.3398300409317017,XArbitraryZVertical,-0.2376520994497688,-0.004043526070616744,-0.1351243668378685,0.9618972707173112,-0.07200409471988678,0.4561010599136353,-0.8870102763175964,0,0,0,-1,-1,2842.680245625,unknown,2,2022-06-02T10:48:18.402+02:00,2022-06-02T10:17:13.754+02:00,467,1.462823,0,0,361.8512,0,0,2022-06-02T10:48:18.402+02:00,675852498.401696,0,6.921875,101.2991,1,0.8
2022-06-02T10:48:18.690+02:00,1654159697.999805,53.2290918149494,10.39854737502938,37.12632,0,20,-1,-1,2.400000095367432,7.999579855010837,-9999,2842.967561625,-0.98040771484375,0.263671875,-0.6283416748046875,2842.957567625,-0.3440681366365206,-0.08961292188471949,-0.5542101179218153,-8.389775276184082,1.567312240600586,-3.326838254928589,-0.8224011063575745,-0.5403862595558167,0.2689777612686157,XArbitraryZVertical,-0.2766386837898767,0.004338176658599646,-0.152418146548651,0.9487996651091231,-0.07609739154577255,0.5262718200683594,-0.846904456615448,0,0,0,-1,-1,2842.680245625,unknown,2,2022-06-02T10:48:18.402+02:00,2022-06-02T10:17:13.754+02:00,467,1.462823,0,0,361.8512,0,0,2022-06-02T10:48:18.402+02:00,675852498.401696,0,6.921875,101.2991,1,0.8
2022-06-02T10:48:18.700+02:00,1654159697.999805,53.2290918149494,10.39854737502938,37.12632,0,20,-1,-1,2.400000095367432,7.999579855010837,-9999,2842.977555625,-1.068328857421875,0.4917755126953125,-0.734130859375,2842.967561625,-0.3940212587318649,-0.1000929333632191,-0.6341211296447942,-8.297364234924316,1.944593906402588,-3.382461309432983,-0.8656826615333557,-0.4501511454582214,0.2050487399101257,XArbitraryZVertical,-0.3146651288081395,0.01433737817784301,-0.1704543868050169,0.9336623920232696,-0.0804995596408844,0.5924697518348694,-0.8015605807304382,0,0,0,-1,-1,2842.680245625,unknown,2,2022-06-02T10:48:18.402+02:00,2022-06-02T10:17:13.754+02:00,467,1.462823,0,0,361.8512,0,0,2022-06-02T10:48:18.402+02:00,675852498.401696,0,6.921875,101.2991,1,0.8
2022-06-02T10:48:18.710+02:00,1654159697.999805,53.2290918149494,10.39854737502938,37.12632,0,20,-1,-1,2.400000095367432,7.999579855010837,-9999,2842.987550625,-1.151611328125,0.68524169921875,-0.829864501953125,2842.977555625,-0.4479787514611318,-0.111960466459339,-0.7114462440941596,-7.931137084960938,2.43143892288208,-3.368263721466064,-0.9369977712631226,-0.2645174264907837,0.07916843891143799,XArbitraryZVertical,-0.3506861599698495,0.02609857828790794,-0.1888898319631029,0.9168744401682571,-0.08462385833263397,0.6529298424720764,-0.7526761889457703,0,0,0,-1,-1,2842.680245625,unknown,2,2022-06-02T10:48:18.402+02:00,2022-06-02T10:17:13.754+02:00,467,1.462823,0,0,361.8512,0,0,2022-06-02T10:48:18.402+02:00,675852498.401696,0,6.921875,101.2991,1,0.8
2022-06-02T10:48:18.720+02:00,1654159697.999805,53.2290918149494,10.39854737502938,37.12632,0,20,-1,-1,2.400000095367432,7.999579855010837,-9999,2842.997544625,-1.189926147460938,0.8648529052734375,-0.87933349609375,2842.987550625,-0.5058175855744123,-0.1244178523727516,-0.7835640509553561,-7.410728454589844,2.959408760070801,-3.350743532180786,-1.027430415153503,-0.1244336366653442,-0.08821117877960205,XArbitraryZVertical,-0.3833515257480079,0.03972824379211922,-0.207831556777759,0.8990379161405407,-0.08791069686412811,0.705808699131012,-0.7029265761375427,0,0,0,-1,-1,2842.680245625,unknown,2,2022-06-02T10:48:18.402+02:00,2022-06-02T10:17:13.754+02:00,467,1.462823,0,0,361.8512,0,0,2022-06-02T10:48:18.402+02:00,675852498.401696,0,6.921875,101.2991,1,0.8
2022-06-02T10:48:18.730+02:00,1654159697.999805,53.2290918149494,10.39854737502938,37.12632,0,20,-1,-1,2.400000095367432,7.999579855010837,-9999,2843.007538625,-1.145095825195312,0.9566802978515625,-0.8272552490234375,2842.997544625,-0.5679292084442503,-0.1373458960611808,-0.850099344959072,-6.880358219146729,3.521018266677856,-3.341206073760986,-1.086299896240234,0.03905922174453735,-0.2037737369537354,XArbitraryZVertical,-0.4124326081842813,0.05524806433556185,-0.2274696877985007,0.8804001346266052,-0.09035103023052216,0.7513459920883179,-0.6536939740180969,0,0,0,-1,-1,2842.680245625,unknown,2,2022-06-02T10:48:18.402+02:00,2022-06-02T10:17:13.754+02:00,467,1.462823,0,0,361.8512,0,0,2022-06-02T10:48:18.402+02:00,675852498.401696,0,6.921875,101.2991,1,0.8
2022-06-02T10:48:18.741+02:00,1654159697.999805,53.2290918149494,10.39854737502938,37.12632,0,20,-1,-1,2.400000095367432,7.999579855010837,-9999,2843.017533625,-1.030242919921875,1.053970336914062,-0.7228240966796875,2843.007538625,-0.6346059209539457,-0.1511514578621005,-0.9105465173787114,-6.335395812988281,4.00058650970459,-3.312029838562012,-1.088404893875122,0.1231704354286194,-0.2669697403907776,XArbitraryZVertical,-0.4377232993185776,0.0723717239438243,-0.2478825402934861,0.8612286256031775,-0.09235072880983353,0.7898390293121338,-0.6063212752342224,0,0,0,-1,-1,2842.680245625,unknown,2,2022-06-02T10:48:18.402+02:00,2022-06-02T10:17:13.754+02:00,467,1.462823,0,0,361.8512,0,0,2022-06-02T10:48:18.402+02:00,675852498.401696,0,6.921875,101.2991,1,0.8
2022-06-02T10:48:18.759+02:00,1654159697.999805,53.2290918149494,10.39854737502938,37.12632,0,20,-1,-1,2.400000095367432,7.999579855010837,-9999,2843.027527625,-0.9086151123046875,1.130859375,-0.614898681640625,2843.017533625,-0.7056914068119886,-0.1664105297129527,-0.9660079278433088,-5.968789100646973,4.413130760192871,-3.217578887939453,-0.9961338043212891,0.18149733543396,-0.2063871026039124,XArbitraryZVertical,-0.4597556168911725,0.09087414413620043,-0.2687575560136446,0.8415081574596106,-0.09418292343616486,0.8226224184036255,-0.5607333183288574,0,0,0,-1,-1,2842.680245625,unknown,2,2022-06-02T10:48:18.402+02:00,2022-06-02T10:17:13.754+02:00,467,1.462823,0,0,361.8512,0,0,2022-06-02T10:48:18.402+02:00,675852498.401696,0,6.921875,101.2991,1,0.8
2022-06-02T10:48:18.780+02:00,1654159697.999805,53.2290918149494,10.39854737502938,37.12632,0,20,-1,-1,2.400000095367432,7.999579855010837,-9999,2843.037521625,-0.8063201904296875,1.211502075195312,-0.5599365234375,2843.027527625,-0.7809746428060654,-0.183637528138538,-1.018320774644333,-5.803649425506592,4.749678611755371,-3.065680265426636,-0.873650848865509,0.2459399700164795,-0.1602058410644531,XArbitraryZVertical,-0.4793262529502312,0.1107260278537422,-0.2896272679103952,0.8210372506082032,-0.09583152085542679,0.8512279987335205,-0.5159721970558167,0,0,0,-1,-1,2842.680245625,unknown,2,2022-06-02T10:48:18.402+02:00,2022-06-02T10:17:13.754+02:00,467,1.462823,0,0,361.8512,0,0,2022-06-02T10:48:18.402+02:00,675852498.401696,0,6.921875,101.2991,1,0.8
2022-06-02T10:48:18.784+02:00,1654159697.999805,53.2290918149494,10.39854737502938,37.12632,0,20,-1,-1,2.400000095367432,7.999579855010837,-9999,2843.047516625,-0.71258544921875,1.325424194335938,-0.530609130859375,2843.037521625,-0.8616411650600376,-0.2044075533455413,-1.069668083985372,-5.866591453552246,5.0491042137146,-2.911481142044067,-0.7556007504463196,0.2897068858146667,-0.1033930778503418,XArbitraryZVertical,-0.4973647583543934,0.1319902416147015,-0.3101722008426126,0.799374778990491,-0.09751810133457184,0.8770411014556885,-0.4704137444496155,0,0,0,-1,-1,2842.680245625,unknown,2,2022-06-02T10:48:18.402+02:00,2022-06-02T10:17:13.754+02:00,467,1.462823,0,0,361.8512,0,0,2022-06-02T10:48:18.402+02:00,675852498.401696,0,6.921875,101.2991,1,0.8
2022-06-02T10:48:18.786+02:00,1654159697.999805,53.2290918149494,10.39854737502938,37.12632,0,20,-1,-1,2.400000095367432,7.999579855010837,-9999,2843.057510625,-0.5948638916015625,1.49853515625,-0.4514923095703125,2843.047516625,-0.949710701021106,-0.2308984511586677,-1.121584864226642,-6.025723457336426,5.322557926177979,-2.703659057617188,-0.6615754365921021,0.3611730933189392,-0.1299731731414795,XArbitraryZVertical,-0.5144638180472991,0.1547953422349255,-0.3301157059200447,0.7761372458206364,-0.09938031435012817,0.9007897973060608,-0.4227307736873627,0,0,0,-1,-1,2842.680245625,unknown,2,2022-06-02T10:48:18.402+02:00,2022-06-02T10:17:13.754+02:00,467,1.462823,0,0,361.8512,0,0,2022-06-02T10:48:18.402+02:00,675852498.401696,0,6.921875,101.2991,1,0.8
2022-06-02T10:48:18.789+02:00,1654159697.999805,53.2290918149494,10.39854737502938,37.12632,0,20,-1,-1,2.400000095367432,7.999579855010837,-9999,2843.067504625,-0.45458984375,1.6292724609375,-0.4026031494140625,2843.057510625,-1.046836489112626,-0.2649883588892251,-1.174684577051984,-6.2240891456604,5.574909210205078,-2.403773069381714,-0.5564672946929932,0.4854364395141602,-0.1194243431091309,XArbitraryZVertical,-0.5307188044235229,0.1793162173087168,-0.3490255043505443,0.7512418164055407,-0.101049117743969,0.9225682020187378,-0.3723664879798889,0,0,0,-1,-1,2842.680245625,unknown,2,2022-06-02T10:48:18.402+02:00,2022-06-02T10:17:13.754+02:00,467,1.462823,0,0,361.8512,0,0,2022-06-02T10:48:18.402+02:00,675852498.401696,0,6.921875,101.2991,1,0.8
2022-06-02T10:48:18.799+02:00,1654159697.999805,53.2290918149494,10.39854737502938,37.12632,0,20,-1,-1,2.400000095367432,7.999579855010837,-9999,2843.077499625,-0.308074951171875,1.701019287109375,-0.388580322265625,2843.067504625,-1.155690215103588,-0.3098961321501738,-1.228509551024336,-6.296020984649658,5.754531383514404,-2.078337669372559,-0.4249101877212524,0.6304742693901062,-0.1028929054737091,XArbitraryZVertical,-0.5458788947381846,0.205400702724165,-0.3665191133915943,0.7249071467332161,-0.1023572236299515,0.9419896006584167,-0.3196535706520081,0,0,0,-1,-1,2842.680245625,unknown,2,2022-06-02T10:48:18.402+02:00,2022-06-02T10:17:13.754+02:00,467,1.462823,0,0,361.8512,0,0,2022-06-02T10:48:18.402+02:00,675852498.401696,0,6.921875,101.2991,1,0.8
2022-06-02T10:48:18.809+02:00,1654159697.999805,53.2290918149494,10.39854737502938,37.12632,0,20,-1,-1,2.400000095367432,7.999579855010837,-9999,2843.087493625,-0.2027587890625,1.732986450195312,-0.37945556640625,2843.077499625,-1.279370247974052,-0.3693488501472077,-1.280487450738668,-6.028008460998535,5.858489990234375,-1.703189611434937,-0.2762855291366577,0.7103776931762695,-0.127282053232193,XArbitraryZVertical,-0.5590329054197727,0.2324009226101419,-0.382570354857137,0.6979339602183782,-0.1033378392457962,0.9581555128097534,-0.2669440507888794,0,0,0,-1,-1,2842.680245625,unknown,2,2022-06-02T10:48:18.402+02:00,2022-06-02T10:17:13.754+02:00,467,1.462823,0,0,361.8512,0,0,2022-06-02T10:48:18.402+02:00,675852498.401696,0,6.921875,101.2991,1,0.8
2022-06-02T10:48:18.819+02:00,1654159697.999805,53.2290918149494,10.39854737502938,37.12632,0,20,-1,-1,2.400000095367432,7.999579855010837,-9999,2843.097487625,-0.163787841796875,1.725494384765625,-0.295074462890625,2843.087493625,-1.418035562630229,-0.4442997728418338,-1.327322753047964,-5.435032844543457,5.910663604736328,-1.31055736541748,-0.1430382281541824,0.756712019443512,-0.1668525040149689,XArbitraryZVertical,-0.569063183904966,0.2594852212835367,-0.3972722925142871,0.671572053090394,-0.1036200225353241,0.9705064296722412,-0.2176690250635147,0,0,0,-1,-1,2842.680245625,unknown,2,2022-06-02T10:48:18.402+02:00,2022-06-02T10:17:13.754+02:00,467,1.462823,0,0,361.8512,0,0,2022-06-02T10:48:18.402+02:00,675852498.401696,0,6.921875,101.2991,1,0.8
2022-06-02T10:48:18.829+02:00,1654159697.999805,53.2290918149494,10.39854737502938,37.12632,0,20,-1,-1,2.400000095367432,7.999579855010837,-9999,2843.107482625,-0.1762237548828125,1.770858764648438,-0.062957763671875,2843.097487625,-1.570894675573873,-0.5342638248953064,-1.36683492664118,-4.717097759246826,5.915741920471191,-0.9647624492645264,-0.07267191261053085,0.7474430799484253,-0.1822443455457687,XArbitraryZVertical,-0.5753835095687835,0.2859585408291073,-0.4110277085114433,0.6466974646842608,-0.10313980281353,0.9792718887329102,-0.1743230670690536,0,0,0,-1,-1,2842.680245625,unknown,2,2022-06-02T10:48:18.402+02:00,2022-06-02T10:17:13.754+02:00,467,1.462823,0,0,361.8512,0,0,2022-06-02T10:48:18.402+02:00,675852498.401696,0,6.921875,101.2991,1,0.8
2022-06-02T10:48:18.839+02:00,1654159697.999805,53.2290918149494,10.39854737502938,37.12632,0,20,-1,-1,2.400000095367432,7.999579855010837,-9999,2843.117476625,-0.2111053466796875,1.824600219726562,0.236785888671875,2843.107482625,-1.73632972489529,-0.6379249746146508,-1.399174141906128,-4.094481945037842,5.864233016967773,-0.5894442796707153,-0.06330347061157227,0.7551388740539551,-0.05572313070297241,XArbitraryZVertical,-0.5782160102052597,0.3115594916729726,-0.4239536981305291,0.6235865274502558,-0.1017050296068192,0.9853090047836304,-0.1371938586235046,0,0,0,-1,-1,2842.680245625,unknown,2,2022-06-02T10:48:18.402+02:00,2022-06-02T10:17:13.754+02:00,467,1.462823,0,0,361.8512,0,0,2022-06-02T10:48:18.402+02:00,675852498.401696,0,6.921875,101.2991,1,0.8
2022-06-02T10:48:18.850+02:00,1654159697.999805,53.2290918149494,10.39854737502938,37.12632,0,20,-1,-1,2.400000095367432,7.999579855010837,-9999,2843.127470625,-0.205169677734375,1.870330810546875,0.575164794921875,2843.117476625,-1.903983516701887,-0.7450937146227525,-1.425415103982353,-3.276793241500854,5.808465480804443,-0.1421087980270386,-0.09505587071180344,0.81241375207901,0.1906955242156982,XArbitraryZVertical,-0.577601867693897,0.3363553507275581,-0.4359658990991334,0.6026398660607145,-0.09822715073823929,0.9894507527351379,-0.1064823195338249,0,0,0,-1,-1,2842.680245625,unknown,2,2022-06-02T10:48:18.402+02:00,2022-06-02T10:17:13.754+02:00,467,1.462823,0,0,361.8512,0,0,2022-06-02T10:48:18.402+02:00,675852498.401696,0,6.921875,101.2991,1,0.8
2022-06-02T10:48:18.859+02:00,1654159697.999805,53.2290918149494,10.39854737502938,37.12632,0,20,-1,-1,2.400000095367432,7.999579855010837,-9999,2843.137465625,-0.1274261474609375,1.874725341796875,0.841766357421875,2843.127470625,-2.052531480175032,-0.8348574147631331,-1.445672130549755,-2.450819969177246,5.688483238220215,0.1778169274330139,-0.1231064200401306,0.8491415977478027,0.4861946702003479,XArbitraryZVertical,-0.5733106271845698,0.35976043998984,-0.4474655626735601,0.5845185212415289,-0.09250024706125259,0.992182195186615,-0.08377470076084137,0,0,0,-1,-1,2842.680245625,unknown,2,2022-06-02T10:48:18.402+02:00,2022-06-02T10:17:13.754+02:00,467,1.462823,0,0,361.8512,0,0,2022-06-02T10:48:18.402+02:00,675852498.401696,0,6.921875,101.2991,1,0.8
2022-06-02T10:48:18.869+02:00,1654159697.999805,53.2290918149494,10.39854737502938,37.12632,0,20,-1,-1,2.400000095367432,7.999579855010837,-9999,2843.147459625,0.018280029296875,1.768630981445312,1.101104736328125,2843.137465625,-2.171283917082991,-0.8967254543936898,-1.461343020825277,-1.70586621761322,5.513589859008789,0.4101138412952423,-0.09040701389312744,0.8984705209732056,0.7867175340652466,XArbitraryZVertical,-0.5660406259127234,0.3814543381735411,-0.4587583769825405,0.5688860383263916,-0.08534366637468338,0.9940159916877747,-0.06818119436502457,0,0,0,-1,-1,2842.680245625,unknown,2,2022-06-02T10:48:18.402+02:00,2022-06-02T10:17:13.754+02:00,467,1.462823,0,0,361.8512,0,0,2022-06-02T10:48:18.402+02:00,675852498.401696,0,6.921875,101.2991,1,0.8
2022-06-02T10:48:18.879+02:00,1654159697.999805,53.2290918149494,10.39854737502938,37.12632,0,20,-1,-1,2.400000095367432,7.999579855010837,-9999,2843.157453625,0.1881866455078125,1.6392822265625,1.253219604492188,2843.147459625,-2.250138559826096,-0.9215093490420294,-1.474241407025231,-1.221181511878967,5.203187465667725,0.6332287192344666,0.01503606885671616,0.8298226594924927,1.030761480331421,XArbitraryZVertical,-0.5565972322610765,0.4013169178396704,-0.4695576664606996,0.5555716839221476,-0.07678836584091187,0.9953421950340271,-0.05828850343823433,0,0,0,-1,-1,2842.680245625,unknown,2,2022-06-02T10:48:18.402+02:00,2022-06-02T10:17:13.754+02:00,467,1.462823,0,0,361.8512,0,0,2022-06-02T10:48:18.402+02:00,675852498.401696,0,6.921875,101.2991,1,0.8
2022-06-02T10:48:18.889+02:00,1654159697.999805,53.2290918149494,10.39854737502938,37.12632,0,20,-1,-1,2.400000095367432,7.999579855010837,-9999,2843.167448625,0.300872802734375,1.497177124023438,1.271194458007812,2843.157453625,-2.297723293687734,-0.9192761514299652,-1.487101066201784,-1.045036554336548,4.716701507568359,0.9054935574531555,0.1714081466197968,0.7128051519393921,1.24776017665863,XArbitraryZVertical,-0.5463399240828327,0.4197215492184065,-0.4788434539365245,0.5441097537245296,-0.06647341698408127,0.9964995980262756,-0.05069301649928093,0,0,0,-1,-1,2842.680245625,unknown,2,2022-06-02T10:48:18.402+02:00,2022-06-02T10:17:13.754+02:00,467,1.462823,0,0,361.8512,0,0,2022-06-02T10:48:18.402+02:00,675852498.401696,0,6.921875,101.2991,1,0.8
2022-06-02T10:48:18.899+02:00,1654159697.999805,53.2290918149494,10.39854737502938,37.12632,0,20,-1,-1,2.400000095367432,7.999579855010837,-9999,2843.177442625,0.3221282958984375,1.373733520507812,1.211761474609375,2843.167448625,-2.322927226880646,-0.8999757991726305,-1.501800912281647,-1.120047211647034,4.173774719238281,1.175604939460754,0.309754490852356,0.5680683255195618,1.31728458404541,XArbitraryZVertical,-0.5362346655830129,0.4370637189964681,-0.4858006879036538,0.534252153518663,-0.05400187149643898,0.9976207613945007,-0.04285537824034691,0,0,0,-1,-1,2842.680245625,unknown,2,2022-06-02T10:48:18.402+02:00,2022-06-02T10:17:13.754+02:00,467,1.462823,0,0,361.8512,0,0,2022-06-02T10:48:18.402+02:00,675852498.401696,0,6.921875,101.2991,1,0.8
2022-06-02T10:48:18.909+02:00,1654159697.999805,53.2290918149494,10.39854737502938,37.12632,0,20,-1,-1,2.400000095367432,7.999579855010837,-9999,2843.187436625,0.2614593505859375,1.32489013671875,1.165191650390625,2843.177442625,-2.340574474646029,-0.8784004428546224,-1.519457580646984,-1.253179669380188,3.67767333984375,1.437702655792236,0.3620080649852753,0.434590756893158,1.28272819519043,XArbitraryZVertical,-0.5269335981526253,0.4538299363137696,-0.4901000120865267,0.5255295386273813,-0.03949825093150139,0.99868243932724,-0.03275874257087708,0,0,0,-1,-1,2842.680245625,unknown,2,2022-06-02T10:48:18.402+02:00,2022-06-02T10:17:13.754+02:00,467,1.462823,0,0,361.8512,0,0,2022-06-02T10:48:18.402+02:00,675852498.401696,0,6.921875,101.2991,1,0.8
2022-06-02T10:48:18.919+02:00,1654159697.999805,53.2290918149494,10.39854737502938,37.12632,0,20,-1,-1,2.400000095367432,7.999579855010837,-9999,2843.197430625,0.166748046875,1.374420166015625,1.216659545898438,2843.187436625,-2.303298823224908,-0.8066595974810428,-1.539070963216211,-1.092585682868958,3.232863664627075,1.691314220428467,0.322706937789917,0.3329769372940063,1.198202610015869,XArbitraryZVertical,-0.5179487626851285,0.4698455377589295,-0.4922760120365398,0.5183036009930655,-0.02290223352611065,0.9994968175888062,-0.02194849960505962,0,0,0,-1,-1,2842.680245625,unknown,2,2022-06-02T10:48:18.402+02:00,2022-06-02T10:17:13.754+02:00,467,1.462823,0,0,361.8512,0,0,2022-06-02T10:48:18.402+02:00,675852498.401696,0,6.921875,101.2991,1,0.8
2022-06-02T10:48:18.929+02:00,1654159697.999805,53.2290918149494,10.39854737502938,37.12632,0,20,-1,-1,2.400000095367432,7.999579855010837,-9999,2843.207425625,0.120880126953125,1.359161376953125,1.3406982421875,2843.197430625,-1.836521917596962,-0.309578725815136,-1.556314615082316,-0.5843274593353271,2.85772180557251,1.893832087516785,0.2176697850227356,0.3458690643310547,1.194765448570251,XArbitraryZVertical,-0.5083842619216804,0.4844040462462045,-0.4934038790370913,0.5132746133746819,-0.004412934649735689,0.9998951554298401,-0.01379632484167814,0,0,0,-1,-1,2842.680245625,unknown,2,2022-06-02T10:48:18.402+02:00,2022-06-02T10:17:13.754+02:00,467,1.462823,0,0,361.8512,0,0,2022-06-02T10:48:18.402+02:00,675852498.401696,0,6.921875,101.2991,1,0.8
2022-06-02T10:48:18.952+02:00,1654159697.999805,53.2290918149494,10.39854737502938,37.12632,0,20,-1,-1,2.400000095367432,7.999579855010837,-9999,2843.217419625,0.151885986328125,1.195297241210938,1.524627685546875,2843.207425625,-0.6083660417584046,0.9455383954379011,-1.551547917061397,0.09612850099802017,2.569380521774292,2.037225723266602,0.120157390832901,0.3838368654251099,1.280151724815369,XArbitraryZVertical,-0.4974730057882971,0.4968801914381357,-0.4945973478675713,0.5108855147718045,0.01560012623667717,0.9998147487640381,-0.01126136817038059,0,0,0,-1,-1,2842.680245625,unknown,2,2022-06-02T10:48:18.402+02:00,2022-06-02T10:17:13.754+02:00,467,1.462823,0,0,361.8512,0,0,2022-06-02T10:48:18.402+02:00,675852498.401696,0,6.921875,101.2991,1,0.8
2022-06-02T10:48:18.960+02:00,1654159697.999805,53.2290918149494,10.39854737502938,37.12632,0,20,-1,-1,2.400000095367432,7.999579855010837,-9999,2843.227413625,0.250732421875,0.960174560546875,1.757919311523438,2843.217419625,-0.3882649452093174,1.189876204671537,-1.531251040024967,0.693207859992981,2.288455963134766,2.115797758102417,0.08965805172920227,0.2960087656974792,1.44063138961792,XArbitraryZVertical,-0.48519057682941,0.5071896061482499,-0.4962807298333042,0.5109346253939973,0.03669999539852142,0.9992181658744812,-0.01469761505723,0,0,0,-1,-1,2842.680245625,unknown,2,2022-06-02T10:48:18.402+02:00,2022-06-02T10:17:13.754+02:00,467,1.462823,0,0,361.8512,0,0,2022-06-02T10:48:18.402+02:00,675852498.401696,0,6.921875,101.2991,1,0.8
