,loggingTime(txt),locationTimestamp_since1970(s),locationLatitude(WGS84),locationLongitude(WGS84),locationAltitude(m),locationSpeed(m/s),locationSpeedAccuracy(m/s),locationCourse(°),locationCourseAccuracy(°),locationVerticalAccuracy(m),locationHorizontalAccuracy(m),locationFloor(Z),accelerometerTimestamp_sinceReboot(s),accelerometerAccelerationX(G),accelerometerAccelerationY(G),accelerometerAccelerationZ(G),motionTimestamp_sinceReboot(s),motionYaw(rad),motionRoll(rad),motionPitch(rad),motionRotationRateX(rad/s),motionRotationRateY(rad/s),motionRotationRateZ(rad/s),motionUserAccelerationX(G),motionUserAccelerationY(G),motionUserAccelerationZ(G),motionAttitudeReferenceFrame(txt),motionQuaternionX(R),motionQuaternionY(R),motionQuaternionZ(R),motionQuaternionW(R),motionGravityX(G),motionGravityY(G),motionGravityZ(G),motionMagneticFieldX(µT),motionMagneticFieldY(µT),motionMagneticFieldZ(µT),motionHeading(°),motionMagneticFieldCalibrationAccuracy(Z),activityTimestamp_sinceReboot(s),activity(txt),activityActivityConfidence(Z),activityActivityStartDate(txt),pedometerStartDate(txt),pedometerNumberofSteps(N),pedometerAverageActivePace(s/m),pedometerCurrentPace(s/m),pedometerCurrentCadence(steps/s),pedometerDistance(m),pedometerFloorAscended(N),pedometerFloorDescended(N),pedometerEndDate(txt),altimeterTimestamp_sinceReboot(s),altimeterReset(bool),altimeterRelativeAltitude(m),altimeterPressure(kPa),batteryState(N),batteryLevel(R)
267,2022-05-12T10:42:55.692+02:00,1652344972.999726,53.22913921443115,10.39845437743738,43.59713,0.85,1.63,7.734375,87.99887319088032,32.0,10,-9999,3417.60330625,0.297271728515625,0.2922210693359375,2.324920654296875,3417.59830825,-1.80950057280928,2.364023126427498,0.1332323775803916,-4.42412805557251,5.6911301612854,-0.775295615196228,-0.336780846118927,0.360896110534668,1.464669227600098,XArbitraryZVertical,0.7415690736342906,0.5506614282784322,-0.2593251069621457,0.2821309873223645,0.6953322887420654,-0.132838562130928,0.7063053846359253,0,0,0,-1,-1,3417.45016825,walking,2,2022-05-12T10:42:55.538+02:00,2022-05-11T22:15:20.957+02:00,1046,0.8888014,0.7434952,1.753966,785.0757,0,0,2022-05-12T10:42:55.538+02:00,674037775.5376357,0,-2.66,100.9397,1,0.93
268,2022-05-12T10:42:55.702+02:00,1652344972.999726,53.22913921443115,10.39845437743738,43.59713,0.85,1.63,7.734375,87.99887319088032,32.0,10,-9999,3417.61330125,0.206146240234375,0.289886474609375,2.464141845703125,3417.60830325,-1.771080684335877,2.416457909565932,0.1609035242314676,-4.848474025726318,5.904298305511475,-1.016128540039062,-0.3573971390724182,0.4524308443069458,1.586177349090576,XArbitraryZVertical,0.739619627169311,0.5677449412419603,-0.2261679048594379,0.2819161888264819,0.6546694040298462,-0.160210132598877,0.738743007183075,0,0,0,-1,-1,3417.45016825,walking,2,2022-05-12T10:42:55.538+02:00,2022-05-11T22:15:20.957+02:00,1046,0.8888014,0.7434952,1.753966,785.0757,0,0,2022-05-12T10:42:55.538+02:00,674037775.5376357,0,-2.66,100.9397,1,0.93
269,2022-05-12T10:42:55.712+02:00,1652344972.999726,53.22913921443115,10.39845437743738,43.59713,0.85,1.63,7.734375,87.99887319088032,32.0,10,-9999,3417.62329625,0.15008544921875,0.302398681640625,2.601486206054688,3417.61829825,-1.728839782108474,2.46898178606234,0.1924814535952157,-5.318366527557373,6.076001644134521,-1.278560996055603,-0.405377984046936,0.4811813235282898,1.696388959884644,XArbitraryZVertical,0.7353633214258821,0.5857619439216044,-0.1909992183390123,0.2822110130503787,0.6115245819091797,-0.1912951022386551,0.7677525281906128,0,0,0,-1,-1,3417.45016825,walking,2,2022-05-12T10:42:55.538+02:00,2022-05-11T22:15:20.957+02:00,1046,0.8888014,0.7434952,1.753966,785.0757,0,0,2022-05-12T10:42:55.538+02:00,674037775.5376357,0,-2.66,100.9397,1,0.93
270,2022-05-12T10:42:55.722+02:00,1652344972.999726,53.22913921443115,10.39845437743738,43.59713,0.85,1.63,7.734375,87.99887319088032,32.0,10,-9999,3417.63329125,0.0794830322265625,0.305206298828125,2.760055541992188,3417.62829425,-1.683518988752841,2.520927521652918,0.2275170129343942,-5.59031867980957,6.193214416503906,-1.587183594703674,-0.4165030717849731,0.527957558631897,1.808958053588867,XArbitraryZVertical,0.7286915115307314,0.6043779898907634,-0.1542768978027573,0.2827275592136652,0.5665891766548157,-0.2255592197179794,0.7925281524658203,0,0,0,-1,-1,3417.45016825,walking,2,2022-05-12T10:42:55.538+02:00,2022-05-11T22:15:20.957+02:00,1046,0.8888014,0.7434952,1.753966,785.0757,0,0,2022-05-12T10:42:55.538+02:00,674037775.5376357,0,-2.66,100.9397,1,0.93
271,2022-05-12T10:42:55.732+02:00,1652344972.999726,53.22913921443115,10.39845437743738,43.59713,0.85,1.63,7.734375,87.99887319088032,32.0,10,-9999,3417.64328625,0.0263519287109375,0.174224853515625,2.970535278320312,3417.63828925,-1.635983503766751,2.571647497277023,0.2642576248732721,-5.682209491729736,6.272499084472656,-1.952951669692993,-0.4413716197013855,0.5663987398147583,1.947350859642029,XArbitraryZVertical,0.7195597423611756,0.6233667581892628,-0.1169344401220972,0.2827971029615789,0.5208552479743958,-0.2611927390098572,0.8127046823501587,0,0,0,-1,-1,3417.45016825,walking,2,2022-05-12T10:42:55.538+02:00,2022-05-11T22:15:20.957+02:00,1046,0.8888014,0.7434952,1.753966,785.0757,0,0,2022-05-12T10:42:55.538+02:00,674037775.5376357,0,-2.66,100.9397,1,0.93
272,2022-05-12T10:42:55.742+02:00,1652344972.999726,53.22913921443115,10.39845437743738,43.59713,0.85,1.63,7.734375,87.99887319088032,32.0,10,-9999,3417.65328125,-0.00457763671875,0.168121337890625,3.214874267578125,3417.64828425,-1.586721702917608,2.62050366916036,0.3015085879054613,-5.589086532592773,6.265236377716064,-2.290632247924805,-0.4490154385566711,0.4711856842041016,2.142380714416504,XArbitraryZVertical,0.7079879309814666,0.6425187987416001,-0.0797261418404057,0.2820755490304824,0.4753679931163788,-0.2969610691070557,0.8281546235084534,0,0,0,-1,-1,3417.45016825,walking,2,2022-05-12T10:42:55.538+02:00,2022-05-11T22:15:20.957+02:00,1046,0.8888014,0.7434952,1.753966,785.0757,0,0,2022-05-12T10:42:55.538+02:00,674037775.5376357,0,-2.66,100.9397,1,0.93
273,2022-05-12T10:42:55.752+02:00,1652344972.999726,53.22913921443115,10.39845437743738,43.59713,0.85,1.63,7.734375,87.99887319088032,32.0,10,-9999,3417.66327625,-0.0809326171875,-0.08831787109375,3.506881713867188,3417.65827925,-1.535835910941762,2.666829946939836,0.3378279334517217,-5.436222076416016,6.181583881378174,-2.749873399734497,-0.4358662962913513,0.4995597302913666,2.375744581222534,XArbitraryZVertical,0.6939887163233203,0.6617737323605376,-0.0434838845055836,0.2802578465242092,0.4312892258167267,-0.3314385712146759,0.839129626750946,0,0,0,-1,-1,3417.45016825,walking,2,2022-05-12T10:42:55.538+02:00,2022-05-11T22:15:20.957+02:00,1046,0.8888014,0.7434952,1.753966,785.0757,0,0,2022-05-12T10:42:55.538+02:00,674037775.5376357,0,-2.66,100.9397,1,0.93
274,2022-05-12T10:42:55.762+02:00,1652344972.999726,53.22913921443115,10.39845437743738,43.59713,0.85,1.63,7.734375,87.99887319088032,32.0,10,-9999,3417.67327125,-0.180145263671875,-0.437225341796875,3.867843627929688,3417.66827425,-1.481704689624396,2.708393397972041,0.3733580109281114,-5.405163288116455,5.878847599029541,-3.267918586730957,-0.4717894792556763,0.2764261364936829,2.661782264709473,XArbitraryZVertical,0.6771269212608461,0.6812112316444477,-0.0087758369830423,0.2781609608770405,0.390857458114624,-0.3647441565990448,0.8450992107391357,0,0,0,-1,-1,3417.45016825,walking,2,2022-05-12T10:42:55.538+02:00,2022-05-11T22:15:20.957+02:00,1046,0.8888014,0.7434952,1.753966,785.0757,0,0,2022-05-12T10:42:55.538+02:00,674037775.5376357,0,-2.66,100.9397,1,0.93
275,2022-05-12T10:42:55.772+02:00,1652344972.999726,53.22913921443115,10.39845437743738,43.59713,0.85,1.63,7.734375,87.99887319088032,32.0,10,-9999,3417.68326725,-0.3318634033203125,-1.012130737304688,4.290847778320312,3417.67826925,-1.423226409501011,2.742820115691065,0.4080676675301709,-5.278988361358643,5.460497379302979,-3.845086336135864,-0.5365496873855591,-0.0403890907764434,3.021973133087158,XArbitraryZVertical,0.6572332144386507,0.7006994436136922,0.0237404616682844,0.2765886887683578,0.3564050495624542,-0.3968364000320435,0.8458704352378845,0,0,0,-1,-1,3417.45016825,walking,2,2022-05-12T10:42:55.538+02:00,2022-05-11T22:15:20.957+02:00,1046,0.8888014,0.7434952,1.753966,785.0757,0,0,2022-05-12T10:42:55.538+02:00,674037775.5376357,0,-2.66,100.9397,1,0.93
276,2022-05-12T10:42:55.782+02:00,1652344972.999726,53.22913921443115,10.39845437743738,43.59713,0.85,1.63,7.734375,87.99887319088032,32.0,10,-9999,3417.69326225,-0.6345977783203125,-1.766571044921875,4.814422607421875,3417.68826425,-1.359823284682476,2.768871771185649,0.4391662264561637,-4.797296047210693,4.915013313293457,-4.568496227264404,-0.6614581346511841,-0.5869458317756653,3.447885513305664,XArbitraryZVertical,0.6343869808587975,0.7204402522441629,0.0527571181771197,0.2752013097540648,0.3295953571796417,-0.425184965133667,0.8429620265960693,0,0,0,-1,-1,3417.45016825,walking,2,2022-05-12T10:42:55.538+02:00,2022-05-11T22:15:20.957+02:00,1046,0.8888014,0.7434952,1.753966,785.0757,0,0,2022-05-12T10:42:55.538+02:00,674037775.5376357,0,-2.66,100.9397,1,0.93
277,2022-05-12T10:42:55.792+02:00,1652344972.999726,53.22913921443115,10.39845437743738,43.59713,0.85,1.63,7.734375,87.99887319088032,32.0,10,-9999,3417.70325725,-1.126174926757812,-1.962173461914062,5.371795654296875,3417.69825925,-1.289193110917887,2.783041785963071,0.4623131209083035,-3.987191438674927,4.003490447998047,-5.739057540893555,-0.9486766457557678,-1.320551514625549,3.976316928863525,XArbitraryZVertical,0.6081754316108416,0.7410637199355449,0.0759007062140475,0.2742013722400842,0.3140794932842255,-0.4460195899009705,0.8381055593490601,0,0,0,-1,-1,3417.45016825,walking,2,2022-05-12T10:42:55.538+02:00,2022-05-11T22:15:20.957+02:00,1046,0.8888014,0.7434952,1.753966,785.0757,0,0,2022-05-12T10:42:55.538+02:00,674037775.5376357,0,-2.66,100.9397,1,0.93
278,2022-05-12T10:42:55.802+02:00,1652344972.999726,53.22913921443115,10.39845437743738,43.59713,0.85,1.63,7.734375,87.99887319088032,32.0,10,-9999,3417.71325225,-2.021331787109375,-1.738662719726562,5.911544799804688,3417.70825425,-1.203444232082219,2.775948119602981,0.4730312344798674,-3.340978145599365,2.154381275177002,-7.980901718139648,-1.444463491439819,-1.50658655166626,4.540451526641846,XArbitraryZVertical,0.5762507402144218,0.7639417846868036,0.0898943332895797,0.2761286503517145,0.3182890713214874,-0.4555867612361908,0.831343948841095,0,0,0,-1,-1,3417.45016825,walking,2,2022-05-12T10:42:55.538+02:00,2022-05-11T22:15:20.957+02:00,1046,0.8888014,0.7434952,1.753966,785.0757,0,0,2022-05-12T10:42:55.538+02:00,674037775.5376357,0,-2.66,100.9397,1,0.93
279,2022-05-12T10:42:55.812+02:00,1652344972.999726,53.22913921443115,10.39845437743738,43.59713,0.85,1.63,7.734375,87.99887319088032,32.0,10,-9999,3417.72324725,-2.623382568359375,-0.630889892578125,6.505844116210938,3417.71824925,-1.091017085806407,2.731113488416981,0.4638189376735399,-2.665345430374146,-1.072575807571411,-11.37425708770752,-2.378220796585083,-1.291295886039734,5.091487884521484,XArbitraryZVertical,0.5344074510300666,0.7902133097926205,0.0894426992928954,0.2863070176876965,0.356889545917511,-0.4473668336868286,0.8200567960739136,0,0,0,-1,-1,3417.45016825,walking,2,2022-05-12T10:42:55.538+02:00,2022-05-11T22:15:20.957+02:00,1046,0.8888014,0.7434952,1.753966,785.0757,0,0,2022-05-12T10:42:55.538+02:00,674037775.5376357,0,-2.66,100.9397,1,0.93
280,2022-05-12T10:42:55.822+02:00,1652344972.999726,53.22913921443115,10.39845437743738,43.59713,0.85,1.63,7.734375,87.99887319088032,32.0,10,-9999,3417.73324225,-3.05279541015625,-0.2388763427734375,6.447265625,3417.72824525,-0.9460033382976964,2.637744282438821,0.4324730176456139,-3.307021141052246,-5.080247402191162,-14.81642723083496,-3.061730861663818,-0.2117723524570465,5.710739612579346,XArbitraryZVertical,0.4785158889434084,0.8176642227961438,0.0740571663588908,0.3113894751076465,0.4383490085601807,-0.4191174209117889,0.7951045036315918,0,0,0,-1,-1,3417.45016825,walking,2,2022-05-12T10:42:55.538+02:00,2022-05-11T22:15:20.957+02:00,1046,0.8888014,0.7434952,1.753966,785.0757,0,0,2022-05-12T10:42:55.538+02:00,674037775.5376357,0,-2.66,100.9397,1,0.93
281,2022-05-12T10:42:55.832+02:00,1652344972.999726,53.22913921443115,10.39845437743738,43.59713,0.85,1.63,7.734375,87.99887319088032,32.0,10,-9999,3417.74323725,-3.48486328125,-0.3140869140625,5.4774169921875,3417.73824025,-0.7780772424809211,2.499607192085014,0.3753353467125198,-3.611023902893066,-9.31503200531006,-17.21728706359863,-3.609897136688232,0.1277084946632385,5.702112197875977,XArbitraryZVertical,0.4080711010115778,0.8402704992535278,0.0462382948882616,0.3539569454688875,0.5571021437644958,-0.3665845394134521,0.7451530694961548,0,0,0,-1,-1,3417.45016825,walking,2,2022-05-12T10:42:55.538+02:00,2022-05-11T22:15:20.957+02:00,1046,0.8888014,0.7434952,1.753966,785.0757,0,0,2022-05-12T10:42:55.538+02:00,674037775.5376357,0,-2.66,100.9397,1,0.93
282,2022-05-12T10:42:55.842+02:00,1652344972.999726,53.22913921443115,10.39845437743738,43.59713,0.85,1.63,7.734375,87.99887319088032,32.0,10,-9999,3417.75323225,-3.9691162109375,-0.1458892822265625,4.033065795898438,3417.74823525,-0.6157607586449669,2.333908171027616,0.2776467767845596,-1.781399369239807,-13.20276069641113,-18.63847160339355,-4.179874897003174,-0.0399933159351348,4.812712669372559,XArbitraryZVertical,0.3278007055045155,0.8514098468846999,0.0033280803114734,0.4094350352164722,0.6950121521949768,-0.2740933001041412,0.6647040843963623,0,0,0,-1,-1,3417.45016825,walking,2,2022-05-12T10:42:55.538+02:00,2022-05-11T22:15:20.957+02:00,1046,0.8888014,0.7434952,1.753966,785.0757,0,0,2022-05-12T10:42:55.538+02:00,674037775.5376357,0,-2.66,100.9397,1,0.93
283,2022-05-12T10:42:55.852+02:00,1652344972.999726,53.22913921443115,10.39845437743738,43.59713,0.85,1.63,7.734375,87.99887319088032,32.0,10,-9999,3417.76322825,-4.722076416015625,0.1328125,3.02166748046875,3417.75823025,-0.4971363074284079,2.157707404456888,0.1306183707005194,2.266900777816772,-17.09217071533203,-18.75630187988281,-4.794678211212158,-0.0156415849924087,3.483991384506226,XArbitraryZVertical,0.246259441877998,0.8449221317156339,-0.0601996510277702,0.4709977895655851,0.8255623579025269,-0.1302472651004791,0.5490742325782776,0,0,0,-1,-1,3417.45016825,walking,2,2022-05-12T10:42:55.538+02:00,2022-05-11T22:15:20.957+02:00,1046,0.8888014,0.7434952,1.753966,785.0757,0,0,2022-05-12T10:42:55.538+02:00,674037775.5376357,0,-2.66,100.9397,1,0.93
284,2022-05-12T10:42:55.862+02:00,1652344972.999726,53.22913921443115,10.39845437743738,43.59713,0.85,1.63,7.734375,87.99887319088032,32.0,10,-9999,3417.77322325,-6.053009033203125,1.024490356445312,2.804550170898438,3417.76822525,-0.453716975780638,1.961406590341888,-0.0498274005026746,7.22119665145874,-21.63700294494629,-17.20990562438965,-5.645605564117432,0.083006165921688,2.641386985778809,XArbitraryZVertical,0.1733172128370515,0.8124661638300428,-0.1452819827691155,0.5373574922100562,0.923529326915741,0.049806784838438,0.3802802562713623,0,0,0,-1,-1,3417.45016825,walking,2,2022-05-12T10:42:55.538+02:00,2022-05-11T22:15:20.957+02:00,1046,0.8888014,0.7434952,1.753966,785.0757,0,0,2022-05-12T10:42:55.538+02:00,674037775.5376357,0,-2.66,100.9397,1,0.93
285,2022-05-12T10:42:55.872+02:00,1652344972.999726,53.22913921443115,10.39845437743738,43.59713,0.85,1.63,7.734375,87.99887319088032,32.0,10,-9999,3417.78321825,-9.68902587890625,2.386123657226562,3.357635498046875,3417.77822025,-0.5007433212755852,1.711174390393125,-0.2269009261951423,11.08701133728027,-26.68417739868164,-14.64752960205078,-7.017792701721191,0.799531877040863,2.668218612670898,XArbitraryZVertical,0.1139246762054259,0.7451085523144635,-0.2442347264025852,0.6100688713376897,0.964783787727356,0.2249589711427689,0.136331170797348,0,0,0,-1,-1,3417.45016825,walking,2,2022-05-12T10:42:55.538+02:00,2022-05-11T22:15:20.957+02:00,1046,0.8888014,0.7434952,1.753966,785.0757,0,0,2022-05-12T10:42:55.538+02:00,674037775.5376357,0,-2.66,100.9397,1,0.93
286,2022-05-12T10:42:55.882+02:00,1652344972.999726,53.22913921443115,10.39845437743738,43.59713,0.85,1.63,7.734375,87.99887319088032,32.0,10,-9999,3417.79321325,-14.10755920410156,2.877334594726562,2.997314453125,3417.78821525,-0.6371348339684776,1.38413331612203,-0.3676357474629617,14.65618991851807,-31.15099143981934,-14.82056140899658,-10.60599517822266,2.026713848114014,3.530815601348877,XArbitraryZVertical,0.0628489767292724,0.6398904813154819,-0.3478554744710823,0.6823392549161846,0.9169695377349854,0.3594101667404175,-0.1731803566217422,0,0,0,-1,-1,3417.45016825,walking,2,2022-05-12T10:42:55.538+02:00,2022-05-11T22:15:20.957+02:00,1046,0.8888014,0.7434952,1.753966,785.0757,0,0,2022-05-12T10:42:55.538+02:00,674037775.5376357,0,-2.66,100.9397,1,0.93
287,2022-05-12T10:42:55.892+02:00,1652344972.999726,53.22913921443115,10.39845437743738,43.59713,0.85,1.63,7.734375,87.99887319088032,32.0,10,-9999,3417.80320825,-18.83555603027344,1.193222045898438,5.983901977539062,3417.79821025,-0.8671880018975148,0.9534421784648492,-0.4304103549934133,18.7048225402832,-35.12432479858398,-13.36272430419922,-14.84860229492188,2.460091114044189,3.523396968841553,XArbitraryZVertical,0.0161593628886393,0.4865156478183933,-0.4536032917847698,0.7465155935428505,0.7410429120063782,0.4172437787055969,-0.5260828137397766,0,0,0,-1,-1,3417.45016825,walking,2,2022-05-12T10:42:55.538+02:00,2022-05-11T22:15:20.957+02:00,1046,0.8888014,0.7434952,1.753966,785.0757,0,0,2022-05-12T10:42:55.538+02:00,674037775.5376357,0,-2.66,100.9397,1,0.93
288,2022-05-12T10:42:55.902+02:00,1652344972.999726,53.22913921443115,10.39845437743738,43.59713,0.85,1.63,7.734375,87.99887319088032,32.0,10,-9999,3417.81320325,-26.01130676269531,-0.6981658935546875,0.50445556640625,3417.80820625,-1.098369362530123,0.5101858559413278,-0.3619942546263599,22.40574073791504,-35.13530349731445,-7.77105712890625,-19.2922477722168,0.8390822410583496,6.80000114440918,XArbitraryZVertical,-0.0190060699214584,0.302637027153033,-0.5355928431124153,0.7881560106338024,0.4566913545131683,0.3541399538516998,-0.816099226474762,0,0,0,-1,-1,3417.45016825,walking,2,2022-05-12T10:42:55.538+02:00,2022-05-11T22:15:20.957+02:00,1046,0.8888014,0.7434952,1.753966,785.0757,0,0,2022-05-12T10:42:55.538+02:00,674037775.5376357,0,-2.66,100.9397,1,0.93
289,2022-05-12T10:42:55.912+02:00,1652344972.999726,53.22913921443115,10.39845437743738,43.59713,0.85,1.63,7.734375,87.99887319088032,32.0,10,-9999,3417.82319825,-18.12356567382812,8.647048950195312,-6.951080322265625,3417.81820125,-1.232451314851194,0.1396971419438214,-0.1318036477887523,26.88531875610352,-28.66463088989258,-4.739163398742676,-26.14934349060059,-0.8295882344245911,1.486124634742737,XArbitraryZVertical,-0.0133610137152024,0.0947992342429038,-0.5790490166859362,0.8096523559905721,0.1380354762077332,0.1314223557710648,-0.9816691875457764,0,0,0,-1,-1,3417.45016825,walking,2,2022-05-12T10:42:55.538+02:00,2022-05-11T22:15:20.957+02:00,1046,0.8888014,0.7434952,1.753966,785.0757,0,0,2022-05-12T10:42:55.538+02:00,674037775.5376357,0,-2.66,100.9397,1,0.93
290,2022-05-12T10:42:55.922+02:00,1652344972.999726,53.22913921443115,10.39845437743738,43.59713,0.85,1.63,7.734375,87.99887319088032,32.0,10,-9999,3417.83319325,-7.871780395507812,-0.89703369140625,-1.038833618164062,3417.82819625,-1.28210707023337,-0.057924466440382,0.1045974867870195,19.85096549987793,-11.82683658599854,-2.104198694229126,-18.06599044799805,8.751456260681152,-5.958213806152344,XArbitraryZVertical,0.0245845187078373,-0.0544266527150671,-0.598185251780768,0.7991293729148569,-0.0575756803154945,-0.104406863451004,-0.9928666949272156,0,0,0,-1,-1,3417.45016825,walking,2,2022-05-12T10:42:55.538+02:00,2022-05-11T22:15:20.957+02:00,1046,0.8888014,0.7434952,1.753966,785.0757,0,0,2022-05-12T10:42:55.538+02:00,674037775.5376357,0,-2.66,100.9397,1,0.93
291,2022-05-12T10:42:55.932+02:00,1652344972.999726,53.22913921443115,10.39845437743738,43.59713,0.85,1.63,7.734375,87.99887319088032,32.0,10,-9999,3417.84318825,-3.5809326171875,-6.85076904296875,-0.91082763671875,3417.83819125,-1.268637357252079,-0.142116858025756,0.2567367189229248,11.76404571533203,-3.711481809616089,0.8646737933158875,-7.734784603118896,-0.6431081295013428,-0.0813609361648559,XArbitraryZVertical,0.0611239882288893,-0.1323917116491898,-0.5935904518802299,0.7914460218756092,-0.1369965523481369,-0.2539255917072296,-0.957472562789917,0,0,0,-1,-1,3417.45016825,walking,2,2022-05-12T10:42:55.538+02:00,2022-05-11T22:15:20.957+02:00,1046,0.8888014,0.7434952,1.753966,785.0757,0,0,2022-05-12T10:42:55.538+02:00,674037775.5376357,0,-2.66,100.9397,1,0.93
292,2022-05-12T10:42:55.942+02:00,1652344972.999726,53.22913921443115,10.39845437743738,43.59713,0.85,1.63,7.734375,87.99887319088032,32.0,10,-9999,3417.85318425,-1.2562255859375,-1.666915893554688,-0.6895294189453125,3417.84818625,-1.229112810088905,-0.1622275916236857,0.3525078131104882,9.561518669128418,0.0358769670128822,2.666002750396729,-3.429347991943359,-6.505516529083252,0.0153596401214599,XArbitraryZVertical,0.0967942997144319,-0.165943638226027,-0.5774044090996202,0.7935349583266557,-0.1515852510929108,-0.3452524840831757,-0.9261871576309204,0,0,0,-1,-1,3417.45016825,walking,2,2022-05-12T10:42:55.538+02:00,2022-05-11T22:15:20.957+02:00,1046,0.8888014,0.7434952,1.753966,785.0757,0,0,2022-05-12T10:42:55.538+02:00,674037775.5376357,0,-2.66,100.9397,1,0.93
293,2022-05-12T10:42:55.952+02:00,1652344972.999726,53.22913921443115,10.39845437743738,43.59713,0.85,1.63,7.734375,87.99887319088032,32.0,10,-9999,3417.86317925,-5.24139404296875,-3.10009765625,0.28192138671875,3417.85818125,-1.180465700350448,-0.1603392695599285,0.43195189174932,7.380005836486816,5.684313297271729,4.076335430145264,-1.111237168312073,-1.248271703720093,0.2069723606109619,XArbitraryZVertical,0.1339361331828851,-0.1838757302215571,-0.5561367962649479,0.7993514737765264,-0.1449890434741974,-0.4186442196369171,-0.8965016603469849,0,0,0,-1,-1,3417.45016825,walking,2,2022-05-12T10:42:55.538+02:00,2022-05-11T22:15:20.957+02:00,1046,0.8888014,0.7434952,1.753966,785.0757,0,0,2022-05-12T10:42:55.538+02:00,674037775.5376357,0,-2.66,100.9397,1,0.93
294,2022-05-12T10:42:55.962+02:00,1652344972.999726,53.22913921443115,10.39845437743738,43.59713,0.85,1.63,7.734375,87.99887319088032,32.0,10,-9999,3417.87317425,-2.484725952148438,-5.66436767578125,-0.2571563720703125,3417.86817625,-1.112878661222455,-0.1050212242498392,0.4836006874729885,4.334815502166748,10.56720352172852,6.183987617492676,-5.148587226867676,-2.635127544403076,1.162370085716248,XArbitraryZVertical,0.1761322972841242,-0.1695673901304247,-0.5227659780950595,0.8166640815038692,-0.0928072482347488,-0.4649699628353119,-0.8804486393928528,0,0,0,-1,-1,3417.45016825,walking,2,2022-05-12T10:42:55.538+02:00,2022-05-11T22:15:20.957+02:00,1046,0.8888014,0.7434952,1.753966,785.0757,0,0,2022-05-12T10:42:55.538+02:00,674037775.5376357,0,-2.66,100.9397,1,0.93
295,2022-05-12T10:42:55.972+02:00,1652344972.999726,53.22913921443115,10.39845437743738,43.59713,0.85,1.63,7.734375,87.99887319088032,32.0,10,-9999,3417.88316925,-1.321914672851562,-5.711669921875,-2.55377197265625,3417.87817125,-1.041509787245713,-0.0244154877927967,0.5013653822605718,-0.1498392671346664,11.53598022460938,5.907949447631836,-2.463318109512329,-5.183744430541992,0.6195093989372253,XArbitraryZVertical,0.2092829501015215,-0.1336703035939967,-0.4845747053090135,0.8387611864453914,-0.0214084777981042,-0.480623334646225,-0.8766657710075378,0,0,0,-1,-1,3417.45016825,walking,2,2022-05-12T10:42:55.538+02:00,2022-05-11T22:15:20.957+02:00,1046,0.8888014,0.7434952,1.753966,785.0757,0,0,2022-05-12T10:42:55.538+02:00,674037775.5376357,0,-2.66,100.9397,1,0.93
296,2022-05-12T10:42:55.982+02:00,1652344972.999726,53.22913921443115,10.39845437743738,43.59713,0.85,1.63,7.734375,87.99887319088032,32.0,10,-9999,3417.89316425,-1.78607177734375,-1.625015258789062,-3.607177734375,3417.88816625,-0.9742271610586674,0.0502444512284348,0.4691986443386781,-6.533392429351807,9.62216854095459,6.327384948730469,-1.366711020469666,-5.259498119354248,-1.662966728210449,XArbitraryZVertical,0.2167871036276563,-0.0871819258560281,-0.4499517432940965,0.861943241655447,0.0447957254946231,-0.4521716833114624,-0.8908053040504456,0,0,0,-1,-1,3417.45016825,walking,2,2022-05-12T10:42:55.538+02:00,2022-05-11T22:15:20.957+02:00,1046,0.8888014,0.7434952,1.753966,785.0757,0,0,2022-05-12T10:42:55.538+02:00,674037775.5376357,0,-2.66,100.9397,1,0.93
297,2022-05-12T10:42:55.992+02:00,1652344972.999726,53.22913921443115,10.39845437743738,43.59713,0.85,1.63,7.734375,87.99887319088032,32.0,10,-9999,3417.90315925,-1.79205322265625,0.169036865234375,-2.489547729492188,3417.89816125,-0.8969649001592904,0.0904422212169186,0.400477578047554,-7.350545406341553,4.717140674591064,6.576821804046631,-1.869244813919067,-1.235156893730164,-2.690066576004028,XArbitraryZVertical,0.1982592824608286,-0.046234829488971,-0.4163981076373132,0.8860971880366783,0.0831724777817726,-0.3898581862449646,-0.9171112179756165,0,0,0,-1,-1,3417.45016825,walking,2,2022-05-12T10:42:55.538+02:00,2022-05-11T22:15:20.957+02:00,1046,0.8888014,0.7434952,1.753966,785.0757,0,0,2022-05-12T10:42:55.538+02:00,674037775.5376357,0,-2.66,100.9397,1,0.93
298,2022-05-12T10:42:56.002+02:00,1652344972.999726,53.22913921443115,10.39845437743738,43.59713,0.85,1.63,7.734375,87.99887319088032,32.0,10,-9999,3417.91315425,-0.714385986328125,-0.180877685546875,-1.61474609375,3417.90815725,-0.815594354554869,0.0894938444290728,0.355821331721959,-3.159312963485718,1.336878180503845,7.634714603424072,-1.875829815864563,0.517397403717041,-1.555938363075256,XArbitraryZVertical,0.1797587005799162,-0.029699705563629,-0.3826702539537349,0.9057419138083876,0.0837760791182518,-0.3483603596687317,-0.9336094856262208,0,0,0,-1,-1,3417.45016825,walking,2,2022-05-12T10:42:55.538+02:00,2022-05-11T22:15:20.957+02:00,1046,0.8888014,0.7434952,1.753966,785.0757,0,0,2022-05-12T10:42:55.538+02:00,674037775.5376357,0,-2.66,100.9397,1,0.93
299,2022-05-12T10:42:56.012+02:00,1652344972.999726,53.22913921443115,10.39845437743738,43.59713,0.85,1.63,7.734375,87.99887319088032,32.0,10,-9999,3417.92314925,-0.287994384765625,-1.828140258789062,-0.40545654296875,3417.91815225,-0.7371704689903357,0.0652205545350091,0.3319072248061113,-3.089855194091797,-0.7161120772361755,6.442330837249756,-0.7760037779808044,0.1449693441390991,-0.6713336706161499,XArbitraryZVertical,0.1656021775391598,-0.0294898505280748,-0.3501328072212506,0.9214734661325754,0.0616172812879085,-0.3258467614650726,-0.9434125423431396,0,0,0,-1,-1,3417.45016825,walking,2,2022-05-12T10:42:55.538+02:00,2022-05-11T22:15:20.957+02:00,1046,0.8888014,0.7434952,1.753966,785.0757,0,0,2022-05-12T10:42:55.538+02:00,674037775.5376357,0,-2.66,100.9397,1,0.93
300,2022-05-12T10:42:56.022+02:00,1652344972.999726,53.22913921443115,10.39845437743738,43.59713,0.85,1.63,7.734375,87.99887319088032,32.0,10,-9999,3417.93314425,-0.3463897705078125,-1.230667114257812,-0.1151123046875,3417.92814725,-0.6764464523504253,0.0352180557487792,0.3036426830300507,-2.882139205932617,-1.396463990211487,4.91841459274292,-0.3215949237346649,-1.529141664505005,0.5482053160667419,XArbitraryZVertical,0.1484236980169827,-0.033755507889481,-0.3254317520358277,0.9332337149979704,0.0336000137031078,-0.298998236656189,-0.9536619186401368,0,0,0,-1,-1,3417.45016825,walking,2,2022-05-12T10:42:55.538+02:00,2022-05-11T22:15:20.957+02:00,1046,0.8888014,0.7434952,1.753966,785.0757,0,0,2022-05-12T10:42:55.538+02:00,674037775.5376357,0,-2.66,100.9397,1,0.93
301,2022-05-12T10:42:56.032+02:00,1652344972.999726,53.22913921443115,10.39845437743738,43.59713,0.85,1.63,7.734375,87.99887319088032,32.0,10,-9999,3417.94313925,-0.722442626953125,-0.177764892578125,-0.3549652099609375,3417.93814225,-0.625411767502229,0.0060741563815214,0.2890026175930007,0.0562851130962371,-1.398928165435791,4.937471866607666,-0.3522124886512756,-0.945670485496521,0.8433985114097595,XArbitraryZVertical,0.1379396083957152,-0.041439156537997,-0.3040106701713447,0.9417181148052092,0.0058222166262567,-0.28499636054039,-0.9585109353065492,0,0,0,-1,-1,3417.45016825,walking,2,2022-05-12T10:42:55.538+02:00,2022-05-11T22:15:20.957+02:00,1046,0.8888014,0.7434952,1.753966,785.0757,0,0,2022-05-12T10:42:55.538+02:00,674037775.5376357,0,-2.66,100.9397,1,0.93
302,2022-05-12T10:42:56.042+02:00,1652344972.999726,53.22913921443115,10.39845437743738,43.59713,0.85,1.63,7.734375,87.99887319088032,32.0,10,-9999,3417.95313525,-1.178176879882812,-1.13922119140625,-0.6148529052734375,3417.94813725,-0.5741318722734721,-0.018393941214334,0.3019620190802199,2.27550220489502,-0.4329166114330292,4.739960193634033,-0.7048823833465576,0.1196294724941254,0.5996280312538147,XArbitraryZVertical,0.1416726920316042,-0.0513047934294296,-0.2812332685488406,0.9477366164421456,-0.0175607148557901,-0.2973940372467041,-0.9545933604240416,0,0,0,-1,-1,3417.45016825,walking,2,2022-05-12T10:42:55.538+02:00,2022-05-11T22:15:20.957+02:00,1046,0.8888014,0.7434952,1.753966,785.0757,0,0,2022-05-12T10:42:55.538+02:00,674037775.5376357,0,-2.66,100.9397,1,0.93
303,2022-05-12T10:42:56.052+02:00,1652344972.999726,53.22913921443115,10.39845437743738,43.59713,0.85,1.63,7.734375,87.99887319088032,32.0,10,-9999,3417.96313025,-1.0089111328125,-1.281021118164062,-1.071273803710938,3417.95813225,-0.5266620381692152,-0.0330874953052468,0.3258134051787525,2.673473358154297,0.3491455912590027,4.211317539215088,-1.146836280822754,-0.8191413283348083,0.3320191502571106,XArbitraryZVertical,0.1523256948108328,-0.0579724649614063,-0.259407235881602,0.9519160596086128,-0.0313410647213459,-0.320079505443573,-0.9468721747398376,0,0,0,-1,-1,3417.45016825,walking,2,2022-05-12T10:42:55.538+02:00,2022-05-11T22:15:20.957+02:00,1046,0.8888014,0.7434952,1.753966,785.0757,0,0,2022-05-12T10:42:55.538+02:00,674037775.5376357,0,-2.66,100.9397,1,0.93
304,2022-05-12T10:42:56.062+02:00,1652344972.999726,53.22913921443115,10.39845437743738,43.59713,0.85,1.63,7.734375,87.99887319088032,32.0,10,-9999,3417.97312525,-1.062606811523438,-0.9639129638671876,-1.403411865234375,3417.96812725,-0.4830442552897849,-0.0434220470675414,0.3533926506297991,3.20061206817627,0.4630985260009766,3.798455953598022,-0.9681856632232666,-0.9349379539489746,-0.1339542865753174,XArbitraryZVertical,0.1655244973771005,-0.0627838760987883,-0.239106500515073,0.9547188802321012,-0.040725938975811,-0.3460827767848969,-0.9373196363449096,0,0,0,-1,-1,3417.45016825,walking,2,2022-05-12T10:42:55.538+02:00,2022-05-11T22:15:20.957+02:00,1046,0.8888014,0.7434952,1.753966,785.0757,0,0,2022-05-12T10:42:55.538+02:00,674037775.5376357,0,-2.66,100.9397,1,0.93
305,2022-05-12T10:42:56.072+02:00,1652344972.999726,53.22913921443115,10.39845437743738,43.59713,0.85,1.63,7.734375,87.99887319088032,32.0,10,-9999,3417.98312025,-1.1905517578125,-1.3006591796875,-1.5301513671875,3417.97812225,-0.4420210496466458,-0.0529053382459721,0.3850291446431692,3.392012119293213,0.6032496094703674,3.579525232315063,-1.013598084449768,-0.5883264541625977,-0.477921187877655,XArbitraryZVertical,0.180917482125135,-0.0672568331546687,-0.2200281038357909,0.9562076500165184,-0.0490091368556022,-0.3755861520767212,-0.9254907369613647,0,0,0,-1,-1,3417.45016825,walking,2,2022-05-12T10:42:55.538+02:00,2022-05-11T22:15:20.957+02:00,1046,0.8888014,0.7434952,1.753966,785.0757,0,0,2022-05-12T10:42:55.538+02:00,674037775.5376357,0,-2.66,100.9397,1,0.93
306,2022-05-12T10:42:56.082+02:00,1652344973.999698,53.22914793161045,10.39847214707211,37.41146,0.85,0.76,21.4453125,41.24153598218324,4.0,10,-9999,3417.99311525,-1.0540771484375,-1.562393188476562,-1.500885009765625,3417.98811725,-0.4016638636407515,-0.0620669651727731,0.4143494076315526,2.819442272186279,0.6780987977981567,3.512791395187378,-1.133773922920227,-0.8980643153190613,-0.6165356636047363,XArbitraryZVertical,0.1954071473750164,-0.0707680705843493,-0.2013789710808712,0.9572118521510298,-0.0567782931029796,-0.4025944769382477,-0.913615882396698,0,0,0,-1,-1,3417.45016825,walking,2,2022-05-12T10:42:55.538+02:00,2022-05-11T22:15:20.957+02:00,1046,0.8888014,0.7434952,1.753966,785.0757,0,0,2022-05-12T10:42:55.538+02:00,674037775.5376357,0,-2.66,100.9397,1,0.93
307,2022-05-12T10:42:56.092+02:00,1652344973.999698,53.22914793161045,10.39847214707211,37.41146,0.85,0.76,21.4453125,41.24153598218324,4.0,10,-9999,3418.00311025,-0.9336700439453124,-1.484039306640625,-1.386932373046875,3417.99811325,-0.3619962424858242,-0.0723202337874289,0.43562561841349,1.913687586784363,0.5329173803329468,3.410111665725708,-0.9885687232017516,-1.140415072441101,-0.5966488122940063,XArbitraryZVertical,0.2060716104389999,-0.073595523000272,-0.1833280386757959,0.9583887534087868,-0.0655088350176811,-0.4219776690006256,-0.904236376285553,0,0,0,-1,-1,3417.45016825,walking,2,2022-05-12T10:42:55.538+02:00,2022-05-11T22:15:20.957+02:00,1046,0.8888014,0.7434952,1.753966,785.0757,0,0,2022-05-12T10:42:55.538+02:00,674037775.5376357,0,-2.66,100.9397,1,0.93
308,2022-05-12T10:42:56.102+02:00,1652344973.999698,53.22914793161045,10.39847214707211,37.41146,0.85,0.76,21.4453125,41.24153598218324,4.0,10,-9999,3418.01310525,-0.969451904296875,-1.306167602539062,-1.268890380859375,3418.00810825,-0.3237332870434846,-0.0837861610667283,0.4482898292731733,1.187041163444519,0.4719502329826355,3.295357227325439,-0.8582515120506287,-1.050613880157471,-0.4889042377471924,XArbitraryZVertical,0.2125940577437656,-0.0760895974026586,-0.166178627907336,0.9598952460404366,-0.0754189044237136,-0.4334249794483185,-0.8980282545089722,0,0,0,-1,-1,3417.45016825,walking,2,2022-05-12T10:42:55.538+02:00,2022-05-11T22:15:20.957+02:00,1046,0.8888014,0.7434952,1.753966,785.0757,0,0,2022-05-12T10:42:55.538+02:00,674037775.5376357,0,-2.66,100.9397,1,0.93
309,2022-05-12T10:42:56.112+02:00,1652344973.999698,53.22914793161045,10.39847214707211,37.41146,0.85,0.76,21.4453125,41.24153598218324,4.0,10,-9999,3418.02310025,-1.017593383789062,-1.171859741210938,-1.19561767578125,3418.01810325,-0.2871360243431869,-0.094569008421819,0.4546920925649169,0.7003260850906372,0.5840693712234497,3.148832321166992,-0.8846184015274048,-0.8669815063476562,-0.3745085597038269,XArbitraryZVertical,0.216235718873625,-0.0777889073911726,-0.149781894869095,0.9616426323957958,-0.0848338678479194,-0.4391857087612152,-0.8943819999694824,0,0,0,-1,-1,3417.45016825,walking,2,2022-05-12T10:42:55.538+02:00,2022-05-11T22:15:20.957+02:00,1046,0.8888014,0.7434952,1.753966,785.0757,0,0,2022-05-12T10:42:55.538+02:00,674037775.5376357,0,-2.66,100.9397,1,0.93
310,2022-05-12T10:42:56.122+02:00,1652344973.999698,53.22914793161045,10.39847214707211,37.41146,0.85,0.76,21.4453125,41.24153598218324,4.0,10,-9999,3418.03309525,-0.992828369140625,-1.160125732421875,-1.1629638671875,3418.02809825,-0.2522711918633097,-0.1031659233440889,0.4572349091236942,0.4481130242347717,0.7703984975814819,3.03554105758667,-0.92518949508667,-0.7303905487060547,-0.3031119108200073,XArbitraryZVertical,0.2182140612769086,-0.0782921499039179,-0.133957422405888,0.9634876752054032,-0.0924042537808418,-0.441468745470047,-0.892505943775177,0,0,0,-1,-1,3417.45016825,walking,2,2022-05-12T10:42:55.538+02:00,2022-05-11T22:15:20.957+02:00,1046,0.8888014,0.7434952,1.753966,785.0757,0,0,2022-05-12T10:42:55.538+02:00,674037775.5376357,0,-2.66,100.9397,1,0.93
311,2022-05-12T10:42:56.132+02:00,1652344973.999698,53.22914793161045,10.39847214707211,37.41146,0.85,0.76,21.4453125,41.24153598218324,4.0,10,-9999,3418.04309025,-0.8529052734375,-1.200485229492188,-1.144912719726562,3418.03809325,-0.2189614653192487,-0.1091188632424752,0.4575472186518906,0.2473465502262115,0.9769339561462402,2.894024133682251,-0.8951281309127808,-0.7183763384819031,-0.2711611390113831,XArbitraryZVertical,0.2192869702528305,-0.0775355081193122,-0.1185499896629352,0.965322483662976,-0.0977006033062934,-0.4417489469051361,-0.891802966594696,0,0,0,-1,-1,3417.45016825,walking,2,2022-05-12T10:42:55.538+02:00,2022-05-11T22:15:20.957+02:00,1046,0.8888014,0.7434952,1.753966,785.0757,0,0,2022-05-12T10:42:55.538+02:00,674037775.5376357,0,-2.66,100.9397,1,0.93
312,2022-05-12T10:42:56.142+02:00,1652344973.999698,53.22914793161045,10.39847214707211,37.41146,0.85,0.76,21.4453125,41.24153598218324,4.0,10,-9999,3418.05308625,-0.69183349609375,-1.160400390625,-1.111114501953125,3418.04808825,-0.1877731440044501,-0.1126902045991399,0.4556591930509999,0.0059733414091169,1.037099003791809,2.709033489227295,-0.7519270777702332,-0.7604304552078247,-0.2526373863220215,XArbitraryZVertical,0.2193690724256433,-0.0757592521017043,-0.1038447530897144,0.9671371159123848,-0.1009785160422325,-0.4400543570518494,-0.8922755122184753,0,0,0,-1,-1,3417.45016825,walking,2,2022-05-12T10:42:55.538+02:00,2022-05-11T22:15:20.957+02:00,1046,0.8888014,0.7434952,1.753966,785.0757,0,0,2022-05-12T10:42:55.538+02:00,674037775.5376357,0,-2.66,100.9397,1,0.93
313,2022-05-12T10:42:56.152+02:00,1652344973.999698,53.22914793161045,10.39847214707211,37.41146,0.85,0.76,21.4453125,41.24153598218324,4.0,10,-9999,3418.06308125,-0.616302490234375,-1.050765991210938,-1.060638427734375,3418.05808325,-0.1590580472151143,-0.1150044583476097,0.4519848656175368,-0.1363200396299362,1.025453686714172,2.50706934928894,-0.5886057615280151,-0.7236480116844177,-0.2174750566482544,XArbitraryZVertical,0.2185465537126132,-0.0736043070374904,-0.0901340464026394,0.9688632178611178,-0.1032280400395393,-0.4367519319057465,-0.8936396241188049,0,0,0,-1,-1,3417.45016825,walking,2,2022-05-12T10:42:55.538+02:00,2022-05-11T22:15:20.957+02:00,1046,0.8888014,0.7434952,1.753966,785.0757,0,0,2022-05-12T10:42:55.538+02:00,674037775.5376357,0,-2.66,100.9397,1,0.93
314,2022-05-12T10:42:56.162+02:00,1652344973.999698,53.22914793161045,10.39847214707211,37.41146,0.85,0.76,21.4453125,41.24153598218324,4.0,10,-9999,3418.07307625,-0.5644073486328125,-0.982452392578125,-1.001861572265625,3418.06807825,-0.1325914876464387,-0.1163019945548924,0.4476122865949805,-0.175822988152504,1.012610673904419,2.333646774291992,-0.5116947293281555,-0.6179512739181519,-0.1652454137802124,XArbitraryZVertical,0.2173264028474173,-0.0712224643055019,-0.0773563461075093,0.9704188306282688,-0.1046080887317657,-0.4328143000602722,-0.8953931927680969,0,0,0,-1,-1,3417.45016825,walking,2,2022-05-12T10:42:55.538+02:00,2022-05-11T22:15:20.957+02:00,1046,0.8888014,0.7434952,1.753966,785.0757,0,0,2022-05-12T10:42:55.538+02:00,674037775.5376357,0,-2.66,100.9397,1,0.93
315,2022-05-12T10:42:56.172+02:00,1652344973.999698,53.22914793161045,10.39847214707211,37.41146,0.85,0.76,21.4453125,41.24153598218324,4.0,10,-9999,3418.08307125,-0.5207366943359375,-0.9098052978515624,-0.921112060546875,3418.07807325,-0.1078250206917804,-0.1169001169304244,0.443132304098376,-0.1996769160032272,1.007843017578125,2.221531629562378,-0.4590389132499695,-0.5536805987358093,-0.1046145558357239,XArbitraryZVertical,0.2159927898400292,-0.0687276758017294,-0.0652982237428142,0.9717818318552136,-0.1053687259554863,-0.4287713170051575,-0.8972472548484802,0,0,0,-1,-1,3417.45016825,walking,2,2022-05-12T10:42:55.538+02:00,2022-05-11T22:15:20.957+02:00,1046,0.8888014,0.7434952,1.753966,785.0757,0,0,2022-05-12T10:42:55.538+02:00,674037775.5376357,0,-2.66,100.9397,1,0.93
316,2022-05-12T10:42:56.182+02:00,1652344973.999698,53.22914793161045,10.39847214707211,37.41146,0.85,0.76,21.4453125,41.24153598218324,4.0,10,-9999,3418.09306625,-0.5157012939453125,-0.796630859375,-0.830108642578125,3418.08806825,-0.0841599788878714,-0.1168390526719858,0.4382311570074641,-0.2775017023086548,1.036653161048889,2.147752285003662,-0.4151793420314789,-0.4854663908481598,-0.0217822194099426,XArbitraryZVertical,0.2144060736473755,-0.066068314880175,-0.0536716738716839,0.9730285031654192,-0.1055576428771019,-0.4243384301662445,-0.8993300199508667,0,0,0,-1,-1,3417.45016825,walking,2,2022-05-12T10:42:55.538+02:00,2022-05-11T22:15:20.957+02:00,1046,0.8888014,0.7434952,1.753966,785.0757,0,0,2022-05-12T10:42:55.538+02:00,674037775.5376357,0,-2.66,100.9397,1,0.93
317,2022-05-12T10:42:56.192+02:00,1652344973.999698,53.22914793161045,10.39847214707211,37.41146,0.85,0.76,21.4453125,41.24153598218324,4.0,10,-9999,3418.10306125,-0.527496337890625,-0.6517333984375,-0.7873382568359375,3418.09806425,-0.0615988002508871,-0.11549252767637,0.4323527845374666,-0.4022287130355835,1.142010450363159,2.044076204299927,-0.4110693335533142,-0.377622127532959,0.0718247294425964,XArbitraryZVertical,0.2123015667376804,-0.062938434711654,-0.0424012629064758,0.9742530762396172,-0.1046322211623192,-0.4190082550048828,-0.9019336104393004,0,0,0,-1,-1,3417.45016825,walking,2,2022-05-12T10:42:55.538+02:00,2022-05-11T22:15:20.957+02:00,1046,0.8888014,0.7434952,1.753966,785.0757,0,0,2022-05-12T10:42:55.538+02:00,674037775.5376357,0,-2.66,100.9397,1,0.93
318,2022-05-12T10:42:56.202+02:00,1652344973.999698,53.22914793161045,10.39847214707211,37.41146,0.85,0.76,21.4453125,41.24153598218324,4.0,10,-9999,3418.11305625,-0.503814697265625,-0.5003204345703125,-0.776763916015625,3418.10805925,-0.0402613801504198,-0.1126052216199289,0.4265059894292866,-0.2939275205135345,1.200374126434326,1.957515358924866,-0.4251954257488251,-0.238040566444397,0.1173123717308044,XArbitraryZVertical,0.2101550590855349,-0.0592404347425764,-0.031549371106316,0.9753615573597132,-0.1023011654615402,-0.4136923253536224,-0.904650866985321,0,0,0,-1,-1,3417.45016825,walking,2,2022-05-12T10:42:55.538+02:00,2022-05-11T22:15:20.957+02:00,1046,0.8888014,0.7434952,1.753966,785.0757,0,0,2022-05-12T10:42:55.538+02:00,674037775.5376357,0,-2.66,100.9397,1,0.93
319,2022-05-12T10:42:56.212+02:00,1652344973.999698,53.22914793161045,10.39847214707211,37.41146,0.85,0.76,21.4453125,41.24153598218324,4.0,10,-9999,3418.12305125,-0.4777374267578125,-0.49273681640625,-0.773345947265625,3418.11805425,-0.01947581462988,-0.1091420991483086,0.422719716053078,-0.0264351330697536,1.208040475845337,1.891231894493103,-0.4044773876667023,-0.090077668428421,0.1297861337661743,XArbitraryZVertical,0.20894813686746,-0.055367484880919,-0.0209490997582004,0.9761333428538856,-0.0993375480175018,-0.4102422893047333,-0.9065502285957336,0,0,0,-1,-1,3417.45016825,walking,2,2022-05-12T10:42:55.538+02:00,2022-05-11T22:15:20.957+02:00,1046,0.8888014,0.7434952,1.753966,785.0757,0,0,2022-05-12T10:42:55.538+02:00,674037775.5376357,0,-2.66,100.9397,1,0.93
320,2022-05-12T10:42:56.222+02:00,1652344973.999698,53.22914793161045,10.39847214707211,37.41146,0.85,0.76,21.4453125,41.24153598218324,4.0,10,-9999,3418.13304625,-0.435882568359375,-0.5549163818359375,-0.7468414306640625,3418.12804925,0.0008547819095596,-0.1052608125683798,0.4214607122952145,0.1551026999950409,1.231269955635071,1.825609564781189,-0.3818652331829071,-0.0836425423622131,0.1340957283973694,XArbitraryZVertical,0.2089064647225143,-0.0513530956532278,-0.0105864769446666,0.9765290931217552,-0.0958724170923233,-0.4090937674045563,-0.9074419140815736,0,0,0,-1,-1,3417.45016825,walking,2,2022-05-12T10:42:55.538+02:00,2022-05-11T22:15:20.957+02:00,1046,0.8888014,0.7434952,1.753966,785.0757,0,0,2022-05-12T10:42:55.538+02:00,674037775.5376357,0,-2.66,100.9397,1,0.93
321,2022-05-12T10:42:56.232+02:00,1652344973.999698,53.22914793161045,10.39847214707211,37.41146,0.85,0.76,21.4453125,41.24153598218324,4.0,10,-9999,3418.14304125,-0.38885498046875,-0.577484130859375,-0.729644775390625,3418.13804425,0.0206960915833931,-0.1010249048880653,0.4217032993262527,0.262641429901123,1.240175247192383,1.771222710609436,-0.3438650667667389,-0.1456007659435272,0.1608994603157043,XArbitraryZVertical,0.2095255045905519,-0.0472071345430264,-0.0004610466142531,0.976662950894856,-0.0920177176594734,-0.4093151390552521,-0.9077410697937012,0,0,0,-1,-1,3417.45016825,walking,2,2022-05-12T10:42:55.538+02:00,2022-05-11T22:15:20.957+02:00,1046,0.8888014,0.7434952,1.753966,785.0757,0,0,2022-05-12T10:42:55.538+02:00,674037775.5376357,0,-2.66,100.9397,1,0.93
322,2022-05-12T10:42:56.242+02:00,1652344973.999698,53.22914793161045,10.39847214707211,37.41146,0.85,0.76,21.4453125,41.24153598218324,4.0,10,-9999,3418.15303725,-0.327911376953125,-0.590667724609375,-0.7016754150390625,3418.14803925,0.039952733029461,-0.0966144002441791,0.4229948123725318,0.3365606665611267,1.214106917381287,1.700652718544006,-0.3008930087089539,-0.1669904887676239,0.1779661774635315,XArbitraryZVertical,0.210580490962614,-0.0430146595453308,0.0093722830517583,0.9765848671368084,-0.0879621729254722,-0.4104931652545929,-0.9076111912727356,0,0,0,-1,-1,3417.45016825,walking,2,2022-05-12T10:42:55.538+02:00,2022-05-11T22:15:20.957+02:00,1046,0.8888014,0.7434952,1.753966,785.0757,0,0,2022-05-12T10:42:55.538+02:00,674037775.5376357,0,-2.66,100.9397,1,0.93
323,2022-05-12T10:42:56.252+02:00,1652344973.999698,53.22914793161045,10.39847214707211,37.41146,0.85,0.76,21.4453125,41.24153598218324,4.0,10,-9999,3418.16303225,-0.291351318359375,-0.611572265625,-0.6811370849609375,3418.15803425,0.0586612457208589,-0.0926531401900744,0.4248919125094086,0.3583891987800598,1.112480401992798,1.666452765464783,-0.2436175644397736,-0.1784449219703674,0.2054998278617859,XArbitraryZVertical,0.2118622390822687,-0.0390725070252193,0.0188760146288897,0.976335791750824,-0.0842940062284469,-0.412222295999527,-0.9071754813194276,0,0,0,-1,-1,3417.45016825,walking,2,2022-05-12T10:42:55.538+02:00,2022-05-11T22:15:20.957+02:00,1046,0.8888014,0.7434952,1.753966,785.0757,0,0,2022-05-12T10:42:55.538+02:00,674037775.5376357,0,-2.66,100.9397,1,0.93
324,2022-05-12T10:42:56.262+02:00,1652344973.999698,53.22914793161045,10.39847214707211,37.41146,0.85,0.76,21.4453125,41.24153598218324,4.0,10,-9999,3418.17302725,-0.2961578369140625,-0.6096038818359375,-0.6883697509765625,3418.16802925,0.0770717469439303,-0.0897967233606454,0.4269367344428054,0.3464145660400391,0.98546302318573,1.63835346698761,-0.2097248733043671,-0.1974873244762421,0.2254338264465332,XArbitraryZVertical,0.2131701025841194,-0.0356783399685075,0.0281124215133552,0.9759587565477832,-0.0816266313195228,-0.4140844345092773,-0.9065711498260498,0,0,0,-1,-1,3417.45016825,walking,2,2022-05-12T10:42:55.538+02:00,2022-05-11T22:15:20.957+02:00,1046,0.8888014,0.7434952,1.753966,785.0757,0,0,2022-05-12T10:42:55.538+02:00,674037775.5376357,0,-2.66,100.9397,1,0.93
325,2022-05-12T10:42:56.272+02:00,1652344973.999698,53.22914793161045,10.39847214707211,37.41146,0.85,0.76,21.4453125,41.24153598218324,4.0,10,-9999,3418.18302225,-0.320831298828125,-0.5742950439453125,-0.7039337158203125,3418.17802425,0.0952155401174532,-0.0879427264287681,0.4289371955854466,0.3541189134120941,0.8981642127037048,1.620322346687317,-0.2162851989269257,-0.1936988532543182,0.2175239324569702,XArbitraryZVertical,0.2144255800279599,-0.0327827941695641,0.0371098097502704,0.9754844566951154,-0.0798727944493293,-0.4159045219421387,-0.9058939218521118,0,0,0,-1,-1,3417.45016825,walking,2,2022-05-12T10:42:55.538+02:00,2022-05-11T22:15:20.957+02:00,1046,0.8888014,0.7434952,1.753966,785.0757,0,0,2022-05-12T10:42:55.538+02:00,674037775.5376357,0,-2.66,100.9397,1,0.93
326,2022-05-12T10:42:56.282+02:00,1652344973.999698,53.22914793161045,10.39847214707211,37.41146,0.85,0.76,21.4453125,41.24153598218324,4.0,10,-9999,3418.19301775,-0.33447265625,-0.53863525390625,-0.728729248046875,3418.18801975,0.113314934827601,-0.0868273092620894,0.4310675302134154,0.3581096529960632,0.833428144454956,1.626481413841248,-0.2420461624860764,-0.1564536392688751,0.2011637687683105,XArbitraryZVertical,0.2157252391183828,-0.0302284402784941,0.0459977984448232,0.9749016810313892,-0.0787852853536605,-0.4178409278392792,-0.905097723007202,0,0,0,-1,-1,3417.45016825,walking,2,2022-05-12T10:42:55.538+02:00,2022-05-11T22:15:20.957+02:00,1046,0.8888014,0.7434952,1.753966,785.0757,0,0,2022-05-12T10:42:55.538+02:00,674037775.5376357,0,-2.66,100.9397,1,0.93
