,loggingTime(txt),locationTimestamp_since1970(s),locationLatitude(WGS84),locationLongitude(WGS84),locationAltitude(m),locationSpeed(m/s),locationSpeedAccuracy(m/s),locationCourse(°),locationCourseAccuracy(°),locationVerticalAccuracy(m),locationHorizontalAccuracy(m),locationFloor(Z),accelerometerTimestamp_sinceReboot(s),accelerometerAccelerationX(G),accelerometerAccelerationY(G),accelerometerAccelerationZ(G),motionTimestamp_sinceReboot(s),motionYaw(rad),motionRoll(rad),motionPitch(rad),motionRotationRateX(rad/s),motionRotationRateY(rad/s),motionRotationRateZ(rad/s),motionUserAccelerationX(G),motionUserAccelerationY(G),motionUserAccelerationZ(G),motionAttitudeReferenceFrame(txt),motionQuaternionX(R),motionQuaternionY(R),motionQuaternionZ(R),motionQuaternionW(R),motionGravityX(G),motionGravityY(G),motionGravityZ(G),motionMagneticFieldX(µT),motionMagneticFieldY(µT),motionMagneticFieldZ(µT),motionHeading(°),motionMagneticFieldCalibrationAccuracy(Z),activityTimestamp_sinceReboot(s),activity(txt),activityActivityConfidence(Z),activityActivityStartDate(txt),pedometerStartDate(txt),pedometerNumberofSteps(N),pedometerAverageActivePace(s/m),pedometerCurrentPace(s/m),pedometerCurrentCadence(steps/s),pedometerDistance(m),pedometerFloorAscended(N),pedometerFloorDescended(N),pedometerEndDate(txt),altimeterTimestamp_sinceReboot(s),altimeterReset(bool),altimeterRelativeAltitude(m),altimeterPressure(kPa),batteryState(N),batteryLevel(R)
225,2022-06-02T10:52:11.163+02:00,1654159928.000461,53.22890393440913,10.39865269326642,38.68203,0,0.05,226.7578125,65.06141773144168,4,5,-9999,3075.441021375,0.9710235595703124,0.2323760986328125,-1.465255737304688,3075.431026375,-3.060289409688205,0.3289059184944682,0.2437901946915592,4.854988574981689,7.442570686340332,-0.4213873147964478,0.6334428787231445,0.7944983839988708,-0.8273466229438782,XArbitraryZVertical,0.1672386440137455,-0.113249850726142,-0.9775701105947748,0.0596845669323141,0.3134564757347107,-0.2413824647665024,-0.9184114336967468,0,0,0,-1,-1,3075.403186375,unknown,2,2022-06-02T10:52:11.125+02:00,2022-06-02T10:17:13.754+02:00,512,1.452715,0,0,397.4887,0,0,2022-06-02T10:52:11.125+02:00,675852731.1246518,0,4.941406,101.3247,1,0.79
226,2022-06-02T10:52:11.173+02:00,1654159928.000461,53.22890393440913,10.39865269326642,38.68203,0,0.05,226.7578125,65.06141773144168,4,5,-9999,3075.451015375,1.107635498046875,0.5641021728515625,-1.773193359375,3075.441021375,-3.08042589000901,0.4157528814972127,0.2711007578138027,1.931176066398621,8.912281036376953,-1.143571138381958,0.5183428525924683,0.4240422248840332,-0.5017018914222717,XArbitraryZVertical,0.2084370715590162,-0.1259115413481355,-0.968189780589838,0.0575224403750281,0.3891278207302094,-0.2677921652793884,-0.8814005255699158,0,0,0,-1,-1,3075.403186375,unknown,2,2022-06-02T10:52:11.125+02:00,2022-06-02T10:17:13.754+02:00,512,1.452715,0,0,397.4887,0,0,2022-06-02T10:52:11.125+02:00,675852731.1246518,0,4.941406,101.3247,1,0.79
227,2022-06-02T10:52:11.183+02:00,1654159928.000461,53.22890393440913,10.39865269326642,38.68203,0,0.05,226.7578125,65.06141773144168,4,5,-9999,3075.461009375,1.218215942382812,1.045654296875,-1.818115234375,3075.451015375,-3.097922186630468,0.5185200417905668,0.2773564422095255,0.9152005910873412,10.76363849639893,-1.249391436576843,0.5615224838256836,0.6523236632347107,-0.7970102429389954,XArbitraryZVertical,0.2567609025760468,-0.1280388885125377,-0.9562984134975788,0.0563312172918184,0.4766549170017242,-0.2738140821456909,-0.8353597521781921,0,0,0,-1,-1,3075.403186375,unknown,2,2022-06-02T10:52:11.125+02:00,2022-06-02T10:17:13.754+02:00,512,1.452715,0,0,397.4887,0,0,2022-06-02T10:52:11.125+02:00,675852731.1246518,0,4.941406,101.3247,1,0.79
228,2022-06-02T10:52:11.193+02:00,1654159928.000461,53.22890393440913,10.39865269326642,38.68203,0,0.05,226.7578125,65.06141773144168,4,5,-9999,3075.471003375,1.19940185546875,1.36187744140625,-1.740966796875,3075.471003375,-3.125204875172406,0.7793859080825901,0.2839240904150894,1.255607724189758,14.45474433898926,-0.2578004598617554,0.5499821901321411,1.49783730506897,-1.106669902801514,XArbitraryZVertical,0.3771424640851245,-0.1277919776998507,-0.9152490226830357,0.0612524690263389,0.6747034192085266,-0.2801247835159302,-0.682865560054779,0,0,0,-1,-1,3075.403186375,unknown,2,2022-06-02T10:52:11.125+02:00,2022-06-02T10:17:13.754+02:00,512,1.452715,0,0,397.4887,0,0,2022-06-02T10:52:11.125+02:00,675852731.1246518,0,4.941406,101.3247,1,0.79
229,2022-06-02T10:52:11.203+02:00,1654159928.000461,53.22890393440913,10.39865269326642,38.68203,0,0.05,226.7578125,65.06141773144168,4,5,-9999,3075.480998375,0.9461669921875,1.768875122070312,-1.282150268554688,3075.471003375,-3.125204875172406,0.7793859080825901,0.2839240904150894,1.255607724189758,14.45474433898926,-0.2578004598617554,0.5499821901321411,1.49783730506897,-1.106669902801514,XArbitraryZVertical,0.3771424640851245,-0.1277919776998507,-0.9152490226830357,0.0612524690263389,0.6747034192085266,-0.2801247835159302,-0.682865560054779,0,0,0,-1,-1,3075.403186375,unknown,2,2022-06-02T10:52:11.125+02:00,2022-06-02T10:17:13.754+02:00,512,1.452715,0,0,397.4887,0,0,2022-06-02T10:52:11.125+02:00,675852731.1246518,0,4.941406,101.3247,1,0.79
230,2022-06-02T10:52:11.213+02:00,1654159928.000461,53.22890393440913,10.39865269326642,38.68203,0,0.05,226.7578125,65.06141773144168,4,5,-9999,3075.490992375,0.65216064453125,2.294784545898438,-0.4741973876953125,3075.480998375,-3.134276929225994,0.9346181263581052,0.2920349720949191,1.049505949020386,16.0142822265625,0.3755970001220703,0.3229923248291016,1.821120023727417,-1.02329957485199,XArbitraryZVertical,0.4461637756771603,-0.1282681466821497,-0.8830373755590153,0.0687757493364047,0.7703151106834412,-0.2879016399383545,-0.5689703226089478,0,0,0,-1,-1,3075.403186375,unknown,2,2022-06-02T10:52:11.125+02:00,2022-06-02T10:17:13.754+02:00,512,1.452715,0,0,397.4887,0,0,2022-06-02T10:52:11.125+02:00,675852731.1246518,0,4.941406,101.3247,1,0.79
231,2022-06-02T10:52:11.223+02:00,1654159928.000461,53.22890393440913,10.39865269326642,38.68203,0,0.05,226.7578125,65.06141773144168,4,5,-9999,3075.500986375,0.2545318603515625,2.43365478515625,0.6443328857421875,3075.490992375,-3.135754682058274,1.10131184664517,0.3020958792661735,0.0881070867180824,17.27410888671875,1.160767316818237,-0.0328434109687805,2.349523782730103,-0.4543073177337646,XArbitraryZVertical,0.5176607042682624,-0.12672084944712,-0.8422450095209898,0.0811939357931545,0.8514163494110107,-0.2975218296051025,-0.4319384396076202,0,0,0,-1,-1,3075.403186375,unknown,2,2022-06-02T10:52:11.125+02:00,2022-06-02T10:17:13.754+02:00,512,1.452715,0,0,397.4887,0,0,2022-06-02T10:52:11.125+02:00,675852731.1246518,0,4.941406,101.3247,1,0.79
232,2022-06-02T10:52:11.233+02:00,1654159928.000461,53.22890393440913,10.39865269326642,38.68203,0,0.05,226.7578125,65.06141773144168,4,5,-9999,3075.510980375,0.07421875,2.237686157226562,2.05029296875,3075.500986375,-3.120716316903843,1.275670972487331,0.3132773312314854,-2.053519725799561,18.53362464904785,1.933447241783142,-0.4666256904602051,2.742595911026001,0.3162234425544739,XArbitraryZVertical,0.5894439658873171,-0.119181311846711,-0.7925379981074389,0.1011687924582606,0.9101986289024352,-0.3081780970096588,-0.2767032384872437,0,0,0,-1,-1,3075.403186375,unknown,2,2022-06-02T10:52:11.125+02:00,2022-06-02T10:17:13.754+02:00,512,1.452715,0,0,397.4887,0,0,2022-06-02T10:52:11.125+02:00,675852731.1246518,0,4.941406,101.3247,1,0.79
233,2022-06-02T10:52:11.243+02:00,1654159928.000461,53.22890393440913,10.39865269326642,38.68203,0,0.05,226.7578125,65.06141773144168,4,5,-9999,3075.520975375,0.100006103515625,1.784530639648438,3.520751953125,3075.510980375,-3.079578458912316,1.452935869922839,0.3290280507922067,-5.03143310546875,19.50156784057617,2.719532012939453,-0.8111293315887451,2.679309368133545,1.438046932220459,XArbitraryZVertical,0.6587454861544445,-0.1020509403291568,-0.7337050212691335,0.1315931564833982,0.9397913217544556,-0.3231233656406403,-0.1112799793481827,0,0,0,-1,-1,3075.403186375,unknown,2,2022-06-02T10:52:11.125+02:00,2022-06-02T10:17:13.754+02:00,512,1.452715,0,0,397.4887,0,0,2022-06-02T10:52:11.125+02:00,675852731.1246518,0,4.941406,101.3247,1,0.79
234,2022-06-02T10:52:11.253+02:00,1654159928.000461,53.22890393440913,10.39865269326642,38.68203,0,0.05,226.7578125,65.06141773144168,4,5,-9999,3075.530969375,0.2779388427734375,0.9716796875,4.945877075195312,3075.520975375,-3.008217189276739,1.62735463777989,0.3586134976709297,-8.223955154418945,20.15811157226562,3.54405403137207,-0.8677941560745239,2.402612209320068,2.734955310821533,XArbitraryZVertical,0.7217382680087293,-0.0745647932780685,-0.6656783317821661,0.1743734181211514,0.9348868131637572,-0.3509762585163116,0.052932072430849,0,0,0,-1,-1,3075.403186375,unknown,2,2022-06-02T10:52:11.125+02:00,2022-06-02T10:17:13.754+02:00,512,1.452715,0,0,397.4887,0,0,2022-06-02T10:52:11.125+02:00,675852731.1246518,0,4.941406,101.3247,1,0.79
235,2022-06-02T10:52:11.263+02:00,1654159928.000461,53.22890393440913,10.39865269326642,38.68203,0,0.05,226.7578125,65.06141773144168,4,5,-9999,3075.540963375,0.693389892578125,-0.424224853515625,6.0897216796875,3075.530969375,-2.910358794813839,1.79396620728759,0.4108571842979765,-11.23215484619141,20.41179275512695,4.18415641784668,-0.7227939963340759,1.843105673789978,4.037819385528564,XArbitraryZVertical,0.7745927680858714,-0.0381799333667847,-0.5883835063846851,0.2288082535000438,0.8940434455871582,-0.3993953168392181,0.2029033303260803,0,0,0,-1,-1,3075.403186375,unknown,2,2022-06-02T10:52:11.125+02:00,2022-06-02T10:17:13.754+02:00,512,1.452715,0,0,397.4887,0,0,2022-06-02T10:52:11.125+02:00,675852731.1246518,0,4.941406,101.3247,1,0.79
236,2022-06-02T10:52:11.273+02:00,1654159928.000461,53.22890393440913,10.39865269326642,38.68203,0,0.05,226.7578125,65.06141773144168,4,5,-9999,3075.550957375,1.387435913085938,-1.630386352539062,7.167266845703125,3075.540963375,-2.796853158928391,1.947018607555044,0.4895165264463635,-12.68704128265381,20.0413875579834,4.749649047851562,-0.3673726320266724,0.7832334041595459,5.232959270477295,XArbitraryZVertical,0.8137072097804744,0.0033322675696739,-0.5031870785057369,0.2909847368045572,0.8208332061767578,-0.4701992571353912,0.3242610692977905,0,0,0,-1,-1,3075.403186375,unknown,2,2022-06-02T10:52:11.125+02:00,2022-06-02T10:17:13.754+02:00,512,1.452715,0,0,397.4887,0,0,2022-06-02T10:52:11.125+02:00,675852731.1246518,0,4.941406,101.3247,1,0.79
237,2022-06-02T10:52:11.283+02:00,1654159928.000461,53.22890393440913,10.39865269326642,38.68203,0,0.05,226.7578125,65.06141773144168,4,5,-9999,3075.560952375,2.376052856445312,-2.867599487304688,8.153884887695312,3075.550957375,-2.69047443011797,2.089929652639026,0.5849523067068626,-11.96707248687744,19.3968334197998,4.356880187988281,0.2611077427864075,-0.5224251747131348,6.219049453735352,XArbitraryZVertical,0.8395650131458673,0.0441694706503344,-0.4126695037924597,0.3505472459445732,0.7238927483558655,-0.5521596074104309,0.4136407077312469,0,0,0,-1,-1,3075.403186375,unknown,2,2022-06-02T10:52:11.125+02:00,2022-06-02T10:17:13.754+02:00,512,1.452715,0,0,397.4887,0,0,2022-06-02T10:52:11.125+02:00,675852731.1246518,0,4.941406,101.3247,1,0.79
238,2022-06-02T10:52:11.293+02:00,1654159928.000461,53.22890393440913,10.39865269326642,38.68203,0,0.05,226.7578125,65.06141773144168,4,5,-9999,3075.570946375,2.777740478515625,-3.211898803710938,9.673233032226562,3075.560952375,-2.598336897589346,2.225649989562089,0.676477662640235,-10.44959545135498,18.63083267211914,2.473727226257324,1.26757287979126,-1.632067203521729,7.191094398498535,XArbitraryZVertical,0.8544697459146964,0.0856856838761594,-0.3219318256986519,0.398621575617556,0.6184743642807007,-0.6260502338409424,0.4749211668968201,0,0,0,-1,-1,3075.403186375,unknown,2,2022-06-02T10:52:11.125+02:00,2022-06-02T10:17:13.754+02:00,512,1.452715,0,0,397.4887,0,0,2022-06-02T10:52:11.125+02:00,675852731.1246518,0,4.941406,101.3247,1,0.79
239,2022-06-02T10:52:11.303+02:00,1654159928.000461,53.22890393440913,10.39865269326642,38.68203,0,0.05,226.7578125,65.06141773144168,4,5,-9999,3075.580940375,3.003219604492188,-2.893829345703125,12.16766357421875,3075.570946375,-2.50716901728179,2.348062796006849,0.7445734918215873,-8.985997200012207,17.68787574768066,-1.497010946273804,2.148223161697388,-2.503738164901733,8.256213188171387,XArbitraryZVertical,0.8601170042364391,0.1344284173522443,-0.2373604930097085,0.4310310196059102,0.5242012143135071,-0.677658200263977,0.5157445073127747,0,0,0,-1,-1,3075.403186375,unknown,2,2022-06-02T10:52:11.125+02:00,2022-06-02T10:17:13.754+02:00,512,1.452715,0,0,397.4887,0,0,2022-06-02T10:52:11.125+02:00,675852731.1246518,0,4.941406,101.3247,1,0.79
240,2022-06-02T10:52:11.313+02:00,1654159928.000461,53.22890393440913,10.39865269326642,38.68203,0,0.05,226.7578125,65.06141773144168,4,5,-9999,3075.590935375,2.372055053710938,-1.507705688476562,14.09445190429688,3075.580940375,-2.377470954482771,2.425017404533449,0.7835330585382941,-9.71823787689209,15.56915664672852,-6.974608421325684,2.411274433135986,-2.410759687423706,10.3181619644165,XArbitraryZVertical,0.8530584964346948,0.198464558166683,-0.1674182842942624,0.4526301060548354,0.4652972519397736,-0.7057867050170898,0.5341939330101013,0,0,0,-1,-1,3075.403186375,unknown,2,2022-06-02T10:52:11.125+02:00,2022-06-02T10:17:13.754+02:00,512,1.452715,0,0,397.4887,0,0,2022-06-02T10:52:11.125+02:00,675852731.1246518,0,4.941406,101.3247,1,0.79
241,2022-06-02T10:52:11.323+02:00,1654159928.000461,53.22890393440913,10.39865269326642,38.68203,0,0.05,226.7578125,65.06141773144168,4,5,-9999,3075.600929375,0.48358154296875,0.09332275390625,15.11776733398438,3075.590935375,-2.170822395126251,2.418282881750193,0.7982335495326651,-11.66545581817627,12.39496231079102,-13.08694553375244,2.428231239318848,-1.629517555236816,12.77260875701904,XArbitraryZVertical,0.826408291172397,0.2804568709818264,-0.1187824061190459,0.4735860994525422,0.46196648478508,-0.7161242961883545,0.5232134461402893,0,0,0,-1,-1,3075.403186375,unknown,2,2022-06-02T10:52:11.125+02:00,2022-06-02T10:17:13.754+02:00,512,1.452715,0,0,397.4887,0,0,2022-06-02T10:52:11.125+02:00,675852731.1246518,0,4.941406,101.3247,1,0.79
242,2022-06-02T10:52:11.333+02:00,1654159928.000461,53.22890393440913,10.39865269326642,38.68203,0,0.05,226.7578125,65.06141773144168,4,5,-9999,3075.610923375,-3.447601318359375,2.102813720703125,16.29106140136719,3075.600929375,-1.879831792151644,2.314825827175592,0.7793260879472051,-14.04525566101074,8.032620429992676,-18.81554412841797,1.069236278533936,0.0256305336952209,14.17612075805664,XArbitraryZVertical,0.7740674613490448,0.3764516314245362,-0.0948691717017135,0.5001033591463775,0.5233997106552124,-0.7028001546859741,0.481792539358139,0,0,0,-1,-1,3075.403186375,unknown,2,2022-06-02T10:52:11.125+02:00,2022-06-02T10:17:13.754+02:00,512,1.452715,0,0,397.4887,0,0,2022-06-02T10:52:11.125+02:00,675852731.1246518,0,4.941406,101.3247,1,0.79
243,2022-06-02T10:52:11.343+02:00,1654159928.000461,53.22890393440913,10.39865269326642,38.68203,0,0.05,226.7578125,65.06141773144168,4,5,-9999,3075.620917375,-10.61618041992188,4.640533447265625,17.20977783203125,3075.610923375,-1.537710628622877,2.138114667144733,0.7018304432299565,-16.53072357177734,3.157089471817017,-24.17159843444824,-1.776278138160706,1.647218942642212,15.28678798675537,XArbitraryZVertical,0.6912873194664505,0.4767673584631998,-0.0974218171117562,0.5341568342372565,0.6440300345420837,-0.6456165909767151,0.4103705585002899,0,0,0,-1,-1,3075.403186375,unknown,2,2022-06-02T10:52:11.125+02:00,2022-06-02T10:17:13.754+02:00,512,1.452715,0,0,397.4887,0,0,2022-06-02T10:52:11.125+02:00,675852731.1246518,0,4.941406,101.3247,1,0.79
244,2022-06-02T10:52:11.353+02:00,1654159928.000461,53.22890393440913,10.39865269326642,38.68203,0,0.05,226.7578125,65.06141773144168,4,5,-9999,3075.630912375,-21.12216186523438,6.60040283203125,19.24223327636719,3075.620917375,-1.176324504702644,1.936491582360778,0.5458746308712297,-22.92655563354492,-0.9893073439598083,-29.97262382507324,-7.384981155395508,3.834961891174316,16.47189712524414,XArbitraryZVertical,0.5673027558265719,0.5753108599990754,-0.1180393055198874,0.5772794110944837,0.7981582880020142,-0.5191658139228821,0.3056299984455109,0,0,0,-1,-1,3075.403186375,unknown,2,2022-06-02T10:52:11.125+02:00,2022-06-02T10:17:13.754+02:00,512,1.452715,0,0,397.4887,0,0,2022-06-02T10:52:11.125+02:00,675852731.1246518,0,4.941406,101.3247,1,0.79
245,2022-06-02T10:52:11.363+02:00,1654159928.000461,53.22890393440913,10.39865269326642,38.68203,0,0.05,226.7578125,65.06141773144168,4,5,-9999,3075.640906375,-31.41162109375,2.193862915039062,23.43983459472656,3075.630912375,-0.7707659587306528,1.718227042354166,0.297404150319645,-34.46789169311523,-9.003644943237305,-35.03899002075195,-16.6151008605957,6.203729629516602,17.84128761291504,XArbitraryZVertical,0.3711888030951806,0.6576040600684497,-0.1388400270269186,0.6407020239226053,0.9457282423973083,-0.2930392920970917,0.1404484510421753,0,0,0,-1,-1,3075.403186375,unknown,2,2022-06-02T10:52:11.125+02:00,2022-06-02T10:17:13.754+02:00,512,1.452715,0,0,397.4887,0,0,2022-06-02T10:52:11.125+02:00,675852731.1246518,0,4.941406,101.3247,1,0.79
246,2022-06-02T10:52:11.373+02:00,1654159928.000461,53.22890393440913,10.39865269326642,38.68203,0,0.05,226.7578125,65.06141773144168,4,5,-9999,3075.650900375,-32.30615234375,-8.15118408203125,30.07550048828125,3075.640906375,-0.3963662869600431,1.585031397935803,-0.028588855765654,-34.71817016601562,-5.667165756225586,-35.07684707641602,-27.66736793518066,5.74718713760376,21.03559112548828,XArbitraryZVertical,0.1303554542613633,0.7000870239272278,-0.1481923269737748,0.6862393667970338,0.9994899034500122,0.028584960848093,0.0142287714406848,0,0,0,-1,-1,3075.403186375,unknown,2,2022-06-02T10:52:11.125+02:00,2022-06-02T10:17:13.754+02:00,512,1.452715,0,0,397.4887,0,0,2022-06-02T10:52:11.125+02:00,675852731.1246518,0,4.941406,101.3247,1,0.79
247,2022-06-02T10:52:11.383+02:00,1654159928.000461,53.22890393440913,10.39865269326642,38.68203,0,0.05,226.7578125,65.06141773144168,4,5,-9999,3075.660894375,-32.11198425292969,10.94210815429688,27.39067077636719,3075.650900375,-0.0453158939957637,1.590701273372698,-0.3759388621780909,-31.47100067138672,-9.380003929138184,-35.06493377685547,-33.18212890625,-4.474430561065674,26.91115951538086,XArbitraryZVertical,-0.1148841071377951,0.7043141742479719,-0.1489880018364052,0.6845040053342334,0.9299790263175964,0.3671459853649139,0.0185136273503303,0,0,0,-1,-1,3075.403186375,unknown,2,2022-06-02T10:52:11.125+02:00,2022-06-02T10:17:13.754+02:00,512,1.452715,0,0,397.4887,0,0,2022-06-02T10:52:11.125+02:00,675852731.1246518,0,4.941406,101.3247,1,0.79
248,2022-06-02T10:52:11.393+02:00,1654159928.000461,53.22890393440913,10.39865269326642,38.68203,0,0.05,226.7578125,65.06141773144168,4,5,-9999,3075.670889375,-18.19013977050781,32.01762390136719,29.25436401367188,3075.660894375,-0.1169591779937743,1.425858318874485,-0.7017104014585703,33.68240737915039,-14.4015645980835,-34.26420974731445,-32.93090057373047,-6.12468147277832,29.14058113098145,XArbitraryZVertical,-0.2236498682544204,0.6283525212401788,-0.2659323917864867,0.6960128261754911,0.7557313442230225,0.6455249190330505,-0.1103076934814453,0,0,0,-1,-1,3075.403186375,unknown,2,2022-06-02T10:52:11.125+02:00,2022-06-02T10:17:13.754+02:00,512,1.452715,0,0,397.4887,0,0,2022-06-02T10:52:11.125+02:00,675852731.1246518,0,4.941406,101.3247,1,0.79
249,2022-06-02T10:52:11.403+02:00,1654159928.000461,53.22890393440913,10.39865269326642,38.68203,0,0.05,226.7578125,65.06141773144168,4,5,-9999,3075.680883375,-13.86079406738281,-2.35546875,31.61988830566406,3075.670889375,-0.7796567715750282,0.6817910651435812,-0.8395083786408261,35.51892852783203,-32.93362808227539,-34.57663726806641,-31.10421943664551,28.96936988830566,27.74613189697266,XArbitraryZVertical,-0.2392423995755668,0.4283653113661304,-0.4530984874584523,0.7442901892138258,0.4208554625511169,0.7443149089813232,-0.5185324549674988,0,0,0,-1,-1,3075.403186375,unknown,2,2022-06-02T10:52:11.125+02:00,2022-06-02T10:17:13.754+02:00,512,1.452715,0,0,397.4887,0,0,2022-06-02T10:52:11.125+02:00,675852731.1246518,0,4.941406,101.3247,1,0.79
250,2022-06-02T10:52:11.413+02:00,1654159928.000461,53.22890393440913,10.39865269326642,38.68203,0,0.05,226.7578125,65.06141773144168,4,5,-9999,3075.690877375,-29.03439331054688,-26.69996643066406,21.34468078613281,3075.680883375,-1.263155103139961,0.007569441356189,-0.5945201322061917,35.34809875488281,-33.1458625793457,-13.42780685424805,-4.014678001403809,20.29285430908203,32.45046234130859,XArbitraryZVertical,-0.2342617292052715,0.1758539831767006,-0.5654151680206551,0.7710398760426913,0.0062705967575311,0.5601112842559814,-0.8283936381340027,0,0,0,-1,-1,3075.403186375,unknown,2,2022-06-02T10:52:11.125+02:00,2022-06-02T10:17:13.754+02:00,512,1.452715,0,0,397.4887,0,0,2022-06-02T10:52:11.125+02:00,675852731.1246518,0,4.941406,101.3247,1,0.79
251,2022-06-02T10:52:11.423+02:00,1654159928.000461,53.22890393440913,10.39865269326642,38.68203,0,0.05,226.7578125,65.06141773144168,4,5,-9999,3075.700871375,-21.16580200195312,-7.688690185546875,9.61822509765625,3075.690877375,-1.202581053490181,-0.3148626473082698,-0.3245451772410028,14.07533168792725,-35.05984878540039,13.45922946929932,-29.04278373718262,-24.15122985839844,29.67546272277832,XArbitraryZVertical,-0.2191043697088267,-0.0373186839444349,-0.5304840241193338,0.8180386166440854,-0.293518990278244,0.3188777267932892,-0.9012011885643004,0,0,0,-1,-1,3075.403186375,unknown,2,2022-06-02T10:52:11.125+02:00,2022-06-02T10:17:13.754+02:00,512,1.452715,0,0,397.4887,0,0,2022-06-02T10:52:11.125+02:00,675852731.1246518,0,4.941406,101.3247,1,0.79
252,2022-06-02T10:52:11.433+02:00,1654159928.000461,53.22890393440913,10.39865269326642,38.68203,0,0.05,226.7578125,65.06141773144168,4,5,-9999,3075.710866375,-12.70480346679688,3.835098266601562,5.336044311523438,3075.710866375,-1.108805184066768,-0.88831471365105,-0.4379639956122944,3.202527046203613,-28.69399642944336,2.695083618164062,-15.54305076599121,-1.306237697601318,6.328057765960693,XArbitraryZVertical,-0.3875825116632746,-0.2533457890110896,-0.3846411684377125,0.798527961321244,-0.7027677893638611,0.4240964949131012,-0.5711914300918579,0,0,0,-1,-1,3075.403186375,unknown,2,2022-06-02T10:52:11.125+02:00,2022-06-02T10:17:13.754+02:00,512,1.452715,0,0,397.4887,0,0,2022-06-02T10:52:11.125+02:00,675852731.1246518,0,4.941406,101.3247,1,0.79
253,2022-06-02T10:52:11.443+02:00,1654159928.000461,53.22890393440913,10.39865269326642,38.68203,0,0.05,226.7578125,65.06141773144168,4,5,-9999,3075.720860375,-19.1263427734375,12.33660888671875,8.52301025390625,3075.710866375,-1.108805184066768,-0.88831471365105,-0.4379639956122944,3.202527046203613,-28.69399642944336,2.695083618164062,-15.54305076599121,-1.306237697601318,6.328057765960693,XArbitraryZVertical,-0.3875825116632746,-0.2533457890110896,-0.3846411684377125,0.798527961321244,-0.7027677893638611,0.4240964949131012,-0.5711914300918579,0,0,0,-1,-1,3075.403186375,unknown,2,2022-06-02T10:52:11.125+02:00,2022-06-02T10:17:13.754+02:00,512,1.452715,0,0,397.4887,0,0,2022-06-02T10:52:11.125+02:00,675852731.1246518,0,4.941406,101.3247,1,0.79
254,2022-06-02T10:52:11.453+02:00,1654159928.000461,53.22890393440913,10.39865269326642,38.68203,0,0.05,226.7578125,65.06141773144168,4,5,-9999,3075.730854375,-14.07752990722656,-4.421173095703125,10.58377075195312,3075.720860375,-0.9893319286235122,-1.046077648618256,-0.3961942749947782,16.78599166870117,-11.01752662658691,3.324735879898071,-14.12720584869385,9.0201416015625,7.652607440948486,XArbitraryZVertical,-0.382555831351001,-0.3500995985073439,-0.3167022188026676,0.7942172296670791,-0.7984228134155273,0.3859102129936218,-0.4621626138687134,0,0,0,-1,-1,3075.403186375,unknown,2,2022-06-02T10:52:11.125+02:00,2022-06-02T10:17:13.754+02:00,512,1.452715,0,0,397.4887,0,0,2022-06-02T10:52:11.125+02:00,675852731.1246518,0,4.941406,101.3247,1,0.79
255,2022-06-02T10:52:11.463+02:00,1654159928.000461,53.22890393440913,10.39865269326642,38.68203,0,0.05,226.7578125,65.06141773144168,4,5,-9999,3075.740849375,-8.534454345703125,-5.184661865234375,9.292388916015623,3075.730854375,-0.8069597583730825,-1.014865298191911,-0.3599363506303326,13.1833324432373,1.915590763092041,7.299953937530518,-17.48164749145508,4.894504547119141,9.931431770324709,XArbitraryZVertical,-0.3315882194813813,-0.3782735582321122,-0.2576099167059754,0.8249821176259704,-0.794978678226471,0.3522146642208099,-0.4939167499542236,0,0,0,-1,-1,3075.403186375,unknown,2,2022-06-02T10:52:11.125+02:00,2022-06-02T10:17:13.754+02:00,512,1.452715,0,0,397.4887,0,0,2022-06-02T10:52:11.125+02:00,675852731.1246518,0,4.941406,101.3247,1,0.79
256,2022-06-02T10:52:11.473+02:00,1654159928.000461,53.22890393440913,10.39865269326642,38.68203,0,0.05,226.7578125,65.06141773144168,4,5,-9999,3075.750843375,-6.212905883789062,-1.477798461914062,6.748077392578125,3075.740849375,-0.6742187527425163,-0.9445527391635222,-0.3698453517923644,7.337021827697754,1.449748754501343,8.201297760009766,-9.78254508972168,-7.879858016967773,11.12446212768555,XArbitraryZVertical,-0.3024292330215852,-0.3678303449193487,-0.2105944678955253,0.8537490097390458,-0.7554494142532349,0.3614712357521057,-0.546474814414978,0,0,0,-1,-1,3075.403186375,unknown,2,2022-06-02T10:52:11.125+02:00,2022-06-02T10:17:13.754+02:00,512,1.452715,0,0,397.4887,0,0,2022-06-02T10:52:11.125+02:00,675852731.1246518,0,4.941406,101.3247,1,0.79
257,2022-06-02T10:52:11.483+02:00,1654159928.000461,53.22890393440913,10.39865269326642,38.68203,0,0.05,226.7578125,65.06141773144168,4,5,-9999,3075.760837375,-8.214004516601562,-0.53253173828125,6.4434814453125,3075.750843375,-0.5623019108901892,-0.9221809714198856,-0.4033709743080048,5.248225212097168,-5.996943473815918,9.408503532409668,-6.31588077545166,-2.990314722061157,8.319929122924805,XArbitraryZVertical,-0.2933044279807543,-0.3690144923546204,-0.1578206240509,0.8676943530047108,-0.7329625487327576,0.3925209939479828,-0.5556016564369202,0,0,0,-1,-1,3075.403186375,unknown,2,2022-06-02T10:52:11.125+02:00,2022-06-02T10:17:13.754+02:00,512,1.452715,0,0,397.4887,0,0,2022-06-02T10:52:11.125+02:00,675852731.1246518,0,4.941406,101.3247,1,0.79
258,2022-06-02T10:52:11.493+02:00,1654159928.000461,53.22890393440913,10.39865269326642,38.68203,0,0.05,226.7578125,65.06141773144168,4,5,-9999,3075.770831375,-9.506027221679688,0.6165008544921875,7.438919067382812,3075.760837375,-0.4698492281613422,-0.9694676346693888,-0.4469847965532007,3.498717784881592,-10.17984580993652,7.49506139755249,-5.924715995788574,-1.509595394134521,6.879923343658447,XArbitraryZVertical,-0.2964839356184583,-0.3962557400275791,-0.100392372606275,0.8631338431856438,-0.7435729503631592,0.4322485327720642,-0.5101573467254639,0,0,0,-1,-1,3075.403186375,unknown,2,2022-06-02T10:52:11.125+02:00,2022-06-02T10:17:13.754+02:00,512,1.452715,0,0,397.4887,0,0,2022-06-02T10:52:11.125+02:00,675852731.1246518,0,4.941406,101.3247,1,0.79
259,2022-06-02T10:52:11.503+02:00,1654159928.000461,53.22890393440913,10.39865269326642,38.68203,0,0.05,226.7578125,65.06141773144168,4,5,-9999,3075.780826375,-7.865737915039062,1.54229736328125,7.42535400390625,3075.770831375,-0.3943940350991966,-1.034626228537492,-0.4835147034953838,4.241534233093262,-9.688974380493164,6.174333095550537,-8.716460227966309,-0.3167615830898285,7.367707252502441,XArbitraryZVertical,-0.298124612176613,-0.4300909115294652,-0.0492288228296087,0.8507173828002081,-0.7611242532730103,0.4648938477039337,-0.4522870481014252,0,0,0,-1,-1,3075.403186375,unknown,2,2022-06-02T10:52:11.125+02:00,2022-06-02T10:17:13.754+02:00,512,1.452715,0,0,397.4887,0,0,2022-06-02T10:52:11.125+02:00,675852731.1246518,0,4.941406,101.3247,1,0.79
260,2022-06-02T10:52:11.513+02:00,1654159928.000461,53.22890393440913,10.39865269326642,38.68203,0,0.05,226.7578125,65.06141773144168,4,5,-9999,3075.790820375,-8.736679077148438,2.038848876953125,6.422439575195312,3075.780826375,-0.3088341797027799,-1.095549014023555,-0.508322106523259,6.62509822845459,-10.80896282196045,5.421830654144287,-7.808619022369385,0.4894229769706726,8.027605056762695,XArbitraryZVertical,-0.2896174407180127,-0.4650471777459014,0.0023033730507327,0.8365688070966231,-0.7767537236213684,0.4867121875286102,-0.399705708026886,0,0,0,-1,-1,3075.403186375,unknown,2,2022-06-02T10:52:11.125+02:00,2022-06-02T10:17:13.754+02:00,512,1.452715,0,0,397.4887,0,0,2022-06-02T10:52:11.125+02:00,675852731.1246518,0,4.941406,101.3247,1,0.79
261,2022-06-02T10:52:11.523+02:00,1654159928.000461,53.22890393440913,10.39865269326642,38.68203,0,0.05,226.7578125,65.06141773144168,4,5,-9999,3075.800814375,-9.300689697265623,1.052490234375,5.234161376953125,3075.790820375,-0.2008409251132983,-1.15092638464047,-0.5175146016971713,9.48105525970459,-10.59710788726807,4.467519760131836,-7.213451862335205,1.530134677886963,7.339643478393555,XArbitraryZVertical,-0.2663291231217411,-0.5019342845484798,0.0572487787483098,0.8208855913949717,-0.7935671806335449,0.4947217404842377,-0.3542615473270416,0,0,0,-1,-1,3075.403186375,unknown,2,2022-06-02T10:52:11.125+02:00,2022-06-02T10:17:13.754+02:00,512,1.452715,0,0,397.4887,0,0,2022-06-02T10:52:11.125+02:00,675852731.1246518,0,4.941406,101.3247,1,0.79
262,2022-06-02T10:52:11.533+02:00,1654159928.000461,53.22890393440913,10.39865269326642,38.68203,0,0.05,226.7578125,65.06141773144168,4,5,-9999,3075.810809375,-8.193923950195312,0.2602081298828125,4.38092041015625,3075.800814375,-0.0703887527139535,-1.184332741317286,-0.5183084963625517,11.13181495666504,-9.007709503173828,4.66691255569458,-8.492281913757324,1.126078844070435,6.141314506530762,XArbitraryZVertical,-0.2314826129332414,-0.5317052990310885,0.1147262252165379,0.8065625748502743,-0.8045929670333862,0.4954115152359009,-0.3274105489253998,0,0,0,-1,-1,3075.403186375,unknown,2,2022-06-02T10:52:11.125+02:00,2022-06-02T10:17:13.754+02:00,512,1.452715,0,0,397.4887,0,0,2022-06-02T10:52:11.125+02:00,675852731.1246518,0,4.941406,101.3247,1,0.79
263,2022-06-02T10:52:11.543+02:00,1654159928.000461,53.22890393440913,10.39865269326642,38.68203,0,0.05,226.7578125,65.06141773144168,4,5,-9999,3075.820803375,-7.072769165039062,-0.062774658203125,3.776214599609375,3075.820803375,0.2136874955247929,-1.200921382659883,-0.528475558001276,10.85697364807129,-7.166067123413086,5.29096508026123,-6.763901233673096,-0.4039520621299744,4.364183902740479,XArbitraryZVertical,-0.1560960710496906,-0.5652813906990647,0.2316602013018249,0.77616000139028,-0.8051751255989075,0.5042174458503723,-0.3121819198131561,0,0,0,-1,-1,3075.403186375,unknown,2,2022-06-02T10:52:11.125+02:00,2022-06-02T10:17:13.754+02:00,512,1.452715,0,0,397.4887,0,0,2022-06-02T10:52:11.125+02:00,675852731.1246518,0,4.941406,101.3247,1,0.79
264,2022-06-02T10:52:11.553+02:00,1654159928.000461,53.22890393440913,10.39865269326642,38.68203,0,0.05,226.7578125,65.06141773144168,4,5,-9999,3075.830797375,-6.26934814453125,-0.0215301513671875,3.097030639648438,3075.820803375,0.2136874955247929,-1.200921382659883,-0.528475558001276,10.85697364807129,-7.166067123413086,5.29096508026123,-6.763901233673096,-0.4039520621299744,4.364183902740479,XArbitraryZVertical,-0.1560960710496906,-0.5652813906990647,0.2316602013018249,0.77616000139028,-0.8051751255989075,0.5042174458503723,-0.3121819198131561,0,0,0,-1,-1,3075.403186375,unknown,2,2022-06-02T10:52:11.125+02:00,2022-06-02T10:17:13.754+02:00,512,1.452715,0,0,397.4887,0,0,2022-06-02T10:52:11.125+02:00,675852731.1246518,0,4.941406,101.3247,1,0.79
265,2022-06-02T10:52:11.563+02:00,1654159928.000461,53.22890393440913,10.39865269326642,38.68203,0,0.05,226.7578125,65.06141773144168,4,5,-9999,3075.840791375,-5.790802001953125,0.0764923095703125,2.43310546875,3075.830797375,0.3495591835310995,-1.201232327274103,-0.5404557199940658,10.03275585174561,-6.742841720581055,5.469344139099121,-5.859765529632568,-0.6308904886245728,3.763172626495361,XArbitraryZVertical,-0.1221676901131149,-0.5746402375762181,0.2868210748203963,0.7567015138053084,-0.79958176612854,0.5145267844200134,-0.3097273111343384,0,0,0,-1,-1,3075.403186375,unknown,2,2022-06-02T10:52:11.125+02:00,2022-06-02T10:17:13.754+02:00,512,1.452715,0,0,397.4887,0,0,2022-06-02T10:52:11.125+02:00,675852731.1246518,0,4.941406,101.3247,1,0.79
266,2022-06-02T10:52:11.573+02:00,1654159928.000461,53.22890393440913,10.39865269326642,38.68203,0,0.05,226.7578125,65.06141773144168,4,5,-9999,3075.8507855,-5.5894775390625,0.22613525390625,1.927200317382812,3075.840791375,0.4777874057808845,-1.199114837188178,-0.5561903850712414,9.17730712890625,-6.162498950958252,5.496749877929688,-5.205024719238281,-0.5295416116714478,3.059142827987671,XArbitraryZVertical,-0.0918130934819664,-0.5808182633982376,0.3383595719425887,0.7346653529521326,-0.7912824153900146,0.527954638004303,-0.3084410130977631,0,0,0,-1,-1,3075.403186375,unknown,2,2022-06-02T10:52:11.125+02:00,2022-06-02T10:17:13.754+02:00,512,1.452715,0,0,397.4887,0,0,2022-06-02T10:52:11.125+02:00,675852731.1246518,0,4.941406,101.3247,1,0.79
267,2022-06-02T10:52:11.583+02:00,1654159928.000461,53.22890393440913,10.39865269326642,38.68203,0,0.05,226.7578125,65.06141773144168,4,5,-9999,3075.8607795,-5.365036010742188,0.28924560546875,1.542526245117188,3075.8507855,0.5972046953743596,-1.190846574438381,-0.575572520277445,8.12473201751709,-4.926616668701172,5.45543098449707,-4.871320724487305,-0.4062537550926208,2.484763860702515,XArbitraryZVertical,-0.0663770511395018,-0.5831249025400479,0.385686838435539,0.711902339501653,-0.7790544629096985,0.5443151593208313,-0.311118870973587,0,0,0,-1,-1,3075.403186375,unknown,2,2022-06-02T10:52:11.125+02:00,2022-06-02T10:17:13.754+02:00,512,1.452715,0,0,397.4887,0,0,2022-06-02T10:52:11.125+02:00,675852731.1246518,0,4.941406,101.3247,1,0.79
268,2022-06-02T10:52:11.593+02:00,1654159928.000461,53.22890393440913,10.39865269326642,38.68203,0,0.05,226.7578125,65.06141773144168,4,5,-9999,3075.8707735,-4.899169921875,0.10986328125,1.332672119140625,3075.8607795,0.7058657648503971,-1.172353047384462,-0.5979580284241126,6.853229522705078,-3.413402795791626,5.492350101470947,-4.740162372589111,-0.2720167636871338,2.038437128067017,XArbitraryZVertical,-0.0475247983523886,-0.5808696421808578,0.4280682053147453,0.6907166079181423,-0.7617449164390564,0.5629559755325317,-0.3206636905670166,0,0,0,-1,-1,3075.403186375,unknown,2,2022-06-02T10:52:11.125+02:00,2022-06-02T10:17:13.754+02:00,512,1.452715,0,0,397.4887,0,0,2022-06-02T10:52:11.125+02:00,675852731.1246518,0,4.941406,101.3247,1,0.79
269,2022-06-02T10:52:11.603+02:00,1654159928.000461,53.22890393440913,10.39865269326642,38.68203,0,0.05,226.7578125,65.06141773144168,4,5,-9999,3075.8807675,-4.354690551757812,-0.0427398681640625,1.252471923828125,3075.8707735,0.8016726780008477,-1.145242361152282,-0.6250593780336267,5.399211883544922,-2.190373420715332,5.710335731506348,-4.415939331054688,-0.3472762107849121,1.75028383731842,XArbitraryZVertical,-0.0367598253734124,-0.5755543542844067,0.4654524966546465,0.6713715649993326,-0.7386017441749573,0.5851454138755798,-0.3347718119621277,0,0,0,-1,-1,3075.403186375,unknown,2,2022-06-02T10:52:11.125+02:00,2022-06-02T10:17:13.754+02:00,512,1.452715,0,0,397.4887,0,0,2022-06-02T10:52:11.125+02:00,675852731.1246518,0,4.941406,101.3247,1,0.79
270,2022-06-02T10:52:11.613+02:00,1654159928.000461,53.22890393440913,10.39865269326642,38.68203,0,0.05,226.7578125,65.06141773144168,4,5,-9999,3075.8907625,-3.961456298828125,-0.16424560546875,1.10308837890625,3075.8807675,0.8843103427547032,-1.114513455716383,-0.6583687410085842,3.757930517196655,-1.608784556388855,6.03436803817749,-3.926724910736084,-0.5855213403701782,1.634761571884155,XArbitraryZVertical,-0.0338356449877347,-0.5697316352302305,0.4981775825940724,0.6527479724987109,-0.710070013999939,0.6118273735046387,-0.3485220372676849,0,0,0,-1,-1,3075.403186375,unknown,2,2022-06-02T10:52:11.125+02:00,2022-06-02T10:17:13.754+02:00,512,1.452715,0,0,397.4887,0,0,2022-06-02T10:52:11.125+02:00,675852731.1246518,0,4.941406,101.3247,1,0.79
271,2022-06-02T10:52:11.623+02:00,1654159928.000461,53.22890393440913,10.39865269326642,38.68203,0,0.05,226.7578125,65.06141773144168,4,5,-9999,3075.9007565,-3.790939331054688,-0.2328033447265625,0.9020538330078124,3075.8907625,0.9535470671780916,-1.086456461123771,-0.6996394636599281,2.087216138839722,-1.521193742752075,6.20653247833252,-3.439682722091675,-0.7684841752052307,1.539556264877319,XArbitraryZVertical,-0.0378248002671349,-0.5660836321070696,0.5264588917501973,0.6332137703121762,-0.6770774722099304,0.6439418792724609,-0.3562372028827667,0,0,0,-1,-1,3075.403186375,unknown,2,2022-06-02T10:52:11.125+02:00,2022-06-02T10:17:13.754+02:00,512,1.452715,0,0,397.4887,0,0,2022-06-02T10:52:11.125+02:00,675852731.1246518,0,4.941406,101.3247,1,0.79
272,2022-06-02T10:52:11.633+02:00,1654159928.000461,53.22890393440913,10.39865269326642,38.68203,0,0.05,226.7578125,65.06141773144168,4,5,-9999,3075.9107505,-3.65667724609375,-0.13421630859375,0.7300872802734375,3075.9107505,1.052495158684213,-1.047391119555737,-0.804424951938773,-0.6983450055122375,-1.134194135665894,6.391590595245361,-3.130965709686279,-0.893970251083374,1.161404848098755,XArbitraryZVertical,-0.0619823400510904,-0.5681856435980575,0.569535001861433,0.5907225214314173,-0.6006779074668884,0.720431923866272,-0.3466465175151825,0,0,0,-1,-1,3075.403186375,unknown,2,2022-06-02T10:52:11.125+02:00,2022-06-02T10:17:13.754+02:00,512,1.452715,0,0,397.4887,0,0,2022-06-02T10:52:11.125+02:00,675852731.1246518,0,4.941406,101.3247,1,0.79
273,2022-06-02T10:52:11.643+02:00,1654159928.000461,53.22890393440913,10.39865269326642,38.68203,0,0.05,226.7578125,65.06141773144168,4,5,-9999,3075.9207445,-3.416122436523438,-0.0103912353515625,0.5491943359375,3075.9107505,1.052495158684213,-1.047391119555737,-0.804424951938773,-0.6983450055122375,-1.134194135665894,6.391590595245361,-3.130965709686279,-0.893970251083374,1.161404848098755,XArbitraryZVertical,-0.0619823400510904,-0.5681856435980575,0.569535001861433,0.5907225214314173,-0.6006779074668884,0.720431923866272,-0.3466465175151825,0,0,0,-1,-1,3075.403186375,unknown,2,2022-06-02T10:52:11.125+02:00,2022-06-02T10:17:13.754+02:00,512,1.452715,0,0,397.4887,0,0,2022-06-02T10:52:11.125+02:00,675852731.1246518,0,4.941406,101.3247,1,0.79
274,2022-06-02T10:52:11.653+02:00,1654159929.000418,53.22890393440913,10.39865269326642,38.94998,0,0.05,226.7578125,65.06141773144168,4,5,-9999,3075.9307395,-2.985321044921875,0.173370361328125,0.3811492919921875,3075.9207445,1.085335335989438,-1.032346559308695,-0.8639353975716699,-1.429758191108704,-0.7377732992172241,6.088497161865234,-3.008331537246704,-0.8595406413078308,0.9726901054382324,XArbitraryZVertical,-0.0803321726321096,-0.5718617793335952,0.5848288721097467,0.5696455529317754,-0.5575559139251709,0.7604042887687683,-0.3330416977405548,0,0,0,-1,-1,3075.403186375,unknown,2,2022-06-02T10:52:11.125+02:00,2022-06-02T10:17:13.754+02:00,512,1.452715,0,0,397.4887,0,0,2022-06-02T10:52:11.125+02:00,675852731.1246518,0,4.941406,101.3247,1,0.79
275,2022-06-02T10:52:11.663+02:00,1654159929.000418,53.22890393440913,10.39865269326642,38.94998,0,0.05,226.7578125,65.06141773144168,4,5,-9999,3075.9407335,-2.539031982421875,0.202972412109375,0.2787933349609375,3075.9307395,1.112666035533552,-1.016441323630918,-0.9230126272609998,-1.735899090766907,-0.350030392408371,5.750013828277588,-2.687966823577881,-0.692656397819519,0.775660514831543,XArbitraryZVertical,-0.1002619184028689,-0.5754379254246057,0.5970842365696425,0.5498263456032403,-0.513052225112915,0.7974231243133545,-0.3176374733448029,0,0,0,-1,-1,3075.403186375,unknown,2,2022-06-02T10:52:11.125+02:00,2022-06-02T10:17:13.754+02:00,512,1.452715,0,0,397.4887,0,0,2022-06-02T10:52:11.125+02:00,675852731.1246518,0,4.941406,101.3247,1,0.79
276,2022-06-02T10:52:11.673+02:00,1654159929.000418,53.22890393440913,10.39865269326642,38.94998,0,0.05,226.7578125,65.06141773144168,4,5,-9999,3075.9507275,-2.035720825195312,0.1497650146484375,0.24688720703125,3075.9407335,1.138080769908034,-0.9975957338362068,-0.9789483086713032,-1.724896788597107,-0.0032524520065635,5.29631233215332,-2.303215265274048,-0.6324777603149414,0.6246883869171143,XArbitraryZVertical,-0.1203232423252505,-0.5781369088166122,0.6070823903293178,0.5317244614306126,-0.4687268435955048,0.8299111127853394,-0.3025600612163544,0,0,0,-1,-1,3075.403186375,unknown,2,2022-06-02T10:52:11.125+02:00,2022-06-02T10:17:13.754+02:00,512,1.452715,0,0,397.4887,0,0,2022-06-02T10:52:11.125+02:00,675852731.1246518,0,4.941406,101.3247,1,0.79
277,2022-06-02T10:52:11.683+02:00,1654159929.000418,53.22890393440913,10.39865269326642,38.94998,0,0.05,226.7578125,65.06141773144168,4,5,-9999,3075.9607225,-1.547164916992188,-0.02496337890625,0.2178497314453125,3075.9507275,1.164032188056291,-0.9740490854335122,-1.030525937530702,-1.648963093757629,0.3152939081192017,4.839259147644043,-1.860588073730469,-0.6648512482643127,0.5435069799423218,XArbitraryZVertical,-0.1399113746155911,-0.5795680075580949,0.6153638701952336,0.5156092891345566,-0.4254684746265411,0.8575696349143982,-0.2890514731407166,0,0,0,-1,-1,3075.403186375,unknown,2,2022-06-02T10:52:11.125+02:00,2022-06-02T10:17:13.754+02:00,512,1.452715,0,0,397.4887,0,0,2022-06-02T10:52:11.125+02:00,675852731.1246518,0,4.941406,101.3247,1,0.79
278,2022-06-02T10:52:11.693+02:00,1654159929.000418,53.22890393440913,10.39865269326642,38.94998,0,0.05,226.7578125,65.06141773144168,4,5,-9999,3075.9707165,-1.06915283203125,-0.1325225830078125,0.174530029296875,3075.9607225,1.190874585495854,-0.9463358364169154,-1.077299398001325,-1.542347192764282,0.5133159160614014,4.327134609222412,-1.4040207862854,-0.8101711273193359,0.5133166313171387,XArbitraryZVertical,-0.1586317736157194,-0.5799628999599807,0.6220925805285162,0.5014773655418988,-0.3843092322349548,0.8806816935539246,-0.2769579887390137,0,0,0,-1,-1,3075.403186375,unknown,2,2022-06-02T10:52:11.125+02:00,2022-06-02T10:17:13.754+02:00,512,1.452715,0,0,397.4887,0,0,2022-06-02T10:52:11.125+02:00,675852731.1246518,0,4.941406,101.3247,1,0.79
279,2022-06-02T10:52:11.703+02:00,1654159929.000418,53.22890393440913,10.39865269326642,38.94998,0,0.05,226.7578125,65.06141773144168,4,5,-9999,3075.9807105,-0.74298095703125,-0.1253662109375,0.1087188720703125,3075.9707165,1.215947224802234,-0.9195804092491596,-1.118929165448489,-1.61113166809082,0.3411524593830109,3.716127395629883,-0.9520313739776612,-0.9961759448051452,0.462840348482132,XArbitraryZVertical,-0.1755542189939111,-0.5803821762568974,0.6271560434940247,0.4888888589931347,-0.3472849726676941,0.8996334075927734,-0.2646744847297668,0,0,0,-1,-1,3075.403186375,unknown,2,2022-06-02T10:52:11.125+02:00,2022-06-02T10:17:13.754+02:00,512,1.452715,0,0,397.4887,0,0,2022-06-02T10:52:11.125+02:00,675852731.1246518,0,4.941406,101.3247,1,0.79
280,2022-06-02T10:52:11.713+02:00,1654159929.000418,53.22890393440913,10.39865269326642,38.94998,0,0.05,226.7578125,65.06141773144168,4,5,-9999,3075.9907045,-0.5440216064453125,-0.0340118408203125,0.0198974609375,3075.9807105,1.233515197731892,-0.9017526399278806,-1.15597596726811,-1.765691995620728,0.0330148749053478,3.03741192817688,-0.565895140171051,-1.055035591125488,0.3965010046958923,XArbitraryZVertical,-0.1900448827026578,-0.5821490362464913,0.6302363373795002,0.4772708939925678,-0.3161391913890839,0.915188729763031,-0.2499708831310272,0,0,0,-1,-1,3075.403186375,unknown,2,2022-06-02T10:52:11.125+02:00,2022-06-02T10:17:13.754+02:00,512,1.452715,0,0,397.4887,0,0,2022-06-02T10:52:11.125+02:00,675852731.1246518,0,4.941406,101.3247,1,0.79
281,2022-06-02T10:52:11.723+02:00,1654159929.000418,53.22890393440913,10.39865269326642,38.94998,0,0.05,226.7578125,65.06141773144168,4,5,-9999,3076.0006995,-0.3565826416015625,0.1251678466796875,-0.0438385009765625,3075.9907045,1.241127281799947,-0.8956124859548416,-1.188262922911843,-1.785847783088684,-0.1734833121299744,2.400999546051025,-0.3446593582630157,-1.020831346511841,0.2978850901126862,XArbitraryZVertical,-0.2018782435334755,-0.5853120714669944,0.6315264181989355,0.4667216479982128,-0.2913727462291718,0.9277219772338868,-0.2333099097013474,0,0,0,-1,-1,3075.403186375,unknown,2,2022-06-02T10:52:11.125+02:00,2022-06-02T10:17:13.754+02:00,512,1.452715,0,0,397.4887,0,0,2022-06-02T10:52:11.125+02:00,675852731.1246518,0,4.941406,101.3247,1,0.79
282,2022-06-02T10:52:11.733+02:00,1654159929.000418,53.22890393440913,10.39865269326642,38.94998,0,0.05,226.7578125,65.06141773144168,4,5,-9999,3076.0106935,-0.1258697509765625,0.285888671875,-0.0886993408203125,3076.0006995,1.237671156601444,-0.9008301484272496,-1.215856264956077,-1.845173597335815,-0.2205488234758377,1.7590651512146,-0.1805912256240845,-0.8922726511955261,0.199019581079483,XArbitraryZVertical,-0.2115577270811741,-0.5893565830189595,0.6312067361610505,0.4576898072440252,-0.2724116742610931,0.9376673102378844,-0.2158042937517166,0,0,0,-1,-1,3075.403186375,unknown,2,2022-06-02T10:52:11.125+02:00,2022-06-02T10:17:13.754+02:00,512,1.452715,0,0,397.4887,0,0,2022-06-02T10:52:11.125+02:00,675852731.1246518,0,4.941406,101.3247,1,0.79
283,2022-06-02T10:52:11.743+02:00,1654159929.000418,53.22890393440913,10.39865269326642,38.94998,0,0.05,226.7578125,65.06141773144168,4,5,-9999,3076.0206875,0.09100341796875,0.4940032958984375,-0.160491943359375,3076.0106935,1.221504877212537,-0.9187122580440764,-1.238112956575949,-1.708132863044739,-0.3349301218986511,1.087126135826111,0.0150811970233917,-0.7401219010353088,0.1308615207672119,XArbitraryZVertical,-0.2190061171208388,-0.5940914571687241,0.6294070209502145,0.4504868295949516,-0.2595727741718292,0.9451693892478944,-0.1981833279132843,0,0,0,-1,-1,3075.403186375,unknown,2,2022-06-02T10:52:11.125+02:00,2022-06-02T10:17:13.754+02:00,512,1.452715,0,0,397.4887,0,0,2022-06-02T10:52:11.125+02:00,675852731.1246518,0,4.941406,101.3247,1,0.79
284,2022-06-02T10:52:11.753+02:00,1654159929.000418,53.22890393440913,10.39865269326642,38.94998,0,0.05,226.7578125,65.06141773144168,4,5,-9999,3076.0306815,0.1757659912109375,0.777618408203125,-0.1856842041015625,3076.0206875,1.199439385489344,-0.9442058814052636,-1.253089567784327,-1.180728912353516,-0.591670036315918,0.4798095524311066,0.2447288036346436,-0.5686829090118408,0.061323806643486,XArbitraryZVertical,-0.2231628270399755,-0.5988389299134096,0.6273105117953106,0.4450525874089564,-0.2530448436737061,0.9499542713165284,-0.183180570602417,0,0,0,-1,-1,3075.403186375,unknown,2,2022-06-02T10:52:11.125+02:00,2022-06-02T10:17:13.754+02:00,512,1.452715,0,0,397.4887,0,0,2022-06-02T10:52:11.125+02:00,675852731.1246518,0,4.941406,101.3247,1,0.79
