,loggingTime(txt),locationTimestamp_since1970(s),locationLatitude(WGS84),locationLongitude(WGS84),locationAltitude(m),locationSpeed(m/s),locationSpeedAccuracy(m/s),locationCourse(°),locationCourseAccuracy(°),locationVerticalAccuracy(m),locationHorizontalAccuracy(m),locationFloor(Z),accelerometerTimestamp_sinceReboot(s),accelerometerAccelerationX(G),accelerometerAccelerationY(G),accelerometerAccelerationZ(G),motionTimestamp_sinceReboot(s),motionYaw(rad),motionRoll(rad),motionPitch(rad),motionRotationRateX(rad/s),motionRotationRateY(rad/s),motionRotationRateZ(rad/s),motionUserAccelerationX(G),motionUserAccelerationY(G),motionUserAccelerationZ(G),motionAttitudeReferenceFrame(txt),motionQuaternionX(R),motionQuaternionY(R),motionQuaternionZ(R),motionQuaternionW(R),motionGravityX(G),motionGravityY(G),motionGravityZ(G),motionMagneticFieldX(µT),motionMagneticFieldY(µT),motionMagneticFieldZ(µT),motionHeading(°),motionMagneticFieldCalibrationAccuracy(Z),activityTimestamp_sinceReboot(s),activity(txt),activityActivityConfidence(Z),activityActivityStartDate(txt),pedometerStartDate(txt),pedometerNumberofSteps(N),pedometerAverageActivePace(s/m),pedometerCurrentPace(s/m),pedometerCurrentCadence(steps/s),pedometerDistance(m),pedometerFloorAscended(N),pedometerFloorDescended(N),pedometerEndDate(txt),altimeterTimestamp_sinceReboot(s),altimeterReset(bool),altimeterRelativeAltitude(m),altimeterPressure(kPa),batteryState(N),batteryLevel(R)
313,2022-06-02T10:57:59.973+02:00,1654160278.99963,53.22909060660415,10.39852671640129,37.8482,0,20,-1,-1,2.400000095367432,7.999579855010835,-9999,3418.113362375,2.36431884765625,-0.02606201171875,0.2698516845703125,3418.108365375,-2.711868431873422,0.9909035430041964,-0.273675854670445,-2.002761602401733,9.302961349487305,1.585946440696716,1.46630859375,-0.378884345293045,0.616714596748352,XArbitraryZVertical,0.4345677612979735,0.2176688611163547,-0.8653177954796196,0.1224586579264903,0.8053892850875854,0.2702723145484924,-0.527542233467102,0,0,0,-1,-1,3417.07073075,unknown,2,2022-06-02T10:57:58.929+02:00,2022-06-02T10:17:13.754+02:00,538,1.652724,0,0,417.4277,0,0,2022-06-02T10:57:58.929+02:00,675853078.9287119,0,3.152344,101.3455,1,0.77
314,2022-06-02T10:57:59.982+02:00,1654160278.99963,53.22909060660415,10.39852671640129,37.8482,0,20,-1,-1,2.400000095367432,7.999579855010835,-9999,3418.123357375,2.20513916015625,0.1597747802734375,0.29998779296875,3418.118360375,-2.682481172689616,1.095473189370307,-0.2727360267963406,-2.738899707794189,10.036057472229,1.428191184997559,1.508038997650146,-0.2954293489456177,0.7105624079704285,XArbitraryZVertical,0.4759795349924152,0.2304085253955529,-0.8397019122856867,0.1235154161851273,0.8562798500061035,0.2693673372268677,-0.4407107830047607,0,0,0,-1,-1,3417.07073075,unknown,2,2022-06-02T10:57:58.929+02:00,2022-06-02T10:17:13.754+02:00,538,1.652724,0,0,417.4277,0,0,2022-06-02T10:57:58.929+02:00,675853078.9287119,0,3.152344,101.3455,1,0.77
315,2022-06-02T10:57:59.992+02:00,1654160278.99963,53.22909060660415,10.39852671640129,37.8482,0,20,-1,-1,2.400000095367432,7.999579855010835,-9999,3418.133352375,1.854736328125,0.3970794677734375,0.2865142822265625,3418.128354375,-2.648947750000145,1.208454740072541,-0.2721244546380673,-3.119239330291748,10.78526782989502,1.322900295257568,1.304478406906128,-0.1090035438537598,0.6414089202880859,XArbitraryZVertical,0.5186668974288725,0.2455077826486272,-0.8095159213058964,0.124074427706822,0.9006606936454773,0.2687783241271973,-0.3414211571216583,0,0,0,-1,-1,3417.07073075,unknown,2,2022-06-02T10:57:58.929+02:00,2022-06-02T10:17:13.754+02:00,538,1.652724,0,0,417.4277,0,0,2022-06-02T10:57:58.929+02:00,675853078.9287119,0,3.152344,101.3455,1,0.77
316,2022-06-02T10:58:00.002+02:00,1654160278.99963,53.22909060660415,10.39852671640129,37.8482,0,20,-1,-1,2.400000095367432,7.999579855010835,-9999,3418.143346375,1.4752197265625,0.56060791015625,0.5640716552734375,3418.138349375,-2.611248710752466,1.331363928317975,-0.2703502636687706,-3.749952554702759,11.81599140167236,1.122223615646362,0.91854989528656,0.1300104856491089,0.515051543712616,XArbitraryZVertical,0.5627944773217098,0.2626665602403148,-0.7738943204985528,0.1239203027751009,0.9361863136291504,0.2670689821243286,-0.228537306189537,0,0,0,-1,-1,3417.07073075,unknown,2,2022-06-02T10:57:58.929+02:00,2022-06-02T10:17:13.754+02:00,538,1.652724,0,0,417.4277,0,0,2022-06-02T10:57:58.929+02:00,675853078.9287119,0,3.152344,101.3455,1,0.77
317,2022-06-02T10:58:00.013+02:00,1654160278.99963,53.22909060660415,10.39852671640129,37.8482,0,20,-1,-1,2.400000095367432,7.999579855010835,-9999,3418.153341375,1.313583374023438,0.8544464111328125,1.118911743164062,3418.148344375,-2.567191935159012,1.466599961215968,-0.2685713828899548,-4.593893527984619,12.88087844848633,0.6598544716835022,0.5162978172302246,0.2952536344528198,0.6643509864807129,XArbitraryZVertical,0.6079541125208893,0.2832880642239722,-0.7315072403288893,0.1226245794824576,0.9589218497276306,0.2653543055057526,-0.100279338657856,0,0,0,-1,-1,3417.07073075,unknown,2,2022-06-02T10:57:58.929+02:00,2022-06-02T10:17:13.754+02:00,538,1.652724,0,0,417.4277,0,0,2022-06-02T10:57:58.929+02:00,675853078.9287119,0,3.152344,101.3455,1,0.77
318,2022-06-02T10:58:00.022+02:00,1654160278.99963,53.22909060660415,10.39852671640129,37.8482,0,20,-1,-1,2.400000095367432,7.999579855010835,-9999,3418.163336375,1.236328125,1.248748779296875,1.495941162109375,3418.158338375,-2.51450788143051,1.614011485224557,-0.2659403611713624,-5.527092933654785,13.81020164489746,0.1738829761743546,0.3496384024620056,0.5916297435760498,1.077228665351868,XArbitraryZVertical,0.6526614074722701,0.308017170090951,-0.6816676954486668,0.1203641118199412,0.9639447927474976,0.2628166973590851,0.041682980954647,0,0,0,-1,-1,3417.07073075,unknown,2,2022-06-02T10:57:58.929+02:00,2022-06-02T10:17:13.754+02:00,538,1.652724,0,0,417.4277,0,0,2022-06-02T10:57:58.929+02:00,675853078.9287119,0,3.152344,101.3455,1,0.77
319,2022-06-02T10:58:00.040+02:00,1654160278.99963,53.22909060660415,10.39852671640129,37.8482,0,20,-1,-1,2.400000095367432,7.999579855010835,-9999,3418.173331375,0.9248199462890624,1.498916625976562,1.766403198242188,3418.168333375,-2.453250628140804,1.772718085479431,-0.25913962469129,-6.428195476531982,14.77133464813232,-0.2862565219402313,0.2893559336662292,0.992499828338623,1.302084922790527,XArbitraryZVertical,0.6956615243293514,0.3361295971711679,-0.6239486704432043,0.1173029023653934,0.946972131729126,0.2562490105628967,0.1938561201095581,0,0,0,-1,-1,3417.07073075,unknown,2,2022-06-02T10:57:58.929+02:00,2022-06-02T10:17:13.754+02:00,538,1.652724,0,0,417.4277,0,0,2022-06-02T10:57:58.929+02:00,675853078.9287119,0,3.152344,101.3455,1,0.77
320,2022-06-02T10:58:00.059+02:00,1654160278.99963,53.22909060660415,10.39852671640129,37.8482,0,20,-1,-1,2.400000095367432,7.999579855010835,-9999,3418.183325375,0.3531646728515625,1.671218872070312,2.1434326171875,3418.178328375,-2.38185173132237,1.944058973632931,-0.2440261221998603,-7.770609378814697,15.98157596588135,-0.7553909420967102,0.0212641954421997,1.257305264472961,1.412551403045654,XArbitraryZVertical,0.7360059543226256,0.3677242239311962,-0.5568325549319031,0.1140685225089088,0.903555691242218,0.2416114211082458,0.3538517355918884,0,0,0,-1,-1,3417.07073075,unknown,2,2022-06-02T10:57:58.929+02:00,2022-06-02T10:17:13.754+02:00,538,1.652724,0,0,417.4277,0,0,2022-06-02T10:57:58.929+02:00,675853078.9287119,0,3.152344,101.3455,1,0.77
321,2022-06-02T10:58:00.063+02:00,1654160279.99963,53.2290930831024,10.39852668132884,37.53415,0,20,-1,-1,2.400000095367432,7.999579855010837,-9999,3418.193320375,-0.330841064453125,2.027664184570312,2.81036376953125,3418.188323375,-2.297708957553123,2.129819201835637,-0.2135738953883462,-9.674090385437012,17.34982490539551,-1.173403382301331,-0.4753473401069641,1.459264874458313,1.625124454498291,XArbitraryZVertical,0.7723282401794216,0.4033150997847176,-0.4777471010199686,0.1122652838109388,0.8285117149353027,0.2119539380073547,0.5183079838752747,0,0,0,-1,-1,3417.07073075,unknown,2,2022-06-02T10:57:58.929+02:00,2022-06-02T10:17:13.754+02:00,538,1.652724,0,0,417.4277,0,0,2022-06-02T10:57:58.929+02:00,675853078.9287119,0,3.152344,101.3455,1,0.77
322,2022-06-02T10:58:00.065+02:00,1654160279.99963,53.2290930831024,10.39852668132884,37.53415,0,20,-1,-1,2.400000095367432,7.999579855010837,-9999,3418.203315375,-1.15484619140625,2.197097778320312,3.967132568359375,3418.198317375,-2.205184198172465,2.326904399324252,-0.1592342950842392,-11.27462100982666,18.59915351867676,-1.337195873260498,-1.049148797988892,1.869102001190186,2.132948160171509,XArbitraryZVertical,0.8025472387082128,0.4411638389392726,-0.3853713892223529,0.1130535369267864,0.7183077335357666,0.1585622280836105,0.6774151921272278,0,0,0,-1,-1,3417.07073075,unknown,2,2022-06-02T10:57:58.929+02:00,2022-06-02T10:17:13.754+02:00,538,1.652724,0,0,417.4277,0,0,2022-06-02T10:57:58.929+02:00,675853078.9287119,0,3.152344,101.3455,1,0.77
323,2022-06-02T10:58:00.072+02:00,1654160279.99963,53.2290930831024,10.39852668132884,37.53415,0,20,-1,-1,2.400000095367432,7.999579855010837,-9999,3418.213309,-2.11865234375,2.1746826171875,5.914138793945312,3418.208312,-2.11904417124296,2.527427131271571,-0.0805466373024723,-11.75476932525635,19.26532363891602,-1.277336835861206,-1.729254603385925,2.11663818359375,3.152527570724487,XArbitraryZVertical,0.8246944300492904,0.4766357002683477,-0.2821888534142051,0.1143108196454132,0.5744084119796753,0.0804595723748207,0.8146049976348877,0,0,0,-1,-1,3417.07073075,unknown,2,2022-06-02T10:57:58.929+02:00,2022-06-02T10:17:13.754+02:00,538,1.652724,0,0,417.4277,0,0,2022-06-02T10:57:58.929+02:00,675853078.9287119,0,3.152344,101.3455,1,0.77
324,2022-06-02T10:58:00.082+02:00,1654160279.99963,53.2290930831024,10.39852668132884,37.53415,0,20,-1,-1,2.400000095367432,7.999579855010837,-9999,3418.223304,-3.14752197265625,2.234344482421875,8.649505615234375,3418.218307,-2.05028105153354,2.718178944457939,0.0148266270545115,-11.71573162078857,18.12383460998535,-1.245516300201416,-2.529482364654541,2.189508676528931,5.002547264099121,XArbitraryZVertical,0.8364883578003698,0.5060464575990119,-0.1758491839795981,0.1152447582154446,0.4108299911022186,-0.0148260835558176,0.9115915894508362,0,0,0,-1,-1,3417.07073075,unknown,2,2022-06-02T10:57:58.929+02:00,2022-06-02T10:17:13.754+02:00,538,1.652724,0,0,417.4277,0,0,2022-06-02T10:57:58.929+02:00,675853078.9287119,0,3.152344,101.3455,1,0.77
325,2022-06-02T10:58:00.092+02:00,1654160279.99963,53.2290930831024,10.39852668132884,37.53415,0,20,-1,-1,2.400000095367432,7.999579855010837,-9999,3418.233299,-5.47979736328125,0.6782379150390625,10.7113037109375,3418.228302,-1.989333244273716,2.878507613976433,0.1215383724483037,-12.0822696685791,14.39713096618652,-4.055264949798584,-3.405664205551147,2.355583906173706,7.691036224365234,XArbitraryZVertical,0.8341377892892137,0.5323990759806024,-0.0769879196468788,0.1218119905705381,0.2581422626972198,-0.1212393715977669,0.9584692716598512,0,0,0,-1,-1,3417.07073075,unknown,2,2022-06-02T10:57:58.929+02:00,2022-06-02T10:17:13.754+02:00,538,1.652724,0,0,417.4277,0,0,2022-06-02T10:57:58.929+02:00,675853078.9287119,0,3.152344,101.3455,1,0.77
326,2022-06-02T10:58:00.102+02:00,1654160279.99963,53.2290930831024,10.39852668132884,37.53415,0,20,-1,-1,2.400000095367432,7.999579855010837,-9999,3418.243294,-8.106307983398438,0.7359161376953125,13.06816101074219,3418.238296,-1.907637496704111,3.008667869825588,0.2135833059833888,-9.980030059814451,14.32191467285156,-7.115699768066406,-5.609319686889648,0.8902011513710022,9.742647171020508,XArbitraryZVertical,0.8132895248871354,0.5682325885102176,0.0076729202385281,0.1249512782218188,0.1295221596956253,-0.2119631320238113,0.9686562418937684,0,0,0,-1,-1,3417.07073075,unknown,2,2022-06-02T10:57:58.929+02:00,2022-06-02T10:17:13.754+02:00,538,1.652724,0,0,417.4277,0,0,2022-06-02T10:57:58.929+02:00,675853078.9287119,0,3.152344,101.3455,1,0.77
327,2022-06-02T10:58:00.112+02:00,1654160279.99963,53.2290930831024,10.39852668132884,37.53415,0,20,-1,-1,2.400000095367432,7.999579855010837,-9999,3418.253288,-7.690948486328125,0.0961761474609375,15.42169189453125,3418.248291,-1.813020684698686,3.112318149353542,0.3070046130196152,-9.697070121765137,11.02362155914307,-10.6434965133667,-8.134209632873535,1.038120865821838,12.11532592773438,XArbitraryZVertical,0.7793954681111647,0.6074206447574324,0.082863599345672,0.1292915797894645,0.0279017221182584,-0.3022046685218811,0.9528342485427856,0,0,0,-1,-1,3417.07073075,unknown,2,2022-06-02T10:57:58.929+02:00,2022-06-02T10:17:13.754+02:00,538,1.652724,0,0,417.4277,0,0,2022-06-02T10:57:58.929+02:00,675853078.9287119,0,3.152344,101.3455,1,0.77
328,2022-06-02T10:58:00.122+02:00,1654160279.99963,53.2290930831024,10.39852668132884,37.53415,0,20,-1,-1,2.400000095367432,7.999579855010837,-9999,3418.263283,-5.310516357421875,-0.5068206787109375,16.126220703125,3418.258286,-1.667531383573004,3.141511984347029,0.3941744467219147,-7.600517272949219,4.279207229614258,-16.39657783508301,-7.691022872924805,0.4802223145961761,14.49837779998779,XArbitraryZVertical,0.726138171719751,0.6590752315216791,0.1315756148201813,0.1450203456633171,7.448301039403304e-05,-0.3840460777282715,0.9233136177062988,0,0,0,-1,-1,3417.07073075,unknown,2,2022-06-02T10:57:58.929+02:00,2022-06-02T10:17:13.754+02:00,538,1.652724,0,0,417.4277,0,0,2022-06-02T10:57:58.929+02:00,675853078.9287119,0,3.152344,101.3455,1,0.77
329,2022-06-02T10:58:00.132+02:00,1654160279.99963,53.2290930831024,10.39852668132884,37.53415,0,20,-1,-1,2.400000095367432,7.999579855010837,-9999,3418.273278,-6.7860107421875,0.4644622802734375,14.54890441894531,3418.268281,-1.46043843570496,3.044745964943305,0.4499956508570409,-5.490366458892822,-7.131838321685791,-20.69544982910156,-5.397585868835449,-0.0718590915203094,15.22999095916748,XArbitraryZVertical,0.6575036931686152,0.7181947114974173,0.1345505822291278,0.1837971309312808,0.0870692431926727,-0.4349616169929504,0.8962295055389404,0,0,0,-1,-1,3417.07073075,unknown,2,2022-06-02T10:57:58.929+02:00,2022-06-02T10:17:13.754+02:00,538,1.652724,0,0,417.4277,0,0,2022-06-02T10:57:58.929+02:00,675853078.9287119,0,3.152344,101.3455,1,0.77
330,2022-06-02T10:58:00.142+02:00,1654160279.99963,53.2290930831024,10.39852668132884,37.53415,0,20,-1,-1,2.400000095367432,7.999579855010837,-9999,3418.283273,-11.69833374023438,2.74664306640625,11.22146606445312,3418.278275,-1.209800313388218,2.808565899480699,0.4522301426611398,-3.968613862991333,-16.99477386474609,-23.12752723693848,-7.080053329467773,0.9014350175857544,13.69884967803955,XArbitraryZVertical,0.5771040462140726,0.7694013047043753,0.090004916984718,0.2585952889501159,0.294042706489563,-0.436972588300705,0.850054919719696,0,0,0,-1,-1,3417.07073075,unknown,2,2022-06-02T10:57:58.929+02:00,2022-06-02T10:17:13.754+02:00,538,1.652724,0,0,417.4277,0,0,2022-06-02T10:57:58.929+02:00,675853078.9287119,0,3.152344,101.3455,1,0.77
331,2022-06-02T10:58:00.152+02:00,1654160279.99963,53.2290930831024,10.39852668132884,37.53415,0,20,-1,-1,2.400000095367432,7.999579855010837,-9999,3418.293267,-16.00047302246094,6.023971557617188,6.056015014648438,3418.28827,-0.974746564256832,2.507639172936871,0.3607855733405538,0.9141716957092284,-24.30544090270996,-23.75726890563965,-12.25253391265869,3.099652528762817,10.46764469146729,XArbitraryZVertical,0.4871678562036871,0.7997362965784306,0.0070280626966728,0.350770419349828,0.5541999936103821,-0.3530093431472778,0.7538213133811951,0,0,0,-1,-1,3417.07073075,unknown,2,2022-06-02T10:57:58.929+02:00,2022-06-02T10:17:13.754+02:00,538,1.652724,0,0,417.4277,0,0,2022-06-02T10:57:58.929+02:00,675853078.9287119,0,3.152344,101.3455,1,0.77
332,2022-06-02T10:58:00.162+02:00,1654160279.99963,53.2290930831024,10.39852668132884,37.53415,0,20,-1,-1,2.400000095367432,7.999579855010837,-9999,3418.303262,-22.67543029785156,12.38055419921875,0.05322265625,3418.298265,-0.8612097868390641,2.183002536564882,0.1574497095560275,13.12257480621338,-33.3890495300293,-20.31489562988281,-16.8087329864502,6.180771350860596,5.488449096679688,XArbitraryZVertical,0.4021946837343735,0.7886838963482151,-0.1284869855955959,0.4468870702827735,0.8082588315010071,-0.1567999720573425,0.5675656795501709,0,0,0,-1,-1,3417.07073075,unknown,2,2022-06-02T10:57:58.929+02:00,2022-06-02T10:17:13.754+02:00,538,1.652724,0,0,417.4277,0,0,2022-06-02T10:57:58.929+02:00,675853078.9287119,0,3.152344,101.3455,1,0.77
333,2022-06-02T10:58:00.172+02:00,1654160279.99963,53.2290930831024,10.39852668132884,37.53415,0,20,-1,-1,2.400000095367432,7.999579855010837,-9999,3418.313257,-23.72988891601562,21.33030700683594,-2.290084838867188,3418.30826,-0.976125838827226,1.836657313529981,-0.075075760738588,28.80598449707031,-35.13936614990234,-11.75757694244385,-23.6375789642334,12.30554866790771,-0.2087774574756622,XArbitraryZVertical,0.3522071189955501,0.7120042991317198,-0.3108396638974892,0.5218990182549117,0.9621485471725464,0.075005255639553,0.2619999647140503,0,0,0,-1,-1,3417.07073075,unknown,2,2022-06-02T10:57:58.929+02:00,2022-06-02T10:17:13.754+02:00,538,1.652724,0,0,417.4277,0,0,2022-06-02T10:57:58.929+02:00,675853078.9287119,0,3.152344,101.3455,1,0.77
334,2022-06-02T10:58:00.182+02:00,1654160279.99963,53.2290930831024,10.39852668132884,37.53415,0,20,-1,-1,2.400000095367432,7.999579855010837,-9999,3418.323252,-26.31932067871094,32.11386108398438,8.066970825195312,3418.318254,-1.303166813657667,1.443726381375625,-0.1361999571090479,35.18395614624023,-35.11590194702148,5.462140560150146,-24.7126407623291,21.19452857971191,-2.164530277252197,XArbitraryZVertical,0.3591905171449229,0.555162007556884,-0.4898812515846534,0.5681492770354742,0.982751190662384,0.1357792466878891,-0.1255546361207962,0,0,0,-1,-1,3417.07073075,unknown,2,2022-06-02T10:57:58.929+02:00,2022-06-02T10:17:13.754+02:00,538,1.652724,0,0,417.4277,0,0,2022-06-02T10:57:58.929+02:00,675853078.9287119,0,3.152344,101.3455,1,0.77
335,2022-06-02T10:58:00.192+02:00,1654160279.99963,53.2290930831024,10.39852668132884,37.53415,0,20,-1,-1,2.400000095367432,7.999579855010837,-9999,3418.333246,-30.94107055664062,25.60171508789062,31.49261474609375,3418.328249,-1.580150965304048,1.084677545786962,0.1330222055744749,35.07521438598633,-35.08974456787109,20.68708419799805,-27.19566345214844,32.24649047851562,8.530040740966797,XArbitraryZVertical,0.405922206475936,0.3220123643278898,-0.5829777803890797,0.6258371045500629,0.8763418197631836,-0.132630243897438,-0.4630703926086426,0,0,0,-1,-1,3417.07073075,unknown,2,2022-06-02T10:57:58.929+02:00,2022-06-02T10:17:13.754+02:00,538,1.652724,0,0,417.4277,0,0,2022-06-02T10:57:58.929+02:00,675853078.9287119,0,3.152344,101.3455,1,0.77
336,2022-06-02T10:58:00.202+02:00,1654160279.99963,53.2290930831024,10.39852668132884,37.53415,0,20,-1,-1,2.400000095367432,7.999579855010837,-9999,3418.343241,-32.28666687011719,-19.37095642089844,21.80165100097656,3418.338244,-1.803284474055873,0.9980890673974974,0.4528724618954266,34.90769958496094,6.458251476287842,13.72957992553711,-31.69678688049316,26.03926467895508,31.97989654541016,XArbitraryZVertical,0.4880769912846579,0.1346850678799996,-0.6044565615487089,0.6150390131612974,0.7557158470153809,-0.4375502467155457,-0.4872815608978271,0,0,0,-1,-1,3417.07073075,unknown,2,2022-06-02T10:57:58.929+02:00,2022-06-02T10:17:13.754+02:00,538,1.652724,0,0,417.4277,0,0,2022-06-02T10:57:58.929+02:00,675853078.9287119,0,3.152344,101.3455,1,0.77
337,2022-06-02T10:58:00.212+02:00,1654160279.99963,53.2290930831024,10.39852668132884,37.53415,0,20,-1,-1,2.400000095367432,7.999579855010837,-9999,3418.353236,-13.93312072753906,-30.62548828125,5.175445556640625,3418.348239,-1.953120940992207,1.255282301908958,0.6581521385402641,4.756597995758057,23.82571601867676,10.25807762145996,-33.03873825073242,-18.75930023193359,22.04714012145996,XArbitraryZVertical,0.6069131625544513,0.0944007997585087,-0.5284240294767448,0.586099755052761,0.7520715594291687,-0.6116560101509094,-0.2454898059368134,0,0,0,-1,-1,3417.07073075,unknown,2,2022-06-02T10:57:58.929+02:00,2022-06-02T10:17:13.754+02:00,538,1.652724,0,0,417.4277,0,0,2022-06-02T10:57:58.929+02:00,675853078.9287119,0,3.152344,101.3455,1,0.77
338,2022-06-02T10:58:00.222+02:00,1654160279.99963,53.2290930831024,10.39852668132884,37.53415,0,20,-1,-1,2.400000095367432,7.999579855010837,-9999,3418.363231,0.6777801513671875,-14.87017822265625,4.0228271484375,3418.358233,-1.823261263077182,1.332900813194752,0.7077402576021801,-19.66164207458496,8.41447639465332,5.301560878753662,-14.67155361175537,-29.97537040710449,5.354506015777588,XArbitraryZVertical,0.6252307406478924,0.1398435346154543,-0.4516485312201902,0.620921692796072,0.7384328842163086,-0.6501184105873108,-0.1790606081485748,0,0,0,-1,-1,3417.07073075,unknown,2,2022-06-02T10:57:58.929+02:00,2022-06-02T10:17:13.754+02:00,538,1.652724,0,0,417.4277,0,0,2022-06-02T10:57:58.929+02:00,675853078.9287119,0,3.152344,101.3455,1,0.77
339,2022-06-02T10:58:00.232+02:00,1654160279.99963,53.2290930831024,10.39852668132884,37.53415,0,20,-1,-1,2.400000095367432,7.999579855010837,-9999,3418.373225,-8.839920043945312,-1.31842041015625,6.595611572265625,3418.368228,-1.53250575392682,1.198197935634848,0.6982855380445964,-24.21740531921387,2.385506391525269,6.934651851654053,-0.0356097221374511,-14.22727298736572,4.30165958404541,XArbitraryZVertical,0.5709937564994926,0.1858762258168586,-0.3991308902080956,0.692900164142528,0.7133898138999939,-0.6429054737091064,-0.2788323163986206,0,0,0,-1,-1,3417.07073075,unknown,2,2022-06-02T10:57:58.929+02:00,2022-06-02T10:17:13.754+02:00,538,1.652724,0,0,417.4277,0,0,2022-06-02T10:57:58.929+02:00,675853078.9287119,0,3.152344,101.3455,1,0.77
340,2022-06-02T10:58:00.242+02:00,1654160279.99963,53.2290930831024,10.39852668132884,37.53415,0,20,-1,-1,2.400000095367432,7.999579855010837,-9999,3418.38322,-13.58451843261719,2.604904174804688,3.475906372070312,3418.378223,-1.143851390049801,0.998884998914086,0.610539388243111,-34.954345703125,8.159414291381836,4.31259822845459,-9.528876304626465,-0.7451108694076538,7.039070606231689,XArbitraryZVertical,0.4690912728314526,0.2412961200405578,-0.3321333901712337,0.7819314966028793,0.6889558434486389,-0.5733094811439514,-0.4434591233730316,0,0,0,-1,-1,3417.07073075,unknown,2,2022-06-02T10:57:58.929+02:00,2022-06-02T10:17:13.754+02:00,538,1.652724,0,0,417.4277,0,0,2022-06-02T10:57:58.929+02:00,675853078.9287119,0,3.152344,101.3455,1,0.77
341,2022-06-02T10:58:00.252+02:00,1654160279.99963,53.2290930831024,10.39852668132884,37.53415,0,20,-1,-1,2.400000095367432,7.999579855010837,-9999,3418.393215,-3.958816528320312,5.287033081054688,-1.436767578125,3418.388218,-0.8064860711525293,0.9040804099004646,0.4714405502931093,-26.63726806640625,5.624522686004639,8.021147727966309,-14.28464984893799,3.059074401855469,4.026855945587158,XArbitraryZVertical,0.3598980786077283,0.3082185910347619,-0.2493979300520742,0.8445562192904111,0.7001315355300903,-0.4541701674461365,-0.5509493350982666,0,0,0,-1,-1,3417.07073075,unknown,2,2022-06-02T10:57:58.929+02:00,2022-06-02T10:17:13.754+02:00,538,1.652724,0,0,417.4277,0,0,2022-06-02T10:57:58.929+02:00,675853078.9287119,0,3.152344,101.3455,1,0.77
342,2022-06-02T10:58:00.262+02:00,1654160279.99963,53.2290930831024,10.39852668132884,37.53415,0,20,-1,-1,2.400000095367432,7.999579855010837,-9999,3418.40321,-2.009307861328125,5.452972412109375,-1.413345336914062,3418.398212,-0.5932293787724222,0.8295207619826309,0.3950031328159959,-13.13635063171387,-2.481170415878296,3.861289501190186,-4.639625072479248,5.671844005584717,-0.8135340213775635,XArbitraryZVertical,0.2872333914795832,0.3253924364713096,-0.1866841590865038,0.8813430509040525,0.6808085441589355,-0.3848110735416412,-0.6232334971427917,0,0,0,-1,-1,3417.07073075,unknown,2,2022-06-02T10:57:58.929+02:00,2022-06-02T10:17:13.754+02:00,538,1.652724,0,0,417.4277,0,0,2022-06-02T10:57:58.929+02:00,675853078.9287119,0,3.152344,101.3455,1,0.77
343,2022-06-02T10:58:00.272+02:00,1654160279.99963,53.2290930831024,10.39852668132884,37.53415,0,20,-1,-1,2.400000095367432,7.999579855010837,-9999,3418.413204,-3.692840576171875,2.3441162109375,-0.47119140625,3418.408207,-0.5164374413750581,0.7509862015430865,0.3610678959438734,-2.707541465759277,-7.186089992523193,2.477184534072876,-2.647669315338135,5.806245803833008,-0.7294648885726929,XArbitraryZVertical,0.2536326897166191,0.3061539936369271,-0.1700408664198768,0.9016796175265444,0.6383614540100098,-0.3532734811306,-0.6838803887367249,0,0,0,-1,-1,3417.07073075,unknown,2,2022-06-02T10:57:58.929+02:00,2022-06-02T10:17:13.754+02:00,538,1.652724,0,0,417.4277,0,0,2022-06-02T10:57:58.929+02:00,675853078.9287119,0,3.152344,101.3455,1,0.77
344,2022-06-02T10:58:00.282+02:00,1654160279.99963,53.2290930831024,10.39852668132884,37.53415,0,20,-1,-1,2.400000095367432,7.999579855010837,-9999,3418.423199,-6.189498901367188,0.26080322265625,-0.983184814453125,3418.418202,-0.4815260032663976,0.6549563362175501,0.3712170918899718,-0.8647142052650452,-9.180285453796388,3.685577392578125,-4.260475635528564,2.706866025924683,0.2678641080856323,XArbitraryZVertical,0.2450768413330357,0.2653481181798226,-0.1642463477457377,0.9179056006281572,0.5676349997520447,-0.3627499043941498,-0.7390554547309875,0,0,0,-1,-1,3417.07073075,unknown,2,2022-06-02T10:57:58.929+02:00,2022-06-02T10:17:13.754+02:00,538,1.652724,0,0,417.4277,0,0,2022-06-02T10:57:58.929+02:00,675853078.9287119,0,3.152344,101.3455,1,0.77
345,2022-06-02T10:58:00.292+02:00,1654160279.99963,53.2290930831024,10.39852668132884,37.53415,0,20,-1,-1,2.400000095367432,7.999579855010837,-9999,3418.433194,-6.316009521484375,-1.324661254882812,-2.720977783203125,3418.428196,-0.4348340658284582,0.5474456434156991,0.3806052809659466,-2.73452091217041,-8.831734657287598,4.619854927062988,-6.672759056091309,0.6322857141494751,-0.1904299855232239,XArbitraryZVertical,0.2350837225765062,0.2199050439271383,-0.1539999953121232,0.9341634782583068,0.483260303735733,-0.3714824914932251,-0.7927548289299011,0,0,0,-1,-1,3417.07073075,unknown,2,2022-06-02T10:57:58.929+02:00,2022-06-02T10:17:13.754+02:00,538,1.652724,0,0,417.4277,0,0,2022-06-02T10:57:58.929+02:00,675853078.9287119,0,3.152344,101.3455,1,0.77
346,2022-06-02T10:58:00.302+02:00,1654160279.99963,53.2290930831024,10.39852668132884,37.53415,0,20,-1,-1,2.400000095367432,7.999579855010837,-9999,3418.443189,-5.0931396484375,-1.558624267578125,-3.733139038085938,3418.438191,-0.3674990927521286,0.4340026439221305,0.3652340136548366,-5.895793914794922,-9.063967704772947,4.893355369567871,-6.708778858184814,-0.9674934148788452,-1.87353253364563,XArbitraryZVertical,0.2130444068176614,0.1757539956064307,-0.1370236296148826,0.9512870796889143,0.3927692472934723,-0.3571678698062897,-0.8474452495574951,0,0,0,-1,-1,3417.07073075,unknown,2,2022-06-02T10:57:58.929+02:00,2022-06-02T10:17:13.754+02:00,538,1.652724,0,0,417.4277,0,0,2022-06-02T10:57:58.929+02:00,675853078.9287119,0,3.152344,101.3455,1,0.77
347,2022-06-02T10:58:00.312+02:00,1654160279.99963,53.2290930831024,10.39852668132884,37.53415,0,20,-1,-1,2.400000095367432,7.999579855010837,-9999,3418.453183,-5.140823364257812,-0.6949005126953125,-3.7481689453125,3418.448186,-0.2932337382238794,0.3145660221257109,0.3162024841059815,-8.196367263793945,-9.843348503112791,4.628385066986084,-5.387204170227051,-1.2476646900177,-2.829352378845215,XArbitraryZVertical,0.1764294422471958,0.1303048685981151,-0.1180926725329214,0.9684768610451312,0.2940645515918732,-0.3109595775604248,-0.903786599636078,0,0,0,-1,-1,3417.07073075,unknown,2,2022-06-02T10:57:58.929+02:00,2022-06-02T10:17:13.754+02:00,538,1.652724,0,0,417.4277,0,0,2022-06-02T10:57:58.929+02:00,675853078.9287119,0,3.152344,101.3455,1,0.77
348,2022-06-02T10:58:00.322+02:00,1654160279.99963,53.2290930831024,10.39852668132884,37.53415,0,20,-1,-1,2.400000095367432,7.999579855010837,-9999,3418.463178,-5.959945678710938,0.3006744384765625,-3.993927001953125,3418.458181,-0.2263452349783791,0.1972088166948088,0.2445747150477308,-8.761622428894043,-9.813847541809082,4.123191356658936,-5.330925464630127,-0.4527568221092224,-2.79673433303833,XArbitraryZVertical,0.1316481751108654,0.0833757249313226,-0.0996116392135347,0.9827485383065788,0.1901021301746368,-0.2421437203884125,-0.9514344930648804,0,0,0,-1,-1,3417.07073075,unknown,2,2022-06-02T10:57:58.929+02:00,2022-06-02T10:17:13.754+02:00,538,1.652724,0,0,417.4277,0,0,2022-06-02T10:57:58.929+02:00,675853078.9287119,0,3.152344,101.3455,1,0.77
349,2022-06-02T10:58:00.332+02:00,1654160279.99963,53.2290930831024,10.39852668132884,37.53415,0,20,-1,-1,2.400000095367432,7.999579855010837,-9999,3418.473173,-5.982894897460938,0.5308990478515625,-4.683029174804688,3418.468175,-0.1775688688250131,0.0910929674540998,0.1659802569527093,-8.009040832519531,-9.396048545837402,3.083277463912964,-6.049662590026855,0.4658936262130737,-3.011759281158447,XArbitraryZVertical,0.0865059895754712,0.0378528300383772,-0.0845116355968247,0.991938277168088,0.0897168666124343,-0.1652192026376724,-0.9821677803993224,0,0,0,-1,-1,3417.07073075,unknown,2,2022-06-02T10:57:58.929+02:00,2022-06-02T10:17:13.754+02:00,538,1.652724,0,0,417.4277,0,0,2022-06-02T10:57:58.929+02:00,675853078.9287119,0,3.152344,101.3455,1,0.77
350,2022-06-02T10:58:00.342+02:00,1654160279.99963,53.2290930831024,10.39852668132884,37.53415,0,20,-1,-1,2.400000095367432,7.999579855010837,-9999,3418.483168,-5.441360473632812,0.6262359619140625,-4.87225341796875,3418.47817,-0.147510006025432,-0.0042581020321461,0.0936523011641804,-6.738828182220459,-8.90314769744873,2.268927812576294,-5.978655338287354,0.6244145035743713,-3.68742036819458,XArbitraryZVertical,0.0465249654133163,-0.0055701985642875,-0.0737066058148762,0.996178495739312,-0.0042394292540848,-0.0935154631733894,-0.9956088066101074,0,0,0,-1,-1,3417.07073075,unknown,2,2022-06-02T10:57:58.929+02:00,2022-06-02T10:17:13.754+02:00,538,1.652724,0,0,417.4277,0,0,2022-06-02T10:57:58.929+02:00,675853078.9287119,0,3.152344,101.3455,1,0.77
351,2022-06-02T10:58:00.352+02:00,1654160279.99963,53.2290930831024,10.39852668132884,37.53415,0,20,-1,-1,2.400000095367432,7.999579855010837,-9999,3418.493162,-4.726058959960938,0.8566131591796875,-4.691207885742188,3418.488165,-0.1302939524397023,-0.0917208713602442,0.0322793373723932,-5.319998741149902,-8.39725399017334,1.798570156097412,-5.349815845489502,0.6585096716880798,-3.876975536346436,XArbitraryZVertical,0.0131036793499638,-0.046790713454719,-0.0657623022500708,0.9966514472485042,-0.0915446057915687,-0.0322737321257591,-0.9952778220176696,0,0,0,-1,-1,3417.07073075,unknown,2,2022-06-02T10:57:58.929+02:00,2022-06-02T10:17:13.754+02:00,538,1.652724,0,0,417.4277,0,0,2022-06-02T10:57:58.929+02:00,675853078.9287119,0,3.152344,101.3455,1,0.77
352,2022-06-02T10:58:00.362+02:00,1654160279.99963,53.2290930831024,10.39852668132884,37.53415,0,20,-1,-1,2.400000095367432,7.999579855010837,-9999,3418.503157,-4.154830932617188,0.8560638427734375,-4.4298095703125,3418.49816,-0.1193813553082735,-0.1741261597557739,-0.0135147485492813,-3.463214159011841,-8.102526664733887,1.592591166496277,-4.55282735824585,0.8430987596511841,-3.706419467926025,XArbitraryZVertical,-0.0119068336426604,-0.0863947166471647,-0.0588414132509562,0.9944504267755502,-0.1732317507266998,0.0135143371298909,-0.9847883582115172,0,0,0,-1,-1,3417.07073075,unknown,2,2022-06-02T10:57:58.929+02:00,2022-06-02T10:17:13.754+02:00,538,1.652724,0,0,417.4277,0,0,2022-06-02T10:57:58.929+02:00,675853078.9287119,0,3.152344,101.3455,1,0.77
353,2022-06-02T10:58:00.372+02:00,1654160279.99963,53.2290930831024,10.39852668132884,37.53415,0,20,-1,-1,2.400000095367432,7.999579855010837,-9999,3418.513152,-4.013458251953125,0.0719451904296875,-4.425552368164062,3418.508154,-0.1103097572600641,-0.2531089116216856,-0.042052950463947,-1.831671833992004,-7.714254856109619,1.354899048805237,-3.904637336730957,0.8140232563018799,-3.462526798248291,XArbitraryZVertical,-0.0277814825535047,-0.124847363589534,-0.0520243012826354,0.9904214148422265,-0.2501936256885529,0.0420405566692352,-0.9672826528549194,0,0,0,-1,-1,3417.07073075,unknown,2,2022-06-02T10:57:58.929+02:00,2022-06-02T10:17:13.754+02:00,538,1.652724,0,0,417.4277,0,0,2022-06-02T10:57:58.929+02:00,675853078.9287119,0,3.152344,101.3455,1,0.77
354,2022-06-02T10:58:00.382+02:00,1654160279.99963,53.2290930831024,10.39852668132884,37.53415,0,20,-1,-1,2.400000095367432,7.999579855010837,-9999,3418.523147,-3.73565673828125,-1.266448974609375,-4.44683837890625,3418.518149,-0.1032997717040847,-0.3260315498153907,-0.0587477110894417,-1.085002183914185,-6.927481174468994,0.943337082862854,-3.693724632263184,0.0132312215864658,-3.479865789413452,XArbitraryZVertical,-0.0373167794295257,-0.1605122361315453,-0.0461603185978978,0.9852473520276986,-0.3197336196899414,0.058713924139738,-0.9456865787506104,0,0,0,-1,-1,3417.07073075,unknown,2,2022-06-02T10:57:58.929+02:00,2022-06-02T10:17:13.754+02:00,538,1.652724,0,0,417.4277,0,0,2022-06-02T10:57:58.929+02:00,675853078.9287119,0,3.152344,101.3455,1,0.77
355,2022-06-02T10:58:00.392+02:00,1654160279.99963,53.2290930831024,10.39852668132884,37.53415,0,20,-1,-1,2.400000095367432,7.999579855010837,-9999,3418.533141,-3.1304931640625,-2.158462524414062,-4.332244873046875,3418.528144,-0.1004456534416854,-0.3913853731836564,-0.0724179519491665,-1.396877646446228,-6.222587108612061,0.5518879890441895,-3.355187177658081,-1.338803648948669,-3.524879693984985,XArbitraryZVertical,-0.0452204562792638,-0.192290913271217,-0.0421809716305471,0.9793875749575472,-0.3804695606231689,0.0723546743392944,-0.92195862531662,0,0,0,-1,-1,3417.07073075,unknown,2,2022-06-02T10:57:58.929+02:00,2022-06-02T10:17:13.754+02:00,538,1.652724,0,0,417.4277,0,0,2022-06-02T10:57:58.929+02:00,675853078.9287119,0,3.152344,101.3455,1,0.77
356,2022-06-02T10:58:00.403+02:00,1654160279.99963,53.2290930831024,10.39852668132884,37.53415,0,20,-1,-1,2.400000095367432,7.999579855010837,-9999,3418.543136,-2.602920532226562,-2.518478393554688,-4.332046508789062,3418.538139,-0.1041813098744887,-0.4519464852248783,-0.0896515175422752,-2.056132555007935,-5.857463359832764,0.1742605566978455,-2.695529460906982,-2.247993946075439,-3.436258792877197,XArbitraryZVertical,-0.0552664395719802,-0.2212524466932496,-0.0406659486602467,0.9727997117287625,-0.4349635541439056,0.0895314738154411,-0.8959859609603882,0,0,0,-1,-1,3417.07073075,unknown,2,2022-06-02T10:57:58.929+02:00,2022-06-02T10:17:13.754+02:00,538,1.652724,0,0,417.4277,0,0,2022-06-02T10:57:58.929+02:00,675853078.9287119,0,3.152344,101.3455,1,0.77
357,2022-06-02T10:58:00.412+02:00,1654160279.99963,53.2290930831024,10.39852668132884,37.53415,0,20,-1,-1,2.400000095367432,7.999579855010837,-9999,3418.553131,-2.508193969726562,-2.414291381835938,-4.277542114257812,3418.548133,-0.116025787730006,-0.5099256359243647,-0.1106149769912103,-2.775741338729858,-5.495560169219971,-0.3100703060626984,-2.117791175842285,-2.628868103027344,-3.464599847793579,XArbitraryZVertical,-0.0680031079481476,-0.2482986434285398,-0.0421017135313231,0.9653760015062108,-0.4851292073726654,0.1103895381093025,-0.8674467206001282,0,0,0,-1,-1,3417.07073075,unknown,2,2022-06-02T10:57:58.929+02:00,2022-06-02T10:17:13.754+02:00,538,1.652724,0,0,417.4277,0,0,2022-06-02T10:57:58.929+02:00,675853078.9287119,0,3.152344,101.3455,1,0.77
358,2022-06-02T10:58:00.422+02:00,1654160279.99963,53.2290930831024,10.39852668132884,37.53415,0,20,-1,-1,2.400000095367432,7.999579855010837,-9999,3418.563126,-2.38970947265625,-2.11480712890625,-4.482284545898438,3418.558128,-0.1361388915061528,-0.5650251034442896,-0.136085009049974,-3.641211748123169,-5.009551525115967,-0.514553427696228,-1.977707147598267,-2.549956798553467,-3.440775394439697,XArbitraryZVertical,-0.0840607103468242,-0.2730391847062894,-0.046259770804384,0.9572059766793948,-0.5304867625236511,0.1356653720140457,-0.83676677942276,0,0,0,-1,-1,3417.07073075,unknown,2,2022-06-02T10:57:58.929+02:00,2022-06-02T10:17:13.754+02:00,538,1.652724,0,0,417.4277,0,0,2022-06-02T10:57:58.929+02:00,675853078.9287119,0,3.152344,101.3455,1,0.77
359,2022-06-02T10:58:00.432+02:00,1654160279.99963,53.2290930831024,10.39852668132884,37.53415,0,20,-1,-1,2.400000095367432,7.999579855010837,-9999,3418.57312,-2.251113891601562,-1.89263916015625,-4.69549560546875,3418.568123,-0.1650062263826746,-0.6150048121634182,-0.1641955024633254,-4.245615005493164,-4.015376567840576,-1.154059886932373,-1.820507049560547,-2.278265953063965,-3.676499366760254,XArbitraryZVertical,-0.102752678888127,-0.2941925813617903,-0.0535424333937552,0.9486968236757868,-0.5692023634910583,0.1634587049484253,-0.8057852387428284,0,0,0,-1,-1,3417.07073075,unknown,2,2022-06-02T10:57:58.929+02:00,2022-06-02T10:17:13.754+02:00,538,1.652724,0,0,417.4277,0,0,2022-06-02T10:57:58.929+02:00,675853078.9287119,0,3.152344,101.3455,1,0.77
360,2022-06-02T10:58:00.442+02:00,1654160279.99963,53.2290930831024,10.39852668132884,37.53415,0,20,-1,-1,2.400000095367432,7.999579855010837,-9999,3418.583115,-2.060577392578125,-1.621261596679688,-4.785125732421875,3418.578118,-0.2047012085790586,-0.6543692792829657,-0.1916232674088485,-4.738090038299561,-2.438268184661865,-1.820795893669128,-1.653595566749573,-2.083091974258423,-3.916586399078369,XArbitraryZVertical,-0.1228013555390622,-0.3089744163318673,-0.0657243245291774,0.9408160420196484,-0.597518265247345,0.1904526948928833,-0.7789092659950256,0,0,0,-1,-1,3417.07073075,unknown,2,2022-06-02T10:57:58.929+02:00,2022-06-02T10:17:13.754+02:00,538,1.652724,0,0,417.4277,0,0,2022-06-02T10:57:58.929+02:00,675853078.9287119,0,3.152344,101.3455,1,0.77
361,2022-06-02T10:58:00.452+02:00,1654160279.99963,53.2290930831024,10.39852668132884,37.53415,0,20,-1,-1,2.400000095367432,7.999579855010837,-9999,3418.59311,-1.82867431640625,-1.131118774414062,-4.272323608398438,3418.588112,-0.2511284209872563,-0.6806980411988626,-0.2170102820131582,-4.910459518432617,-0.928518772125244,-2.19072961807251,-1.44600248336792,-1.836572647094727,-4.026219367980957,XArbitraryZVertical,-0.1428363043167607,-0.3164563512693258,-0.0814914672682779,0.9342442035883908,-0.6145749092102051,0.2153109908103943,-0.758906364440918,0,0,0,-1,-1,3417.07073075,unknown,2,2022-06-02T10:57:58.929+02:00,2022-06-02T10:17:13.754+02:00,538,1.652724,0,0,417.4277,0,0,2022-06-02T10:57:58.929+02:00,675853078.9287119,0,3.152344,101.3455,1,0.77
362,2022-06-02T10:58:00.462+02:00,1654160279.99963,53.2290930831024,10.39852668132884,37.53415,0,20,-1,-1,2.400000095367432,7.999579855010837,-9999,3418.603104,-1.844024658203125,-0.56585693359375,-3.488525390625,3418.598107,-0.3033686385122831,-0.6949874569657034,-0.2402178113659336,-5.095658779144287,0.4739269018173218,-2.706077575683594,-1.206686019897461,-1.369032979011536,-3.526315927505493,XArbitraryZVertical,-0.1624513917995586,-0.3171839732446687,-0.1007128177216793,0.9289030067949992,-0.6219881772994995,0.237914189696312,-0.7460077404975891,0,0,0,-1,-1,3417.07073075,unknown,2,2022-06-02T10:57:58.929+02:00,2022-06-02T10:17:13.754+02:00,538,1.652724,0,0,417.4277,0,0,2022-06-02T10:57:58.929+02:00,675853078.9287119,0,3.152344,101.3455,1,0.77
363,2022-06-02T10:58:00.472+02:00,1654160279.99963,53.2290930831024,10.39852668132884,37.53415,0,20,-1,-1,2.400000095367432,7.999579855010837,-9999,3418.613099,-1.892807006835938,-0.0872344970703125,-2.753067016601562,3418.608102,-0.358338115534324,-0.6969321710064779,-0.2602198276396503,-4.752748966217041,1.853580117225647,-2.846212148666382,-1.223765850067139,-0.8231499791145325,-2.7475266456604,XArbitraryZVertical,-0.1803304645624852,-0.311418468904321,-0.1224927864327785,0.9249297330916736,-0.6202587485313416,0.2572929859161377,-0.7409989237785339,0,0,0,-1,-1,3417.07073075,unknown,2,2022-06-02T10:57:58.929+02:00,2022-06-02T10:17:13.754+02:00,538,1.652724,0,0,417.4277,0,0,2022-06-02T10:57:58.929+02:00,675853078.9287119,0,3.152344,101.3455,1,0.77
364,2022-06-02T10:58:00.482+02:00,1654160279.99963,53.2290930831024,10.39852668132884,37.53415,0,20,-1,-1,2.400000095367432,7.999579855010837,-9999,3418.623094,-1.783004760742188,0.21795654296875,-2.067123413085938,3418.618097,-0.4102645197622197,-0.6863696388043479,-0.2758644662803745,-4.022265434265137,2.959235191345215,-2.862036943435669,-1.283035278320312,-0.3596133887767792,-2.008763074874878,XArbitraryZVertical,-0.1946535109239028,-0.2999301496492401,-0.1447013365445731,0.9226121965721548,-0.6097716689109802,0.2723788321018219,-0.744303822517395,0,0,0,-1,-1,3417.07073075,unknown,2,2022-06-02T10:57:58.929+02:00,2022-06-02T10:17:13.754+02:00,538,1.652724,0,0,417.4277,0,0,2022-06-02T10:57:58.929+02:00,675853078.9287119,0,3.152344,101.3455,1,0.77
365,2022-06-02T10:58:00.492+02:00,1654160279.99963,53.2290930831024,10.39852668132884,37.53415,0,20,-1,-1,2.400000095367432,7.999579855010837,-9999,3418.633089,-1.618545532226562,0.391204833984375,-1.517929077148438,3418.628091,-0.4566630363714321,-0.6659240616626645,-0.2865691919774473,-3.222033500671387,3.648652315139771,-2.718207597732544,-1.190412402153015,-0.0647065043449401,-1.31284499168396,XArbitraryZVertical,-0.2046735093084495,-0.2845514549402263,-0.1662685520429113,0.9216798889896852,-0.5925922393798828,0.2826629877090454,-0.7542784214019775,0,0,0,-1,-1,3417.07073075,unknown,2,2022-06-02T10:57:58.929+02:00,2022-06-02T10:17:13.754+02:00,538,1.652724,0,0,417.4277,0,0,2022-06-02T10:57:58.929+02:00,675853078.9287119,0,3.152344,101.3455,1,0.77
366,2022-06-02T10:58:00.502+02:00,1654160279.99963,53.2290930831024,10.39852668132884,37.53415,0,20,-1,-1,2.400000095367432,7.999579855010837,-9999,3418.643083,-1.544052124023438,0.430206298828125,-1.15521240234375,3418.638086,-0.4959791908513784,-0.6384864992917608,-0.2931008601616485,-2.409765958786011,4.080789089202881,-2.483226776123047,-1.047981739044189,0.1022825539112091,-0.7491762638092041,XArbitraryZVertical,-0.2106166354173158,-0.2669535734372474,-0.186127223429822,0.9218096184271848,-0.5705637335777283,0.2889222204685211,-0.7687528729438782,0,0,0,-1,-1,3417.07073075,unknown,2,2022-06-02T10:57:58.929+02:00,2022-06-02T10:17:13.754+02:00,538,1.652724,0,0,417.4277,0,0,2022-06-02T10:57:58.929+02:00,675853078.9287119,0,3.152344,101.3455,1,0.77
367,2022-06-02T10:58:00.512+02:00,1654160279.99963,53.2290930831024,10.39852668132884,37.53415,0,20,-1,-1,2.400000095367432,7.999579855010837,-9999,3418.653078,-1.462051391601562,0.3741455078125,-0.9617767333984376,3418.648081,-0.5295207739900462,-0.6052723145388973,-0.2964716537164325,-1.957509875297546,4.497827053070068,-2.324512004852295,-0.999889075756073,0.1380586624145508,-0.3687416315078735,XArbitraryZVertical,-0.2132036101044586,-0.2476061602534887,-0.2045620515425191,0.9227077915010388,-0.5441629886627197,0.2921476066112518,-0.7864708304405212,0,0,0,-1,-1,3417.07073075,unknown,2,2022-06-02T10:57:58.929+02:00,2022-06-02T10:17:13.754+02:00,538,1.652724,0,0,417.4277,0,0,2022-06-02T10:57:58.929+02:00,675853078.9287119,0,3.152344,101.3455,1,0.77
368,2022-06-02T10:58:00.522+02:00,1654160279.99963,53.2290930831024,10.39852668132884,37.53415,0,20,-1,-1,2.400000095367432,7.999579855010837,-9999,3418.663073,-1.33807373046875,0.333343505859375,-0.86785888671875,3418.658075,-0.558934057861694,-0.5679027955808412,-0.3004210099478591,-1.81414008140564,4.677886486053467,-1.887948274612427,-0.9482760429382324,0.0782230496406555,-0.1565036177635193,XArbitraryZVertical,-0.2144880758551781,-0.2266236856512289,-0.2215187602506785,0.9238862832401558,-0.5137752890586853,0.2959223985671997,-0.8052731156349182,0,0,0,-1,-1,3417.07073075,unknown,2,2022-06-02T10:57:58.929+02:00,2022-06-02T10:17:13.754+02:00,538,1.652724,0,0,417.4277,0,0,2022-06-02T10:57:58.929+02:00,675853078.9287119,0,3.152344,101.3455,1,0.77
369,2022-06-02T10:58:00.532+02:00,1654160279.99963,53.2290930831024,10.39852668132884,37.53415,0,20,-1,-1,2.400000095367432,7.999579855010837,-9999,3418.673068,-1.321243286132812,0.3343048095703125,-0.7972259521484375,3418.66807,-0.5829063679838637,-0.528099604728771,-0.3064078394677811,-1.605121731758118,4.714382171630859,-1.423273324966431,-0.8576505780220032,0.0317077040672302,-0.0443241000175476,XArbitraryZVertical,-0.2152196839281787,-0.2047268903754353,-0.2359872925797254,0.9252444350031304,-0.4804230630397797,0.3016357421875,-0.8235347867012024,0,0,0,-1,-1,3417.07073075,unknown,2,2022-06-02T10:57:58.929+02:00,2022-06-02T10:17:13.754+02:00,538,1.652724,0,0,417.4277,0,0,2022-06-02T10:57:58.929+02:00,675853078.9287119,0,3.152344,101.3455,1,0.77
370,2022-06-02T10:58:00.542+02:00,1654160279.99963,53.2290930831024,10.39852668132884,37.53415,0,20,-1,-1,2.400000095367432,7.999579855010837,-9999,3418.683062,-1.322296142578125,0.3013763427734375,-0.7274322509765625,3418.678065,-0.6026977468968291,-0.4867951861147427,-0.3137254276141022,-1.532849907875061,4.755721092224121,-1.180065751075745,-0.8762803673744202,0.0257003903388977,0.0434709787368774,XArbitraryZVertical,-0.2154364002447381,-0.182314792770735,-0.2485706270541274,0.9265856776286482,-0.4449628591537476,0.30860435962677,-0.8406969308853149,0,0,0,-1,-1,3417.07073075,unknown,2,2022-06-02T10:57:58.929+02:00,2022-06-02T10:17:13.754+02:00,538,1.652724,0,0,417.4277,0,0,2022-06-02T10:57:58.929+02:00,675853078.9287119,0,3.152344,101.3455,1,0.77
371,2022-06-02T10:58:00.552+02:00,1654160279.99963,53.2290930831024,10.39852668132884,37.53415,0,20,-1,-1,2.400000095367432,7.999579855010837,-9999,3418.693057,-1.319473266601562,0.219024658203125,-0.66424560546875,3418.68806,-0.6206077548939449,-0.4450807074394945,-0.323301200741007,-1.760844230651855,4.694332599639893,-1.000660061836243,-0.9140703678131104,-0.0163221657276153,0.1283828020095825,XArbitraryZVertical,-0.2159955285988427,-0.1594941687939821,-0.2601095584841182,0.9274969157480054,-0.4082257151603699,0.3176984488964081,-0.8558151125907898,0,0,0,-1,-1,3417.07073075,unknown,2,2022-06-02T10:57:58.929+02:00,2022-06-02T10:17:13.754+02:00,538,1.652724,0,0,417.4277,0,0,2022-06-02T10:57:58.929+02:00,675853078.9287119,0,3.152344,101.3455,1,0.77
372,2022-06-02T10:58:00.562+02:00,1654160279.99963,53.2290930831024,10.39852668132884,37.53415,0,20,-1,-1,2.400000095367432,7.999579855010837,-9999,3418.703052,-1.357528686523438,0.19091796875,-0.5735931396484375,3418.698054,-0.6379294610315138,-0.4043591365173396,-0.338186503452801,-2.350904226303101,4.596489429473877,-0.7475014925003052,-0.9483282566070556,-0.1127522587776184,0.2030348777770996,XArbitraryZVertical,-0.2186163852278954,-0.1362593708452094,-0.2707263864354473,0.9275491315922773,-0.3711449801921844,0.3317768573760986,-0.8672805428504944,0,0,0,-1,-1,3417.07073075,unknown,2,2022-06-02T10:57:58.929+02:00,2022-06-02T10:17:13.754+02:00,538,1.652724,0,0,417.4277,0,0,2022-06-02T10:57:58.929+02:00,675853078.9287119,0,3.152344,101.3455,1,0.77
