loggingTime(txt),locationTimestamp_since1970(s),locationLatitude(WGS84),locationLongitude(WGS84),locationAltitude(m),locationSpeed(m/s),locationSpeedAccuracy(m/s),locationCourse(°),locationCourseAccuracy(°),locationVerticalAccuracy(m),locationHorizontalAccuracy(m),locationFloor(Z),accelerometerTimestamp_sinceReboot(s),accelerometerAccelerationX(G),accelerometerAccelerationY(G),accelerometerAccelerationZ(G),motionTimestamp_sinceReboot(s),motionYaw(rad),motionRoll(rad),motionPitch(rad),motionRotationRateX(rad/s),motionRotationRateY(rad/s),motionRotationRateZ(rad/s),motionUserAccelerationX(G),motionUserAccelerationY(G),motionUserAccelerationZ(G),motionAttitudeReferenceFrame(txt),motionQuaternionX(R),motionQuaternionY(R),motionQuaternionZ(R),motionQuaternionW(R),motionGravityX(G),motionGravityY(G),motionGravityZ(G),motionMagneticFieldX(µT),motionMagneticFieldY(µT),motionMagneticFieldZ(µT),motionHeading(°),motionMagneticFieldCalibrationAccuracy(Z),activityTimestamp_sinceReboot(s),activity(txt),activityActivityConfidence(Z),activityActivityStartDate(txt),pedometerStartDate(txt),pedometerNumberofSteps(N),pedometerAverageActivePace(s/m),pedometerCurrentPace(s/m),pedometerCurrentCadence(steps/s),pedometerDistance(m),pedometerFloorAscended(N),pedometerFloorDescended(N),pedometerEndDate(txt),altimeterTimestamp_sinceReboot(s),altimeterReset(bool),altimeterRelativeAltitude(m),altimeterPressure(kPa),batteryState(N),batteryLevel(R)
2022-06-02T10:56:08.372+02:00,1654160168.000345,53.22910133269347,10.39854020390932,36.84525,0,20,-1,-1,2.400000095367432,7.999579855010837,-9999,3306.497544791667,-0.142669677734375,-0.281585693359375,-0.968994140625,3306.487550791667,-0.3330688263682699,-0.009659353399289965,0.5337860497544326,0.04901624470949173,0.1532768309116364,-0.4743803143501282,-0.211670458316803,0.3169933557510376,-0.1046988964080811,XArbitraryZVertical,0.2593117379968871,-0.04831205396097896,-0.1611510478755845,0.9510276477836976,-0.008315481245517731,-0.5087963342666626,-0.8608467578887939,0,0,0,-1,-1,3304.55154975,unknown,2,2022-06-02T10:56:06.410+02:00,2022-06-02T10:17:13.754+02:00,521,1.631355,0,0,405.4342,0,0,2022-06-02T10:55:58.733+02:00,675852958.7332413,0,4.773438,101.3258,1,0.77
2022-06-02T10:56:08.375+02:00,1654160168.000345,53.22910133269347,10.39854020390932,36.84525,0,20,-1,-1,2.400000095367432,7.999579855010837,-9999,3306.507538791667,-0.044219970703125,-0.2912139892578125,-0.9414520263671875,3306.497544791667,-0.3381562264305325,-0.004679231922801581,0.5347075545404245,0.1144617944955826,0.3025586605072021,-0.3883521258831024,-0.1928580403327942,0.2567360401153564,-0.1103863716125488,XArbitraryZVertical,0.2600326125382652,-0.0466787666284843,-0.1629043057509756,0.950613630744343,-0.004026079084724188,-0.5095894336700439,-0.8604082465171814,0,0,0,-1,-1,3304.55154975,unknown,2,2022-06-02T10:56:06.410+02:00,2022-06-02T10:17:13.754+02:00,521,1.631355,0,0,405.4342,0,0,2022-06-02T10:55:58.733+02:00,675852958.7332413,0,4.773438,101.3258,1,0.77
2022-06-02T10:56:08.382+02:00,1654160168.000345,53.22910133269347,10.39854020390932,36.84525,0,20,-1,-1,2.400000095367432,7.999579855010837,-9999,3306.517532791667,0.003936767578125,-0.2888946533203125,-0.9100494384765625,3306.507538791667,-0.3422060472792734,0.0005128937934215877,0.5358469387626043,0.1103400215506554,0.309363842010498,-0.3267748057842255,-0.08981170505285263,0.2178448438644409,-0.0987054705619812,XArbitraryZVertical,0.2609059702563105,-0.0448316517245826,-0.1641277182307022,0.9502527240808213,0.0004410047840792686,-0.5105694532394409,-0.8598363995552063,0,0,0,-1,-1,3304.55154975,unknown,2,2022-06-02T10:56:06.410+02:00,2022-06-02T10:17:13.754+02:00,521,1.631355,0,0,405.4342,0,0,2022-06-02T10:55:58.733+02:00,675852958.7332413,0,4.773438,101.3258,1,0.77
2022-06-02T10:56:08.386+02:00,1654160168.000345,53.22910133269347,10.39854020390932,36.84525,0,20,-1,-1,2.400000095367432,7.999579855010837,-9999,3306.527527791667,0.00042724609375,-0.2848052978515625,-0.9161376953125,3306.517532791667,-0.3463038808567161,0.005461769303589409,0.5370710821384567,0.1433148831129074,0.2596178650856018,-0.3795471787452698,-0.01960060000419617,0.2214910387992859,-0.06374508142471313,XArbitraryZVertical,0.2618050037391019,-0.04311761654557875,-0.165398960356661,0.9498642246973303,0.004692788235843182,-0.5116216540336609,-0.8591980338096619,0,0,0,-1,-1,3304.55154975,unknown,2,2022-06-02T10:56:06.410+02:00,2022-06-02T10:17:13.754+02:00,521,1.631355,0,0,405.4342,0,0,2022-06-02T10:55:58.733+02:00,675852958.7332413,0,4.773438,101.3258,1,0.77
2022-06-02T10:56:08.398+02:00,1654160168.000345,53.22910133269347,10.39854020390932,36.84525,0,20,-1,-1,2.400000095367432,7.999579855010837,-9999,3306.537521791667,-0.0446014404296875,-0.335235595703125,-0.903594970703125,3306.527527791667,-0.3507812713587172,0.01000861693033295,0.5385201394521157,0.1356529742479324,0.1918065845966339,-0.3846367597579956,-0.0005200132727622986,0.2269316911697388,-0.05359220504760742,XArbitraryZVertical,0.2627755895859743,-0.04166772540626321,-0.1668925612737578,0.9493995881750097,0.008591939695179462,-0.5128661394119263,-0.8584255576133728,0,0,0,-1,-1,3304.55154975,unknown,2,2022-06-02T10:56:06.410+02:00,2022-06-02T10:17:13.754+02:00,521,1.631355,0,0,405.4342,0,0,2022-06-02T10:55:58.733+02:00,675852958.7332413,0,4.773438,101.3258,1,0.77
2022-06-02T10:56:08.406+02:00,1654160168.000345,53.22910133269347,10.39854020390932,36.84525,0,20,-1,-1,2.400000095367432,7.999579855010837,-9999,3306.547515791667,-0.0670928955078125,-0.3884735107421875,-0.88079833984375,3306.537521791667,-0.3552698773238707,0.01410343590846763,0.5395211749694201,0.07200594991445541,0.1785890460014343,-0.3861667513847351,-0.03347724676132202,0.2120895385742188,-0.05340069532394409,XArbitraryZVertical,0.2635016115022016,-0.04040042085963441,-0.1684578189533723,0.9489765620931807,0.01209970843046904,-0.513725221157074,-0.8578693866729736,0,0,0,-1,-1,3304.55154975,unknown,2,2022-06-02T10:56:06.410+02:00,2022-06-02T10:17:13.754+02:00,521,1.631355,0,0,405.4342,0,0,2022-06-02T10:55:58.733+02:00,675852958.7332413,0,4.773438,101.3258,1,0.77
2022-06-02T10:56:08.416+02:00,1654160168.000345,53.22910133269347,10.39854020390932,36.84525,0,20,-1,-1,2.400000095367432,7.999579855010837,-9999,3306.557509791667,-0.054901123046875,-0.3805694580078125,-0.855621337890625,3306.547515791667,-0.3597683928338169,0.01829939356912109,0.5397554651603184,-0.01564933359622955,0.1982453167438507,-0.3824963867664337,-0.07673210650682449,0.1447551250457764,-0.03572660684585571,XArbitraryZVertical,0.2638784229552644,-0.03902326125567808,-0.1700322783954205,0.9486486295049883,0.01569697260856628,-0.5139262080192566,-0.8576907515525818,0,0,0,-1,-1,3304.55154975,unknown,2,2022-06-02T10:56:06.410+02:00,2022-06-02T10:17:13.754+02:00,521,1.631355,0,0,405.4342,0,0,2022-06-02T10:55:58.733+02:00,675852958.7332413,0,4.773438,101.3258,1,0.77
2022-06-02T10:56:08.427+02:00,1654160168.000345,53.22910133269347,10.39854020390932,36.84525,0,20,-1,-1,2.400000095367432,7.999579855010837,-9999,3306.567503791667,-0.035491943359375,-0.3327789306640625,-0.821868896484375,3306.557509791667,-0.3640931860838817,0.02251576448647326,0.539193276562282,-0.06852935254573822,0.1988114267587662,-0.3670148253440857,-0.08362017571926117,0.1235665678977966,-0.01068568229675293,XArbitraryZVertical,0.2638893265284425,-0.037544664200768,-0.1715432809198781,0.9484332457864972,0.01931966654956341,-0.5134438872337341,-0.8579056262969971,0,0,0,-1,-1,3304.55154975,unknown,2,2022-06-02T10:56:06.410+02:00,2022-06-02T10:17:13.754+02:00,521,1.631355,0,0,405.4342,0,0,2022-06-02T10:55:58.733+02:00,675852958.7332413,0,4.773438,101.3258,1,0.77
2022-06-02T10:56:08.436+02:00,1654160168.000345,53.22910133269347,10.39854020390932,36.84525,0,20,-1,-1,2.400000095367432,7.999579855010837,-9999,3306.577498791667,-0.02825927734375,-0.289031982421875,-0.8192596435546875,3306.567503791667,-0.3684064058536389,0.02652289991035825,0.5384440579163209,-0.05543513223528862,0.1570338904857635,-0.3821077644824982,-0.06860481202602386,0.1532732844352722,0.02011668682098389,XArbitraryZVertical,0.2638003021502046,-0.03614667255727881,-0.1730823489168016,0.948232656951737,0.0227674413472414,-0.5128008127212524,-0.8582056164741516,0,0,0,-1,-1,3304.55154975,unknown,2,2022-06-02T10:56:06.410+02:00,2022-06-02T10:17:13.754+02:00,521,1.631355,0,0,405.4342,0,0,2022-06-02T10:55:58.733+02:00,675852958.7332413,0,4.773438,101.3258,1,0.77
2022-06-02T10:56:08.447+02:00,1654160168.000345,53.22910133269347,10.39854020390932,36.84525,0,20,-1,-1,2.400000095367432,7.999579855010837,-9999,3306.587492791667,-0.04290771484375,-0.2716217041015625,-0.8289031982421875,3306.577498791667,-0.3730263865701411,0.03021299016085358,0.5382351407563697,0.03800453990697861,0.1088810116052628,-0.4098272621631622,-0.05457808822393417,0.2056146264076233,0.0428389310836792,XArbitraryZVertical,0.2639401824607328,-0.03498802155064868,-0.1747920777815954,0.9479234916293913,0.02593737095594406,-0.5126214623451233,-0.8582228422164917,0,0,0,-1,-1,3304.55154975,unknown,2,2022-06-02T10:56:06.410+02:00,2022-06-02T10:17:13.754+02:00,521,1.631355,0,0,405.4342,0,0,2022-06-02T10:55:58.733+02:00,675852958.7332413,0,4.773438,101.3258,1,0.77
2022-06-02T10:56:08.456+02:00,1654160168.000345,53.22910133269347,10.39854020390932,36.84525,0,20,-1,-1,2.400000095367432,7.999579855010837,-9999,3306.597486791667,-0.060028076171875,-0.2852783203125,-0.850311279296875,3306.587492791667,-0.3779198318003325,0.03372505276911151,0.5389163563070432,0.1237383484840393,0.09337315708398819,-0.4235795736312866,-0.06365327537059784,0.2368238568305969,0.03480970859527588,XArbitraryZVertical,0.2644865273987289,-0.03403297770382702,-0.1766247814076962,0.9474662278555355,0.02893955633044243,-0.5132062435150146,-0.8577772378921509,0,0,0,-1,-1,3304.55154975,unknown,2,2022-06-02T10:56:06.410+02:00,2022-06-02T10:17:13.754+02:00,521,1.631355,0,0,405.4342,0,0,2022-06-02T10:55:58.733+02:00,675852958.7332413,0,4.773438,101.3258,1,0.77
2022-06-02T10:56:08.466+02:00,1654160168.000345,53.22910133269347,10.39854020390932,36.84525,0,20,-1,-1,2.400000095367432,7.999579855010837,-9999,3306.607480791667,-0.074737548828125,-0.3123321533203125,-0.8723297119140625,3306.597486791667,-0.38286614244046,0.03719871021493641,0.5402230107198516,0.1515857428312302,0.09650243818759918,-0.4095666110515594,-0.0837586373090744,0.2375328540802002,0.01763004064559937,XArbitraryZVertical,0.2653294526824667,-0.03316508128770878,-0.1784633561134174,0.9469166513406553,0.03189403191208839,-0.5143272280693054,-0.8570007085800171,0,0,0,-1,-1,3304.55154975,unknown,2,2022-06-02T10:56:06.410+02:00,2022-06-02T10:17:13.754+02:00,521,1.631355,0,0,405.4342,0,0,2022-06-02T10:55:58.733+02:00,675852958.7332413,0,4.773438,101.3258,1,0.77
2022-06-02T10:56:08.476+02:00,1654160168.000345,53.22910133269347,10.39854020390932,36.84525,0,20,-1,-1,2.400000095367432,7.999579855010837,-9999,3306.617475791667,-0.0699920654296875,-0.36627197265625,-0.9014129638671875,3306.607480791667,-0.3875200376762049,0.04073093588074705,0.541227999418058,0.07141499221324921,0.1362538486719131,-0.3832774758338928,-0.1043426096439362,0.221228301525116,-0.005206406116485596,XArbitraryZVertical,0.2660447685209795,-0.03220662079665294,-0.1801620317936976,0.9464272720258086,0.03489988297224045,-0.5151888728141785,-0.8563657999038696,0,0,0,-1,-1,3304.55154975,unknown,2,2022-06-02T10:56:06.410+02:00,2022-06-02T10:17:13.754+02:00,521,1.631355,0,0,405.4342,0,0,2022-06-02T10:55:58.733+02:00,675852958.7332413,0,4.773438,101.3258,1,0.77
2022-06-02T10:56:08.486+02:00,1654160168.000345,53.22910133269347,10.39854020390932,36.84525,0,20,-1,-1,2.400000095367432,7.999579855010837,-9999,3306.627469791667,-0.03656005859375,-0.3874969482421875,-0.9370269775390625,3306.617475791667,-0.3919356124547108,0.04463231282721886,0.5411017485929652,-0.06619086861610413,0.1853006184101105,-0.3721874058246613,-0.1146289855241776,0.1765339374542236,-0.02722626924514771,XArbitraryZVertical,0.2662684627056966,-0.03093624384302563,-0.1817365495785646,0.9461055981005083,0.03824351727962494,-0.5150806307792664,-0.8562881350517273,0,0,0,-1,-1,3304.55154975,unknown,2,2022-06-02T10:56:06.410+02:00,2022-06-02T10:17:13.754+02:00,521,1.631355,0,0,405.4342,0,0,2022-06-02T10:55:58.733+02:00,675852958.7332413,0,4.773438,101.3258,1,0.77
2022-06-02T10:56:08.496+02:00,1654160168.000345,53.22910133269347,10.39854020390932,36.84525,0,20,-1,-1,2.400000095367432,7.999579855010837,-9999,3306.637463791667,-0.014892578125,-0.3602447509765625,-0.945953369140625,3306.627469791667,-0.3960195654612065,0.04862090913285372,0.5395508509855372,-0.2126154601573944,0.1870002448558807,-0.3396302461624146,-0.09681208431720734,0.1284357905387878,-0.0645984411239624,XArbitraryZVertical,0.2658389947546858,-0.02944186382225406,-0.1831953567944004,0.9459926595164804,0.04169736430048943,-0.5137506723403931,-0.8569256067276001,0,0,0,-1,-1,3304.55154975,unknown,2,2022-06-02T10:56:06.410+02:00,2022-06-02T10:17:13.754+02:00,521,1.631355,0,0,405.4342,0,0,2022-06-02T10:55:58.733+02:00,675852958.7332413,0,4.773438,101.3258,1,0.77
2022-06-02T10:56:08.506+02:00,1654160168.000345,53.22910133269347,10.39854020390932,36.84525,0,20,-1,-1,2.400000095367432,7.999579855010837,-9999,3306.647457791667,-0.0231475830078125,-0.314788818359375,-0.9344482421875,3306.637463791667,-0.3997288479034034,0.05230194947518871,0.5367407110350756,-0.3021135628223419,0.1726936846971512,-0.3293235003948212,-0.06694516539573669,0.1334691643714905,-0.08672630786895752,XArbitraryZVertical,0.264798734059343,-0.02791590984340262,-0.184568871202066,0.9460636796160962,0.04492675140500069,-0.5113377571105957,-0.8582046627998352,0,0,0,-1,-1,3304.55154975,unknown,2,2022-06-02T10:56:06.410+02:00,2022-06-02T10:17:13.754+02:00,521,1.631355,0,0,405.4342,0,0,2022-06-02T10:55:58.733+02:00,675852958.7332413,0,4.773438,101.3258,1,0.77
2022-06-02T10:56:08.517+02:00,1654160168.000345,53.22910133269347,10.39854020390932,36.84525,0,20,-1,-1,2.400000095367432,7.999579855010837,-9999,3306.657452791667,-0.0403289794921875,-0.2816925048828125,-0.9126434326171875,3306.647457791667,-0.4034608479668748,0.05589300023276415,0.5335402932083464,-0.2896957695484161,0.1666581630706787,-0.3495613932609558,-0.06526560336351395,0.17051100730896,-0.08282226324081421,XArbitraryZVertical,0.2635712875243031,-0.02639118064794304,-0.1859852173400899,0.9461728978355833,0.04809948801994324,-0.50858473777771,-0.8596673607826233,0,0,0,-1,-1,3304.55154975,unknown,2,2022-06-02T10:56:06.410+02:00,2022-06-02T10:17:13.754+02:00,521,1.631355,0,0,405.4342,0,0,2022-06-02T10:55:58.733+02:00,675852958.7332413,0,4.773438,101.3258,1,0.77
2022-06-02T10:56:08.526+02:00,1654160168.000345,53.22910133269347,10.39854020390932,36.84525,0,20,-1,-1,2.400000095367432,7.999579855010837,-9999,3306.667446791667,-0.03924560546875,-0.2629852294921875,-0.88922119140625,3306.657452791667,-0.4074891131374295,0.05966680979688582,0.5309114379040917,-0.1843734979629517,0.1794902682304382,-0.3729702532291412,-0.08334427326917648,0.2107720971107483,-0.06651097536087036,XArbitraryZVertical,0.2626323692936729,-0.02487073914601698,-0.1874999465645743,0.9461762139234766,0.05142290517687798,-0.506319522857666,-0.8608113527297974,0,0,0,-1,-1,3304.55154975,unknown,2,2022-06-02T10:56:06.410+02:00,2022-06-02T10:17:13.754+02:00,521,1.631355,0,0,405.4342,0,0,2022-06-02T10:55:58.733+02:00,675852958.7332413,0,4.773438,101.3258,1,0.77
2022-06-02T10:56:08.537+02:00,1654160168.000345,53.22910133269347,10.39854020390932,36.84525,0,20,-1,-1,2.400000095367432,7.999579855010837,-9999,3306.677440791667,-0.0152130126953125,-0.261077880859375,-0.873626708984375,3306.667446791667,-0.4118289114207235,0.06367844437492712,0.5295335251129877,-0.04695039987564087,0.1816713958978653,-0.3891494870185852,-0.09932313859462738,0.2329903841018677,-0.03778475522994995,XArbitraryZVertical,0.2623081402685558,-0.02340198562355949,-0.1890831634086248,0.945988494553372,0.05492008849978447,-0.5051308274269104,-0.8612935543060303,0,0,0,-1,-1,3304.55154975,unknown,2,2022-06-02T10:56:06.410+02:00,2022-06-02T10:17:13.754+02:00,521,1.631355,0,0,405.4342,0,0,2022-06-02T10:55:58.733+02:00,675852958.7332413,0,4.773438,101.3258,1,0.77
2022-06-02T10:56:08.546+02:00,1654160168.000345,53.22910133269347,10.39854020390932,36.84525,0,20,-1,-1,2.400000095367432,7.999579855010837,-9999,3306.687434791667,-0.0009918212890625,-0.2965087890625,-0.863372802734375,3306.677440791667,-0.4163540990717801,0.06771322698384809,0.5293584101063658,0.05496514961123466,0.1680846661329269,-0.3968296945095062,-0.0860191285610199,0.246221125125885,-0.021323561668396,XArbitraryZVertical,0.2625572745669775,-0.02206959490810521,-0.1907011327425374,0.9456265803730498,0.05840074643492699,-0.50497967004776,-0.861153244972229,0,0,0,-1,-1,3304.55154975,unknown,2,2022-06-02T10:56:06.410+02:00,2022-06-02T10:17:13.754+02:00,521,1.631355,0,0,405.4342,0,0,2022-06-02T10:55:58.733+02:00,675852958.7332413,0,4.773438,101.3258,1,0.77
2022-06-02T10:56:08.556+02:00,1654160168.000345,53.22910133269347,10.39854020390932,36.84525,0,20,-1,-1,2.400000095367432,7.999579855010837,-9999,3306.697428791667,0.004241943359375,-0.3912200927734375,-0.897430419921875,3306.687434791667,-0.4210369228625355,0.07171111823791032,0.5297901640856358,0.07699694484472275,0.1611167788505554,-0.4016492366790771,-0.06797671318054199,0.2309687733650208,-0.006171703338623047,XArbitraryZVertical,0.2630931659798376,-0.02084036971706844,-0.1923704794868391,0.945167344965965,0.06182744354009628,-0.505352258682251,-0.8606953024864197,0,0,0,-1,-1,3304.55154975,unknown,2,2022-06-02T10:56:06.410+02:00,2022-06-02T10:17:13.754+02:00,521,1.631355,0,0,405.4342,0,0,2022-06-02T10:55:58.733+02:00,675852958.7332413,0,4.773438,101.3258,1,0.77
2022-06-02T10:56:08.566+02:00,1654160168.000345,53.22910133269347,10.39854020390932,36.84525,0,20,-1,-1,2.400000095367432,7.999579855010837,-9999,3306.707423791667,0.0218658447265625,-0.4526824951171875,-0.9139862060546875,3306.697428791667,-0.4257323966648186,0.07576665849890193,0.5301074231631421,0.03602464497089386,0.1767413467168808,-0.4012770056724548,-0.06423723697662354,0.1668961644172668,-0.01524120569229126,XArbitraryZVertical,0.2635867667751046,-0.01957614649954206,-0.194040731625984,0.9447152644788331,0.06530536711215973,-0.5056260228157043,-0.8602775931358337,0,0,0,-1,-1,3304.55154975,unknown,2,2022-06-02T10:56:06.410+02:00,2022-06-02T10:17:13.754+02:00,521,1.631355,0,0,405.4342,0,0,2022-06-02T10:55:58.733+02:00,675852958.7332413,0,4.773438,101.3258,1,0.77
2022-06-02T10:56:08.576+02:00,1654160168.000345,53.22910133269347,10.39854020390932,36.84525,0,20,-1,-1,2.400000095367432,7.999579855010837,-9999,3306.717417791667,0.044708251953125,-0.45074462890625,-0.9141693115234375,3306.707423791667,-0.4301817738517776,0.07979794230174349,0.5295262381309148,-0.09664418548345566,0.1722784340381622,-0.3737497627735138,-0.05829820036888123,0.07241576910018921,-0.05135148763656616,XArbitraryZVertical,0.2636642358755792,-0.0181963383233077,-0.1956374863293286,0.944391919447238,0.06879626959562302,-0.5051245093345642,-0.8603001236915588,0,0,0,-1,-1,3304.55154975,unknown,2,2022-06-02T10:56:06.410+02:00,2022-06-02T10:17:13.754+02:00,521,1.631355,0,0,405.4342,0,0,2022-06-02T10:55:58.733+02:00,675852958.7332413,0,4.773438,101.3258,1,0.77
2022-06-02T10:56:08.586+02:00,1654160168.000345,53.22910133269347,10.39854020390932,36.84525,0,20,-1,-1,2.400000095367432,7.999579855010837,-9999,3306.727411791667,0.04718017578125,-0.4258880615234375,-0.91900634765625,3306.717417791667,-0.4342747689309752,0.08347252178805009,0.527593325147685,-0.227710023522377,0.1540739089250565,-0.3710520565509796,-0.03737030923366547,0.04564595222473145,-0.05097442865371704,XArbitraryZVertical,0.2630810668107014,-0.01679038789351421,-0.1971774341908874,0.9442602956962401,0.07203830778598785,-0.5034554004669189,-0.861012876033783,0,0,0,-1,-1,3304.55154975,unknown,2,2022-06-02T10:56:06.410+02:00,2022-06-02T10:17:13.754+02:00,521,1.631355,0,0,405.4342,0,0,2022-06-02T10:55:58.733+02:00,675852958.7332413,0,4.773438,101.3258,1,0.77
2022-06-02T10:56:08.596+02:00,1654160168.000345,53.22910133269347,10.39854020390932,36.84525,0,20,-1,-1,2.400000095367432,7.999579855010837,-9999,3306.737405791667,0.0434722900390625,-0.415069580078125,-0.9187469482421875,3306.727411791667,-0.4385500339547081,0.08712433817341514,0.5245896641603763,-0.3002079427242279,0.1477672904729843,-0.4226087033748627,-0.02717182040214539,0.0623965859413147,-0.05564582347869873,XArbitraryZVertical,0.2619974398085789,-0.01529758748323528,-0.1988613392696884,0.9442338290673847,0.07531332224607468,-0.5008578896522522,-0.8622466325759888,0,0,0,-1,-1,3304.55154975,unknown,2,2022-06-02T10:56:06.410+02:00,2022-06-02T10:17:13.754+02:00,521,1.631355,0,0,405.4342,0,0,2022-06-02T10:55:58.733+02:00,675852958.7332413,0,4.773438,101.3258,1,0.77
2022-06-02T10:56:08.606+02:00,1654160168.000345,53.22910133269347,10.39854020390932,36.84525,0,20,-1,-1,2.400000095367432,7.999579855010837,-9999,3306.747400791667,0.044189453125,-0.371978759765625,-0.9284820556640625,3306.737405791667,-0.4434560664453381,0.09103802502378815,0.5211144778243231,-0.3099576532840729,0.141754075884819,-0.4806812703609467,-0.03399946540594101,0.07920685410499573,-0.05510401725769043,XArbitraryZVertical,0.2607210307926743,-0.01370474743531611,-0.200837135526375,0.9441933939203799,0.0788450688123703,-0.4978469908237457,-0.8636734485626221,0,0,0,-1,-1,3304.55154975,unknown,2,2022-06-02T10:56:06.410+02:00,2022-06-02T10:17:13.754+02:00,521,1.631355,0,0,405.4342,0,0,2022-06-02T10:55:58.733+02:00,675852958.7332413,0,4.773438,101.3258,1,0.77
2022-06-02T10:56:08.616+02:00,1654160168.000345,53.22910133269347,10.39854020390932,36.84525,0,20,-1,-1,2.400000095367432,7.999579855010837,-9999,3306.757394791667,0.047943115234375,-0.2635345458984375,-0.91357421875,3306.747400791667,-0.448814303000128,0.09493002679769608,0.5180858077671672,-0.1932709813117981,0.1010010465979576,-0.4955944418907166,-0.03912024945020676,0.09206560254096985,-0.05865061283111572,XArbitraryZVertical,0.2596575503462217,-0.01222353469061597,-0.203012523401488,0.9440414767633337,0.08234842121601105,-0.4952180683612823,-0.8648570775985718,0,0,0,-1,-1,3304.55154975,unknown,2,2022-06-02T10:56:06.410+02:00,2022-06-02T10:17:13.754+02:00,521,1.631355,0,0,405.4342,0,0,2022-06-02T10:55:58.733+02:00,675852958.7332413,0,4.773438,101.3258,1,0.77
2022-06-02T10:56:08.626+02:00,1654160168.000345,53.22910133269347,10.39854020390932,36.84525,0,20,-1,-1,2.400000095367432,7.999579855010837,-9999,3306.767388791667,0.0631866455078125,-0.2006683349609375,-0.9344329833984375,3306.757394791667,-0.4544154482548251,0.0986038957654977,0.5164973654245422,-0.0252278596162796,0.08328583091497421,-0.505016565322876,-0.0393378958106041,0.1725178956985474,-0.05680394172668457,XArbitraryZVertical,0.2592547409830847,-0.01103507098052332,-0.2052609008240436,0.9436805351142047,0.08560255914926529,-0.49383744597435,-0.8653303980827332,0,0,0,-1,-1,3304.55154975,unknown,2,2022-06-02T10:56:06.410+02:00,2022-06-02T10:17:13.754+02:00,521,1.631355,0,0,405.4342,0,0,2022-06-02T10:55:58.733+02:00,675852958.7332413,0,4.773438,101.3258,1,0.77
2022-06-02T10:56:08.636+02:00,1654160168.000345,53.22910133269347,10.39854020390932,36.84525,0,20,-1,-1,2.400000095367432,7.999579855010837,-9999,3306.777382791667,0.10797119140625,-0.258544921875,-0.947967529296875,3306.767388791667,-0.4602790097749229,0.1023689700384859,0.5166447993353709,0.151190310716629,0.09120580554008484,-0.5019171833992004,-0.03765928000211716,0.2754750549793243,-0.05554163455963135,XArbitraryZVertical,0.259681496555614,-0.01003687288689263,-0.2075304663311815,0.9430778313318497,0.08885253965854645,-0.4939656257629395,-0.8649295568466187,0,0,0,-1,-1,3304.55154975,unknown,2,2022-06-02T10:56:06.410+02:00,2022-06-02T10:17:13.754+02:00,521,1.631355,0,0,405.4342,0,0,2022-06-02T10:55:58.733+02:00,675852958.7332413,0,4.773438,101.3258,1,0.77
2022-06-02T10:56:08.646+02:00,1654160168.000345,53.22910133269347,10.39854020390932,36.84525,0,20,-1,-1,2.400000095367432,7.999579855010837,-9999,3306.787377791667,0.1545257568359375,-0.40423583984375,-0.954559326171875,3306.777382791667,-0.466215818831802,0.1062363727949342,0.5181296785964165,0.230962797999382,0.08945725113153458,-0.4938920736312866,-0.008271947503089905,0.2830064296722412,-0.07899141311645508,XArbitraryZVertical,0.2607517926441453,-0.009160591238940407,-0.2097456151572227,0.9423010600674326,0.09211902320384979,-0.4952561557292938,-0.8638491630554199,0,0,0,-1,-1,3304.55154975,unknown,2,2022-06-02T10:56:06.410+02:00,2022-06-02T10:17:13.754+02:00,521,1.631355,0,0,405.4342,0,0,2022-06-02T10:55:58.733+02:00,675852958.7332413,0,4.773438,101.3258,1,0.77
2022-06-02T10:56:08.657+02:00,1654160168.000345,53.22910133269347,10.39854020390932,36.84525,0,20,-1,-1,2.400000095367432,7.999579855010837,-9999,3306.797371791667,0.1872406005859375,-0.5293426513671875,-0.947296142578125,3306.787377791667,-0.4720249296836336,0.1098363595034215,0.5194893457864541,0.1286699920892715,0.05185979977250099,-0.4811829328536987,0.03687996417284012,0.1708906590938568,-0.08816218376159668,XArbitraryZVertical,0.2617417943698586,-0.008385590016170981,-0.2119362618465323,0.9415433586771064,0.09515435993671417,-0.4964369237422943,-0.8628418445587158,0,0,0,-1,-1,3304.55154975,unknown,2,2022-06-02T10:56:06.410+02:00,2022-06-02T10:17:13.754+02:00,521,1.631355,0,0,405.4342,0,0,2022-06-02T10:55:58.733+02:00,675852958.7332413,0,4.773438,101.3258,1,0.77
2022-06-02T10:56:08.666+02:00,1654160168.000345,53.22910133269347,10.39854020390932,36.84525,0,20,-1,-1,2.400000095367432,7.999579855010837,-9999,3306.807365791667,0.193023681640625,-0.5228118896484375,-0.9186553955078125,3306.797371791667,-0.4773377142205125,0.1126882006505154,0.5192179852905697,-0.09593012928962708,-0.01283430587500334,-0.4394676387310028,0.07514548301696777,0.01599198579788208,-0.09220945835113525,XArbitraryZVertical,0.2618973368858901,-0.00770621646854907,-0.2140786015441731,0.9410211504779326,0.09762980788946152,-0.4962013363838196,-0.8627008199691772,0,0,0,-1,-1,3304.55154975,unknown,2,2022-06-02T10:56:06.410+02:00,2022-06-02T10:17:13.754+02:00,521,1.631355,0,0,405.4342,0,0,2022-06-02T10:55:58.733+02:00,675852958.7332413,0,4.773438,101.3258,1,0.77
2022-06-02T10:56:08.676+02:00,1654160168.000345,53.22910133269347,10.39854020390932,36.84525,0,20,-1,-1,2.400000095367432,7.999579855010837,-9999,3306.817359791667,0.166168212890625,-0.4377593994140625,-0.92877197265625,3306.807365791667,-0.4817447056009284,0.1142653456754465,0.5165600800784913,-0.335187166929245,-0.1062577366828918,-0.3825556337833405,0.09457004070281982,-0.04745933413505554,-0.06687217950820923,XArbitraryZVertical,0.2608092381438324,-0.007216790350767291,-0.2160973422198674,0.9408656696951184,0.09914030879735947,-0.4938919842243195,-0.8638529181480408,0,0,0,-1,-1,3304.55154975,unknown,2,2022-06-02T10:56:06.410+02:00,2022-06-02T10:17:13.754+02:00,521,1.631355,0,0,405.4342,0,0,2022-06-02T10:55:58.733+02:00,675852958.7332413,0,4.773438,101.3258,1,0.77
2022-06-02T10:56:08.687+02:00,1654160168.000345,53.22910133269347,10.39854020390932,36.84525,0,20,-1,-1,2.400000095367432,7.999579855010837,-9999,3306.827354791667,0.116363525390625,-0.3833465576171875,-0.9339599609375,3306.817359791667,-0.4854806104991468,0.1148020904684982,0.5121005137604117,-0.4622933566570282,-0.1459857672452927,-0.3731900155544281,0.08364694565534592,0.006168454885482788,-0.05551445484161377,XArbitraryZVertical,0.258771788591669,-0.006902499750236212,-0.2180406357142876,0.9409822689880359,0.09985527396202087,-0.4900093674659729,-0.865979015827179,0,0,0,-1,-1,3304.55154975,unknown,2,2022-06-02T10:56:06.410+02:00,2022-06-02T10:17:13.754+02:00,521,1.631355,0,0,405.4342,0,0,2022-06-02T10:55:58.733+02:00,675852958.7332413,0,4.773438,101.3258,1,0.77
2022-06-02T10:56:08.696+02:00,1654160168.000345,53.22910133269347,10.39854020390932,36.84525,0,20,-1,-1,2.400000095367432,7.999579855010837,-9999,3306.837348791667,0.0879974365234375,-0.380462646484375,-0.9313201904296875,3306.827354791667,-0.4892393523059503,0.1152652441615168,0.5070265349984876,-0.461850494146347,-0.123847708106041,-0.3984309434890747,0.04006875306367874,0.08348044753074646,-0.06475985050201416,XArbitraryZVertical,0.2564401285367621,-0.006541662326612157,-0.2200405809155869,0.941157606161233,0.1005409955978394,-0.4855800271034241,-0.8683913350105286,0,0,0,-1,-1,3304.55154975,unknown,2,2022-06-02T10:56:06.410+02:00,2022-06-02T10:17:13.754+02:00,521,1.631355,0,0,405.4342,0,0,2022-06-02T10:55:58.733+02:00,675852958.7332413,0,4.773438,101.3258,1,0.77
2022-06-02T10:56:08.706+02:00,1654160168.000345,53.22910133269347,10.39854020390932,36.84525,0,20,-1,-1,2.400000095367432,7.999579855010837,-9999,3306.847342791667,0.088531494140625,-0.3983154296875,-0.9289398193359375,3306.837348791667,-0.4932788823496955,0.11621383999189,0.5020445035905891,-0.4512790441513062,-0.07655016332864761,-0.4192414581775665,-0.002522848546504974,0.1038841903209686,-0.06179219484329224,XArbitraryZVertical,0.254205192319474,-0.005990461259352382,-0.222106773501008,0.9412823311052139,0.1016439571976662,-0.4812187552452087,-0.8706876635551453,0,0,0,-1,-1,3304.55154975,unknown,2,2022-06-02T10:56:06.410+02:00,2022-06-02T10:17:13.754+02:00,521,1.631355,0,0,405.4342,0,0,2022-06-02T10:55:58.733+02:00,675852958.7332413,0,4.773438,101.3258,1,0.77
2022-06-02T10:56:08.716+02:00,1654160168.000345,53.22910133269347,10.39854020390932,36.84525,0,20,-1,-1,2.400000095367432,7.999579855010837,-9999,3306.857336791667,0.1168670654296875,-0.3913421630859375,-0.93304443359375,3306.847342791667,-0.4974235447927254,0.1175850940002752,0.496983520895398,-0.4689653515815735,-0.04839975759387016,-0.4238921403884888,-0.01761191338300705,0.08883672952651978,-0.05851781368255615,XArbitraryZVertical,0.2519824219337279,-0.005234050747223586,-0.2241759503694265,0.9413939506900827,0.1031221896409988,-0.4767761528491974,-0.8729549050331116,0,0,0,-1,-1,3304.55154975,unknown,2,2022-06-02T10:56:06.410+02:00,2022-06-02T10:17:13.754+02:00,521,1.631355,0,0,405.4342,0,0,2022-06-02T10:55:58.733+02:00,675852958.7332413,0,4.773438,101.3258,1,0.77
2022-06-02T10:56:08.726+02:00,1654160168.000345,53.22910133269347,10.39854020390932,36.84525,0,20,-1,-1,2.400000095367432,7.999579855010837,-9999,3306.867331791667,0.1400909423828125,-0.2966766357421875,-0.9331817626953125,3306.857336791667,-0.5017863979815309,0.1190576827580913,0.4922478689202462,-0.3707917332649231,-0.08319229632616043,-0.4545731544494629,-0.004119150340557098,0.0677618682384491,-0.05630123615264893,XArbitraryZVertical,0.2499254855145902,-0.004488559668003632,-0.2263193578984653,0.9414333421069566,0.1046745926141739,-0.4726080596446991,-0.8750342130661011,0,0,0,-1,-1,3304.55154975,unknown,2,2022-06-02T10:56:06.410+02:00,2022-06-02T10:17:13.754+02:00,521,1.631355,0,0,405.4342,0,0,2022-06-02T10:55:58.733+02:00,675852958.7332413,0,4.773438,101.3258,1,0.77
2022-06-02T10:56:08.736+02:00,1654160168.000345,53.22910133269347,10.39854020390932,36.84525,0,20,-1,-1,2.400000095367432,7.999579855010837,-9999,3306.877325791667,0.1369171142578125,-0.2665863037109375,-0.9814453125,3306.867331791667,-0.5068041491164685,0.1202544319599726,0.4888135588261977,-0.1996277272701263,-0.1502107381820679,-0.5111246109008789,0.02648474276065826,0.120396614074707,-0.0487479567527771,XArbitraryZVertical,0.2484468927441573,-0.004111501153233753,-0.2287322657171573,0.9412431164531905,0.1059157997369766,-0.4695787131786346,-0.8765144944190979,0,0,0,-1,-1,3304.55154975,unknown,2,2022-06-02T10:56:06.410+02:00,2022-06-02T10:17:13.754+02:00,521,1.631355,0,0,405.4342,0,0,2022-06-02T10:55:58.733+02:00,675852958.7332413,0,4.773438,101.3258,1,0.77
2022-06-02T10:56:08.746+02:00,1654160168.000345,53.22910133269347,10.39854020390932,36.84525,0,20,-1,-1,2.400000095367432,7.999579855010837,-9999,3306.887319791667,0.1519012451171875,-0.36669921875,-1.045669555664062,3306.877325791667,-0.5127468761381887,0.1214279499212626,0.4869567825755949,-0.05085911974310875,-0.1639155596494675,-0.5777585506439209,0.03369732946157455,0.20551797747612,-0.07922834157943726,XArbitraryZVertical,0.2477029869156724,-0.004056639943993223,-0.2314918496083184,0.9407646430708043,0.1070497557520866,-0.4679385721683502,-0.877253532409668,0,0,0,-1,-1,3304.55154975,unknown,2,2022-06-02T10:56:06.410+02:00,2022-06-02T10:17:13.754+02:00,521,1.631355,0,0,405.4342,0,0,2022-06-02T10:55:58.733+02:00,675852958.7332413,0,4.773438,101.3258,1,0.77
2022-06-02T10:56:08.756+02:00,1654160168.000345,53.22910133269347,10.39854020390932,36.84525,0,20,-1,-1,2.400000095367432,7.999579855010837,-9999,3306.897313791667,0.1888427734375,-0.4896087646484375,-1.09368896484375,3306.887319791667,-0.5193175119782911,0.1229384555317195,0.4860729669182978,-0.001195427030324936,-0.1521750241518021,-0.5850539803504944,0.03087209910154343,0.1589908301830292,-0.1351027488708496,XArbitraryZVertical,0.2474533446336018,-0.00404422093971399,-0.2344469006878354,0.9400984424280588,0.1084254086017609,-0.4671573042869568,-0.8775009512901306,0,0,0,-1,-1,3304.55154975,unknown,2,2022-06-02T10:56:06.410+02:00,2022-06-02T10:17:13.754+02:00,521,1.631355,0,0,405.4342,0,0,2022-06-02T10:55:58.733+02:00,675852958.7332413,0,4.773438,101.3258,1,0.77
2022-06-02T10:56:08.766+02:00,1654160168.000345,53.22910133269347,10.39854020390932,36.84525,0,20,-1,-1,2.400000095367432,7.999579855010837,-9999,3306.907307791667,0.240814208984375,-0.54986572265625,-1.107879638671875,3306.897313791667,-0.5257553918516265,0.1245150319918223,0.4848513754992986,-0.1283540725708008,-0.1372038722038269,-0.5797569155693054,0.0570516511797905,0.03857141733169556,-0.1906173825263977,XArbitraryZVertical,0.247057129369188,-0.003937677018184323,-0.2373503743366254,0.9394743088049424,0.1098795086145401,-0.4660768806934357,-0.8778945207595825,0,0,0,-1,-1,3304.55154975,unknown,2,2022-06-02T10:56:06.410+02:00,2022-06-02T10:17:13.754+02:00,521,1.631355,0,0,405.4342,0,0,2022-06-02T10:55:58.733+02:00,675852958.7332413,0,4.773438,101.3258,1,0.77
2022-06-02T10:56:08.776+02:00,1654160168.000345,53.22910133269347,10.39854020390932,36.84525,0,20,-1,-1,2.400000095367432,7.999579855010837,-9999,3306.917302791667,0.249542236328125,-0.54266357421875,-1.069580078125,3306.907307791667,-0.5319065178951948,0.1258977873637234,0.4815053343929122,-0.4039393067359924,-0.1559226959943771,-0.5863447785377502,0.1057525128126144,-0.06943309307098389,-0.2309148907661438,XArbitraryZVertical,0.2456522900184671,-0.003598076848523305,-0.2402713933653056,0.939101454921198,0.1112885177135468,-0.4631138741970062,-0.8792840242385864,0,0,0,-1,-1,3304.55154975,unknown,2,2022-06-02T10:56:06.410+02:00,2022-06-02T10:17:13.754+02:00,521,1.631355,0,0,405.4342,0,0,2022-06-02T10:55:58.733+02:00,675852958.7332413,0,4.773438,101.3258,1,0.77
2022-06-02T10:56:08.786+02:00,1654160168.000345,53.22910133269347,10.39854020390932,36.84525,0,20,-1,-1,2.400000095367432,7.999579855010837,-9999,3306.927296791667,0.2288818359375,-0.5090484619140625,-0.9908447265625,3306.917302791667,-0.5378251829828296,0.1268712583881364,0.4756739131564226,-0.6126655340194702,-0.191407784819603,-0.6058438420295715,0.1384008079767227,-0.09485775232315063,-0.2107816338539124,XArbitraryZVertical,0.2430451494371072,-0.003074979153080701,-0.2432862156842716,0.9390054693965973,0.1124842241406441,-0.4579376578330994,-0.8818392157554626,0,0,0,-1,-1,3304.55154975,unknown,2,2022-06-02T10:56:06.410+02:00,2022-06-02T10:17:13.754+02:00,521,1.631355,0,0,405.4342,0,0,2022-06-02T10:55:58.733+02:00,675852958.7332413,0,4.773438,101.3258,1,0.77
2022-06-02T10:56:08.796+02:00,1654160168.000345,53.22910133269347,10.39854020390932,36.84525,0,20,-1,-1,2.400000095367432,7.999579855010837,-9999,3306.937290791667,0.209136962890625,-0.468597412109375,-0.9134368896484375,3306.927296791667,-0.5302269117577147,0.09501141058303454,0.3849282198155008,-0.6640709638595581,-0.1869645565748215,-0.6234624981880188,0.1529487073421478,-0.1526598632335663,-0.1100238561630249,XArbitraryZVertical,0.1966000650419752,-0.005079345987312113,-0.2481246358331493,0.9485550988784683,0.08792655915021896,-0.3754926025867462,-0.9226452112197876,0,0,0,-1,-1,3304.55154975,unknown,2,2022-06-02T10:56:06.410+02:00,2022-06-02T10:17:13.754+02:00,521,1.631355,0,0,405.4342,0,0,2022-06-02T10:55:58.733+02:00,675852958.7332413,0,4.773438,101.3258,1,0.77
2022-06-02T10:56:08.808+02:00,1654160168.000345,53.22910133269347,10.39854020390932,36.84525,0,20,-1,-1,2.400000095367432,7.999579855010837,-9999,3306.947284791667,0.200164794921875,-0.4267730712890625,-0.869781494140625,3306.937290791667,-0.5374294126494243,0.09880168686216946,0.3687425109936107,-0.5181128978729248,-0.1729983389377594,-0.5983625650405884,0.1256256401538849,-0.1293338537216187,-0.02007097005844116,XArbitraryZVertical,0.1894217580260912,-0.001811221233014737,-0.2519464297728932,0.9490200526046625,0.092010498046875,-0.3604427576065063,-0.9282322525978088,0,0,0,-1,-1,3304.55154975,unknown,2,2022-06-02T10:56:06.410+02:00,2022-06-02T10:17:13.754+02:00,521,1.631355,0,0,405.4342,0,0,2022-06-02T10:55:58.733+02:00,675852958.7332413,0,4.773438,101.3258,1,0.77
2022-06-02T10:56:08.824+02:00,1654160168.000345,53.22910133269347,10.39854020390932,36.84525,0,20,-1,-1,2.400000095367432,7.999579855010837,-9999,3306.957279791667,0.1915435791015625,-0.4310150146484375,-0.8423004150390625,3306.947284791667,-0.5439919652061033,0.1022114794352159,0.359669118046928,-0.3181097805500031,-0.1386134773492813,-0.5140660405158997,0.1101226508617401,-0.09278339147567749,0.04367709159851074,XArbitraryZVertical,0.1855685888546026,0.0004213294168220356,-0.2551757202274351,0.9489202102479046,0.09550481289625168,-0.35196453332901,-0.9311282634735107,0,0,0,-1,-1,3304.55154975,unknown,2,2022-06-02T10:56:06.410+02:00,2022-06-02T10:17:13.754+02:00,521,1.631355,0,0,405.4342,0,0,2022-06-02T10:55:58.733+02:00,675852958.7332413,0,4.773438,101.3258,1,0.77
2022-06-02T10:56:08.827+02:00,1654160168.000345,53.22910133269347,10.39854020390932,36.84525,0,20,-1,-1,2.400000095367432,7.999579855010837,-9999,3306.967273791667,0.196136474609375,-0.4691925048828125,-0.8318023681640625,3306.957279791667,-0.5494795150774101,0.1050334162346442,0.3544491800639503,-0.1642145365476608,-0.09434361010789871,-0.4189356863498688,0.0951886922121048,-0.07528945803642273,0.07718545198440552,XArbitraryZVertical,0.1834704491579209,0.001969341205998431,-0.2577716489500345,0.9486244798839477,0.09832329303026199,-0.3470738530158997,-0.932669460773468,0,0,0,-1,-1,3304.55154975,unknown,2,2022-06-02T10:56:06.410+02:00,2022-06-02T10:17:13.754+02:00,521,1.631355,0,0,405.4342,0,0,2022-06-02T10:55:58.733+02:00,675852958.7332413,0,4.773438,101.3258,1,0.77
2022-06-02T10:56:08.837+02:00,1654160168.000345,53.22910133269347,10.39854020390932,36.84525,0,20,-1,-1,2.400000095367432,7.999579855010837,-9999,3306.977267791667,0.2008209228515625,-0.5403594970703125,-0.8675994873046875,3306.967273791667,-0.5540914525623313,0.1074029161096401,0.3512476711299156,-0.1284821033477783,-0.07583997398614883,-0.3680192530155182,0.09131927788257599,-0.1009682714939117,0.1009685397148132,XArbitraryZVertical,0.1822728469498181,0.003114356155428032,-0.2598989922789749,0.9482718087510303,0.1006515696644783,-0.3440695703029633,-0.9335338473320007,0,0,0,-1,-1,3304.55154975,unknown,2,2022-06-02T10:56:06.410+02:00,2022-06-02T10:17:13.754+02:00,521,1.631355,0,0,405.4342,0,0,2022-06-02T10:55:58.733+02:00,675852958.7332413,0,4.773438,101.3258,1,0.77
2022-06-02T10:56:08.847+02:00,1654160168.000345,53.22910133269347,10.39854020390932,36.84525,0,20,-1,-1,2.400000095367432,7.999579855010837,-9999,3306.987261791667,0.2090911865234375,-0.4945220947265625,-0.9399566650390625,3306.977267791667,-0.5583818968312565,0.109330915541696,0.3487296508696484,-0.1269838809967041,-0.09975635260343552,-0.376899391412735,0.09566625207662582,-0.1633922457695007,0.09352856874465942,XArbitraryZVertical,0.1813448487874009,0.003989576687500255,-0.261882258869244,0.9479006456322572,0.102545440196991,-0.3417041897773743,-0.9341962337493896,0,0,0,-1,-1,3304.55154975,unknown,2,2022-06-02T10:56:06.410+02:00,2022-06-02T10:17:13.754+02:00,521,1.631355,0,0,405.4342,0,0,2022-06-02T10:55:58.733+02:00,675852958.7332413,0,4.773438,101.3258,1,0.77
2022-06-02T10:56:08.857+02:00,1654160168.000345,53.22910133269347,10.39854020390932,36.84525,0,20,-1,-1,2.400000095367432,7.999579855010837,-9999,3306.997256791667,0.1980133056640625,-0.3928680419921875,-1.007522583007812,3306.987261791667,-0.562599375752263,0.1106790809706977,0.3466380608185619,-0.1522551476955414,-0.1402134895324707,-0.36015984416008,0.1029036194086075,-0.1993247270584106,0.02955305576324463,XArbitraryZVertical,0.1805454204041727,0.004540873588859855,-0.2638630944331136,0.9475014619590452,0.1038835123181343,-0.3397377729415894,-0.9347654581069946,0,0,0,-1,-1,3304.55154975,unknown,2,2022-06-02T10:56:06.410+02:00,2022-06-02T10:17:13.754+02:00,521,1.631355,0,0,405.4342,0,0,2022-06-02T10:55:58.733+02:00,675852958.7332413,0,4.773438,101.3258,1,0.77
2022-06-02T10:56:08.867+02:00,1654160168.000345,53.22910133269347,10.39854020390932,36.84525,0,20,-1,-1,2.400000095367432,7.999579855010837,-9999,3307.007250791667,0.2127227783203125,-0.3693695068359375,-1.072219848632812,3306.997256791667,-0.5665299865377657,0.1117462736133836,0.3447013781568508,-0.1191622093319893,-0.1107459515333176,-0.3550784587860107,0.1008105874061584,-0.09717348217964172,-0.03777730464935303,XArbitraryZVertical,0.1797839124612284,0.004966456110609366,-0.2657259772994077,0.9471233121797773,0.1049542054533958,-0.3379156291484833,-0.9353061318397522,0,0,0,-1,-1,3304.55154975,unknown,2,2022-06-02T10:56:06.410+02:00,2022-06-02T10:17:13.754+02:00,521,1.631355,0,0,405.4342,0,0,2022-06-02T10:55:58.733+02:00,675852958.7332413,0,4.773438,101.3258,1,0.77
2022-06-02T10:56:08.877+02:00,1654160168.000345,53.22910133269347,10.39854020390932,36.84525,0,20,-1,-1,2.400000095367432,7.999579855010837,-9999,3307.017244791667,0.2358856201171875,-0.406494140625,-1.050704956054688,3307.007250791667,-0.5707164089779999,0.1133066905872454,0.3436394603442453,-0.01217690389603376,-0.05537803843617439,-0.3912428617477417,0.090781070291996,-0.03872489929199219,-0.1120338439941406,XArbitraryZVertical,0.1795030080285038,0.005480604250300745,-0.2676215270434652,0.9466399846101109,0.1064540594816208,-0.3369159996509552,-0.9354972839355469,0,0,0,-1,-1,3304.55154975,unknown,2,2022-06-02T10:56:06.410+02:00,2022-06-02T10:17:13.754+02:00,521,1.631355,0,0,405.4342,0,0,2022-06-02T10:55:58.733+02:00,675852958.7332413,0,4.773438,101.3258,1,0.77
2022-06-02T10:56:08.887+02:00,1654160168.000345,53.22910133269347,10.39854020390932,36.84525,0,20,-1,-1,2.400000095367432,7.999579855010837,-9999,3307.027238791667,0.2782135009765625,-0.4872283935546875,-1.016250610351562,3307.017244791667,-0.5755546072927091,0.1155107300829921,0.343254867415999,0.02896124497056007,0.002076266799122095,-0.4577415287494659,0.1188101246953011,-0.03919380903244019,-0.1320700645446777,XArbitraryZVertical,0.1796322455585505,0.006144352528851642,-0.2697325642261383,0.9460120161825676,0.1085305958986282,-0.3365538716316223,-0.93538898229599,0,0,0,-1,-1,3304.55154975,unknown,2,2022-06-02T10:56:06.410+02:00,2022-06-02T10:17:13.754+02:00,521,1.631355,0,0,405.4342,0,0,2022-06-02T10:55:58.733+02:00,675852958.7332413,0,4.773438,101.3258,1,0.77
2022-06-02T10:56:08.897+02:00,1654160168.000345,53.22910133269347,10.39854020390932,36.84525,0,20,-1,-1,2.400000095367432,7.999579855010837,-9999,3307.037233791667,0.31280517578125,-0.518707275390625,-0.94482421875,3307.027238791667,-0.580841741542533,0.1182780848371264,0.3427879843602314,-0.01719080284237862,0.0278058648109436,-0.4695976376533508,0.1425401270389557,-0.1138827800750732,-0.09874027967453003,XArbitraryZVertical,0.1798050372603167,0.007045452207916541,-0.2720080347367292,0.9453211720971322,0.1111372634768486,-0.3361141681671143,-0.9352410435676575,0,0,0,-1,-1,3304.55154975,unknown,2,2022-06-02T10:56:06.410+02:00,2022-06-02T10:17:13.754+02:00,521,1.631355,0,0,405.4342,0,0,2022-06-02T10:55:58.733+02:00,675852958.7332413,0,4.773438,101.3258,1,0.77
2022-06-02T10:56:08.906+02:00,1654160168.000345,53.22910133269347,10.39854020390932,36.84525,0,20,-1,-1,2.400000095367432,7.999579855010837,-9999,3307.047227791667,0.303192138671875,-0.527984619140625,-0.8695068359375,3307.037233791667,-0.5858031647804256,0.1209267928922264,0.3414438043336622,-0.1535427868366241,0.003509314265102148,-0.4378160238265991,0.1865787655115128,-0.1725220382213593,-0.05363786220550537,XArbitraryZVertical,0.1795542237920697,0.008047913430035279,-0.2741851636597267,0.9447317002846791,0.1136684492230415,-0.3348478972911835,-0.9353910088539124,0,0,0,-1,-1,3304.55154975,unknown,2,2022-06-02T10:56:06.410+02:00,2022-06-02T10:17:13.754+02:00,521,1.631355,0,0,405.4342,0,0,2022-06-02T10:55:58.733+02:00,675852958.7332413,0,4.773438,101.3258,1,0.77
2022-06-02T10:56:08.916+02:00,1654160168.000345,53.22910133269347,10.39854020390932,36.84525,0,20,-1,-1,2.400000095367432,7.999579855010837,-9999,3307.057221791667,0.2757415771484375,-0.44366455078125,-0.851104736328125,3307.047227791667,-0.5903990219615542,0.1231643493828715,0.3390878020226715,-0.2333966046571732,-0.03334830328822136,-0.4151157736778259,0.195574164390564,-0.1974786221981049,0.03621071577072144,XArbitraryZVertical,0.1787762163842824,0.009040393636101741,-0.2762805690283328,0.9442596773701543,0.1158577501773834,-0.3326269686222076,-0.9359146952629089,0,0,0,-1,-1,3304.55154975,unknown,2,2022-06-02T10:56:06.410+02:00,2022-06-02T10:17:13.754+02:00,521,1.631355,0,0,405.4342,0,0,2022-06-02T10:55:58.733+02:00,675852958.7332413,0,4.773438,101.3258,1,0.77
2022-06-02T10:56:08.926+02:00,1654160168.000345,53.22910133269347,10.39854020390932,36.84525,0,20,-1,-1,2.400000095367432,7.999579855010837,-9999,3307.067215791667,0.2358551025390625,-0.3266143798828125,-0.8726043701171875,3307.067215791667,-0.5978228869798566,0.1260487160320818,0.3352243206013478,-0.02384844049811363,-0.08188574016094208,-0.2911096513271332,0.1391561031341553,-0.05422821640968323,0.07443302869796753,XArbitraryZVertical,0.1774015777829037,0.01031621008171316,-0.2797354100529471,0.9434883133152578,0.1187174543738365,-0.3289810121059418,-0.936844527721405,0,0,0,-1,-1,3304.55154975,unknown,2,2022-06-02T10:56:06.410+02:00,2022-06-02T10:17:13.754+02:00,521,1.631355,0,0,405.4342,0,0,2022-06-02T10:55:58.733+02:00,675852958.7332413,0,4.773438,101.3258,1,0.77
2022-06-02T10:56:08.937+02:00,1654160168.000345,53.22910133269347,10.39854020390932,36.84525,0,20,-1,-1,2.400000095367432,7.999579855010837,-9999,3307.077210791667,0.1942901611328125,-0.25927734375,-0.8928070068359375,3307.067215791667,-0.5978228869798566,0.1260487160320818,0.3352243206013478,-0.02384844049811363,-0.08188574016094208,-0.2911096513271332,0.1391561031341553,-0.05422821640968323,0.07443302869796753,XArbitraryZVertical,0.1774015777829037,0.01031621008171316,-0.2797354100529471,0.9434883133152578,0.1187174543738365,-0.3289810121059418,-0.936844527721405,0,0,0,-1,-1,3304.55154975,unknown,2,2022-06-02T10:56:06.410+02:00,2022-06-02T10:17:13.754+02:00,521,1.631355,0,0,405.4342,0,0,2022-06-02T10:55:58.733+02:00,675852958.7332413,0,4.773438,101.3258,1,0.77
2022-06-02T10:56:08.946+02:00,1654160168.000345,53.22910133269347,10.39854020390932,36.84525,0,20,-1,-1,2.400000095367432,7.999579855010837,-9999,3307.087204791667,0.186065673828125,-0.25958251953125,-0.9214935302734375,3307.077210791667,-0.6013267861762683,0.1273074769832845,0.3362122389312749,0.2340142577886581,-0.06285080313682556,-0.2940362095832825,0.09254706650972366,0.04593244194984436,0.05423039197921753,XArbitraryZVertical,0.1780591208034465,0.01044994146557658,-0.2812222284732152,0.9429207813353198,0.1198552995920181,-0.3299137651920319,-0.9363715052604675,0,0,0,-1,-1,3304.55154975,unknown,2,2022-06-02T10:56:06.410+02:00,2022-06-02T10:17:13.754+02:00,521,1.631355,0,0,405.4342,0,0,2022-06-02T10:55:58.733+02:00,675852958.7332413,0,4.773438,101.3258,1,0.77
2022-06-02T10:56:08.956+02:00,1654160168.000345,53.22910133269347,10.39854020390932,36.84525,0,20,-1,-1,2.400000095367432,7.999579855010837,-9999,3307.0971985,0.198394775390625,-0.3112030029296875,-0.9701995849609375,3307.087204791667,-0.605091311368439,0.1288202379701752,0.339352886604916,0.406751960515976,-0.03626925870776176,-0.2827747762203217,0.06569067388772964,0.08202245831489563,0.02828133106231689,XArbitraryZVertical,0.1797620181720629,0.01035109004963146,-0.2826881773300062,0.9421601353547118,0.1211379617452621,-0.3328769505023956,-0.9351569414138794,0,0,0,-1,-1,3304.55154975,unknown,2,2022-06-02T10:56:06.410+02:00,2022-06-02T10:17:13.754+02:00,521,1.631355,0,0,405.4342,0,0,2022-06-02T10:55:58.733+02:00,675852958.7332413,0,4.773438,101.3258,1,0.77
2022-06-02T10:56:08.966+02:00,1654160168.000345,53.22910133269347,10.39854020390932,36.84525,0,20,-1,-1,2.400000095367432,7.999579855010837,-9999,3307.1071925,0.2108306884765625,-0.36114501953125,-0.9899139404296875,3307.0971985,-0.6087690135449005,0.1304462343039253,0.3434662736388945,0.4386638104915619,-0.02449808642268181,-0.2527060806751251,0.06802678108215332,0.05344301462173462,-0.0101933479309082,XArbitraryZVertical,0.1819346210854773,0.01015818458808143,-0.2840434220265238,0.9413372144120177,0.122479222714901,-0.3367529213428497,-0.933593213558197,0,0,0,-1,-1,3304.55154975,unknown,2,2022-06-02T10:56:06.410+02:00,2022-06-02T10:17:13.754+02:00,521,1.631355,0,0,405.4342,0,0,2022-06-02T10:55:58.733+02:00,675852958.7332413,0,4.773438,101.3258,1,0.77
2022-06-02T10:56:08.976+02:00,1654160168.000345,53.22910133269347,10.39854020390932,36.84525,0,20,-1,-1,2.400000095367432,7.999579855010837,-9999,3307.1171865,0.218994140625,-0.4215545654296875,-0.989227294921875,3307.1071925,-0.6120704624343039,0.1319376502316558,0.3470546195241977,0.3120227754116058,-0.02491407096385956,-0.2337204217910767,0.08264818787574768,0.002071082592010498,-0.0535273551940918,XArbitraryZVertical,0.183839635036226,0.01000873750788382,-0.2852573868181548,0.9406014284943189,0.1237116903066635,-0.3401295244693756,-0.9322056174278259,0,0,0,-1,-1,3304.55154975,unknown,2,2022-06-02T10:56:06.410+02:00,2022-06-02T10:17:13.754+02:00,521,1.631355,0,0,405.4342,0,0,2022-06-02T10:55:58.733+02:00,675852968.9676026,0,4,101.3329,1,0.77
2022-06-02T10:56:08.987+02:00,1654160168.000345,53.22910133269347,10.39854020390932,36.84525,0,20,-1,-1,2.400000095367432,7.999579855010837,-9999,3307.1271815,0.2189788818359375,-0.4788818359375,-0.9682464599609375,3307.1271815,-0.618430042603459,0.1349936745541473,0.3491177245293227,-0.05875033140182495,0.001055011292919517,-0.28754723072052,0.09370385110378265,-0.1143519878387451,-0.05382895469665527,XArbitraryZVertical,0.1852726831564231,0.01054001514004544,-0.287846062963108,0.9395251539386724,0.1264652460813522,-0.3420688807964325,-0.9311258792877197,0,0,0,-1,-1,3307.1095725,unknown,2,2022-06-02T10:56:08.968+02:00,2022-06-02T10:17:13.754+02:00,521,1.631355,0,0,405.4342,0,0,2022-06-02T10:55:58.733+02:00,675852968.9676026,0,4,101.3329,1,0.77
2022-06-02T10:56:08.997+02:00,1654160168.000345,53.22910133269347,10.39854020390932,36.84525,0,20,-1,-1,2.400000095367432,7.999579855010837,-9999,3307.1371755,0.215362548828125,-0.4662322998046875,-0.9113006591796875,3307.1271815,-0.618430042603459,0.1349936745541473,0.3491177245293227,-0.05875033140182495,0.001055011292919517,-0.28754723072052,0.09370385110378265,-0.1143519878387451,-0.05382895469665527,XArbitraryZVertical,0.1852726831564231,0.01054001514004544,-0.287846062963108,0.9395251539386724,0.1264652460813522,-0.3420688807964325,-0.9311258792877197,0,0,0,-1,-1,3307.1095725,unknown,2,2022-06-02T10:56:08.968+02:00,2022-06-02T10:17:13.754+02:00,521,1.631355,0,0,405.4342,0,0,2022-06-02T10:55:58.733+02:00,675852968.9676026,0,4,101.3329,1,0.77
2022-06-02T10:56:09.007+02:00,1654160168.000345,53.22910133269347,10.39854020390932,36.84525,0,20,-1,-1,2.400000095367432,7.999579855010837,-9999,3307.1471695,0.2141876220703125,-0.39874267578125,-0.8672637939453125,3307.1371755,-0.6214170412811015,0.1367207272635639,0.3474624207420347,-0.2066048681735992,0.0203773770481348,-0.2695821523666382,0.08922657370567322,-0.1412374973297119,-0.009726881980895996,XArbitraryZVertical,0.1847666186350977,0.01133219013719295,-0.2891855568914237,0.939204243941351,0.128150150179863,-0.3405129611492157,-0.931465744972229,0,0,0,-1,-1,3307.1095725,unknown,2,2022-06-02T10:56:08.968+02:00,2022-06-02T10:17:13.754+02:00,521,1.631355,0,0,405.4342,0,0,2022-06-02T10:55:58.733+02:00,675852968.9676026,0,4,101.3329,1,0.77
2022-06-02T10:56:09.017+02:00,1654160168.000345,53.22910133269347,10.39854020390932,36.84525,0,20,-1,-1,2.400000095367432,7.999579855010837,-9999,3307.1571635,0.2030487060546875,-0.344573974609375,-0.845977783203125,3307.1471695,-0.6241952801260309,0.138533408449597,0.3450206120807295,-0.2278387844562531,0.03415470942854881,-0.279644101858139,0.085150346159935,-0.09723922610282898,0.04615789651870728,XArbitraryZVertical,0.1839080669341154,0.01230862464612298,-0.2904660094038303,0.9389651977237446,0.1299528181552887,-0.3382160663604736,-0.9320526123046875,0,0,0,-1,-1,3307.1095725,unknown,2,2022-06-02T10:56:08.968+02:00,2022-06-02T10:17:13.754+02:00,521,1.631355,0,0,405.4342,0,0,2022-06-02T10:55:58.733+02:00,675852968.9676026,0,4,101.3329,1,0.77
2022-06-02T10:56:09.026+02:00,1654160168.000345,53.22910133269347,10.39854020390932,36.84525,0,20,-1,-1,2.400000095367432,7.999579855010837,-9999,3307.1671585,0.1856536865234375,-0.3395538330078125,-0.85516357421875,3307.1571635,-0.6273661791008893,0.1405407034962703,0.3429925787542437,-0.1191553846001625,0.0417453832924366,-0.3348110616207123,0.0783621072769165,-0.0280424952507019,0.07971447706222534,XArbitraryZVertical,0.1832760764152294,0.01327805679234196,-0.2918897216978373,0.9386340147885655,0.1319192796945572,-0.3363068699836731,-0.9324671626091003,0,0,0,-1,-1,3307.1095725,unknown,2,2022-06-02T10:56:08.968+02:00,2022-06-02T10:17:13.754+02:00,521,1.631355,0,0,405.4342,0,0,2022-06-02T10:55:58.733+02:00,675852968.9676026,0,4,101.3329,1,0.77
2022-06-02T10:56:09.037+02:00,1654160168.000345,53.22910133269347,10.39854020390932,36.84525,0,20,-1,-1,2.400000095367432,7.999579855010837,-9999,3307.1771525,0.1756134033203125,-0.3590545654296875,-0.8696441650390625,3307.1671585,-0.631193544319223,0.1428746080192248,0.3422284657361399,0.02073487266898155,0.06081628054380417,-0.3670896589756012,0.06072300672531128,-0.003142684698104858,0.0833965539932251,XArbitraryZVertical,0.1832882222791343,0.01414295071089042,-0.2935170318323326,0.9381114300894315,0.1341317594051361,-0.3355871737003326,-0.9324108362197876,0,0,0,-1,-1,3307.1095725,unknown,2,2022-06-02T10:56:08.968+02:00,2022-06-02T10:17:13.754+02:00,521,1.631355,0,0,405.4342,0,0,2022-06-02T10:55:58.733+02:00,675852968.9676026,0,4,101.3329,1,0.77
2022-06-02T10:56:09.047+02:00,1654160168.000345,53.22910133269347,10.39854020390932,36.84525,0,20,-1,-1,2.400000095367432,7.999579855010837,-9999,3307.1871465,0.186065673828125,-0.371978759765625,-0.8688507080078125,3307.1771525,-0.6354420347182732,0.1455669447955546,0.3425725332088457,0.1177184134721756,0.09370046108961105,-0.3902215957641602,0.04265066981315613,-0.01205018162727356,0.06744533777236938,XArbitraryZVertical,0.1838754232110264,0.0149607332668582,-0.2952412497569959,0.9374425869653639,0.1366248726844788,-0.3359112441539764,-0.9319320321083069,0,0,0,-1,-1,3307.1095725,unknown,2,2022-06-02T10:56:08.968+02:00,2022-06-02T10:17:13.754+02:00,521,1.631355,0,0,405.4342,0,0,2022-06-02T10:55:58.733+02:00,675852968.9676026,0,4,101.3329,1,0.77
2022-06-02T10:56:09.057+02:00,1654160168.000345,53.22910133269347,10.39854020390932,36.84525,0,20,-1,-1,2.400000095367432,7.999579855010837,-9999,3307.1971405,0.2205963134765625,-0.347564697265625,-0.85906982421875,3307.1871465,-0.6400910174174023,0.1487233080660315,0.3436264562014543,0.1757747828960419,0.1286248862743378,-0.417955756187439,0.03809915482997894,-0.03348809480667114,0.06052476167678833,XArbitraryZVertical,0.1848682638737547,0.01584237301209529,-0.2970640884780713,0.9366565770057883,0.1395131647586823,-0.3369037508964539,-0.9311454892158508,0,0,0,-1,-1,3307.1095725,unknown,2,2022-06-02T10:56:08.968+02:00,2022-06-02T10:17:13.754+02:00,521,1.631355,0,0,405.4342,0,0,2022-06-02T10:55:58.733+02:00,675852968.9676026,0,4,101.3329,1,0.77
2022-06-02T10:56:09.067+02:00,1654160168.000345,53.22910133269347,10.39854020390932,36.84525,0,20,-1,-1,2.400000095367432,7.999579855010837,-9999,3307.2071355,0.251953125,-0.3140411376953125,-0.8527374267578125,3307.1971405,-0.6450712055189419,0.152173278332092,0.345127262397927,0.2226867377758026,0.1315383166074753,-0.4368566870689392,0.05953103303909302,-0.02729940414428711,0.06350439786911011,XArbitraryZVertical,0.1861193558166346,0.01675347727061471,-0.2989821651329201,0.9357823594297608,0.1426479518413544,-0.3383164405822754,-0.9301578402519226,0,0,0,-1,-1,3307.1095725,unknown,2,2022-06-02T10:56:08.968+02:00,2022-06-02T10:17:13.754+02:00,521,1.631355,0,0,405.4342,0,0,2022-06-02T10:55:58.733+02:00,675852968.9676026,0,4,101.3329,1,0.77
2022-06-02T10:56:09.077+02:00,1654160168.000345,53.22910133269347,10.39854020390932,36.84525,0,20,-1,-1,2.400000095367432,7.999579855010837,-9999,3307.2171295,0.260009765625,-0.338775634765625,-0.8654327392578125,3307.2171295,-0.6557159422709427,0.1587107540481071,0.3483325845986502,0.1826889216899872,0.07875540107488632,-0.4715740382671356,0.1103575378656387,0.02356675267219543,0.06666439771652222,XArbitraryZVertical,0.1886812600532966,0.0182886378330561,-0.3031410058024879,0.9339005871934413,0.1485535949468613,-0.3413310050964355,-0.9281297922134399,0,0,0,-1,-1,3307.1095725,unknown,2,2022-06-02T10:56:08.968+02:00,2022-06-02T10:17:13.754+02:00,521,1.631355,0,0,405.4342,0,0,2022-06-02T10:55:58.733+02:00,675852968.9676026,0,4,101.3329,1,0.77
2022-06-02T10:56:09.087+02:00,1654160168.000345,53.22910133269347,10.39854020390932,36.84525,0,20,-1,-1,2.400000095367432,7.999579855010837,-9999,3307.2271235,0.2591552734375,-0.40167236328125,-0.862579345703125,3307.2171295,-0.6557159422709427,0.1587107540481071,0.3483325845986502,0.1826889216899872,0.07875540107488632,-0.4715740382671356,0.1103575378656387,0.02356675267219543,0.06666439771652222,XArbitraryZVertical,0.1886812600532966,0.0182886378330561,-0.3031410058024879,0.9339005871934413,0.1485535949468613,-0.3413310050964355,-0.9281297922134399,0,0,0,-1,-1,3307.1095725,unknown,2,2022-06-02T10:56:08.968+02:00,2022-06-02T10:17:13.754+02:00,521,1.631355,0,0,405.4342,0,0,2022-06-02T10:55:58.733+02:00,675852968.9676026,0,4,101.3329,1,0.77
2022-06-02T10:56:09.096+02:00,1654160168.000345,53.22910133269347,10.39854020390932,36.84525,0,20,-1,-1,2.400000095367432,7.999579855010837,-9999,3307.2371175,0.2570648193359375,-0.428131103515625,-0.847564697265625,3307.2271235,-0.6610245376488679,0.1615793060569359,0.3490655173055037,0.08441801369190216,0.05633983761072159,-0.459699273109436,0.1085142642259598,-0.03012678027153015,0.06150120496749878,XArbitraryZVertical,0.1895058621564421,0.01900446664522244,-0.3052996449773484,0.9330158448288264,0.1511750817298889,-0.3420198261737823,-0.9274527430534363,0,0,0,-1,-1,3307.1095725,unknown,2,2022-06-02T10:56:08.968+02:00,2022-06-02T10:17:13.754+02:00,521,1.631355,0,0,405.4342,0,0,2022-06-02T10:55:58.733+02:00,675852968.9676026,0,4,101.3329,1,0.77
