,loggingTime(txt),locationTimestamp_since1970(s),locationLatitude(WGS84),locationLongitude(WGS84),locationAltitude(m),locationSpeed(m/s),locationSpeedAccuracy(m/s),locationCourse(°),locationCourseAccuracy(°),locationVerticalAccuracy(m),locationHorizontalAccuracy(m),locationFloor(Z),accelerometerTimestamp_sinceReboot(s),accelerometerAccelerationX(G),accelerometerAccelerationY(G),accelerometerAccelerationZ(G),motionTimestamp_sinceReboot(s),motionYaw(rad),motionRoll(rad),motionPitch(rad),motionRotationRateX(rad/s),motionRotationRateY(rad/s),motionRotationRateZ(rad/s),motionUserAccelerationX(G),motionUserAccelerationY(G),motionUserAccelerationZ(G),motionAttitudeReferenceFrame(txt),motionQuaternionX(R),motionQuaternionY(R),motionQuaternionZ(R),motionQuaternionW(R),motionGravityX(G),motionGravityY(G),motionGravityZ(G),motionMagneticFieldX(µT),motionMagneticFieldY(µT),motionMagneticFieldZ(µT),motionHeading(°),motionMagneticFieldCalibrationAccuracy(Z),activityTimestamp_sinceReboot(s),activity(txt),activityActivityConfidence(Z),activityActivityStartDate(txt),pedometerStartDate(txt),pedometerNumberofSteps(N),pedometerAverageActivePace(s/m),pedometerCurrentPace(s/m),pedometerCurrentCadence(steps/s),pedometerDistance(m),pedometerFloorAscended(N),pedometerFloorDescended(N),pedometerEndDate(txt),altimeterTimestamp_sinceReboot(s),altimeterReset(bool),altimeterRelativeAltitude(m),altimeterPressure(kPa),batteryState(N),batteryLevel(R)
273,2022-05-12T10:43:41.253+02:00,1652345019.999928,53.2290095882986,10.39847047069147,40.03048,0.26,0.73,29.53125,21.76081535602596,4,5,-9999,3460.214221291667,0.5334625244140625,0.5882110595703125,1.897964477539062,3460.209223291667,1.187372643252553,2.259650978118919,-0.0192379593576247,-3.699379682540894,5.441267967224121,-1.562021255493164,-0.2384306788444519,0.5188648104667664,1.086495399475098,XArbitraryZVertical,-0.5092844756926624,0.7472598389197577,0.231549245446871,0.3586322515854143,0.7718318104743958,0.0192367732524871,0.6355358958244324,0,0,0,-1,-1,3457.972630375,walking,2,2022-05-12T10:43:39.010+02:00,2022-05-11T22:15:20.957+02:00,1093,0.8940735,0.8098162,1.750316,819.5217,0,0,2022-05-12T10:43:39.010+02:00,674037819.0102764,0,-2.77,100.9422,1,0.93
274,2022-05-12T10:43:41.263+02:00,1652345019.999928,53.2290095882986,10.39847047069147,40.03048,0.26,0.73,29.53125,21.76081535602596,4,5,-9999,3460.224216291667,0.51898193359375,0.690582275390625,2.106430053710938,3460.219219291667,1.2282253406907,2.316431853107474,-0.0060007642413655,-4.195273399353027,5.811424255371094,-1.804804086685181,-0.2011815309524536,0.5822106599807739,1.21953821182251,XArbitraryZVertical,-0.5288621819155692,0.7480094875967126,0.2288075633600144,0.3292929581582661,0.7346438765525818,0.0060007283464074,0.6784268021583557,0,0,0,-1,-1,3457.972630375,walking,2,2022-05-12T10:43:39.010+02:00,2022-05-11T22:15:20.957+02:00,1093,0.8940735,0.8098162,1.750316,819.5217,0,0,2022-05-12T10:43:39.010+02:00,674037819.0102764,0,-2.77,100.9422,1,0.93
275,2022-05-12T10:43:41.273+02:00,1652345019.999928,53.2290095882986,10.39847047069147,40.03048,0.26,0.73,29.53125,21.76081535602596,4,5,-9999,3460.234212625,0.488128662109375,0.7994537353515625,2.328811645507812,3460.229215625,1.272569529284626,2.376734397535306,0.010771692554805,-4.449746608734131,6.251518726348877,-1.998478055000305,-0.1734131574630737,0.7013541460037231,1.384991884231567,XArbitraryZVertical,-0.5496614857293567,0.747389905941276,0.2257606914885246,0.2971747595427925,0.6923947334289551,-0.0107714841142296,0.7214388251304626,0,0,0,-1,-1,3457.972630375,walking,2,2022-05-12T10:43:39.010+02:00,2022-05-11T22:15:20.957+02:00,1093,0.8940735,0.8098162,1.750316,819.5217,0,0,2022-05-12T10:43:39.010+02:00,674037819.0102764,0,-2.77,100.9422,1,0.93
276,2022-05-12T10:43:41.283+02:00,1652345019.999928,53.2290095882986,10.39847047069147,40.03048,0.26,0.73,29.53125,21.76081535602596,4,5,-9999,3460.244208625,0.4544677734375,0.681549072265625,2.629058837890625,3460.239210625,1.320133393768173,2.440168778783795,0.031114313443326,-4.980982780456543,6.627781391143799,-2.335053443908691,-0.1568655371665955,0.8305633664131165,1.565257549285889,XArbitraryZVertical,-0.5715531494277181,0.7450531870553475,0.2221798878505073,0.2624098686153069,0.6449938416481018,-0.0311092939227819,0.7635545134544373,0,0,0,-1,-1,3457.972630375,walking,2,2022-05-12T10:43:39.010+02:00,2022-05-11T22:15:20.957+02:00,1093,0.8940735,0.8098162,1.750316,819.5217,0,0,2022-05-12T10:43:39.010+02:00,674037819.0102764,0,-2.77,100.9422,1,0.93
277,2022-05-12T10:43:41.293+02:00,1652345019.999928,53.2290095882986,10.39847047069147,40.03048,0.26,0.73,29.53125,21.76081535602596,4,5,-9999,3460.254203625,0.3315582275390625,0.8649749755859375,2.911529541015625,3460.249205625,1.37197903553881,2.505913211183157,0.056733794574959,-5.465315818786621,6.968891620635986,-2.617707967758179,-0.1383018493652344,0.7382527589797974,1.825685381889343,XArbitraryZVertical,-0.5946108764099178,0.7403545845412918,0.2187275841855512,0.2246583317152136,0.5927692651748657,-0.0567033626139164,0.8033739924430847,0,0,0,-1,-1,3457.972630375,walking,2,2022-05-12T10:43:39.010+02:00,2022-05-11T22:15:20.957+02:00,1093,0.8940735,0.8098162,1.750316,819.5217,0,0,2022-05-12T10:43:39.010+02:00,674037819.0102764,0,-2.77,100.9422,1,0.93
278,2022-05-12T10:43:41.303+02:00,1652345019.999928,53.2290095882986,10.39847047069147,40.03048,0.26,0.73,29.53125,21.76081535602596,4,5,-9999,3460.264198625,0.17633056640625,0.8530120849609375,3.210250854492188,3460.259200625,1.427189426343622,2.573051815328091,0.0881008851687493,-5.954888820648193,7.245565891265869,-2.919028759002686,-0.2047572135925293,0.9529621601104736,2.072110652923584,XArbitraryZVertical,-0.618339580221489,0.7330524822435374,0.215352664816082,0.1841566176888896,0.5363150835037231,-0.0879869610071182,0.8394195437431335,0,0,0,-1,-1,3457.972630375,walking,2,2022-05-12T10:43:39.010+02:00,2022-05-11T22:15:20.957+02:00,1093,0.8940735,0.8098162,1.750316,819.5217,0,0,2022-05-12T10:43:39.010+02:00,674037819.0102764,0,-2.77,100.9422,1,0.93
279,2022-05-12T10:43:41.313+02:00,1652345019.999928,53.2290095882986,10.39847047069147,40.03048,0.26,0.73,29.53125,21.76081535602596,4,5,-9999,3460.274193625,-0.0408782958984375,0.8167572021484375,3.565338134765625,3460.269196625,1.485790448363915,2.64012191048128,0.1255595485401937,-6.419317722320557,7.392161846160889,-3.288936376571655,-0.3006014227867126,0.9782422184944152,2.340277671813965,XArbitraryZVertical,-0.6425157205056452,0.7226066331954206,0.2122639108027718,0.141270258049293,0.4769314527511597,-0.1252298951148987,0.8699735999107361,0,0,0,-1,-1,3457.972630375,walking,2,2022-05-12T10:43:39.010+02:00,2022-05-11T22:15:20.957+02:00,1093,0.8940735,0.8098162,1.750316,819.5217,0,0,2022-05-12T10:43:39.010+02:00,674037819.0102764,0,-2.77,100.9422,1,0.93
280,2022-05-12T10:43:41.323+02:00,1652345019.999928,53.2290095882986,10.39847047069147,40.03048,0.26,0.73,29.53125,21.76081535602596,4,5,-9999,3460.284188625,-0.2968292236328125,0.7518768310546875,3.977554321289062,3460.279191625,1.547403999980959,2.704797475146108,0.1687380201373023,-6.774509906768799,7.327877044677734,-3.698100328445435,-0.4579083621501923,0.9846957921981812,2.67209529876709,XArbitraryZVertical,-0.6667019609501682,0.7086113272019942,0.2097128944282939,0.0969484461776359,0.4170295298099518,-0.1679384261369705,0.8932430148124695,0,0,0,-1,-1,3457.972630375,walking,2,2022-05-12T10:43:39.010+02:00,2022-05-11T22:15:20.957+02:00,1093,0.8940735,0.8098162,1.750316,819.5217,0,0,2022-05-12T10:43:39.010+02:00,674037819.0102764,0,-2.77,100.9422,1,0.93
281,2022-05-12T10:43:41.333+02:00,1652345019.999928,53.2290095882986,10.39847047069147,40.03048,0.26,0.73,29.53125,21.76081535602596,4,5,-9999,3460.294184625,-0.6154022216796875,0.6201171875,4.392410278320312,3460.289186625,1.611962057382307,2.764473104285473,0.2162322600657544,-6.931186199188232,7.035927772521973,-4.227071285247803,-0.656498372554779,0.9664281606674194,3.069476127624512,XArbitraryZVertical,-0.6905787480904045,0.69075341498972,0.2078433658931723,0.0525543790164732,0.359668642282486,-0.2145511507987976,0.9080785512924194,0,0,0,-1,-1,3457.972630375,walking,2,2022-05-12T10:43:39.010+02:00,2022-05-11T22:15:20.957+02:00,1093,0.8940735,0.8098162,1.750316,819.5217,0,0,2022-05-12T10:43:39.010+02:00,674037819.0102764,0,-2.77,100.9422,1,0.93
282,2022-05-12T10:43:41.343+02:00,1652345019.999928,53.2290095882986,10.39847047069147,40.03048,0.26,0.73,29.53125,21.76081535602596,4,5,-9999,3460.304179625,-0.940765380859375,0.3285980224609375,4.7305908203125,3460.299181625,1.680229281676748,2.815491809121288,0.2645816682104289,-6.636667251586914,6.382572174072266,-4.926263332366943,-0.9246070384979248,0.8816227912902832,3.478075981140137,XArbitraryZVertical,-0.7141314660549876,0.6687179460067287,0.2066963152359331,0.0104585465579144,0.3092043101787567,-0.261505514383316,0.9143348932266236,0,0,0,-1,-1,3457.972630375,walking,2,2022-05-12T10:43:39.010+02:00,2022-05-11T22:15:20.957+02:00,1093,0.8940735,0.8098162,1.750316,819.5217,0,0,2022-05-12T10:43:39.010+02:00,674037819.0102764,0,-2.77,100.9422,1,0.93
283,2022-05-12T10:43:41.353+02:00,1652345019.999928,53.2290095882986,10.39847047069147,40.03048,0.26,0.73,29.53125,21.76081535602596,4,5,-9999,3460.314174625,-1.287750244140625,-0.1372528076171875,5.051361083984375,3460.309176625,1.753594387898119,2.853537110791953,0.3080098945573788,-5.84040355682373,5.324316501617432,-5.915769100189209,-1.211484909057617,0.631760835647583,3.816915035247803,XArbitraryZVertical,-0.737649075820184,0.6424265870504507,0.2061244389401518,-0.0259765456250652,0.2707189619541168,-0.3031627833843231,0.913676142692566,0,0,0,-1,-1,3457.972630375,walking,2,2022-05-12T10:43:39.010+02:00,2022-05-11T22:15:20.957+02:00,1093,0.8940735,0.8098162,1.750316,819.5217,0,0,2022-05-12T10:43:39.010+02:00,674037819.0102764,0,-2.77,100.9422,1,0.93
284,2022-05-12T10:43:41.363+02:00,1652345019.999928,53.2290095882986,10.39847047069147,40.03048,0.26,0.73,29.53125,21.76081535602596,4,5,-9999,3460.324169625,-1.759078979492188,-0.7327117919921875,5.34600830078125,3460.319172625,1.835251638206331,2.873308845396358,0.3409509287933544,-4.661960124969482,3.765351295471191,-7.218533039093018,-1.537569284439087,0.1971306502819061,4.142637729644775,XArbitraryZVertical,-0.7618297726763916,0.6115368199130115,0.2068434179467978,-0.0534231560900928,0.2498184889554977,-0.3343834280967712,0.908723771572113,0,0,0,-1,-1,3457.972630375,walking,2,2022-05-12T10:43:39.010+02:00,2022-05-11T22:15:20.957+02:00,1093,0.8940735,0.8098162,1.750316,819.5217,0,0,2022-05-12T10:43:39.010+02:00,674037819.0102764,0,-2.77,100.9422,1,0.93
285,2022-05-12T10:43:41.373+02:00,1652345019.999928,53.2290095882986,10.39847047069147,40.03048,0.26,0.73,29.53125,21.76081535602596,4,5,-9999,3460.334164625,-2.468719482421875,-0.8044586181640625,5.656097412109375,3460.329167625,1.930057317741732,2.86696220493014,0.357968491761739,-3.365473508834839,1.368397355079651,-9.123571395874023,-2.01308012008667,-0.3823396265506744,4.444497108459473,XArbitraryZVertical,-0.7874425347539299,0.5750566715588806,0.2111450559166672,-0.0682789376139911,0.2540006935596466,-0.3503722250461578,0.90151184797287,0,0,0,-1,-1,3457.972630375,walking,2,2022-05-12T10:43:39.010+02:00,2022-05-11T22:15:20.957+02:00,1093,0.8940735,0.8098162,1.750316,819.5217,0,0,2022-05-12T10:43:39.010+02:00,674037819.0102764,0,-2.77,100.9422,1,0.93
286,2022-05-12T10:43:41.383+02:00,1652345019.999928,53.2290095882986,10.39847047069147,40.03048,0.26,0.73,29.53125,21.76081535602596,4,5,-9999,3460.344160625,-3.372970581054688,-0.299530029296875,5.8875732421875,3460.339162625,2.043907194277775,2.824415944054233,0.3533106021451869,-1.904724717140198,-2.038849353790283,-11.67641162872314,-2.761341094970703,-0.4584529399871826,4.764664649963379,XArbitraryZVertical,-0.814833573810246,0.5308134790602924,0.2231651311307847,-0.0669386339647183,0.2926210165023804,-0.3460057973861694,0.8914334177970886,0,0,0,-1,-1,3457.972630375,walking,2,2022-05-12T10:43:39.010+02:00,2022-05-11T22:15:20.957+02:00,1093,0.8940735,0.8098162,1.750316,819.5217,0,0,2022-05-12T10:43:39.010+02:00,674037819.0102764,0,-2.77,100.9422,1,0.93
287,2022-05-12T10:43:41.393+02:00,1652345019.999928,53.2290095882986,10.39847047069147,40.03048,0.26,0.73,29.53125,21.76081535602596,4,5,-9999,3460.354155625,-4.163375854492188,0.337799072265625,5.952041625976562,3460.349157625,2.179976474972999,2.737239596057929,0.3230476038881383,-1.636089086532593,-6.404476642608643,-14.51453018188477,-3.746044397354126,0.0179277956485748,5.015772342681885,XArbitraryZVertical,-0.8423213157751869,0.4758102449962213,0.2485826704776926,-0.0480230196372417,0.3730732798576355,-0.3174580037593842,0.8718011975288391,0,0,0,-1,-1,3457.972630375,walking,2,2022-05-12T10:43:39.010+02:00,2022-05-11T22:15:20.957+02:00,1093,0.8940735,0.8098162,1.750316,819.5217,0,0,2022-05-12T10:43:39.010+02:00,674037819.0102764,0,-2.77,100.9422,1,0.93
288,2022-05-12T10:43:41.403+02:00,1652345019.999928,53.2290095882986,10.39847047069147,40.03048,0.26,0.73,29.53125,21.76081535602596,4,5,-9999,3460.364150625,-4.825592041015625,0.9720306396484376,5.37261962890625,3460.359152625,2.33668460305292,2.603528731642018,0.2699144223734112,-2.516550540924072,-11.18186378479004,-16.93347930908203,-4.657296180725098,0.6044477224349976,5.124429702758789,XArbitraryZVertical,-0.8649323993180834,0.4070602457985067,0.2931417108786792,-0.0161840883404703,0.4939197301864624,-0.2666489481925964,0.8276122212409973,0,0,0,-1,-1,3457.972630375,walking,2,2022-05-12T10:43:39.010+02:00,2022-05-11T22:15:20.957+02:00,1093,0.8940735,0.8098162,1.750316,819.5217,0,0,2022-05-12T10:43:39.010+02:00,674037819.0102764,0,-2.77,100.9422,1,0.93
289,2022-05-12T10:43:41.413+02:00,1652345019.999928,53.2290095882986,10.39847047069147,40.03048,0.26,0.73,29.53125,21.76081535602596,4,5,-9999,3460.374145625,-5.473541259765625,1.012802124023438,4.31634521484375,3460.369148625,2.501068884971586,2.429111792204947,0.1885724128489994,-2.736934423446655,-16.1151123046875,-18.43793678283691,-5.467717170715332,1.159487128257751,4.629292488098145,XArbitraryZVertical,-0.8752723450160371,0.3249032757152344,0.3573277677523312,0.0255561131181019,0.6421247720718384,-0.187456801533699,0.7433276176452637,0,0,0,-1,-1,3457.972630375,walking,2,2022-05-12T10:43:39.010+02:00,2022-05-11T22:15:20.957+02:00,1093,0.8940735,0.8098162,1.750316,819.5217,0,0,2022-05-12T10:43:39.010+02:00,674037819.0102764,0,-2.77,100.9422,1,0.93
290,2022-05-12T10:43:41.423+02:00,1652345019.999928,53.2290095882986,10.39847047069147,40.03048,0.26,0.73,29.53125,21.76081535602596,4,5,-9999,3460.384141625,-6.221466064453125,0.9950714111328124,2.801040649414062,3460.379143625,2.643537479102385,2.227914422385633,0.0648016083189738,-0.4118412435054779,-20.26589393615723,-19.00333404541016,-6.263635635375977,1.077557921409607,3.706789970397949,XArbitraryZVertical,-0.8657887671591753,0.2349203634484242,0.4344473485997092,0.0804842927739243,0.7900940775871277,-0.064756266772747,0.6095555424690247,0,0,0,-1,-1,3457.972630375,walking,2,2022-05-12T10:43:39.010+02:00,2022-05-11T22:15:20.957+02:00,1093,0.8940735,0.8098162,1.750316,819.5217,0,0,2022-05-12T10:43:39.010+02:00,674037819.0102764,0,-2.77,100.9422,1,0.93
291,2022-05-12T10:43:41.433+02:00,1652345019.999928,53.2290095882986,10.39847047069147,40.03048,0.26,0.73,29.53125,21.76081535602596,4,5,-9999,3460.394136625,-7.496414184570312,1.003036499023438,1.949111938476562,3460.389138625,2.722501480455152,2.007526086326993,-0.0987051412950474,4.54185962677002,-23.86522674560547,-17.00961112976074,-7.123195648193359,0.8965259790420532,2.380121469497681,XArbitraryZVertical,-0.8295545775146911,0.1493285641918027,0.5160869054558631,0.1522973795440543,0.9017292261123656,0.0985449403524398,0.4209196269512177,0,0,0,-1,-1,3457.972630375,walking,2,2022-05-12T10:43:39.010+02:00,2022-05-11T22:15:20.957+02:00,1093,0.8940735,0.8098162,1.750316,819.5217,0,0,2022-05-12T10:43:39.010+02:00,674037819.0102764,0,-2.77,100.9422,1,0.93
292,2022-05-12T10:43:41.443+02:00,1652345019.999928,53.2290095882986,10.39847047069147,40.03048,0.26,0.73,29.53125,21.76081535602596,4,5,-9999,3460.404131625,-10.03138732910156,3.4671630859375,2.03594970703125,3460.399133625,2.69064209138075,1.735110219466272,-0.2671508529164193,11.55788612365723,-29.28747367858887,-13.38165855407715,-8.447949409484863,0.7390516996383667,1.791339516639709,XArbitraryZVertical,-0.7560759086769572,0.085063079033742,0.6019987732117624,0.2423038262389915,0.9515357613563538,0.2639844417572021,0.1577730178833008,0,0,0,-1,-1,3457.972630375,walking,2,2022-05-12T10:43:39.010+02:00,2022-05-11T22:15:20.957+02:00,1093,0.8940735,0.8098162,1.750316,819.5217,0,0,2022-05-12T10:43:39.010+02:00,674037819.0102764,0,-2.77,100.9422,1,0.93
293,2022-05-12T10:43:41.453+02:00,1652345019.999928,53.2290095882986,10.39847047069147,40.03048,0.26,0.73,29.53125,21.76081535602596,4,5,-9999,3460.414126625,-16.38423156738281,5.005157470703125,3.292831420898438,3460.409129625,2.545992008839338,1.373949550603488,-0.3776920537465799,15.08187866210938,-33.47701644897461,-9.864519119262695,-10.94295501708984,3.098386526107788,2.217743635177612,XArbitraryZVertical,-0.638095077453461,0.0440229135637237,0.6910627766431897,0.3366436948984761,0.9115675687789916,0.3687761723995209,-0.1817933171987534,0,0,0,-1,-1,3457.972630375,walking,2,2022-05-12T10:43:39.010+02:00,2022-05-11T22:15:20.957+02:00,1093,0.8940735,0.8098162,1.750316,819.5217,0,0,2022-05-12T10:43:39.010+02:00,674037819.0102764,0,-2.77,100.9422,1,0.93
294,2022-05-12T10:43:41.463+02:00,1652345019.999928,53.2290095882986,10.39847047069147,40.03048,0.26,0.73,29.53125,21.76081535602596,4,5,-9999,3460.424121625,-20.34523010253906,2.317794799804688,4.208038330078125,3460.419124625,2.34893561767053,0.951546984383807,-0.3952962074482999,17.3778247833252,-35.12912368774414,-7.167219638824463,-17.1357479095459,4.620075702667236,3.828495025634766,XArbitraryZVertical,-0.4816803421999504,0.0123467191552237,0.7693472648692813,0.4194476753596435,0.7515165209770203,0.385081559419632,-0.5356631875038147,0,0,0,-1,-1,3457.972630375,walking,2,2022-05-12T10:43:39.010+02:00,2022-05-11T22:15:20.957+02:00,1093,0.8940735,0.8098162,1.750316,819.5217,0,0,2022-05-12T10:43:39.010+02:00,674037819.0102764,0,-2.77,100.9422,1,0.93
295,2022-05-12T10:43:41.473+02:00,1652345019.999928,53.2290095882986,10.39847047069147,40.03048,0.26,0.73,29.53125,21.76081535602596,4,5,-9999,3460.434117625,-24.92585754394531,4.43670654296875,0.5199127197265625,3460.429119625,2.161407487133331,0.5560055530247132,-0.2634384812938128,27.75694274902344,-29.61426544189453,-0.976110577583313,-20.85481834411621,2.057392597198486,5.028105735778809,XArbitraryZVertical,-0.2994826685075693,0.0166303332861894,0.8240986637392573,0.4805153028860265,0.5095887780189514,0.2604019343852997,-0.8200671076774597,0,0,0,-1,-1,3457.972630375,walking,2,2022-05-12T10:43:39.010+02:00,2022-05-11T22:15:20.957+02:00,1093,0.8940735,0.8098162,1.750316,819.5217,0,0,2022-05-12T10:43:39.010+02:00,674037819.0102764,0,-2.77,100.9422,1,0.93
296,2022-05-12T10:43:41.483+02:00,1652345019.999928,53.2290095882986,10.39847047069147,40.03048,0.26,0.73,29.53125,21.76081535602596,4,5,-9999,3460.444112625,-17.4173583984375,4.269302368164062,-0.5375213623046875,3460.439114625,2.036367847978549,0.3007163794054445,0.0337851282034724,35.04311752319336,-18.47034072875977,2.016916990280151,-25.22189331054688,4.470485210418701,1.474492430686951,XArbitraryZVertical,-0.1187117546704755,0.0928319528453278,0.842761109217355,0.5167627170779389,0.296035498380661,-0.0337787009775638,-0.9545794725418092,0,0,0,-1,-1,3457.972630375,walking,2,2022-05-12T10:43:39.010+02:00,2022-05-11T22:15:20.957+02:00,1093,0.8940735,0.8098162,1.750316,819.5217,0,0,2022-05-12T10:43:39.010+02:00,674037819.0102764,0,-2.77,100.9422,1,0.93
297,2022-05-12T10:43:41.493+02:00,1652345019.999928,53.2290095882986,10.39847047069147,40.03048,0.26,0.73,29.53125,21.76081535602596,4,5,-9999,3460.454107625,-11.17462158203125,-3.992446899414062,3.598861694335938,3460.449109625,1.990627500823158,0.1822275068792113,0.382899602001334,35.04396057128906,-6.506965637207031,5.664969921112061,-17.5854549407959,4.642913818359375,0.3747054934501648,XArbitraryZVertical,0.0281919955054656,0.2075858084182499,0.8296083440326625,0.5175551806081297,0.168097585439682,-0.3736116588115692,-0.912226676940918,0,0,0,-1,-1,3457.972630375,walking,2,2022-05-12T10:43:39.010+02:00,2022-05-11T22:15:20.957+02:00,1093,0.8940735,0.8098162,1.750316,819.5217,0,0,2022-05-12T10:43:39.010+02:00,674037819.0102764,0,-2.77,100.9422,1,0.93
298,2022-05-12T10:43:41.503+02:00,1652345019.999928,53.2290095882986,10.39847047069147,40.03048,0.26,0.73,29.53125,21.76081535602596,4,5,-9999,3460.464102625,-6.736099243164062,-11.39830017089844,0.528717041015625,3460.459105625,2.021349511962063,0.1439904327822077,0.7038885177932518,25.88142013549805,1.330056309700012,9.366739273071287,-11.284010887146,-3.345260143280029,4.353303909301758,XArbitraryZVertical,0.1254678810357587,0.3271646445935779,0.8063755913227184,0.4764237000680628,0.1093895062804222,-0.6471869349479675,-0.7544422149658203,0,0,0,-1,-1,3457.972630375,walking,2,2022-05-12T10:43:39.010+02:00,2022-05-11T22:15:20.957+02:00,1093,0.8940735,0.8098162,1.750316,819.5217,0,0,2022-05-12T10:43:39.010+02:00,674037819.0102764,0,-2.77,100.9422,1,0.93
299,2022-05-12T10:43:41.513+02:00,1652345019.999928,53.2290095882986,10.39847047069147,40.03048,0.26,0.73,29.53125,21.76081535602596,4,5,-9999,3460.474097625,-0.377532958984375,-12.28099060058594,-2.619781494140625,3460.469100625,2.141118904669372,0.0879605384011052,0.8913125897798414,9.415547370910645,4.329707622528076,10.91429138183594,-6.791301250457764,-10.62040328979492,1.154679536819458,XArbitraryZVertical,0.1717353569346765,0.3968952697688112,0.8000890461970389,0.4157388570636145,0.055202417075634,-0.7778972387313843,-0.6259621977806091,0,0,0,-1,-1,3457.972630375,walking,2,2022-05-12T10:43:39.010+02:00,2022-05-11T22:15:20.957+02:00,1093,0.8940735,0.8098162,1.750316,819.5217,0,0,2022-05-12T10:43:39.010+02:00,674037819.0102764,0,-2.77,100.9422,1,0.93
300,2022-05-12T10:43:41.523+02:00,1652345019.999928,53.2290095882986,10.39847047069147,40.03048,0.26,0.73,29.53125,21.76081535602596,4,5,-9999,3460.484093625,0.88433837890625,-6.4644775390625,-3.27435302734375,3460.479095625,2.295415069920408,0.000748765117457,0.9358989757508523,-0.3819014132022858,2.274684429168701,8.070316314697266,-0.3779764771461487,-11.47585868835449,-2.026686429977417,XArbitraryZVertical,0.1848898539108197,0.4114223569783398,0.8138687196412729,0.3662856684885384,0.0004440887714736,-0.8051325678825378,-0.5930947661399841,0,0,0,-1,-1,3457.972630375,walking,2,2022-05-12T10:43:39.010+02:00,2022-05-11T22:15:20.957+02:00,1093,0.8940735,0.8098162,1.750316,819.5217,0,0,2022-05-12T10:43:39.010+02:00,674037819.0102764,0,-2.77,100.9422,1,0.93
301,2022-05-12T10:43:41.533+02:00,1652345019.999928,53.2290095882986,10.39847047069147,40.03048,0.26,0.73,29.53125,21.76081535602596,4,5,-9999,3460.494088625,-1.21990966796875,-4.533584594726562,-2.847442626953125,3460.489090625,2.402786195436458,-0.0805123345132369,0.9043367970457138,-4.977572441101074,-1.00175404548645,5.214779853820801,0.9340584874153136,-5.678462505340576,-2.658148288726807,XArbitraryZVertical,0.1913837529298473,0.3940431184530446,0.8317958266444493,0.340907956499317,-0.0497195459902286,-0.7860153317451477,-0.616204559803009,0,0,0,-1,-1,3457.972630375,walking,2,2022-05-12T10:43:39.010+02:00,2022-05-11T22:15:20.957+02:00,1093,0.8940735,0.8098162,1.750316,819.5217,0,0,2022-05-12T10:43:39.010+02:00,674037819.0102764,0,-2.77,100.9422,1,0.93
302,2022-05-12T10:43:41.543+02:00,1652345019.999928,53.2290095882986,10.39847047069147,40.03048,0.26,0.73,29.53125,21.76081535602596,4,5,-9999,3460.504083625,-3.069900512695312,-4.139068603515625,-1.41650390625,3460.499085625,2.462837407937912,-0.131246428420958,0.8425199139711661,-6.169212341308594,0.5532072186470032,4.058344841003418,-1.132804155349731,-3.787262201309204,-2.187582492828369,XArbitraryZVertical,0.1922632161826751,0.3648353648750029,0.8497442890163754,0.3284277926445782,-0.0871049910783767,-0.7463226914405823,-0.6598600149154663,0,0,0,-1,-1,3457.972630375,walking,2,2022-05-12T10:43:39.010+02:00,2022-05-11T22:15:20.957+02:00,1093,0.8940735,0.8098162,1.750316,819.5217,0,0,2022-05-12T10:43:39.010+02:00,674037819.0102764,0,-2.77,100.9422,1,0.93
303,2022-05-12T10:43:41.553+02:00,1652345019.999928,53.2290095882986,10.39847047069147,40.03048,0.26,0.73,29.53125,21.76081535602596,4,5,-9999,3460.514078625,-2.493789672851562,-2.552337646484375,-0.56768798828125,3460.509081625,2.511425505434571,-0.1480556065528399,0.7799160676652684,-5.145033359527588,3.036775827407837,4.452617168426514,-2.965020656585693,-3.435849189758301,-0.7133092880249023,XArbitraryZVertical,0.1825241366876118,0.3392458462782588,0.8682699361078279,0.3125773161163335,-0.1048793271183968,-0.7032197713851929,-0.7031943798065186,0,0,0,-1,-1,3457.972630375,walking,2,2022-05-12T10:43:39.010+02:00,2022-05-11T22:15:20.957+02:00,1093,0.8940735,0.8098162,1.750316,819.5217,0,0,2022-05-12T10:43:39.010+02:00,674037819.0102764,0,-2.77,100.9422,1,0.93
304,2022-05-12T10:43:41.563+02:00,1652345019.999928,53.2290095882986,10.39847047069147,40.03048,0.26,0.73,29.53125,21.76081535602596,4,5,-9999,3460.524073625,-1.50634765625,-1.600967407226562,-0.4325103759765625,3460.519076625,2.563335529258259,-0.1462970013886944,0.733190521921343,-2.824151754379272,4.240914821624756,4.208484649658203,-2.38547158241272,-1.883094310760498,0.1674177646636963,XArbitraryZVertical,0.1673189955335349,0.323189708962566,0.8849421489459032,0.2905687445090724,-0.108317606151104,-0.6692437529563904,-0.7351055145263672,0,0,0,-1,-1,3457.972630375,walking,2,2022-05-12T10:43:39.010+02:00,2022-05-11T22:15:20.957+02:00,1093,0.8940735,0.8098162,1.750316,819.5217,0,0,2022-05-12T10:43:39.010+02:00,674037819.0102764,0,-2.77,100.9422,1,0.93
305,2022-05-12T10:43:41.579+02:00,1652345019.999928,53.2290095882986,10.39847047069147,40.03048,0.26,0.73,29.53125,21.76081535602596,4,5,-9999,3460.534069625,-1.003936767578125,-1.319976806640625,-0.427276611328125,3460.529071625,2.612854581507953,-0.1395060305587356,0.7119196352064525,-0.5090543031692505,3.430116176605225,3.922690153121948,-1.401068091392517,-0.9476794600486756,0.3172436952590942,XArbitraryZVertical,0.1538968755129199,0.3184946498098113,0.8962013286887265,0.2677692133982553,-0.1052790433168411,-0.6532883644104004,-0.7497538328170776,0,0,0,-1,-1,3457.972630375,walking,2,2022-05-12T10:43:39.010+02:00,2022-05-11T22:15:20.957+02:00,1093,0.8940735,0.8098162,1.750316,819.5217,0,0,2022-05-12T10:43:39.010+02:00,674037819.0102764,0,-2.77,100.9422,1,0.93
306,2022-05-12T10:43:41.585+02:00,1652345019.999928,53.2290095882986,10.39847047069147,40.03048,0.26,0.73,29.53125,21.76081535602596,4,5,-9999,3460.544064625,-1.35626220703125,-1.65460205078125,-0.5208282470703125,3460.539066625,2.662257579881682,-0.1416654296722905,0.7070632610170767,0.4006626009941101,2.720629215240479,3.539375782012939,-0.8965917825698853,-0.6703733801841736,0.3253803253173828,XArbitraryZVertical,0.1464766466635094,0.3197127457557296,0.9032389303587224,0.2459431490801584,-0.1073445007205009,-0.6496038436889648,-0.7526566982269287,0,0,0,-1,-1,3457.972630375,walking,2,2022-05-12T10:43:39.010+02:00,2022-05-11T22:15:20.957+02:00,1093,0.8940735,0.7186026,1.750316,819.5217,0,0,2022-05-12T10:43:41.567+02:00,674037819.0102764,0,-2.77,100.9422,1,0.93
307,2022-05-12T10:43:41.593+02:00,1652345019.999928,53.2290095882986,10.39847047069147,40.03048,0.26,0.73,29.53125,21.76081535602596,4,5,-9999,3460.554059625,-1.05316162109375,-1.529815673828125,-0.4019775390625,3460.549061625,2.706225317994977,-0.1456290697272705,0.7065433855053654,0.4735375046730042,2.110739469528198,3.154181003570557,-1.245885848999023,-1.005393981933594,0.2317313551902771,XArbitraryZVertical,0.1411672183791599,0.3221679359976505,0.9082402479902788,0.2266699947859062,-0.110375888645649,-0.6492085456848145,-0.7525593042373657,0,0,0,-1,-1,3460.528982625,walking,2,2022-05-12T10:43:41.567+02:00,2022-05-11T22:15:20.957+02:00,1093,0.8940735,0.7186026,1.750316,819.5217,0,0,2022-05-12T10:43:41.567+02:00,674037821.5666287,0,-2.689999,100.9403,1,0.93
308,2022-05-12T10:43:41.603+02:00,1652345019.999928,53.2290095882986,10.39847047069147,40.03048,0.26,0.73,29.53125,21.76081535602596,4,5,-9999,3460.564054625,-1.029327392578125,-1.317337036132812,-0.31329345703125,3460.559057625,2.748444801447985,-0.1563243499120204,0.7084728679622446,0.8922296166419983,1.292809128761292,3.174305200576782,-0.9349381923675536,-0.8791412115097046,0.3481197953224182,XArbitraryZVertical,0.1393655135014492,0.3248518591367213,0.9117505724330416,0.2091878907518195,-0.1182230263948441,-0.6506748795509338,-0.7500970363616943,0,0,0,-1,-1,3460.528982625,walking,2,2022-05-12T10:43:41.567+02:00,2022-05-11T22:15:20.957+02:00,1093,0.8940735,0.7186026,1.750316,819.5217,0,0,2022-05-12T10:43:41.567+02:00,674037821.5666287,0,-2.689999,100.9403,1,0.93
309,2022-05-12T10:43:41.613+02:00,1652345019.999928,53.2290095882986,10.39847047069147,40.03048,0.26,0.73,29.53125,21.76081535602596,4,5,-9999,3460.574049625,-1.152374267578125,-1.1224365234375,-0.281982421875,3460.569052625,2.792764791458139,-0.1743017219437125,0.7147315963142371,1.444301724433899,0.9522477984428406,3.257034063339233,-0.8983478546142578,-0.6619227528572083,0.4305320978164673,XArbitraryZVertical,0.14077646472275,0.3290430522560761,0.9138234808650662,0.1919361615140147,-0.1309791505336761,-0.6554147005081177,-0.7438253164291382,0,0,0,-1,-1,3460.528982625,walking,2,2022-05-12T10:43:41.567+02:00,2022-05-11T22:15:20.957+02:00,1093,0.8940735,0.7186026,1.750316,819.5217,0,0,2022-05-12T10:43:41.567+02:00,674037821.5666287,0,-2.689999,100.9403,1,0.93
310,2022-05-12T10:43:41.623+02:00,1652345019.999928,53.2290095882986,10.39847047069147,40.03048,0.26,0.73,29.53125,21.76081535602596,4,5,-9999,3460.584045625,-1.0465087890625,-0.9583892822265624,-0.3877716064453125,3460.579047625,2.840105537713332,-0.1968656667329723,0.7259247834179521,2.075063943862915,0.7591630220413208,3.318976402282715,-1.006090044975281,-0.4586095809936523,0.4514579772949219,XArbitraryZVertical,0.1438896869076258,0.3355230765498904,0.9145339849093156,0.1742058360077816,-0.1462838649749756,-0.6638273596763611,-0.7334400415420532,0,0,0,-1,-1,3460.528982625,walking,2,2022-05-12T10:43:41.567+02:00,2022-05-11T22:15:20.957+02:00,1093,0.8940735,0.7186026,1.750316,819.5217,0,0,2022-05-12T10:43:41.567+02:00,674037821.5666287,0,-2.689999,100.9403,1,0.93
311,2022-05-12T10:43:41.633+02:00,1652345019.999928,53.2290095882986,10.39847047069147,40.03048,0.26,0.73,29.53125,21.76081535602596,4,5,-9999,3460.594040625,-1.0001220703125,-1.03497314453125,-0.4805908203125,3460.589042625,2.890572424388686,-0.2247988407991283,0.741960929936282,2.577205181121826,0.4112377166748047,3.350138664245605,-0.8821911811828613,-0.2826550602912903,0.3308264017105103,XArbitraryZVertical,0.1488058211341551,0.3443225134221961,0.9137167529866682,0.1562714454302556,-0.1643171906471252,-0.6757346987724304,-0.7185976505279541,0,0,0,-1,-1,3460.528982625,walking,2,2022-05-12T10:43:41.567+02:00,2022-05-11T22:15:20.957+02:00,1093,0.8940735,0.7186026,1.750316,819.5217,0,0,2022-05-12T10:43:41.567+02:00,674037821.5666287,0,-2.689999,100.9403,1,0.93
312,2022-05-12T10:43:41.643+02:00,1652345019.999928,53.2290095882986,10.39847047069147,40.03048,0.26,0.73,29.53125,21.76081535602596,4,5,-9999,3460.604035625,-1.066177368164062,-1.192840576171875,-0.57049560546875,3460.599037625,2.943909165956581,-0.2583637450960785,0.7593602150067402,2.604681730270386,0.1760031133890152,3.395921468734741,-0.8148142695426941,-0.3465160131454468,0.2206137180328369,XArbitraryZVertical,0.1553332281404236,0.3539342512737671,0.9118373688799292,0.13840120553224,-0.1853074282407761,-0.6884575486183167,-0.701204240322113,0,0,0,-1,-1,3460.528982625,walking,2,2022-05-12T10:43:41.567+02:00,2022-05-11T22:15:20.957+02:00,1093,0.8940735,0.7186026,1.750316,819.5217,0,0,2022-05-12T10:43:41.567+02:00,674037821.5666287,0,-2.689999,100.9403,1,0.93
313,2022-05-12T10:43:41.653+02:00,1652345019.999928,53.2290095882986,10.39847047069147,40.03048,0.26,0.73,29.53125,21.76081535602596,4,5,-9999,3460.614030625,-1.089599609375,-1.240646362304688,-0.639923095703125,3460.609033625,2.998577895300298,-0.2951687784552869,0.7738167360838898,2.309299945831299,0.0625240951776504,3.37959098815918,-0.858110249042511,-0.4939708113670349,0.1138209700584412,XArbitraryZVertical,0.1624969426603337,0.3625419162728286,0.9097076566505718,0.120789727638714,-0.2080667465925217,-0.6988702416419983,-0.6843162178993225,0,0,0,-1,-1,3460.528982625,walking,2,2022-05-12T10:43:41.567+02:00,2022-05-11T22:15:20.957+02:00,1093,0.8940735,0.7186026,1.750316,819.5217,0,0,2022-05-12T10:43:41.567+02:00,674037821.5666287,0,-2.689999,100.9403,1,0.93
314,2022-05-12T10:43:41.663+02:00,1652345019.999928,53.2290095882986,10.39847047069147,40.03048,0.26,0.73,29.53125,21.76081535602596,4,5,-9999,3460.624025625,-1.129379272460938,-1.142181396484375,-0.7023162841796875,3460.619028625,3.052483117046831,-0.3324511048140547,0.7842624012716325,2.070788145065308,0.0723514258861541,3.269637823104858,-0.8585653305053711,-0.5343436002731323,0.0292253494262695,XArbitraryZVertical,0.1695370538236937,0.3697068156436917,0.907638587658504,0.1037616125781023,-0.2310339957475662,-0.7063032388687134,-0.6691480875015259,0,0,0,-1,-1,3460.528982625,walking,2,2022-05-12T10:43:41.567+02:00,2022-05-11T22:15:20.957+02:00,1093,0.8940735,0.7186026,1.750316,819.5217,0,0,2022-05-12T10:43:41.567+02:00,674037821.5666287,0,-2.689999,100.9403,1,0.93
315,2022-05-12T10:43:41.673+02:00,1652345019.999928,53.2290095882986,10.39847047069147,40.03048,0.26,0.73,29.53125,21.76081535602596,4,5,-9999,3460.634021625,-1.177261352539062,-1.040374755859375,-0.7310333251953125,3460.629023625,3.104943844450136,-0.3686687202595352,0.7922421254512945,1.980823159217834,0.1356633454561234,3.134216547012329,-0.8763059973716736,-0.4302523136138916,-0.0472506284713745,XArbitraryZVertical,0.1760206523813147,0.3761437098127262,0.9054869917676068,0.087328168930908,-0.2530729472637177,-0.7119296193122864,-0.6550652980804443,0,0,0,-1,-1,3460.528982625,walking,2,2022-05-12T10:43:41.567+02:00,2022-05-11T22:15:20.957+02:00,1093,0.8940735,0.7186026,1.750316,819.5217,0,0,2022-05-12T10:43:41.567+02:00,674037821.5666287,0,-2.689999,100.9403,1,0.93
316,2022-05-12T10:43:41.683+02:00,1652345019.999928,53.2290095882986,10.39847047069147,40.03048,0.26,0.73,29.53125,21.76081535602596,4,5,-9999,3460.644016625,-1.1990966796875,-1.036392211914062,-0.67840576171875,3460.639018625,-3.127166385081335,-0.4031659730458946,0.7986928652969241,1.901447176933289,0.27288618683815,3.010352611541748,-0.9035527110099792,-0.3239304423332214,-0.0893237590789794,XArbitraryZVertical,0.1817136384854018,0.3822637118506464,0.903197608778695,0.0713359990117499,-0.273708313703537,-0.7164447903633118,-0.6417092084884644,0,0,0,-1,-1,3460.528982625,walking,2,2022-05-12T10:43:41.567+02:00,2022-05-11T22:15:20.957+02:00,1093,0.8940735,0.7186026,1.750316,819.5217,0,0,2022-05-12T10:43:41.567+02:00,674037821.5666287,0,-2.689999,100.9403,1,0.93
317,2022-05-12T10:43:41.693+02:00,1652345019.999928,53.2290095882986,10.39847047069147,40.03048,0.26,0.73,29.53125,21.76081535602596,4,5,-9999,3460.654011625,-1.187164306640625,-1.036697387695312,-0.645782470703125,3460.649013625,-3.077718258803829,-0.4351303369662543,0.8032311207063353,1.720396399497986,0.429157942533493,2.916500091552734,-0.9063931703567504,-0.3167892098426819,-0.0487263202667236,XArbitraryZVertical,0.1863881830684715,0.3878400760258459,0.9009684390583202,0.0556369767310495,-0.292703241109848,-0.7196034789085388,-0.6296790242195129,0,0,0,-1,-1,3460.528982625,walking,2,2022-05-12T10:43:41.567+02:00,2022-05-11T22:15:20.957+02:00,1093,0.8940735,0.7186026,1.750316,819.5217,0,0,2022-05-12T10:43:41.567+02:00,674037821.5666287,0,-2.689999,100.9403,1,0.93
318,2022-05-12T10:43:41.703+02:00,1652345019.999928,53.2290095882986,10.39847047069147,40.03048,0.26,0.73,29.53125,21.76081535602596,4,5,-9999,3460.664006625,-1.153488159179688,-1.005813598632812,-0.64263916015625,3460.659009625,-3.030049282508806,-0.4646540803200431,0.8052801509506439,1.527662396430969,0.5260394811630249,2.866867065429688,-0.8766618967056274,-0.3156731128692627,-0.0263372659683227,XArbitraryZVertical,0.1902448105423263,0.3925360148794078,0.8989486706724216,0.0401727986785955,-0.3105021119117737,-0.7210248112678528,-0.6194447875022888,0,0,0,-1,-1,3460.528982625,walking,2,2022-05-12T10:43:41.567+02:00,2022-05-11T22:15:20.957+02:00,1093,0.8940735,0.7186026,1.750316,819.5217,0,0,2022-05-12T10:43:41.567+02:00,674037821.5666287,0,-2.689999,100.9403,1,0.93
319,2022-05-12T10:43:41.713+02:00,1652345019.999928,53.2290095882986,10.39847047069147,40.03048,0.26,0.73,29.53125,21.76081535602596,4,5,-9999,3460.674001625,-1.1234130859375,-0.9999542236328124,-0.6084136962890625,3460.669004625,-2.984073217845128,-0.492209575188091,0.8046613243827304,1.280143260955811,0.5975309610366821,2.853585243225098,-0.8258259296417236,-0.2852182388305664,-0.0315910577774047,XArbitraryZVertical,0.193600220674294,0.396226044351956,0.8971648252884183,0.0248856174934116,-0.3276619613170624,-0.7205958366394043,-0.6110477447509766,0,0,0,-1,-1,3460.528982625,walking,2,2022-05-12T10:43:41.567+02:00,2022-05-11T22:15:20.957+02:00,1093,0.8940735,0.7186026,1.750316,819.5217,0,0,2022-05-12T10:43:41.567+02:00,674037821.5666287,0,-2.689999,100.9403,1,0.93
320,2022-05-12T10:43:41.723+02:00,1652345019.999928,53.2290095882986,10.39847047069147,40.03048,0.26,0.73,29.53125,21.76081535602596,4,5,-9999,3460.683997625,-1.101593017578125,-0.997222900390625,-0.57861328125,3460.678999625,-2.940504577035414,-0.5170146958451254,0.80064783628139,0.9357572197914124,0.7212638258934021,2.830500364303589,-0.7792693376541138,-0.2821474671363831,-0.0031710863113403,XArbitraryZVertical,0.1964188024706666,0.3984953742433718,0.8958382142560916,0.0097559990853981,-0.3441435098648071,-0.7178072929382324,-0.6052421927452087,0,0,0,-1,-1,3460.528982625,walking,2,2022-05-12T10:43:41.567+02:00,2022-05-11T22:15:20.957+02:00,1093,0.8940735,0.7186026,1.750316,819.5217,0,0,2022-05-12T10:43:41.567+02:00,674037821.5666287,0,-2.689999,100.9403,1,0.93
321,2022-05-12T10:43:41.734+02:00,1652345019.999928,53.2290095882986,10.39847047069147,40.03048,0.26,0.73,29.53125,21.76081535602596,4,5,-9999,3460.693992625,-1.030105590820312,-0.947021484375,-0.576629638671875,3460.688994625,-2.9001708387691,-0.5379357290330313,0.7932387336543915,0.6362605690956116,0.8563754558563232,2.78971004486084,-0.7421481609344482,-0.2845942974090576,0.0238482952117919,XArbitraryZVertical,0.1984791746929791,0.3992185571586879,0.8950999698207701,-0.0051691230925711,-0.3594446182250977,-0.7126291394233704,-0.6024610996246338,0,0,0,-1,-1,3460.528982625,walking,2,2022-05-12T10:43:41.567+02:00,2022-05-11T22:15:20.957+02:00,1093,0.8940735,0.7186026,1.750316,819.5217,0,0,2022-05-12T10:43:41.567+02:00,674037821.5666287,0,-2.689999,100.9403,1,0.93
322,2022-05-12T10:43:41.743+02:00,1652345019.999928,53.2290095882986,10.39847047069147,40.03048,0.26,0.73,29.53125,21.76081535602596,4,5,-9999,3460.703987625,-0.9644775390625,-0.932220458984375,-0.55133056640625,3460.698989625,-2.862731031055018,-0.5555989065258347,0.7831171387007245,0.3795640468597412,0.9187152981758118,2.781796216964722,-0.6562905311584473,-0.2415300011634827,0.0254867076873779,XArbitraryZVertical,0.2000191185727845,0.3986657612684316,0.8947973846573013,-0.019893463527376,-0.3738148510456085,-0.7054920196533203,-0.6021159291267395,0,0,0,-1,-1,3460.528982625,walking,2,2022-05-12T10:43:41.567+02:00,2022-05-11T22:15:20.957+02:00,1093,0.8940735,0.7186026,1.750316,819.5217,0,0,2022-05-12T10:43:41.567+02:00,674037821.5666287,0,-2.689999,100.9403,1,0.93
323,2022-05-12T10:43:41.753+02:00,1652345019.999928,53.2290095882986,10.39847047069147,40.03048,0.26,0.73,29.53125,21.76081535602596,4,5,-9999,3460.713982625,-0.9176177978515624,-0.9078521728515624,-0.5233917236328125,3460.708985625,-2.828032896371623,-0.5704684302417321,0.7704019456353322,0.1169378757476807,0.973115086555481,2.762118339538574,-0.5769377946853638,-0.2357972264289856,0.0526624917984008,XArbitraryZVertical,0.2012672916105956,0.3968566062448109,0.8948808080103422,-0.0344193469401725,-0.3875395655632019,-0.6964237689971924,-0.6039926409721375,0,0,0,-1,-1,3460.528982625,walking,2,2022-05-12T10:43:41.567+02:00,2022-05-11T22:15:20.957+02:00,1093,0.8940735,0.7186026,1.750316,819.5217,0,0,2022-05-12T10:43:41.567+02:00,674037821.5666287,0,-2.689999,100.9403,1,0.93
324,2022-05-12T10:43:41.763+02:00,1652345019.999928,53.2290095882986,10.39847047069147,40.03048,0.26,0.73,29.53125,21.76081535602596,4,5,-9999,3460.723977625,-0.8649749755859375,-0.8507080078125,-0.4903717041015625,3460.718980625,-2.796126391489164,-0.5826351692978905,0.7555421342092835,-0.0900584459304809,1.004478931427002,2.726404905319214,-0.5171079635620117,-0.2221692800521851,0.0844165682792663,XArbitraryZVertical,0.2022649340528576,0.3939352476625045,0.8952853935668122,-0.0486628038864282,-0.4005096554756165,-0.6856833696365356,-0.6078078150749207,0,0,0,-1,-1,3460.528982625,walking,2,2022-05-12T10:43:41.567+02:00,2022-05-11T22:15:20.957+02:00,1093,0.8940735,0.7186026,1.750316,819.5217,0,0,2022-05-12T10:43:41.567+02:00,674037821.5666287,0,-2.689999,100.9403,1,0.93
325,2022-05-12T10:43:41.773+02:00,1652345019.999928,53.2290095882986,10.39847047069147,40.03048,0.26,0.73,29.53125,21.76081535602596,4,5,-9999,3460.733973625,-0.827545166015625,-0.7970733642578125,-0.4489288330078125,3460.728975625,-2.767087772336711,-0.5921423931782313,0.7388112724764133,-0.3288157284259796,1.048308372497559,2.670650482177734,-0.4523589015007019,-0.1772989630699158,0.1230353713035583,XArbitraryZVertical,0.2030359297186475,0.3899654933019521,0.8959863491240779,-0.0625453824019047,-0.4126159250736237,-0.6734095811843872,-0.6134066581726074,0,0,0,-1,-1,3460.528982625,walking,2,2022-05-12T10:43:41.567+02:00,2022-05-11T22:15:20.957+02:00,1093,0.8940735,0.7186026,1.750316,819.5217,0,0,2022-05-12T10:43:41.567+02:00,674037821.5666287,0,-2.689999,100.9403,1,0.93
326,2022-05-12T10:43:41.783+02:00,1652345019.999928,53.2290095882986,10.39847047069147,40.03048,0.26,0.73,29.53125,21.76081535602596,4,5,-9999,3460.743968625,-0.8055419921875,-0.70654296875,-0.4534912109375,3460.738970625,-2.740663119852577,-0.599083528267513,0.7210108385225215,-0.3866710364818573,1.085450410842896,2.588676929473877,-0.4039884805679321,-0.1369296312332153,0.1714016795158386,XArbitraryZVertical,0.2034716352946787,0.3852716473825748,0.8968754940135211,-0.0760231492457571,-0.4235565662384033,-0.6601442694664001,-0.6203300952911377,0,0,0,-1,-1,3460.528982625,walking,2,2022-05-12T10:43:41.567+02:00,2022-05-11T22:15:20.957+02:00,1093,0.8940735,0.7186026,1.750316,819.5217,0,0,2022-05-12T10:43:41.567+02:00,674037821.5666287,0,-2.689999,100.9403,1,0.93
327,2022-05-12T10:43:41.793+02:00,1652345020.99993,53.22900594217072,10.39847047069147,40.18991,0.18,0.73,29.53125,21.88673160092244,4,5,-9999,3460.753963625,-0.813323974609375,-0.6894989013671875,-0.44317626953125,3460.748965625,-2.71563811188448,-0.6044649969376067,0.7035892726444316,-0.3293192386627197,1.110424757003784,2.512486696243286,-0.3721821308135986,-0.0595847368240356,0.1739196181297302,XArbitraryZVertical,0.2035759233602488,0.3805937911006635,0.8976367408409385,-0.0891833893162218,-0.4333597421646118,-0.6469587683677673,-0.6274104118347168,0,0,0,-1,-1,3460.528982625,walking,2,2022-05-12T10:43:41.567+02:00,2022-05-11T22:15:20.957+02:00,1093,0.8940735,0.7186026,1.750316,819.5217,0,0,2022-05-12T10:43:41.567+02:00,674037821.5666287,0,-2.689999,100.9403,1,0.93
328,2022-05-12T10:43:41.803+02:00,1652345020.99993,53.22900594217072,10.39847047069147,40.18991,0.18,0.73,29.53125,21.88673160092244,4,5,-9999,3460.763958625,-0.84454345703125,-0.7058868408203125,-0.4289093017578125,3460.758961625,-2.691298156607507,-0.608948178596788,0.6869874544618229,-0.2678516209125519,1.112301707267761,2.454497337341309,-0.371072381734848,-0.055288553237915,0.1910088658332825,XArbitraryZVertical,0.2034267901719261,0.3761983307324583,0.8981442003084362,-0.1021247354352429,-0.4422515034675598,-0.6342108845710754,-0.634184718132019,0,0,0,-1,-1,3460.528982625,walking,2,2022-05-12T10:43:41.567+02:00,2022-05-11T22:15:20.957+02:00,1093,0.8940735,0.7186026,1.750316,819.5217,0,0,2022-05-12T10:43:41.567+02:00,674037821.5666287,0,-2.689999,100.9403,1,0.93
329,2022-05-12T10:43:41.813+02:00,1652345020.99993,53.22900594217072,10.39847047069147,40.18991,0.18,0.73,29.53125,21.88673160092244,4,5,-9999,3460.773953625,-0.88055419921875,-0.6685943603515625,-0.4362335205078125,3460.768956625,-2.667496405372688,-0.6126067004170318,0.6712877310918036,-0.1734375357627869,1.156064391136169,2.386343240737915,-0.3943044245243073,-0.0838925242424011,0.211721658706665,XArbitraryZVertical,0.2029992746487998,0.3721237102133128,0.8983989443944084,-0.1148680790815639,-0.4502389430999756,-0.6219948530197144,-0.6406304836273193,0,0,0,-1,-1,3460.528982625,walking,2,2022-05-12T10:43:41.567+02:00,2022-05-11T22:15:20.957+02:00,1093,0.8940735,0.7186026,1.750316,819.5217,0,0,2022-05-12T10:43:41.567+02:00,674037821.5666287,0,-2.689999,100.9403,1,0.93
330,2022-05-12T10:43:41.823+02:00,1652345020.99993,53.22900594217072,10.39847047069147,40.18991,0.18,0.73,29.53125,21.88673160092244,4,5,-9999,3460.783949625,-0.8888702392578125,-0.6905517578125,-0.4449462890625,3460.778951625,-2.643991748903292,-0.6152570822914466,0.6565091085484532,-0.1245661228895187,1.202698469161987,2.347743034362793,-0.4233629405498505,-0.0582395792007446,0.2106383442878723,XArbitraryZVertical,0.2021467044211462,0.3683761519894455,0.8984264785922248,-0.1275371606365157,-0.4571911990642548,-0.6103553175926208,-0.6468714475631714,0,0,0,-1,-1,3460.528982625,walking,2,2022-05-12T10:43:41.567+02:00,2022-05-11T22:15:20.957+02:00,1093,0.8940735,0.7186026,1.750316,819.5217,0,0,2022-05-12T10:43:41.567+02:00,674037821.5666287,0,-2.689999,100.9403,1,0.93
331,2022-05-12T10:43:41.833+02:00,1652345020.99993,53.22900594217072,10.39847047069147,40.18991,0.18,0.73,29.53125,21.88673160092244,4,5,-9999,3460.793944625,-0.888092041015625,-0.7161865234375,-0.4709930419921875,3460.788946625,-2.621158075585774,-0.6170267076079833,0.641933150002897,-0.1522496938705444,1.203601002693176,2.310746431350708,-0.4254361987113953,-0.0918074250221252,0.2083026170730591,XArbitraryZVertical,0.2010967693312007,0.3646036705512817,0.8983368961252799,-0.1400543720612596,-0.4634339809417725,-0.5987448692321777,-0.6532484889030457,0,0,0,-1,-1,3460.528982625,walking,2,2022-05-12T10:43:41.567+02:00,2022-05-11T22:15:20.957+02:00,1093,0.8940735,0.7186026,1.750316,819.5217,0,0,2022-05-12T10:43:41.567+02:00,674037821.5666287,0,-2.689999,100.9403,1,0.93
332,2022-05-12T10:43:41.843+02:00,1652345020.99993,53.22900594217072,10.39847047069147,40.18991,0.18,0.73,29.53125,21.88673160092244,4,5,-9999,3460.803939625,-0.873321533203125,-0.721710205078125,-0.4857025146484375,3460.798941625,-2.599104526260067,-0.6181014298500976,0.6273724035100812,-0.1637939512729645,1.196552753448486,2.272613763809204,-0.418953537940979,-0.1291675567626953,0.1887931227684021,XArbitraryZVertical,0.1999771761576436,0.3607162981329164,0.8981532069323088,-0.1523609962791377,-0.4691384732723236,-0.5870195627212524,-0.6597857475280762,0,0,0,-1,-1,3460.528982625,walking,2,2022-05-12T10:43:41.567+02:00,2022-05-11T22:15:20.957+02:00,1093,0.8940735,0.7186026,1.750316,819.5217,0,0,2022-05-12T10:43:41.567+02:00,674037821.5666287,0,-2.689999,100.9403,1,0.93
