,loggingTime(txt),locationTimestamp_since1970(s),locationLatitude(WGS84),locationLongitude(WGS84),locationAltitude(m),locationSpeed(m/s),locationSpeedAccuracy(m/s),locationCourse(°),locationCourseAccuracy(°),locationVerticalAccuracy(m),locationHorizontalAccuracy(m),locationFloor(Z),accelerometerTimestamp_sinceReboot(s),accelerometerAccelerationX(G),accelerometerAccelerationY(G),accelerometerAccelerationZ(G),motionTimestamp_sinceReboot(s),motionYaw(rad),motionRoll(rad),motionPitch(rad),motionRotationRateX(rad/s),motionRotationRateY(rad/s),motionRotationRateZ(rad/s),motionUserAccelerationX(G),motionUserAccelerationY(G),motionUserAccelerationZ(G),motionAttitudeReferenceFrame(txt),motionQuaternionX(R),motionQuaternionY(R),motionQuaternionZ(R),motionQuaternionW(R),motionGravityX(G),motionGravityY(G),motionGravityZ(G),motionMagneticFieldX(µT),motionMagneticFieldY(µT),motionMagneticFieldZ(µT),motionHeading(°),motionMagneticFieldCalibrationAccuracy(Z),activityTimestamp_sinceReboot(s),activity(txt),activityActivityConfidence(Z),activityActivityStartDate(txt),pedometerStartDate(txt),pedometerNumberofSteps(N),pedometerAverageActivePace(s/m),pedometerCurrentPace(s/m),pedometerCurrentCadence(steps/s),pedometerDistance(m),pedometerFloorAscended(N),pedometerFloorDescended(N),pedometerEndDate(txt),altimeterTimestamp_sinceReboot(s),altimeterReset(bool),altimeterRelativeAltitude(m),altimeterPressure(kPa),batteryState(N),batteryLevel(R)
309,2022-06-02T10:46:07.233+02:00,1654159566.999791,53.2290795889087,10.39852458592297,36.22148,0.197042,0.3980708,108.6040376148132,13.21699164056056,2.400000095367432,7.999579855010836,-9999,2711.511354666667,1.287216186523438,0.90673828125,1.202484130859375,2711.501360666667,-0.6216194376430648,1.609264043917673,-0.0145901773904943,-0.9854215979576112,4.116522789001465,2.594966411590576,0.1594460010528564,0.822187066078186,0.8935984373092651,XArbitraryZVertical,0.215551692048509,0.6875787477222961,-0.2170541861718447,0.658528885997074,0.999153733253479,0.0145896598696708,0.038454134017229,0,0,0,-1,-1,2707.078338541667,unknown,2,2022-06-02T10:46:02.800+02:00,2022-06-02T10:17:13.754+02:00,448,1.415149,0,0,345.1212,0,0,2022-06-02T10:46:05.354+02:00,675852365.353566,0,7.121094,101.2956,1,0.81
310,2022-06-02T10:46:07.243+02:00,1654159566.999791,53.2290795889087,10.39852458592297,36.22148,0.197042,0.3980708,108.6040376148132,13.21699164056056,2.400000095367432,7.999579855010836,-9999,2711.521349666667,1.3209228515625,0.813934326171875,1.3682861328125,2711.511354666667,-0.6115184661458398,1.652330776949263,0.0115748742942225,-1.396729946136475,4.4927077293396,2.528215646743774,0.2569898962974548,0.9181298017501832,1.03381085395813,XArbitraryZVertical,0.2250859813164585,0.7000397430103469,-0.1999378209777549,0.6475380113837786,0.9966110587120056,-0.0115746157243847,0.0814386829733848,0,0,0,-1,-1,2707.078338541667,unknown,2,2022-06-02T10:46:02.800+02:00,2022-06-02T10:17:13.754+02:00,448,1.415149,0,0,345.1212,0,0,2022-06-02T10:46:05.354+02:00,675852365.353566,0,7.121094,101.2956,1,0.81
311,2022-06-02T10:46:07.253+02:00,1654159566.999791,53.2290795889087,10.39852458592297,36.22148,0.197042,0.3980708,108.6040376148132,13.21699164056056,2.400000095367432,7.999579855010836,-9999,2711.531343666667,1.29498291015625,0.733673095703125,1.563201904296875,2711.521349666667,-0.5969595018896263,1.699095167410947,0.0381628854871338,-2.06584095954895,4.952889442443848,2.443081378936768,0.3239588141441345,0.9129247069358826,1.162169814109802,XArbitraryZVertical,0.2328412202119949,0.7139411436073373,-0.1804487972183663,0.6352252916132471,0.9910587668418884,-0.0381536222994327,0.1278539746999741,0,0,0,-1,-1,2707.078338541667,unknown,2,2022-06-02T10:46:02.800+02:00,2022-06-02T10:17:13.754+02:00,448,1.415149,0,0,345.1212,0,0,2022-06-02T10:46:05.354+02:00,675852365.353566,0,7.121094,101.2956,1,0.81
312,2022-06-02T10:46:07.263+02:00,1654159566.999791,53.2290795889087,10.39852458592297,36.22148,0.197042,0.3980708,108.6040376148132,13.21699164056056,2.400000095367432,7.999579855010836,-9999,2711.541338666667,1.311767578125,0.8341064453125,1.742706298828125,2711.531343666667,-0.5764466758712562,1.750242417055772,0.0648478966087513,-2.844137668609619,5.475851535797119,2.213236093521118,0.3245524764060974,0.8148634433746338,1.276129364967346,XArbitraryZVertical,0.2380010440742755,0.7296644578160422,-0.1582222544366168,0.6212173733187806,0.9818745851516724,-0.0648024529218673,0.1781094372272491,0,0,0,-1,-1,2707.078338541667,unknown,2,2022-06-02T10:46:02.800+02:00,2022-06-02T10:17:13.754+02:00,448,1.415149,0,0,345.1212,0,0,2022-06-02T10:46:05.354+02:00,675852365.353566,0,7.121094,101.2956,1,0.81
313,2022-06-02T10:46:07.273+02:00,1654159566.999791,53.2290795889087,10.39852458592297,36.22148,0.197042,0.3980708,108.6040376148132,13.21699164056056,2.400000095367432,7.999579855010836,-9999,2711.551332666667,1.270217895507812,0.8557281494140625,1.850296020507812,2711.541338666667,-0.5488480519133355,1.805498710490668,0.0927555000404808,-3.647310733795166,6.02256441116333,2.128565073013306,0.3360711336135864,0.8746049404144287,1.43549919128418,XArbitraryZVertical,0.2401533212266331,0.7470631257844227,-0.1326537558870802,0.605496542504782,0.9684027433395386,-0.0926225557923317,0.2315538674592972,0,0,0,-1,-1,2707.078338541667,unknown,2,2022-06-02T10:46:02.800+02:00,2022-06-02T10:17:13.754+02:00,448,1.415149,0,0,345.1212,0,0,2022-06-02T10:46:05.354+02:00,675852365.353566,0,7.121094,101.2956,1,0.81
314,2022-06-02T10:46:07.283+02:00,1654159566.999791,53.2290795889087,10.39852458592297,36.22148,0.197042,0.3980708,108.6040376148132,13.21699164056056,2.400000095367432,7.999579855010836,-9999,2711.561327666667,1.217300415039062,0.9879302978515624,2.080856323242188,2711.551332666667,-0.5175996660293439,1.865678378819522,0.1221054044191215,-3.814251899719238,6.686402797698975,1.900005102157593,0.3464304208755493,0.9720523953437804,1.507465720176697,XArbitraryZVertical,0.2403291071904196,0.7658155601234284,-0.1047491882731765,0.5871933782543868,0.9497122168540956,-0.1218022033572197,0.2884631156921387,0,0,0,-1,-1,2707.078338541667,unknown,2,2022-06-02T10:46:02.800+02:00,2022-06-02T10:17:13.754+02:00,448,1.415149,0,0,345.1212,0,0,2022-06-02T10:46:05.354+02:00,675852365.353566,0,7.121094,101.2956,1,0.81
315,2022-06-02T10:46:07.293+02:00,1654159566.999791,53.2290795889087,10.39852458592297,36.22148,0.197042,0.3980708,108.6040376148132,13.21699164056056,2.400000095367432,7.999579855010836,-9999,2711.571321666667,1.13543701171875,1.018157958984375,2.391571044921875,2711.561327666667,-0.4864503570005495,1.93164960334631,0.1509677031616677,-3.913747549057007,7.361114978790283,1.593124032020569,0.3176755309104919,1.052067279815674,1.601474046707153,XArbitraryZVertical,0.2391538415977096,0.7857059377428266,-0.0763794345164084,0.5653650551613765,0.9249542355537416,-0.1503949016332626,0.349056750535965,0,0,0,-1,-1,2707.078338541667,unknown,2,2022-06-02T10:46:02.800+02:00,2022-06-02T10:17:13.754+02:00,448,1.415149,0,0,345.1212,0,0,2022-06-02T10:46:05.354+02:00,675852365.353566,0,7.121094,101.2956,1,0.81
316,2022-06-02T10:46:07.303+02:00,1654159566.999791,53.2290795889087,10.39852458592297,36.22148,0.197042,0.3980708,108.6040376148132,13.21699164056056,2.400000095367432,7.999579855010836,-9999,2711.581316666667,1.034164428710938,0.9435882568359376,2.935073852539062,2711.571321666667,-0.4548777834292632,2.003991328081439,0.1790848359639104,-3.992712020874023,8.158414840698242,1.173106789588928,0.2904037833213806,1.21552836894989,1.801021337509155,XArbitraryZVertical,0.2361438287192537,0.806700584354369,-0.0475609290297301,0.5396371780697455,0.8931136727333069,-0.1781291216611862,0.4130594730377197,0,0,0,-1,-1,2707.078338541667,unknown,2,2022-06-02T10:46:02.800+02:00,2022-06-02T10:17:13.754+02:00,448,1.415149,0,0,345.1212,0,0,2022-06-02T10:46:05.354+02:00,675852365.353566,0,7.121094,101.2956,1,0.81
317,2022-06-02T10:46:07.313+02:00,1654159566.999791,53.2290795889087,10.39852458592297,36.22148,0.197042,0.3980708,108.6040376148132,13.21699164056056,2.400000095367432,7.999579855010836,-9999,2711.591310666667,0.8990478515625,1.040298461914062,3.644607543945312,2711.581316666667,-0.4230541511974782,2.08371639122693,0.2046213636768556,-3.902167081832886,8.995559692382812,0.4968490302562714,0.2342644333839417,1.175089716911316,2.152494192123413,XArbitraryZVertical,0.2307028178796997,0.8288662671686855,-0.0191819734337301,0.5093024455958338,0.8531379103660583,-0.2031964361667633,0.4804861545562744,0,0,0,-1,-1,2707.078338541667,unknown,2,2022-06-02T10:46:02.800+02:00,2022-06-02T10:17:13.754+02:00,448,1.415149,0,0,345.1212,0,0,2022-06-02T10:46:05.354+02:00,675852365.353566,0,7.121094,101.2956,1,0.81
318,2022-06-02T10:46:07.323+02:00,1654159566.999791,53.2290795889087,10.39852458592297,36.22148,0.197042,0.3980708,108.6040376148132,13.21699164056056,2.400000095367432,7.999579855010836,-9999,2711.601305666667,0.6697235107421875,1.177825927734375,4.317138671875,2711.591310666667,-0.3887507684597401,2.169994084427569,0.2265470617754128,-4.125399112701416,9.722579002380373,-0.3060914278030396,0.1676176786422729,1.199406623840332,2.742423057556152,XArbitraryZVertical,0.2214938782956315,0.8518949525317665,0.0084632136181475,0.4744930761319504,0.8046874403953552,-0.2246141582727432,0.5495690703392029,0,0,0,-1,-1,2707.078338541667,unknown,2,2022-06-02T10:46:02.800+02:00,2022-06-02T10:17:13.754+02:00,448,1.415149,0,0,345.1212,0,0,2022-06-02T10:46:05.354+02:00,675852365.353566,0,7.121094,101.2956,1,0.81
319,2022-06-02T10:46:07.333+02:00,1654159566.999791,53.2290795889087,10.39852458592297,36.22148,0.197042,0.3980708,108.6040376148132,13.21699164056056,2.400000095367432,7.999579855010836,-9999,2711.611299666667,0.4566650390625,1.485580444335938,5.08203125,2711.601305666667,-0.3494268834894712,2.26147106983348,0.2451736486816448,-4.225376605987549,10.42567920684814,-1.355262637138367,0.0490182638168335,1.336551070213318,3.365056276321411,XArbitraryZVertical,0.2073822624416841,0.8752118012547976,0.0354525149747747,0.4355914124257594,0.747765064239502,-0.2427247911691666,0.6180062294006348,0,0,0,-1,-1,2707.078338541667,unknown,2,2022-06-02T10:46:02.800+02:00,2022-06-02T10:17:13.754+02:00,448,1.415149,0,0,345.1212,0,0,2022-06-02T10:46:05.354+02:00,675852365.353566,0,7.121094,101.2956,1,0.81
320,2022-06-02T10:46:07.343+02:00,1654159566.999791,53.2290795889087,10.39852458592297,36.22148,0.197042,0.3980708,108.6040376148132,13.21699164056056,2.400000095367432,7.999579855010836,-9999,2711.621294666667,0.41595458984375,1.681167602539062,6.07647705078125,2711.611299666667,-0.3013305081477467,2.357434889958411,0.2603318657931218,-4.762944221496582,11.15640354156494,-2.717183351516724,-0.1341231465339661,1.584686994552612,3.990143060684204,XArbitraryZVertical,0.1865682672805267,0.8984742653589506,0.0617222731913292,0.3925895424704358,0.6824323534965515,-0.2574012577533722,0.6841274499893188,0,0,0,-1,-1,2707.078338541667,unknown,2,2022-06-02T10:46:02.800+02:00,2022-06-02T10:17:13.754+02:00,448,1.415149,0,0,345.1212,0,0,2022-06-02T10:46:05.354+02:00,675852365.353566,0,7.121094,101.2956,1,0.81
321,2022-06-02T10:46:07.353+02:00,1654159566.999791,53.2290795889087,10.39852458592297,36.22148,0.197042,0.3980708,108.6040376148132,13.21699164056056,2.400000095367432,7.999579855010836,-9999,2711.631288666667,0.6343536376953125,2.12908935546875,6.985824584960938,2711.621294666667,-0.236464280648456,2.453333900643284,0.2744870355632708,-5.778435707092285,11.38767242431641,-4.781401634216309,-0.20461505651474,1.856258392333984,4.820967674255371,XArbitraryZVertical,0.155832263299012,0.9205628759685822,0.0884707922760006,0.3470634229022739,0.6114141941070557,-0.2710532248020172,0.7434393763542175,0,0,0,-1,-1,2707.078338541667,unknown,2,2022-06-02T10:46:02.800+02:00,2022-06-02T10:17:13.754+02:00,448,1.415149,0,0,345.1212,0,0,2022-06-02T10:46:05.354+02:00,675852365.353566,0,7.121094,101.2956,1,0.81
322,2022-06-02T10:46:07.363+02:00,1654159566.999791,53.2290795889087,10.39852458592297,36.22148,0.197042,0.3980708,108.6040376148132,13.21699164056056,2.400000095367432,7.999579855010836,-9999,2711.641283666667,0.7641448974609375,2.60186767578125,8.264328002929688,2711.631288666667,-0.1466261339214693,2.541053369054172,0.290195849581686,-7.089119434356689,11.05962657928467,-7.147190570831299,-0.042573869228363,2.151282787322998,5.751945495605469,XArbitraryZVertical,0.1118862553308169,0.9395471234018362,0.1163116188691346,0.3020004433450693,0.5414599776268005,-0.2861399054527283,0.7905346751213074,0,0,0,-1,-1,2707.078338541667,unknown,2,2022-06-02T10:46:02.800+02:00,2022-06-02T10:17:13.754+02:00,448,1.415149,0,0,345.1212,0,0,2022-06-02T10:46:05.354+02:00,675852365.353566,0,7.121094,101.2956,1,0.81
323,2022-06-02T10:46:07.373+02:00,1654159566.999791,53.2290795889087,10.39852458592297,36.22148,0.197042,0.3980708,108.6040376148132,13.21699164056056,2.400000095367432,7.999579855010836,-9999,2711.651278666667,0.432281494140625,2.820114135742188,9.51263427734375,2711.641283666667,-0.0299414772123763,2.608031536543834,0.310123807730402,-8.175520896911621,8.95294189453125,-9.634417533874512,0.2665600478649139,2.690354108810425,6.729647636413574,XArbitraryZVertical,0.0549777074311298,0.9523346920201724,0.1450619595476323,0.2626652562758962,0.4843401312828064,-0.3051765263080597,0.8199278116226196,0,0,0,-1,-1,2707.078338541667,unknown,2,2022-06-02T10:46:02.800+02:00,2022-06-02T10:17:13.754+02:00,448,1.415149,0,0,345.1212,0,0,2022-06-02T10:46:05.354+02:00,675852365.353566,0,7.121094,101.2956,1,0.81
324,2022-06-02T10:46:07.383+02:00,1654159566.999791,53.2290795889087,10.39852458592297,36.22148,0.197042,0.3980708,108.6040376148132,13.21699164056056,2.400000095367432,7.999579855010836,-9999,2711.661272666667,-0.0829925537109375,2.964828491210938,10.78182983398438,2711.651278666667,0.1165852677212993,2.637285134575247,0.3276286726128426,-8.426549911499023,6.159401416778564,-13.01067161560059,0.1915794909000397,3.089956760406494,8.102014541625977,XArbitraryZVertical,-0.0150436034704107,0.9561606618110802,0.1719979298853749,0.2365312822769616,0.4574987590312958,-0.3217987418174744,0.8289390206336975,0,0,0,-1,-1,2707.078338541667,unknown,2,2022-06-02T10:46:02.800+02:00,2022-06-02T10:17:13.754+02:00,448,1.415149,0,0,345.1212,0,0,2022-06-02T10:46:05.354+02:00,675852365.353566,0,7.121094,101.2956,1,0.81
325,2022-06-02T10:46:07.393+02:00,1654159566.999791,53.2290795889087,10.39852458592297,36.22148,0.197042,0.3980708,108.6040376148132,13.21699164056056,2.400000095367432,7.999579855010836,-9999,2711.671267666667,-0.874542236328125,4.521881103515625,11.86122131347656,2711.661272666667,0.2953837892123634,2.622591166795697,0.3222957865504978,-7.07374095916748,1.96052360534668,-17.05963325500488,-0.2941891849040985,3.117297410964966,9.289491653442385,XArbitraryZVertical,-0.099662499281813,0.9496685257871784,0.1906614509008158,0.2276954055164239,0.4704739153385162,-0.3167449831962585,0.8236058354377747,0,0,0,-1,-1,2707.078338541667,unknown,2,2022-06-02T10:46:02.800+02:00,2022-06-02T10:17:13.754+02:00,448,1.415149,0,0,345.1212,0,0,2022-06-02T10:46:05.354+02:00,675852365.353566,0,7.121094,101.2956,1,0.81
326,2022-06-02T10:46:07.403+02:00,1654159566.999791,53.2290795889087,10.39852458592297,36.22148,0.197042,0.3980708,108.6040376148132,13.21699164056056,2.400000095367432,7.999579855010836,-9999,2711.681261666667,-2.286239624023438,5.847946166992188,12.3404541015625,2711.671267666667,0.4991743802033647,2.547112654234854,0.2855403927433139,-7.690413951873779,-5.045114517211914,-19.62418937683105,-0.9439553618431092,3.836348056793213,10.61266613006592,XArbitraryZVertical,-0.19338785297012,0.927388343819846,0.2034378181507696,0.2473157352192358,0.5374002456665039,-0.2816759943962097,0.7948960065841675,0,0,0,-1,-1,2707.078338541667,unknown,2,2022-06-02T10:46:02.800+02:00,2022-06-02T10:17:13.754+02:00,448,1.415149,0,0,345.1212,0,0,2022-06-02T10:46:05.354+02:00,675852365.353566,0,7.121094,101.2956,1,0.81
327,2022-06-02T10:46:07.413+02:00,1654159566.999791,53.2290795889087,10.39852458592297,36.22148,0.197042,0.3980708,108.6040376148132,13.21699164056056,2.400000095367432,7.999579855010836,-9999,2711.691256666667,-5.268295288085938,5.563400268554688,13.06356811523438,2711.681261666667,0.7226677606643824,2.400567167357517,0.233556017251649,-10.76803493499756,-12.73255157470703,-20.75984954833984,-2.16300368309021,5.654930591583252,11.41627216339111,XArbitraryZVertical,-0.2878243008207572,0.8809256544938495,0.2287295447908809,0.2980099284260725,0.6567170023918152,-0.2314384430646896,0.7177456617355347,0,0,0,-1,-1,2707.078338541667,unknown,2,2022-06-02T10:46:02.800+02:00,2022-06-02T10:17:13.754+02:00,448,1.415149,0,0,345.1212,0,0,2022-06-02T10:46:05.354+02:00,675852365.353566,0,7.121094,101.2956,1,0.81
328,2022-06-02T10:46:07.423+02:00,1654159566.999791,53.2290795889087,10.39852458592297,36.22148,0.197042,0.3980708,108.6040376148132,13.21699164056056,2.400000095367432,7.999579855010836,-9999,2711.701250666667,-16.01908874511719,4.268463134765625,13.83334350585938,2711.691256666667,0.9583527806465656,2.190702251803389,0.1510594896326501,-12.64038372039795,-19.95433235168457,-22.74458885192871,-4.177878856658936,6.003772258758545,12.07964897155762,XArbitraryZVertical,-0.3780948418246295,0.8026304340889668,0.2699689843556525,0.3740926532248791,0.8046640753746033,-0.150485634803772,0.574342668056488,0,0,0,-1,-1,2707.078338541667,unknown,2,2022-06-02T10:46:02.800+02:00,2022-06-02T10:17:13.754+02:00,448,1.415149,0,0,345.1212,0,0,2022-06-02T10:46:05.354+02:00,675852365.353566,0,7.121094,101.2956,1,0.81
329,2022-06-02T10:46:07.433+02:00,1654159566.999791,53.2290795889087,10.39852458592297,36.22148,0.197042,0.3980708,108.6040376148132,13.21699164056056,2.400000095367432,7.999579855010836,-9999,2711.711245666667,-22.89227294921875,6.595916748046875,12.37820434570312,2711.701250666667,1.18858580352655,1.966558582584867,-0.0136669430790598,-10.14781951904297,-20.41007232666016,-27.41264152526855,-9.949411392211914,4.97650671005249,13.13773250579834,XArbitraryZVertical,-0.4691623232774534,0.6874769193457042,0.3056434844367173,0.4624329131813323,0.922616720199585,0.0136665180325508,0.3854756057262421,0,0,0,-1,-1,2707.078338541667,unknown,2,2022-06-02T10:46:02.800+02:00,2022-06-02T10:17:13.754+02:00,448,1.415149,0,0,345.1212,0,0,2022-06-02T10:46:05.354+02:00,675852365.353566,0,7.121094,101.2956,1,0.81
330,2022-06-02T10:46:07.443+02:00,1654159566.999791,53.2290795889087,10.39852458592297,36.22148,0.197042,0.3980708,108.6040376148132,13.21699164056056,2.400000095367432,7.999579855010836,-9999,2711.721239666667,-30.18119812011719,9.120086669921877,12.8994140625,2711.711245666667,1.293189326790769,1.714153929717598,-0.2272377821654106,2.104967594146729,-33.30233764648438,-20.21765899658203,-22.78815078735352,4.26851749420166,13.71813583374023,XArbitraryZVertical,-0.5117300203613573,0.5547337502522887,0.3234617657845142,0.5707672719092719,0.9642979502677916,0.2252871841192245,0.1391942948102951,0,0,0,-1,-1,2707.078338541667,unknown,2,2022-06-02T10:46:02.800+02:00,2022-06-02T10:17:13.754+02:00,448,1.415149,0,0,345.1212,0,0,2022-06-02T10:46:05.354+02:00,675852365.353566,0,7.121094,101.2956,1,0.81
331,2022-06-02T10:46:07.453+02:00,1654159566.999791,53.2290795889087,10.39852458592297,36.22148,0.197042,0.3980708,108.6040376148132,13.21699164056056,2.400000095367432,7.999579855010836,-9999,2711.731234666667,-32.02406311035156,10.92924499511719,12.39337158203125,2711.721239666667,1.173381461903414,1.32511944614278,-0.4282573843971959,21.22814559936523,-35.15338897705078,-21.6533088684082,-25.83359336853027,8.603787422180176,12.08105087280273,XArbitraryZVertical,-0.4722878406517379,0.4078233784848392,0.3176517882288754,0.7139479203608677,0.8823754787445068,0.4152861833572388,-0.2212485820055008,0,0,0,-1,-1,2707.078338541667,unknown,2,2022-06-02T10:46:02.800+02:00,2022-06-02T10:17:13.754+02:00,448,1.415149,0,0,345.1212,0,0,2022-06-02T10:46:05.354+02:00,675852365.353566,0,7.121094,101.2956,1,0.81
332,2022-06-02T10:46:07.463+02:00,1654159566.999791,53.2290795889087,10.39852458592297,36.22148,0.197042,0.3980708,108.6040376148132,13.21699164056056,2.400000095367432,7.999579855010836,-9999,2711.741228666667,-31.927001953125,26.15682983398438,21.53529357910156,2711.731234666667,0.8188986731233813,0.8236752483451534,-0.3857478476835515,35.19675064086914,-35.12471389770508,0.3699359595775604,-32.72615432739258,7.126631736755371,13.32162761688232,XArbitraryZVertical,-0.3175376618540734,0.2904684780267967,0.2876666903089711,0.8555966935964155,0.6797377467155457,0.376252144575119,-0.6295958161354065,0,0,0,-1,-1,2707.078338541667,unknown,2,2022-06-02T10:46:02.800+02:00,2022-06-02T10:17:13.754+02:00,448,1.415149,0,0,345.1212,0,0,2022-06-02T10:46:05.354+02:00,675852365.353566,0,7.121094,101.2956,1,0.81
333,2022-06-02T10:46:07.473+02:00,1654159566.999791,53.2290795889087,10.39852458592297,36.22148,0.197042,0.3980708,108.6040376148132,13.21699164056056,2.400000095367432,7.999579855010836,-9999,2711.751223666667,-32.14691162109375,22.97909545898438,31.47000122070312,2711.741228666667,0.6393777762966727,0.4522357193448284,-0.0790579462906012,35.2017936706543,-25.2794246673584,-1.017437696456909,-32.3775520324707,20.4146614074707,18.08916854858398,XArbitraryZVertical,-0.1069646641792718,0.2005669310388511,0.2976208966556805,0.9272288149310108,0.4356127083301544,0.0789756178855896,-0.8966629505157471,0,0,0,-1,-1,2707.078338541667,unknown,2,2022-06-02T10:46:02.800+02:00,2022-06-02T10:17:13.754+02:00,448,1.415149,0,0,345.1212,0,0,2022-06-02T10:46:05.354+02:00,675852365.353566,0,7.121094,101.2956,1,0.81
334,2022-06-02T10:46:07.483+02:00,1654159566.999791,53.2290795889087,10.39852458592297,36.22148,0.197042,0.3980708,108.6040376148132,13.21699164056056,2.400000095367432,7.999579855010836,-9999,2711.761218666667,-16.15791320800781,-27.23968505859375,28.45516967773438,2711.751223666667,0.4506018127250552,0.4331421281256029,0.2224819532250707,35.01968765258789,23.98069381713867,-11.23532962799072,-32.47027587890625,30.03629493713379,28.02154159545898,XArbitraryZVertical,0.0579705217925504,0.2323773814969892,0.2400840531204163,0.940744275535456,0.409379780292511,-0.2206510752439499,-0.8852803707122803,0,0,0,-1,-1,2707.078338541667,unknown,2,2022-06-02T10:46:02.800+02:00,2022-06-02T10:17:13.754+02:00,448,1.415149,0,0,345.1212,0,0,2022-06-02T10:46:05.354+02:00,675852365.353566,0,7.121094,101.2956,1,0.81
335,2022-06-02T10:46:07.493+02:00,1654159566.999791,53.2290795889087,10.39852458592297,36.22148,0.197042,0.3980708,108.6040376148132,13.21699164056056,2.400000095367432,7.999579855010836,-9999,2711.771212666667,16.27859497070312,-31.45361328125,7.832443237304688,2711.761218666667,0.1951703406040218,0.8327948667257867,0.4770928343088504,33.45713806152344,31.10101890563965,-0.5555775165557861,-29.18004417419434,-1.67771852016449,32.04172515869141,XArbitraryZVertical,0.1767802037716432,0.4121996663781164,0.1816992048223939,0.8751146247118017,0.6572022438049316,-0.4591985940933228,-0.597680389881134,0,0,0,-1,-1,2707.078338541667,unknown,2,2022-06-02T10:46:02.800+02:00,2022-06-02T10:17:13.754+02:00,448,1.415149,0,0,345.1212,0,0,2022-06-02T10:46:05.354+02:00,675852365.353566,0,7.121094,101.2956,1,0.81
336,2022-06-02T10:46:07.503+02:00,1654159566.999791,53.2290795889087,10.39852458592297,36.22148,0.197042,0.3980708,108.6040376148132,13.21699164056056,2.400000095367432,7.999579855010836,-9999,2711.781207666667,1.195144653320312,-0.2630615234375,8.418426513671875,2711.781207666667,0.7442056167069494,0.897305878785789,0.3635995448913916,-35.00602722167969,10.47549057006836,-10.83401584625244,11.17230033874512,-16.90002059936523,5.038217544555664,XArbitraryZVertical,-0.0033444967385396,0.4566379945381783,0.3952496763295172,0.797024638579616,0.730547308921814,-0.3556407392024994,-0.5829411149024963,0,0,0,-1,-1,2707.078338541667,unknown,2,2022-06-02T10:46:02.800+02:00,2022-06-02T10:17:13.754+02:00,448,1.415149,0,0,345.1212,0,0,2022-06-02T10:46:05.354+02:00,675852365.353566,0,7.121094,101.2956,1,0.81
337,2022-06-02T10:46:07.513+02:00,1654159566.999791,53.2290795889087,10.39852458592297,36.22148,0.197042,0.3980708,108.6040376148132,13.21699164056056,2.400000095367432,7.999579855010836,-9999,2711.791201666667,-5.687698364257812,17.19015502929688,9.946792602539062,2711.781207666667,0.7442056167069494,0.897305878785789,0.3635995448913916,-35.00602722167969,10.47549057006836,-10.83401584625244,11.17230033874512,-16.90002059936523,5.038217544555664,XArbitraryZVertical,-0.0033444967385396,0.4566379945381783,0.3952496763295172,0.797024638579616,0.730547308921814,-0.3556407392024994,-0.5829411149024963,0,0,0,-1,-1,2707.078338541667,unknown,2,2022-06-02T10:46:02.800+02:00,2022-06-02T10:17:13.754+02:00,448,1.415149,0,0,345.1212,0,0,2022-06-02T10:46:05.354+02:00,675852365.353566,0,7.121094,101.2956,1,0.81
338,2022-06-02T10:46:07.523+02:00,1654159566.999791,53.2290795889087,10.39852458592297,36.22148,0.197042,0.3980708,108.6040376148132,13.21699164056056,2.400000095367432,7.999579855010836,-9999,2711.801196666667,-21.80899047851562,0.47760009765625,4.13623046875,2711.791201666667,0.9376718505335182,0.8305226026667358,0.1126853475042697,-16.81620597839355,-21.0229377746582,-4.343296051025391,-3.105610847473145,10.74033069610596,11.02552795410156,XArbitraryZVertical,-0.1360325305561107,0.3826082164062419,0.4330567447359692,0.8047160380364623,0.7336015701293945,-0.112447015941143,-0.6702122092247009,0,0,0,-1,-1,2707.078338541667,unknown,2,2022-06-02T10:46:02.800+02:00,2022-06-02T10:17:13.754+02:00,448,1.415149,0,0,345.1212,0,0,2022-06-02T10:46:05.354+02:00,675852365.353566,0,7.121094,101.2956,1,0.81
339,2022-06-02T10:46:07.533+02:00,1654159566.999791,53.2290795889087,10.39852458592297,36.22148,0.197042,0.3980708,108.6040376148132,13.21699164056056,2.400000095367432,7.999579855010836,-9999,2711.811190666667,-13.13365173339844,0.1858978271484375,6.118606567382812,2711.811190666667,1.023192503886967,0.7517980668213988,0.20632731514677,13.5082540512085,2.059985160827637,18.02915954589844,-25.88082504272461,-5.621793746948242,5.746111869812012,XArbitraryZVertical,-0.0952440599817691,0.3653000360306168,0.4859305896256643,0.7882613422150208,0.6684678196907043,-0.204866498708725,-0.7149689197540283,0,0,0,-1,-1,2707.078338541667,unknown,2,2022-06-02T10:46:02.800+02:00,2022-06-02T10:17:13.754+02:00,448,1.415149,0,0,345.1212,0,0,2022-06-02T10:46:05.354+02:00,675852365.353566,0,7.121094,101.2956,1,0.81
340,2022-06-02T10:46:07.543+02:00,1654159566.999791,53.2290795889087,10.39852458592297,36.22148,0.197042,0.3980708,108.6040376148132,13.21699164056056,2.400000095367432,7.999579855010836,-9999,2711.821185666667,-4.261260986328125,7.509490966796875,6.57958984375,2711.811190666667,1.023192503886967,0.7517980668213988,0.20632731514677,13.5082540512085,2.059985160827637,18.02915954589844,-25.88082504272461,-5.621793746948242,5.746111869812012,XArbitraryZVertical,-0.0952440599817691,0.3653000360306168,0.4859305896256643,0.7882613422150208,0.6684678196907043,-0.204866498708725,-0.7149689197540283,0,0,0,-1,-1,2707.078338541667,unknown,2,2022-06-02T10:46:02.800+02:00,2022-06-02T10:17:13.754+02:00,448,1.415149,0,0,345.1212,0,0,2022-06-02T10:46:05.354+02:00,675852365.353566,0,7.121094,101.2956,1,0.81
341,2022-06-02T10:46:07.553+02:00,1654159566.999791,53.2290795889087,10.39852458592297,36.22148,0.197042,0.3980708,108.6040376148132,13.21699164056056,2.400000095367432,7.999579855010836,-9999,2711.831179666667,-16.1160888671875,-3.125106811523438,3.9583740234375,2711.821185666667,1.013450774460989,0.7406735748608356,0.416344552056656,16.82543563842773,-5.530298233032227,9.65544605255127,-4.436583518981934,7.472809791564941,7.016932964324951,XArbitraryZVertical,-0.0034074733649023,0.403118255055917,0.5080485367391806,0.7611640025063796,0.617140531539917,-0.4044199883937836,-0.6749681234359741,0,0,0,-1,-1,2707.078338541667,unknown,2,2022-06-02T10:46:02.800+02:00,2022-06-02T10:17:13.754+02:00,448,1.415149,0,0,345.1212,0,0,2022-06-02T10:46:05.354+02:00,675852365.353566,0,7.121094,101.2956,1,0.81
342,2022-06-02T10:46:07.563+02:00,1654159566.999791,53.2290795889087,10.39852458592297,36.22148,0.197042,0.3980708,108.6040376148132,13.21699164056056,2.400000095367432,7.999579855010836,-9999,2711.841174666667,-11.89634704589844,-8.839035034179688,5.6678466796875,2711.831179666667,0.9855580001318304,0.7768518236669457,0.5575719182695199,8.127913475036621,7.610144138336182,7.525256633758545,-8.75716781616211,4.017836093902588,5.588300704956055,XArbitraryZVertical,0.0521349916641429,0.441275378491801,0.512752737209271,0.7346036764073559,0.594860315322876,-0.5291274189949036,-0.6051159501075745,0,0,0,-1,-1,2707.078338541667,unknown,2,2022-06-02T10:46:02.800+02:00,2022-06-02T10:17:13.754+02:00,448,1.415149,0,0,345.1212,0,0,2022-06-02T10:46:05.354+02:00,675852365.353566,0,7.121094,101.2956,1,0.81
343,2022-06-02T10:46:07.573+02:00,1654159566.999791,53.2290795889087,10.39852458592297,36.22148,0.197042,0.3980708,108.6040376148132,13.21699164056056,2.400000095367432,7.999579855010836,-9999,2711.851168666667,-3.989990234375,-5.036514282226562,3.840423583984375,2711.841174666667,1.03204110594802,0.8262202882994577,0.6750521732181982,3.567984819412231,7.472169876098633,13.55903911590576,-18.16928863525391,-7.247986793518066,5.701837539672852,XArbitraryZVertical,0.0768911431101385,0.4791365635461951,0.5420500771320682,0.6860739816687846,0.5740885734558105,-0.6249380707740784,-0.5290318131446838,0,0,0,-1,-1,2707.078338541667,unknown,2,2022-06-02T10:46:02.800+02:00,2022-06-02T10:17:13.754+02:00,448,1.415149,0,0,345.1212,0,0,2022-06-02T10:46:05.354+02:00,675852365.353566,0,7.121094,101.2956,1,0.81
344,2022-06-02T10:46:07.583+02:00,1654159566.999791,53.2290795889087,10.39852458592297,36.22148,0.197042,0.3980708,108.6040376148132,13.21699164056056,2.400000095367432,7.999579855010836,-9999,2711.861163666667,-4.41436767578125,-3.551239013671875,4.105484008789062,2711.851168666667,1.113307275948985,0.833844259450061,0.789340506652277,2.250601768493652,4.629345417022705,11.14541816711426,-6.662092208862305,-6.807109355926514,5.133280754089355,XArbitraryZVertical,0.1009846738984121,0.5031309973549418,0.5781484351542633,0.6343543734290945,0.5215584635734558,-0.7098889350891113,-0.4733226001262665,0,0,0,-1,-1,2707.078338541667,unknown,2,2022-06-02T10:46:02.800+02:00,2022-06-02T10:17:13.754+02:00,448,1.415149,0,0,345.1212,0,0,2022-06-02T10:46:05.354+02:00,675852365.353566,0,7.121094,101.2956,1,0.81
345,2022-06-02T10:46:07.593+02:00,1654159566.999791,53.2290795889087,10.39852458592297,36.22148,0.197042,0.3980708,108.6040376148132,13.21699164056056,2.400000095367432,7.999579855010836,-9999,2711.871157666667,-5.888671875,-5.410247802734375,4.019210815429688,2711.861163666667,1.194398080614872,0.7998639250725164,0.8692850964383968,1.604949593544006,1.119503974914551,8.288439750671387,-4.223551750183105,-2.416155338287354,4.31687068939209,XArbitraryZVertical,0.1221361404679691,0.5101309002399751,0.605369234898063,0.5986460962236421,0.4629008173942566,-0.7638677358627319,-0.4496984481811523,0,0,0,-1,-1,2707.078338541667,unknown,2,2022-06-02T10:46:02.800+02:00,2022-06-02T10:17:13.754+02:00,448,1.415149,0,0,345.1212,0,0,2022-06-02T10:46:05.354+02:00,675852365.353566,0,7.121094,101.2956,1,0.81
346,2022-06-02T10:46:07.603+02:00,1654159566.999791,53.2290795889087,10.39852458592297,36.22148,0.197042,0.3980708,108.6040376148132,13.21699164056056,2.400000095367432,7.999579855010836,-9999,2711.881152666667,-5.436920166015625,-4.583450317382812,2.51171875,2711.871157666667,1.2643504936678,0.7554218174907206,0.9418425454236224,2.440287351608276,1.29244339466095,8.14590072631836,-5.606964111328125,-4.082332134246826,4.620135307312012,XArbitraryZVertical,0.1460249590153004,0.5143356111618703,0.6244518403189847,0.5693814381319018,0.4033351838588715,-0.8086434602737427,-0.4282711744308472,0,0,0,-1,-1,2707.078338541667,unknown,2,2022-06-02T10:46:02.800+02:00,2022-06-02T10:17:13.754+02:00,448,1.415149,0,0,345.1212,0,0,2022-06-02T10:46:05.354+02:00,675852365.353566,0,7.121094,101.2956,1,0.81
347,2022-06-02T10:46:07.613+02:00,1654159566.999791,53.2290795889087,10.39852458592297,36.22148,0.197042,0.3980708,108.6040376148132,13.21699164056056,2.400000095367432,7.999579855010836,-9999,2711.891147666667,-4.856979370117188,-4.087005615234375,1.541305541992188,2711.881152666667,1.331303843142382,0.7184080940624727,1.014919555107048,3.57998514175415,2.413277864456177,7.030049800872803,-6.203778266906738,-4.179294109344482,3.810037851333618,XArbitraryZVertical,0.1680827191529842,0.522601179638077,0.6396575978841064,0.5380281660273966,0.3473175466060638,-0.8494381308555603,-0.3972724080085754,0,0,0,-1,-1,2707.078338541667,unknown,2,2022-06-02T10:46:02.800+02:00,2022-06-02T10:17:13.754+02:00,448,1.415149,0,0,345.1212,0,0,2022-06-02T10:46:05.354+02:00,675852365.353566,0,7.121094,101.2956,1,0.81
348,2022-06-02T10:46:07.623+02:00,1654159566.999791,53.2290795889087,10.39852458592297,36.22148,0.197042,0.3980708,108.6040376148132,13.21699164056056,2.400000095367432,7.999579855010836,-9999,2711.901141666667,-5.073562622070312,-4.655609130859375,2.533248901367188,2711.891147666667,1.369998529138593,0.7093930382085156,1.08940660232317,4.870249271392822,2.462448835372925,5.787996292114258,-5.295352458953857,-3.429763793945312,2.134470462799072,XArbitraryZVertical,0.1883662294682045,0.5374584548377453,0.6467952643025516,0.5072595933626508,0.301593154668808,-0.8863523006439209,-0.3513131439685822,0,0,0,-1,-1,2707.078338541667,unknown,2,2022-06-02T10:46:02.800+02:00,2022-06-02T10:17:13.754+02:00,448,1.415149,0,0,345.1212,0,0,2022-06-02T10:46:05.354+02:00,675852365.353566,0,7.121094,101.2956,1,0.81
349,2022-06-02T10:46:07.633+02:00,1654159566.999791,53.2290795889087,10.39852458592297,36.22148,0.197042,0.3980708,108.6040376148132,13.21699164056056,2.400000095367432,7.999579855010836,-9999,2711.911136666667,-4.669464111328125,-5.770355224609375,2.61444091796875,2711.901141666667,1.39676592027858,0.713155396169944,1.158919533474619,4.006717681884766,3.367246866226196,5.172352313995361,-5.175220012664795,-3.175150871276855,2.220402956008911,XArbitraryZVertical,0.2051899957530969,0.5536353864596714,0.6505673494888148,0.4776472851329461,0.2619050443172455,-0.9163711071014404,-0.3027698397636414,0,0,0,-1,-1,2707.078338541667,unknown,2,2022-06-02T10:46:02.800+02:00,2022-06-02T10:17:13.754+02:00,448,1.415149,0,0,345.1212,0,0,2022-06-02T10:46:05.354+02:00,675852365.353566,0,7.121094,101.2956,1,0.81
350,2022-06-02T10:46:07.643+02:00,1654159566.999791,53.2290795889087,10.39852458592297,36.22148,0.197042,0.3980708,108.6040376148132,13.21699164056056,2.400000095367432,7.999579855010836,-9999,2711.921130666667,-3.811264038085938,-4.98162841796875,2.0167236328125,2711.911136666667,1.451725824347074,0.7006615020543996,1.216834392766762,2.017473697662354,4.210344791412354,5.556693553924561,-5.217017650604248,-4.46555757522583,3.073873519897461,XArbitraryZVertical,0.2145912487625487,0.5669840311293172,0.6583034278251583,0.4462244941607348,0.2234720140695572,-0.9380068182945251,-0.2649593949317932,0,0,0,-1,-1,2707.078338541667,unknown,2,2022-06-02T10:46:02.800+02:00,2022-06-02T10:17:13.754+02:00,448,1.415149,0,0,345.1212,0,0,2022-06-02T10:46:05.354+02:00,675852365.353566,0,7.121094,101.2956,1,0.81
351,2022-06-02T10:46:07.653+02:00,1654159566.999791,53.2290795889087,10.39852458592297,36.22148,0.197042,0.3980708,108.6040376148132,13.21699164056056,2.400000095367432,7.999579855010836,-9999,2711.931125666667,-3.175811767578125,-4.076309204101562,1.700454711914062,2711.921130666667,1.567121235508366,0.6346463117258704,1.258508754044624,0.0205344036221504,4.457617282867432,5.336344718933105,-4.372588157653809,-4.580181121826172,2.518545150756836,XArbitraryZVertical,0.2180630925889491,0.5733607614284512,0.6722231234940238,0.414514232731635,0.1821582913398743,-0.9516332149505616,-0.247411847114563,0,0,0,-1,-1,2707.078338541667,unknown,2,2022-06-02T10:46:02.800+02:00,2022-06-02T10:17:13.754+02:00,448,1.415149,0,0,345.1212,0,0,2022-06-02T10:46:05.354+02:00,675852365.353566,0,7.121094,101.2956,1,0.81
352,2022-06-02T10:46:07.663+02:00,1654159566.999791,53.2290795889087,10.39852458592297,36.22148,0.197042,0.3980708,108.6040376148132,13.21699164056056,2.400000095367432,7.999579855010836,-9999,2711.941119666667,-2.317886352539062,-3.346359252929688,1.2666015625,2711.931125666667,1.704507183305782,0.5507569519723975,1.28440100419389,-0.0345323756337165,5.021813869476318,4.262649536132812,-3.649838447570801,-3.506521224975586,2.097153186798096,XArbitraryZVertical,0.2155239759420877,0.5772242858042856,0.6872987639569635,0.3846842009123178,0.1478393971920013,-0.9592683911323548,-0.2407230734825134,0,0,0,-1,-1,2707.078338541667,unknown,2,2022-06-02T10:46:02.800+02:00,2022-06-02T10:17:13.754+02:00,448,1.415149,0,0,345.1212,0,0,2022-06-02T10:46:05.354+02:00,675852365.353566,0,7.121094,101.2956,1,0.81
353,2022-06-02T10:46:07.673+02:00,1654159566.999791,53.2290795889087,10.39852458592297,36.22148,0.197042,0.3980708,108.6040376148132,13.21699164056056,2.400000095367432,7.999579855010836,-9999,2711.951114666667,-1.51885986328125,-2.736923217773438,0.9431610107421876,2711.941119666667,1.811856839081163,0.4981996561316836,1.307398439978307,1.157467603683472,5.005285739898682,3.090976715087891,-2.873482227325439,-2.765629291534424,1.720352411270142,XArbitraryZVertical,0.2095862104553153,0.5845652004585296,0.6979628813371354,0.3566581188765481,0.1244130581617355,-0.9655108451843262,-0.2287142872810364,0,0,0,-1,-1,2707.078338541667,unknown,2,2022-06-02T10:46:02.800+02:00,2022-06-02T10:17:13.754+02:00,448,1.415149,0,0,345.1212,0,0,2022-06-02T10:46:05.354+02:00,675852365.353566,0,7.121094,101.2956,1,0.81
354,2022-06-02T10:46:07.683+02:00,1654159566.999791,53.2290795889087,10.39852458592297,36.22148,0.197042,0.3980708,108.6040376148132,13.21699164056056,2.400000095367432,7.999579855010836,-9999,2711.961108666667,-0.975830078125,-3.258209228515625,0.9576416015625,2711.961108666667,1.843394393482901,0.5420434973206315,1.36082597079915,2.425602912902832,2.226962089538574,0.2868205606937408,-1.291715502738953,-1.86829149723053,1.12786340713501,XArbitraryZVertical,0.2006210414680328,0.6086662706008826,0.6984335967042451,0.3185387430168251,0.1075266227126122,-0.9780371189117432,-0.1785531342029572,0,0,0,-1,-1,2707.078338541667,unknown,2,2022-06-02T10:46:02.800+02:00,2022-06-02T10:17:13.754+02:00,448,1.415149,0,0,345.1212,0,0,2022-06-02T10:46:05.354+02:00,675852365.353566,0,7.121094,101.2956,1,0.81
355,2022-06-02T10:46:07.693+02:00,1654159566.999791,53.2290795889087,10.39852458592297,36.22148,0.197042,0.3980708,108.6040376148132,13.21699164056056,2.400000095367432,7.999579855010836,-9999,2711.971103666667,-0.92474365234375,-3.917221069335938,0.9573974609375,2711.961108666667,1.843394393482901,0.5420434973206315,1.36082597079915,2.425602912902832,2.226962089538574,0.2868205606937408,-1.291715502738953,-1.86829149723053,1.12786340713501,XArbitraryZVertical,0.2006210414680328,0.6086662706008826,0.6984335967042451,0.3185387430168251,0.1075266227126122,-0.9780371189117432,-0.1785531342029572,0,0,0,-1,-1,2707.078338541667,unknown,2,2022-06-02T10:46:02.800+02:00,2022-06-02T10:17:13.754+02:00,448,1.415149,0,0,345.1212,0,0,2022-06-02T10:46:05.354+02:00,675852365.353566,0,7.121094,101.2956,1,0.81
356,2022-06-02T10:46:07.703+02:00,1654159566.999791,53.2290795889087,10.39852458592297,36.22148,0.197042,0.3980708,108.6040376148132,13.21699164056056,2.400000095367432,7.999579855010836,-9999,2711.981097666667,-1.074752807617188,-3.26763916015625,0.84027099609375,2711.971103666667,1.776152386877325,0.6252582695160915,1.374064687380113,1.212660193443298,1.256257891654968,-0.9650628566741944,-1.018260955810547,-2.727663040161133,1.130637407302856,XArbitraryZVertical,0.1962649894860464,0.6182537241833169,0.6938365490143215,0.3127827448802471,0.1144065484404564,-0.9807106852531432,-0.1584847718477249,0,0,0,-1,-1,2707.078338541667,unknown,2,2022-06-02T10:46:02.800+02:00,2022-06-02T10:17:13.754+02:00,448,1.415149,0,0,345.1212,0,0,2022-06-02T10:46:05.354+02:00,675852365.353566,0,7.121094,101.2956,1,0.81
357,2022-06-02T10:46:07.713+02:00,1654159566.999791,53.2290795889087,10.39852458592297,36.22148,0.197042,0.3980708,108.6040376148132,13.21699164056056,2.400000095367432,7.999579855010836,-9999,2711.991092666667,-1.298797607421875,-1.7783203125,0.70867919921875,2711.981097666667,1.707387457863831,0.7012809822960556,1.371753515145808,0.2397150695323944,0.4808703660964966,-1.41046667098999,-1.111202359199524,-2.776747226715088,1.064689040184021,XArbitraryZVertical,0.1905603761382724,0.6230185838102492,0.6907596407720573,0.3136646477525701,0.1275749802589417,-0.9802563190460204,-0.1510691791772842,0,0,0,-1,-1,2707.078338541667,unknown,2,2022-06-02T10:46:02.800+02:00,2022-06-02T10:17:13.754+02:00,448,1.415149,0,0,345.1212,0,0,2022-06-02T10:46:05.354+02:00,675852365.353566,0,7.121094,101.2956,1,0.81
358,2022-06-02T10:46:07.723+02:00,1654159566.999791,53.2290795889087,10.39852458592297,36.22148,0.197042,0.3980708,108.6040376148132,13.21699164056056,2.400000095367432,7.999579855010836,-9999,2712.001086666667,-1.509857177734375,-0.749481201171875,0.4434967041015625,2711.991092666667,1.636773054285101,0.7724494445059331,1.362703629951871,0.4946126341819763,-0.050026748329401,-1.957762122154236,-1.329849123954773,-1.57275116443634,0.9178453683853148,XArbitraryZVertical,0.1851272043341047,0.625896399605756,0.6874141163259212,0.3185017871811707,0.1441801339387894,-0.97842675447464,-0.1479632258415222,0,0,0,-1,-1,2707.078338541667,unknown,2,2022-06-02T10:46:02.800+02:00,2022-06-02T10:17:13.754+02:00,448,1.415149,0,0,345.1212,0,0,2022-06-02T10:46:05.354+02:00,675852365.353566,0,7.121094,101.2956,1,0.81
359,2022-06-02T10:46:07.733+02:00,1654159566.999791,53.2290795889087,10.39852458592297,36.22148,0.197042,0.3980708,108.6040376148132,13.21699164056056,2.400000095367432,7.999579855010836,-9999,2712.011081666667,-1.744216918945312,-0.3368988037109375,0.0864410400390625,2712.001086666667,1.528761227442714,0.8752421390236351,1.353284441012725,1.639296531677246,-0.5130127668380737,-2.460727214813232,-1.571293830871582,-0.1727628707885742,0.750118613243103,XArbitraryZVertical,0.1807101732147782,0.6310311546038514,0.6803010976456961,0.326088542503711,0.1656693965196609,-0.9764373898506165,-0.1382870376110077,0,0,0,-1,-1,2707.078338541667,unknown,2,2022-06-02T10:46:02.800+02:00,2022-06-02T10:17:13.754+02:00,448,1.415149,0,0,345.1212,0,0,2022-06-02T10:46:05.354+02:00,675852365.353566,0,7.121094,101.2956,1,0.81
360,2022-06-02T10:46:07.743+02:00,1654159566.999791,53.2290795889087,10.39852458592297,36.22148,0.197042,0.3980708,108.6040376148132,13.21699164056056,2.400000095367432,7.999579855010836,-9999,2712.021075666667,-1.896942138671875,-0.187957763671875,-0.2866973876953125,2712.011081666667,1.383824278578496,1.009637901193837,1.345356569678608,2.500255584716797,-0.8218039274215698,-2.52954363822937,-1.811568021774292,0.4651134610176086,0.3780521154403687,XArbitraryZVertical,0.1785905715703976,0.6392389296346412,0.6688270021138221,0.3348871815291367,0.1892534494400024,-0.974695920944214,-0.1189579963684082,0,0,0,-1,-1,2707.078338541667,unknown,2,2022-06-02T10:46:02.800+02:00,2022-06-02T10:17:13.754+02:00,448,1.415149,0,0,345.1212,0,0,2022-06-02T10:46:05.354+02:00,675852365.353566,0,7.121094,101.2956,1,0.81
361,2022-06-02T10:46:07.753+02:00,1654159566.999791,53.2290795889087,10.39852458592297,36.22148,0.197042,0.3980708,108.6040376148132,13.21699164056056,2.400000095367432,7.999579855010836,-9999,2712.031070666667,-1.888580322265625,-0.3196563720703125,-0.5063934326171875,2712.021075666667,1.228163494308437,1.153437014937163,1.335812749106877,2.774684906005859,-0.7163193225860596,-2.478749513626099,-2.060726881027222,0.7428581714630127,-0.0130003094673156,XArbitraryZVertical,0.1776391858056573,0.6490426612639446,0.6552351630686231,0.3432998650746507,0.2128416299819946,-0.9725181460380554,-0.0943758860230445,0,0,0,-1,-1,2707.078338541667,unknown,2,2022-06-02T10:46:02.800+02:00,2022-06-02T10:17:13.754+02:00,448,1.415149,0,0,345.1212,0,0,2022-06-02T10:46:05.354+02:00,675852365.353566,0,7.121094,101.2956,1,0.81
362,2022-06-02T10:46:07.763+02:00,1654159566.999791,53.2290795889087,10.39852458592297,36.22148,0.197042,0.3980708,108.6040376148132,13.21699164056056,2.400000095367432,7.999579855010836,-9999,2712.041064666667,-1.769515991210938,-0.6170501708984375,-0.467498779296875,2712.031070666667,1.091594296568974,1.280411244687326,1.321226603823348,2.300852537155151,-0.3754352033138275,-2.545382738113403,-2.136884450912476,0.7612704634666443,-0.344657301902771,XArbitraryZVertical,0.1757457248480347,0.6586005335896089,0.64200793326051,0.3509765302535008,0.2366463541984558,-0.9690187573432922,-0.0707175582647323,0,0,0,-1,-1,2707.078338541667,unknown,2,2022-06-02T10:46:02.800+02:00,2022-06-02T10:17:13.754+02:00,448,1.415149,0,0,345.1212,0,0,2022-06-02T10:46:05.354+02:00,675852365.353566,0,7.121094,101.2956,1,0.81
363,2022-06-02T10:46:07.773+02:00,1654159566.999791,53.2290795889087,10.39852458592297,36.22148,0.197042,0.3980708,108.6040376148132,13.21699164056056,2.400000095367432,7.999579855010836,-9999,2712.051059666667,-1.469375610351562,-0.623046875,-0.2381439208984375,2712.041064666667,0.9976903132816732,1.369448194841906,1.300843332704753,1.339078187942505,0.0140510369092226,-2.541927337646484,-2.115103721618652,0.4810717105865479,-0.4830271601676941,XArbitraryZVertical,0.171076329532735,0.6663824627298657,0.6312118788818556,0.3581044229858921,0.2612981796264648,-0.9637834429740906,-0.053334604948759,0,0,0,-1,-1,2707.078338541667,unknown,2,2022-06-02T10:46:02.800+02:00,2022-06-02T10:17:13.754+02:00,448,1.415149,0,0,345.1212,0,0,2022-06-02T10:46:05.354+02:00,675852365.353566,0,7.121094,101.2956,1,0.81
364,2022-06-02T10:46:07.783+02:00,1654159566.999791,53.2290795889087,10.39852458592297,36.22148,0.197042,0.3980708,108.6040376148132,13.21699164056056,2.400000095367432,7.999579855010836,-9999,2712.061054666667,-1.091018676757812,-0.3112640380859375,-0.2494354248046875,2712.051059666667,0.9540030787469886,1.413072366742712,1.278308467025301,0.2739449739456177,0.2844449877738953,-2.341946840286255,-1.92167329788208,0.286570131778717,-0.2906180620193481,XArbitraryZVertical,0.1638499893339752,0.6711994208240728,0.6243103751259844,0.3645284866947185,0.2847561240196228,-0.9575294852256776,-0.0452890358865261,0,0,0,-1,-1,2707.078338541667,unknown,2,2022-06-02T10:46:02.800+02:00,2022-06-02T10:17:13.754+02:00,448,1.415149,0,0,345.1212,0,0,2022-06-02T10:46:05.354+02:00,675852365.353566,0,7.121094,101.2956,1,0.81
365,2022-06-02T10:46:07.793+02:00,1654159566.999791,53.2290795889087,10.39852458592297,36.22148,0.197042,0.3980708,108.6040376148132,13.21699164056056,2.400000095367432,7.999579855010836,-9999,2712.071048666667,-0.8480682373046875,0.1002044677734375,-0.3747711181640625,2712.061054666667,0.940463723876324,1.428849144429902,1.255190608639579,-0.0487795546650886,0.2339985817670822,-2.385498523712158,-1.592228174209595,0.4546521902084351,-0.175143837928772,XArbitraryZVertical,0.1551740063941263,0.6737694662462803,0.6200374067320672,0.3708224094492816,0.3072702586650848,-0.9506085515022278,-0.0439114682376384,0,0,0,-1,-1,2707.078338541667,unknown,2,2022-06-02T10:46:02.800+02:00,2022-06-02T10:17:13.754+02:00,448,1.415149,0,0,345.1212,0,0,2022-06-02T10:46:05.354+02:00,675852365.353566,0,7.121094,101.2956,1,0.81
366,2022-06-02T10:46:07.803+02:00,1654159566.999791,53.2290795889087,10.39852458592297,36.22148,0.197042,0.3980708,108.6040376148132,13.21699164056056,2.400000095367432,7.999579855010836,-9999,2712.081043666667,-0.96881103515625,0.3845672607421875,-0.52508544921875,2712.071048666667,0.928204172286247,1.441304414130528,1.230537995759689,0.2134931981563568,-0.0775276124477386,-2.619904756546021,-1.259662628173828,0.8448139429092407,-0.2601737976074219,XArbitraryZVertical,0.1465976480486511,0.6759894713385398,0.6152327630238417,0.378200963756804,0.3309363722801208,-0.9426684975624084,-0.043094728142023,0,0,0,-1,-1,2707.078338541667,unknown,2,2022-06-02T10:46:02.800+02:00,2022-06-02T10:17:13.754+02:00,448,1.415149,0,0,345.1212,0,0,2022-06-02T10:46:05.354+02:00,675852365.353566,0,7.121094,101.2956,1,0.81
367,2022-06-02T10:46:07.813+02:00,1654159566.999791,53.2290795889087,10.39852458592297,36.22148,0.197042,0.3980708,108.6040376148132,13.21699164056056,2.400000095367432,7.999579855010836,-9999,2712.091037666667,-1.185791015625,0.487396240234375,-0.592254638671875,2712.081043666667,0.904591625468064,1.46154734002193,1.204121204409635,0.8146511912345886,-0.2668975293636322,-2.806997776031494,-1.227744579315186,1.193259716033936,-0.4144782423973083,XArbitraryZVertical,0.1389180768579949,0.6790854803994344,0.608210429964402,0.3868134928770366,0.3563759922981262,-0.933524489402771,-0.0390893556177616,0,0,0,-1,-1,2707.078338541667,unknown,2,2022-06-02T10:46:02.800+02:00,2022-06-02T10:17:13.754+02:00,448,1.415149,0,0,345.1212,0,0,2022-06-02T10:46:05.354+02:00,675852365.353566,0,7.121094,101.2956,1,0.81
368,2022-06-02T10:46:07.823+02:00,1654159566.999791,53.2290795889087,10.39852458592297,36.22148,0.197042,0.3980708,108.6040376148132,13.21699164056056,2.400000095367432,7.999579855010836,-9999,2712.101032666667,-1.276031494140625,0.4102325439453125,-0.55810546875,2712.091037666667,0.8666518022565936,1.49421889063056,1.176882804159626,1.455345630645752,-0.2226443141698837,-2.862155199050903,-1.46954870223999,1.385404348373413,-0.5462605357170105,XArbitraryZVertical,0.1322533728191098,0.6839795276601981,0.5985605631225922,0.3954823993859155,0.3826804161071777,-0.92341411113739,-0.0293621029704809,0,0,0,-1,-1,2707.078338541667,unknown,2,2022-06-02T10:46:02.800+02:00,2022-06-02T10:17:13.754+02:00,448,1.415149,0,0,345.1212,0,0,2022-06-02T10:46:05.354+02:00,675852365.353566,0,7.121094,101.2956,1,0.81
