,loggingTime(txt),locationTimestamp_since1970(s),locationLatitude(WGS84),locationLongitude(WGS84),locationAltitude(m),locationSpeed(m/s),locationSpeedAccuracy(m/s),locationCourse(°),locationCourseAccuracy(°),locationVerticalAccuracy(m),locationHorizontalAccuracy(m),locationFloor(Z),accelerometerTimestamp_sinceReboot(s),accelerometerAccelerationX(G),accelerometerAccelerationY(G),accelerometerAccelerationZ(G),motionTimestamp_sinceReboot(s),motionYaw(rad),motionRoll(rad),motionPitch(rad),motionRotationRateX(rad/s),motionRotationRateY(rad/s),motionRotationRateZ(rad/s),motionUserAccelerationX(G),motionUserAccelerationY(G),motionUserAccelerationZ(G),motionAttitudeReferenceFrame(txt),motionQuaternionX(R),motionQuaternionY(R),motionQuaternionZ(R),motionQuaternionW(R),motionGravityX(G),motionGravityY(G),motionGravityZ(G),motionMagneticFieldX(µT),motionMagneticFieldY(µT),motionMagneticFieldZ(µT),motionHeading(°),motionMagneticFieldCalibrationAccuracy(Z),activityTimestamp_sinceReboot(s),activity(txt),activityActivityConfidence(Z),activityActivityStartDate(txt),pedometerStartDate(txt),pedometerNumberofSteps(N),pedometerAverageActivePace(s/m),pedometerCurrentPace(s/m),pedometerCurrentCadence(steps/s),pedometerDistance(m),pedometerFloorAscended(N),pedometerFloorDescended(N),pedometerEndDate(txt),altimeterTimestamp_sinceReboot(s),altimeterReset(bool),altimeterRelativeAltitude(m),altimeterPressure(kPa),batteryState(N),batteryLevel(R)
355,2022-05-12T10:29:55.529+02:00,1652344192.999894,53.22904118807356,10.39859988727644,36.48977,0.35,0.86,103.359375,81.72132828699164,4,5,-9999,2693.112181791667,0.12786865234375,0.642974853515625,3.199859619140625,2693.107184791667,0.5696922049794989,2.372740738456951,-0.1164949108773652,-4.325599670410156,8.027183532714844,-1.805326104164124,-0.4543005228042603,0.5670728087425232,2.191145658493042,XArbitraryZVertical,-0.2810104604266946,0.8820159660334084,0.0534164157563546,0.3744697956524258,0.6905978322029114,0.1162315979599953,0.7138381004333496,0,0,0,-1,-1,2682.955782,walking,2,2022-05-12T10:29:45.372+02:00,2022-05-11T22:15:20.957+02:00,141,0.8394551,0.6590101,1.930207,112.5515,0,0,2022-05-12T10:29:50.486+02:00,674036993.0381287,0,1.380001,100.8912,1,0.98
356,2022-05-12T10:29:55.539+02:00,1652344192.999894,53.22904118807356,10.39859988727644,36.48977,0.35,0.86,103.359375,81.72132828699164,4,5,-9999,2693.122176791667,-0.0002593994140625,0.657440185546875,3.447036743164062,2693.117179791667,0.6147786017219915,2.457459881787357,-0.0951445051724792,-4.840226650238037,7.945290565490723,-2.071544885635376,-0.5012744069099426,0.5479744076728821,2.428397417068481,XArbitraryZVertical,-0.2999225978227782,0.8920637333783327,0.0586787447471336,0.3329048609451308,0.6291428804397583,0.0950010195374488,0.7714625597000122,0,0,0,-1,-1,2682.955782,walking,2,2022-05-12T10:29:45.372+02:00,2022-05-11T22:15:20.957+02:00,141,0.8394551,0.6590101,1.930207,112.5515,0,0,2022-05-12T10:29:50.486+02:00,674036993.0381287,0,1.380001,100.8912,1,0.98
357,2022-05-12T10:29:55.549+02:00,1652344192.999894,53.22904118807356,10.39859988727644,36.48977,0.35,0.86,103.359375,81.72132828699164,4,5,-9999,2693.132171791667,-0.1147918701171875,0.710052490234375,3.648239135742188,2693.127174791667,0.6632340494238256,2.539770956204662,-0.0678448664116011,-5.292646884918213,7.713106632232666,-2.385250806808472,-0.5651022791862488,0.5896479487419128,2.624627590179443,XArbitraryZVertical,-0.3202691773226238,0.8992398669908579,0.0658137959970181,0.2906267952164317,0.5648426413536072,0.0677928328514099,0.8224093914031982,0,0,0,-1,-1,2682.955782,walking,2,2022-05-12T10:29:45.372+02:00,2022-05-11T22:15:20.957+02:00,141,0.8394551,0.6590101,1.930207,112.5515,0,0,2022-05-12T10:29:50.486+02:00,674036993.0381287,0,1.380001,100.8912,1,0.98
358,2022-05-12T10:29:55.559+02:00,1652344192.999894,53.22904118807356,10.39859988727644,36.48977,0.35,0.86,103.359375,81.72132828699164,4,5,-9999,2693.142166791667,-0.1945343017578125,0.782318115234375,3.867599487304688,2693.137169791667,0.7143546629438665,2.617766939340813,-0.0353491960857069,-5.638612747192383,7.35178279876709,-2.80558967590332,-0.6146761775016785,0.6747112274169922,2.782868385314941,XArbitraryZVertical,-0.3419420912198672,0.9031949688625304,0.0745218219559813,0.2485176706450639,0.4998841285705566,0.0353418365120887,0.8653711080551147,0,0,0,-1,-1,2682.955782,walking,2,2022-05-12T10:29:45.372+02:00,2022-05-11T22:15:20.957+02:00,141,0.8394551,0.6590101,1.930207,112.5515,0,0,2022-05-12T10:29:50.486+02:00,674036993.0381287,0,1.380001,100.8912,1,0.98
359,2022-05-12T10:29:55.569+02:00,1652344192.999894,53.22904118807356,10.39859988727644,36.48977,0.35,0.86,103.359375,81.72132828699164,4,5,-9999,2693.152161791667,-0.2517242431640625,0.7736358642578125,4.060592651367188,2693.147164791667,0.7683651365264572,2.690144236988375,0.0015087493732343,-5.935022354125977,6.931912899017334,-3.318529367446899,-0.6308034658432007,0.7838274240493774,2.967784404754639,XArbitraryZVertical,-0.3651369204126395,0.9036496039244436,0.0845667710746607,0.2072218681717024,0.4362688064575195,-0.0015087488573044,0.8998151421546936,0,0,0,-1,-1,2682.955782,walking,2,2022-05-12T10:29:45.372+02:00,2022-05-11T22:15:20.957+02:00,141,0.8394551,0.6590101,1.930207,112.5515,0,0,2022-05-12T10:29:50.486+02:00,674036993.0381287,0,1.380001,100.8912,1,0.98
360,2022-05-12T10:29:55.579+02:00,1652344192.999894,53.22904118807356,10.39859988727644,36.48977,0.35,0.86,103.359375,81.72132828699164,4,5,-9999,2693.162156791667,-0.3228302001953125,0.729461669921875,4.223373413085938,2693.157159791667,0.8257545679243152,2.755638868866163,0.0419741139031877,-6.096743583679199,6.415840148925781,-3.910691976547241,-0.6278359889984131,0.81559818983078,3.134968996047974,XArbitraryZVertical,-0.3900252574967566,0.9003844792494157,0.0957999564263684,0.1673632610227538,0.3761113584041595,-0.0419617891311645,0.9256238341331482,0,0,0,-1,-1,2682.955782,walking,2,2022-05-12T10:29:45.372+02:00,2022-05-11T22:15:20.957+02:00,141,0.8394551,0.6590101,1.930207,112.5515,0,0,2022-05-12T10:29:50.486+02:00,674036993.0381287,0,1.380001,100.8912,1,0.98
361,2022-05-12T10:29:55.589+02:00,1652344192.999894,53.22904118807356,10.39859988727644,36.48977,0.35,0.86,103.359375,81.72132828699164,4,5,-9999,2693.172151791667,-0.452484130859375,0.8065338134765625,4.392593383789062,2693.167154791667,0.8872171549102821,2.812968378275137,0.0844234228835209,-6.129978656768799,5.818735122680664,-4.649342060089111,-0.6444222927093506,0.8137853741645813,3.280257225036621,XArbitraryZVertical,-0.4168089160217233,0.8932125466214095,0.107744887916684,0.1297417042300885,0.3215918838977814,-0.0843231752514839,0.9431166648864746,0,0,0,-1,-1,2682.955782,walking,2,2022-05-12T10:29:45.372+02:00,2022-05-11T22:15:20.957+02:00,141,0.8394551,0.6590101,1.930207,112.5515,0,0,2022-05-12T10:29:50.486+02:00,674036993.0381287,0,1.380001,100.8912,1,0.98
362,2022-05-12T10:29:55.599+02:00,1652344192.999894,53.22904118807356,10.39859988727644,36.48977,0.35,0.86,103.359375,81.72132828699164,4,5,-9999,2693.182146791667,-0.61761474609375,0.8106689453125,4.501312255859375,2693.177149791667,0.954059606724934,2.860695135797497,0.1271596913696917,-5.975594520568848,5.135600090026855,-5.487098217010498,-0.7274643778800964,0.9333515167236328,3.439543962478638,XArbitraryZVertical,-0.4458014970189723,0.8819217787320344,0.1200324709424121,0.0952231199599094,0.2749800086021423,-0.1268172860145569,0.9530500173568726,0,0,0,-1,-1,2682.955782,walking,2,2022-05-12T10:29:45.372+02:00,2022-05-11T22:15:20.957+02:00,141,0.8394551,0.6590101,1.930207,112.5515,0,0,2022-05-12T10:29:50.486+02:00,674036993.0381287,0,1.380001,100.8912,1,0.98
363,2022-05-12T10:29:55.619+02:00,1652344192.999894,53.22904118807356,10.39859988727644,36.48977,0.35,0.86,103.359375,81.72132828699164,4,5,-9999,2693.192141791667,-0.859375,0.7516937255859375,4.655868530273438,2693.187144791667,1.02743974167112,2.897559142377711,0.1679553605124218,-5.664960861206055,4.394383907318115,-6.451085090637207,-0.8558338284492493,0.97783625125885,3.544595718383789,XArbitraryZVertical,-0.4771563296497674,0.8664181126529524,0.1321110511404588,0.0647167186527991,0.2382187247276306,-0.1671668291091919,0.956717014312744,0,0,0,-1,-1,2682.955782,walking,2,2022-05-12T10:29:45.372+02:00,2022-05-11T22:15:20.957+02:00,141,0.8394551,0.0,0.0,112.5515,0,0,2022-05-12T10:29:55.601+02:00,674036993.0381287,0,1.380001,100.8912,1,0.98
364,2022-05-12T10:29:55.622+02:00,1652344192.999894,53.22904118807356,10.39859988727644,36.48977,0.35,0.86,103.359375,81.72132828699164,4,5,-9999,2693.202137791667,-1.163650512695312,0.4813995361328125,4.879852294921875,2693.197139791667,1.109261054207948,2.921669412510387,0.2054769925522478,-5.289977073669434,3.434176445007324,-7.474024295806885,-1.072941064834595,0.95572829246521,3.700484037399292,XArbitraryZVertical,-0.5111208514102288,0.846432482406503,0.1441450040726387,0.0391139254152812,0.2135656327009201,-0.2040341347455978,0.9553849697113036,0,0,0,-1,-1,2682.955782,walking,2,2022-05-12T10:29:45.372+02:00,2022-05-11T22:15:20.957+02:00,141,0.8394551,0.0,0.0,112.5515,0,0,2022-05-12T10:29:55.601+02:00,674036993.0381287,0,1.380001,100.8912,1,0.98
365,2022-05-12T10:29:55.629+02:00,1652344192.999894,53.22904118807356,10.39859988727644,36.48977,0.35,0.86,103.359375,81.72132828699164,4,5,-9999,2693.212132791667,-1.523284912109375,0.2086029052734375,5.1591796875,2693.207134791667,1.20094445730632,2.929693286634117,0.237599865505387,-4.771676063537598,2.161184310913086,-8.660858154296875,-1.368059396743774,0.7167705297470093,3.929685115814209,XArbitraryZVertical,-0.5475623137460625,0.8217416146190168,0.1565712716509278,0.0200448938518569,0.2044084966182709,-0.2353706061840057,0.9501675367355348,0,0,0,-1,-1,2693.185149791667,walking,2,2022-05-12T10:29:55.601+02:00,2022-05-11T22:15:20.957+02:00,141,0.8394551,0.0,0.0,112.5515,0,0,2022-05-12T10:29:55.601+02:00,674036995.6008024,0,0.5699997,100.8972,1,0.98
366,2022-05-12T10:29:55.639+02:00,1652344192.999894,53.22904118807356,10.39859988727644,36.48977,0.35,0.86,103.359375,81.72132828699164,4,5,-9999,2693.222127791667,-2.231842041015625,-0.1259307861328125,5.451416015625,2693.217129791667,1.304711121412368,2.916771403881602,0.2598975369780991,-3.868320941925049,0.2813320457935333,-10.06820487976074,-1.738730669021606,0.46558478474617,4.217084407806396,XArbitraryZVertical,-0.5865914101560975,0.7918069168416331,0.1698464816771185,0.0102198109905783,0.2154452055692673,-0.2569815218448639,0.9420953392982484,0,0,0,-1,-1,2693.185149791667,walking,2,2022-05-12T10:29:55.601+02:00,2022-05-11T22:15:20.957+02:00,141,0.8394551,0.0,0.0,112.5515,0,0,2022-05-12T10:29:55.601+02:00,674036995.6008024,0,0.5699997,100.8972,1,0.98
367,2022-05-12T10:29:55.649+02:00,1652344192.999894,53.22904118807356,10.39859988727644,36.48977,0.35,0.86,103.359375,81.72132828699164,4,5,-9999,2693.232122791667,-3.071563720703125,0.0286865234375,5.645751953125,2693.227124791667,1.422766441394352,2.874955990331624,0.265648422238724,-2.752567291259766,-2.628594160079956,-11.82430744171143,-2.486088514328003,0.1366044580936432,4.520591735839844,XArbitraryZVertical,-0.6280549150667357,0.7556185736719098,0.1854423891474622,0.01410101749171,0.2542459964752197,-0.2625350058078766,0.9308248162269592,0,0,0,-1,-1,2693.185149791667,walking,2,2022-05-12T10:29:55.601+02:00,2022-05-11T22:15:20.957+02:00,141,0.8394551,0.0,0.0,112.5515,0,0,2022-05-12T10:29:55.601+02:00,674036995.6008024,0,0.5699997,100.8972,1,0.98
368,2022-05-12T10:29:55.659+02:00,1652344192.999894,53.22904118807356,10.39859988727644,36.48977,0.35,0.86,103.359375,81.72132828699164,4,5,-9999,2693.242117791667,-3.787429809570312,1.11181640625,5.4427490234375,2693.237119791667,1.556675817470703,2.794877222362592,0.2484562152312911,-1.746049523353577,-6.691953182220459,-14.00959205627441,-3.400940418243408,0.2745945453643799,4.734137535095215,XArbitraryZVertical,-0.6710242760604457,0.7110089235578225,0.2070825700103641,0.0361888826675261,0.3293761014938354,-0.2459078729152679,0.9116145372390748,0,0,0,-1,-1,2693.185149791667,walking,2,2022-05-12T10:29:55.601+02:00,2022-05-11T22:15:20.957+02:00,141,0.8394551,0.0,0.0,112.5515,0,0,2022-05-12T10:29:55.601+02:00,674036995.6008024,0,0.5699997,100.8972,1,0.98
369,2022-05-12T10:29:55.669+02:00,1652344192.999894,53.22904118807356,10.39859988727644,36.48977,0.35,0.86,103.359375,81.72132828699164,4,5,-9999,2693.252112791667,-4.341873168945312,1.41265869140625,5.256423950195312,2693.247114791667,1.704037383581219,2.66921059067596,0.2026496803466529,-1.291144371032715,-11.89078521728516,-16.01486206054688,-4.233128070831299,1.313081979751587,4.570484638214111,XArbitraryZVertical,-0.7123773829259262,0.6547144484822169,0.2399642081519767,0.0792772044715737,0.4456980228424072,-0.2012654989957809,0.872265100479126,0,0,0,-1,-1,2693.185149791667,walking,2,2022-05-12T10:29:55.601+02:00,2022-05-11T22:15:20.957+02:00,141,0.8394551,0.0,0.0,112.5515,0,0,2022-05-12T10:29:55.601+02:00,674036995.6008024,0,0.5699997,100.8972,1,0.98
370,2022-05-12T10:29:55.679+02:00,1652344192.999894,53.22904118807356,10.39859988727644,36.48977,0.35,0.86,103.359375,81.72132828699164,4,5,-9999,2693.262107791667,-4.9486083984375,1.214431762695312,4.584671020507812,2693.257109791667,1.853725549630234,2.498113640339922,0.1247224232523929,-0.954380214214325,-17.31867980957031,-17.19929504394531,-4.937195777893066,1.537057995796204,4.462625503540039,XArbitraryZVertical,-0.7453974582130244,0.5841936556838632,0.2878944270996489,0.142187819207617,0.5953220129013062,-0.1243993192911148,0.7937992215156555,0,0,0,-1,-1,2693.185149791667,walking,2,2022-05-12T10:29:55.601+02:00,2022-05-11T22:15:20.957+02:00,141,0.8394551,0.0,0.0,112.5515,0,0,2022-05-12T10:29:55.601+02:00,674036995.6008024,0,0.5699997,100.8972,1,0.98
371,2022-05-12T10:29:55.689+02:00,1652344192.999894,53.22904118807356,10.39859988727644,36.48977,0.35,0.86,103.359375,81.72132828699164,4,5,-9999,2693.272102791667,-6.08673095703125,1.461013793945312,3.934402465820312,2693.267104791667,1.979127810014396,2.29248552617715,0.0073583807226648,1.61811375617981,-21.81355476379395,-16.94254112243652,-5.699279308319092,1.221789956092834,3.924035787582397,XArbitraryZVertical,-0.7607505038587912,0.5015741128951418,0.3461106447836468,0.2233596712715927,0.7506705522537231,-0.0073583144694566,0.6606358289718628,0,0,0,-1,-1,2693.185149791667,walking,2,2022-05-12T10:29:55.601+02:00,2022-05-11T22:15:20.957+02:00,141,0.8394551,0.0,0.0,112.5515,0,0,2022-05-12T10:29:55.601+02:00,674036995.6008024,0,0.5699997,100.8972,1,0.98
372,2022-05-12T10:29:55.699+02:00,1652344192.999894,53.22904118807356,10.39859988727644,36.48977,0.35,0.86,103.359375,81.72132828699164,4,5,-9999,2693.282097791667,-7.399200439453125,2.082244873046875,4.021255493164062,2693.277100791667,2.035925215520859,2.058890767056311,-0.1441804594021224,6.654857158660889,-25.52057075500488,-14.49375915527344,-6.960794925689697,1.31733226776123,3.470325231552124,XArbitraryZVertical,-0.7469475709097089,0.4172628917336313,0.4049831308890672,0.3224123916925569,0.8740637898445129,0.1436814367771149,0.4640779793262482,0,0,0,-1,-1,2693.185149791667,walking,2,2022-05-12T10:29:55.601+02:00,2022-05-11T22:15:20.957+02:00,141,0.8394551,0.0,0.0,112.5515,0,0,2022-05-12T10:29:55.601+02:00,674036995.6008024,0,0.5699997,100.8972,1,0.98
373,2022-05-12T10:29:55.711+02:00,1652344192.999894,53.22904118807356,10.39859988727644,36.48977,0.35,0.86,103.359375,81.72132828699164,4,5,-9999,2693.292092791667,-10.38201904296875,2.5955810546875,4.597732543945312,2693.287095791667,1.983965250060525,1.768353389292214,-0.2965720133733422,13.56785011291504,-29.69337844848633,-10.73782253265381,-8.336942672729492,1.790001153945923,3.833550214767456,XArbitraryZVertical,-0.6915460857836665,0.3400249688903579,0.4623381610479665,0.4386234309984536,0.9377421140670776,0.2922435998916626,0.187705934047699,0,0,0,-1,-1,2693.185149791667,walking,2,2022-05-12T10:29:55.601+02:00,2022-05-11T22:15:20.957+02:00,141,0.8394551,0.0,0.0,112.5515,0,0,2022-05-12T10:29:55.601+02:00,674036995.6008024,0,0.5699997,100.8972,1,0.98
374,2022-05-12T10:29:55.719+02:00,1652344193.9999,53.22904009842615,10.39859779180065,36.46719,0.35,0.74,113.5546875,84.1561951034528,4,5,-9999,2693.302087791667,-17.83110046386719,2.354217529296875,5.541793823242188,2693.297090791667,1.810120096086893,1.401727890332832,-0.3831096810020695,19.65540313720703,-32.09356307983398,-6.794815063476562,-11.29630088806152,2.221774578094482,4.753799438476562,XArbitraryZVertical,-0.5877677330100743,0.2765791503501344,0.5142566029314096,0.5599761553283884,0.9142823219299316,0.3738065361976624,-0.1560661345720291,0,0,0,-1,-1,2693.185149791667,walking,2,2022-05-12T10:29:55.601+02:00,2022-05-11T22:15:20.957+02:00,141,0.8394551,0.0,0.0,112.5515,0,0,2022-05-12T10:29:55.601+02:00,674036995.6008024,0,0.5699997,100.8972,1,0.98
375,2022-05-12T10:29:55.729+02:00,1652344193.9999,53.22904009842615,10.39859779180065,36.46719,0.35,0.74,113.5546875,84.1561951034528,4,5,-9999,2693.312082791667,-24.64414978027344,1.04791259765625,3.755615234375,2693.307085791667,1.566635794103184,0.979037217943991,-0.3516975993463499,25.39423370361328,-33.5162467956543,-3.878071069717407,-18.61025810241699,2.00972580909729,6.065471649169922,XArbitraryZVertical,-0.4360762555433735,0.2190864806609878,0.5548734747322208,0.6737612254928338,0.7791582345962524,0.3444919884204865,-0.5236772298812866,0,0,0,-1,-1,2693.185149791667,walking,2,2022-05-12T10:29:55.601+02:00,2022-05-11T22:15:20.957+02:00,141,0.8394551,0.0,0.0,112.5515,0,0,2022-05-12T10:29:55.601+02:00,674036995.6008024,0,0.5699997,100.8972,1,0.98
376,2022-05-12T10:29:55.739+02:00,1652344193.9999,53.22904009842615,10.39859779180065,36.46719,0.35,0.74,113.5546875,84.1561951034528,4,5,-9999,2693.322077791667,-26.93765258789062,0.5658721923828125,-1.232101440429688,2693.317080791667,1.348428126526632,0.601917943803669,-0.1453200921785228,34.46137619018555,-29.52693557739258,2.998839616775513,-25.20440483093262,0.903103768825531,4.571178913116455,XArbitraryZVertical,-0.2387347997153626,0.187680777278509,0.5778389943035902,0.7575512640399071,0.5602561831474304,0.1448091566562653,-0.8155632615089417,0,0,0,-1,-1,2693.185149791667,walking,2,2022-05-12T10:29:55.601+02:00,2022-05-11T22:15:20.957+02:00,141,0.8394551,0.0,0.0,112.5515,0,0,2022-05-12T10:29:55.601+02:00,674036995.6008024,0,0.5699997,100.8972,1,0.98
377,2022-05-12T10:29:55.749+02:00,1652344193.9999,53.22904009842615,10.39859779180065,36.46719,0.35,0.74,113.5546875,84.1561951034528,4,5,-9999,2693.332072791667,-19.32980346679688,4.454025268554688,1.267074584960938,2693.327075791667,1.233467874044891,0.3578957157935644,0.1869591284952409,35.10882568359375,-18.02845001220703,5.274892330169678,-27.28185081481934,0.7517444491386414,-0.3117870688438416,XArbitraryZVertical,-0.0275667709151119,0.1976941282151629,0.580206982926393,0.7896309251904231,0.3441996574401855,-0.185871884226799,-0.9203141927719116,0,0,0,-1,-1,2693.185149791667,walking,2,2022-05-12T10:29:55.601+02:00,2022-05-11T22:15:20.957+02:00,141,0.8394551,0.0,0.0,112.5515,0,0,2022-05-12T10:29:55.601+02:00,674036995.6008024,0,0.5699997,100.8972,1,0.98
378,2022-05-12T10:29:55.759+02:00,1652344193.9999,53.22904009842615,10.39859779180065,36.46719,0.35,0.74,113.5546875,84.1561951034528,4,5,-9999,2693.342067791667,-11.29299926757812,-8.132705688476562,6.140411376953125,2693.337070791667,1.176246769589938,0.2800700977390826,0.5374890873917675,35.00756454467773,-1.686126112937927,6.940045356750488,-19.5672492980957,4.966006278991699,2.092601537704468,XArbitraryZVertical,0.1440885551847488,0.2578273994806448,0.5604841966129346,0.7737060574707929,0.2374465316534042,-0.5119807124137878,-0.825527012348175,0,0,0,-1,-1,2693.185149791667,walking,2,2022-05-12T10:29:55.601+02:00,2022-05-11T22:15:20.957+02:00,141,0.8394551,0.0,0.0,112.5515,0,0,2022-05-12T10:29:55.601+02:00,674036995.6008024,0,0.5699997,100.8972,1,0.98
379,2022-05-12T10:29:55.769+02:00,1652344193.9999,53.22904009842615,10.39859779180065,36.46719,0.35,0.74,113.5546875,84.1561951034528,4,5,-9999,2693.352063791667,-2.588394165039062,-20.04835510253906,-1.209442138671875,2693.347065791667,1.168990249720061,0.328496537398666,0.880810892052551,27.07535362243652,9.476530075073242,11.67855358123779,-11.4983549118042,-7.3614501953125,6.74290132522583,XArbitraryZVertical,0.2691378848803626,0.3554149660938484,0.5505434582218879,0.705795316289265,0.205356240272522,-0.7712553143501282,-0.6024900078773499,0,0,0,-1,-1,2693.185149791667,walking,2,2022-05-12T10:29:55.601+02:00,2022-05-11T22:15:20.957+02:00,141,0.8394551,0.0,0.0,112.5515,0,0,2022-05-12T10:29:55.601+02:00,674036995.6008024,0,0.5699997,100.8972,1,0.98
380,2022-05-12T10:29:55.779+02:00,1652344193.9999,53.22904009842615,10.39859779180065,36.46719,0.35,0.74,113.5546875,84.1561951034528,4,5,-9999,2693.362058791667,2.729202270507812,-8.463668823242188,-4.927764892578125,2693.357060791667,1.260896555871006,0.3262149208128809,1.0234979046889,-1.238430619239807,2.884145259857178,6.306286334991455,-2.755155086517334,-19.19442176818848,-0.7165038585662842,XArbitraryZVertical,0.3068503655278834,0.3992163178659667,0.5713966513496175,0.6480548824705411,0.1667616218328476,-0.8539335131645203,-0.492938369512558,0,0,0,-1,-1,2693.185149791667,walking,2,2022-05-12T10:29:55.601+02:00,2022-05-11T22:15:20.957+02:00,141,0.8394551,0.0,0.0,112.5515,0,0,2022-05-12T10:29:55.601+02:00,674036995.6008024,0,0.5699997,100.8972,1,0.98
381,2022-05-12T10:29:55.789+02:00,1652344193.9999,53.22904009842615,10.39859779180065,36.46719,0.35,0.74,113.5546875,84.1561951034528,4,5,-9999,2693.372053791667,-3.418411254882812,-5.126144409179688,-2.249252319335938,2693.367055791667,1.406665986796148,0.1903917644903034,0.9551325936378502,-14.50124931335449,-3.350592851638794,6.039041996002197,2.619914531707764,-7.647278308868408,-4.360699653625488,XArbitraryZVertical,0.2943620481899357,0.3603031090822286,0.6051204683561139,0.6460356398163594,0.1092882975935936,-0.816390335559845,-0.5670652985572815,0,0,0,-1,-1,2693.185149791667,walking,2,2022-05-12T10:29:55.601+02:00,2022-05-11T22:15:20.957+02:00,141,0.8394551,0.0,0.0,112.5515,0,0,2022-05-12T10:29:55.601+02:00,674036995.6008024,0,0.5699997,100.8972,1,0.98
382,2022-05-12T10:29:55.799+02:00,1652344193.9999,53.22904009842615,10.39859779180065,36.46719,0.35,0.74,113.5546875,84.1561951034528,4,5,-9999,2693.382048791667,-4.575729370117188,-4.3946533203125,-1.666427612304688,2693.377050791667,1.527923898237589,0.0856875761780852,0.8168402454044517,-14.16883373260498,1.179206609725952,5.700174808502197,-3.476994514465332,-4.397157669067383,-1.567235708236694,XArbitraryZVertical,0.2593336493140587,0.3028824120879085,0.6465886325406789,0.6503318859916648,0.0585837997496128,-0.7289865612983704,-0.6820166110992432,0,0,0,-1,-1,2693.185149791667,walking,2,2022-05-12T10:29:55.601+02:00,2022-05-11T22:15:20.957+02:00,141,0.8394551,0.0,0.0,112.5515,0,0,2022-05-12T10:29:55.601+02:00,674036995.6008024,0,0.5699997,100.8972,1,0.98
383,2022-05-12T10:29:55.809+02:00,1652344193.9999,53.22904009842615,10.39859779180065,36.46719,0.35,0.74,113.5546875,84.1561951034528,4,5,-9999,2693.392043791667,-2.482925415039062,2.197906494140625,0.1639862060546875,2693.387045791667,1.61177820107593,0.0491375051578363,0.7060801700514272,-8.154426574707031,2.805129051208496,5.090487003326416,-4.613102912902832,-3.745797157287598,-0.9064348936080932,XArbitraryZVertical,0.2227204576797479,0.2653285318751202,0.6826294887812269,0.6434387845469025,0.0373742319643497,-0.6488561034202576,-0.7599927186965942,0,0,0,-1,-1,2693.185149791667,walking,2,2022-05-12T10:29:55.601+02:00,2022-05-11T22:15:20.957+02:00,141,0.8394551,0.0,0.0,112.5515,0,0,2022-05-12T10:29:55.601+02:00,674036995.6008024,0,0.5699997,100.8972,1,0.98
384,2022-05-12T10:29:55.819+02:00,1652344193.9999,53.22904009842615,10.39859779180065,36.46719,0.35,0.74,113.5546875,84.1561951034528,4,5,-9999,2693.402038791667,-3.244857788085938,0.52105712890625,0.630889892578125,2693.397040791667,1.68361897370958,0.0393212153110228,0.6719206175727993,0.6261581778526306,4.378336906433105,5.731033325195312,-2.513690710067749,2.820396900177002,0.946008801460266,XArbitraryZVertical,0.2057162592037886,0.258204374813534,0.7083334589604828,0.6239192457896716,0.0307659395039081,-0.6224902868270874,-0.7820226550102234,0,0,0,-1,-1,2693.185149791667,walking,2,2022-05-12T10:29:55.601+02:00,2022-05-11T22:15:20.957+02:00,141,0.8394551,0.0,0.0,112.5515,0,0,2022-05-12T10:29:55.601+02:00,674036995.6008024,0,0.5699997,100.8972,1,0.98
385,2022-05-12T10:29:55.829+02:00,1652344193.9999,53.22904009842615,10.39859779180065,36.46719,0.35,0.74,113.5546875,84.1561951034528,4,5,-9999,2693.412033791667,-1.993637084960938,-2.065475463867188,0.0966644287109375,2693.407035791667,1.75946629579987,0.0368033622809298,0.6994162112568172,3.495754718780518,4.395013809204102,6.066401958465576,-3.273013353347778,1.164828181266785,1.395589828491211,XArbitraryZVertical,0.2050157616930822,0.2749882476917495,0.7278240816138146,0.5938200349906472,0.0281562451273202,-0.6437710523605347,-0.7646999955177307,0,0,0,-1,-1,2693.185149791667,walking,2,2022-05-12T10:29:55.601+02:00,2022-05-11T22:15:20.957+02:00,141,0.8394551,0.0,0.0,112.5515,0,0,2022-05-12T10:29:55.601+02:00,674036995.6008024,0,0.5699997,100.8972,1,0.98
386,2022-05-12T10:29:55.839+02:00,1652344193.9999,53.22904009842615,10.39859779180065,36.46719,0.35,0.74,113.5546875,84.1561951034528,4,5,-9999,2693.422028791667,-1.86492919921875,-1.310379028320312,0.4335784912109375,2693.417030791667,1.832252408590063,0.0224503502704723,0.7320567678391152,2.698716640472412,2.280513286590576,5.31147289276123,-2.01033353805542,-1.397074699401855,0.8402782678604126,XArbitraryZVertical,0.2096023347784475,0.290275642255468,0.7431006064287407,0.5653392716475008,0.0166971962898969,-0.6684008836746216,-0.7436138391494751,0,0,0,-1,-1,2693.185149791667,walking,2,2022-05-12T10:29:55.601+02:00,2022-05-11T22:15:20.957+02:00,141,0.8394551,0.0,0.0,112.5515,0,0,2022-05-12T10:29:55.601+02:00,674036995.6008024,0,0.5699997,100.8972,1,0.98
387,2022-05-12T10:29:55.849+02:00,1652344193.9999,53.22904009842615,10.39859779180065,36.46719,0.35,0.74,113.5546875,84.1561951034528,4,5,-9999,2693.432023791667,-2.93017578125,-1.366363525390625,0.918792724609375,2693.427025791667,1.907136176140499,-0.0077587458571144,0.7614160048828179,3.281018733978271,2.233144760131836,5.630741119384766,-1.859312415122986,-0.6204319596290588,1.157416582107544,XArbitraryZVertical,0.2179961882949568,0.3009296821470349,0.7562584965854094,0.5385091117184305,-0.0056161875836551,-0.6899471282958984,-0.7238379716873169,0,0,0,-1,-1,2693.185149791667,walking,2,2022-05-12T10:29:55.601+02:00,2022-05-11T22:15:20.957+02:00,141,0.8394551,0.0,0.0,112.5515,0,0,2022-05-12T10:29:55.601+02:00,674036995.6008024,0,0.5699997,100.8972,1,0.98
388,2022-05-12T10:29:55.859+02:00,1652344193.9999,53.22904009842615,10.39859779180065,36.46719,0.35,0.74,113.5546875,84.1561951034528,4,5,-9999,2693.442018791667,-2.166061401367188,-0.8279571533203125,0.89544677734375,2693.437021791667,1.988415384652654,-0.0406728751019482,0.8000206504995481,4.721479415893555,2.474916458129883,5.725931644439697,-2.901846408843994,-0.6489931344985962,1.614908576011658,XArbitraryZVertical,0.2279610695623069,0.3161895890386593,0.7676703771641539,0.5086651777605234,-0.0283286534249782,-0.7173704504966736,-0.6961157917976379,0,0,0,-1,-1,2693.185149791667,walking,2,2022-05-12T10:29:55.601+02:00,2022-05-11T22:15:20.957+02:00,141,0.8394551,0.0,0.0,112.5515,0,0,2022-05-12T10:29:55.601+02:00,674036995.6008024,0,0.5699997,100.8972,1,0.98
389,2022-05-12T10:29:55.869+02:00,1652344193.9999,53.22904009842615,10.39859779180065,36.46719,0.35,0.74,113.5546875,84.1561951034528,4,5,-9999,2693.452014375,-2.403961181640625,-2.192916870117188,0.692840576171875,2693.447016791667,2.07719656150427,-0.0808758913901948,0.8458525924462489,4.964260578155518,2.620875358581543,5.777641773223877,-2.112490892410278,-0.0794205665588378,1.556372880935669,XArbitraryZVertical,0.239860342742554,0.3346700171311175,0.7767097200512818,0.4766394879695371,-0.0535698272287845,-0.7485367059707642,-0.6609259843826294,0,0,0,-1,-1,2693.185149791667,walking,2,2022-05-12T10:29:55.601+02:00,2022-05-11T22:15:20.957+02:00,141,0.8394551,0.0,0.0,112.5515,0,0,2022-05-12T10:29:55.601+02:00,674036995.6008024,0,0.5699997,100.8972,1,0.98
390,2022-05-12T10:29:55.879+02:00,1652344193.9999,53.22904009842615,10.39859779180065,36.46719,0.35,0.74,113.5546875,84.1561951034528,4,5,-9999,2693.462009375,-2.000839233398438,-2.776657104492188,0.450164794921875,2693.457012375,2.172647744570674,-0.1257495018429253,0.884870642680948,3.969300270080566,2.884949684143066,5.713711261749268,-2.324521780014038,-1.419084072113037,1.321229219436646,XArbitraryZVertical,0.2492579676592888,0.3516763751499518,0.785603894090305,0.4438702653045475,-0.0794386863708496,-0.7738330364227295,-0.6283884048461914,0,0,0,-1,-1,2693.185149791667,walking,2,2022-05-12T10:29:55.601+02:00,2022-05-11T22:15:20.957+02:00,141,0.8394551,0.0,0.0,112.5515,0,0,2022-05-12T10:29:55.601+02:00,674036995.6008024,0,0.5699997,100.8972,1,0.98
391,2022-05-12T10:29:55.889+02:00,1652344193.9999,53.22904009842615,10.39859779180065,36.46719,0.35,0.74,113.5546875,84.1561951034528,4,5,-9999,2693.472004375,-1.582046508789062,-2.745986938476562,0.304046630859375,2693.467007375,2.268951265467604,-0.1726669322741995,0.909352207251367,2.671899080276489,2.798793315887451,5.388737201690674,-1.895303010940552,-1.987551212310791,1.055288076400757,XArbitraryZVertical,0.2551143452682262,0.3638064450477542,0.7951984272979036,0.4125784614599061,-0.1055356487631798,-0.789106011390686,-0.6051231026649475,0,0,0,-1,-1,2693.185149791667,walking,2,2022-05-12T10:29:55.601+02:00,2022-05-11T22:15:20.957+02:00,141,0.8394551,0.0,0.0,112.5515,0,0,2022-05-12T10:29:55.601+02:00,674036995.6008024,0,0.5699997,100.8972,1,0.98
392,2022-05-12T10:29:55.899+02:00,1652344193.9999,53.22904009842615,10.39859779180065,36.46719,0.35,0.74,113.5546875,84.1561951034528,4,5,-9999,2693.481999375,-1.439285278320312,-2.588455200195312,0.2027740478515625,2693.477002375,2.357655436143242,-0.2147819582681167,0.921588805082813,1.890352845191956,2.884276866912842,4.736441612243652,-1.453194379806519,-1.949424028396606,0.8947113156318665,XArbitraryZVertical,0.2576093562494463,0.3718940137760104,0.8047932662181632,0.38423982812818,-0.1288515627384186,-0.7965631484985352,-0.5906645059585571,0,0,0,-1,-1,2693.185149791667,walking,2,2022-05-12T10:29:55.601+02:00,2022-05-11T22:15:20.957+02:00,141,0.8394551,0.0,0.0,112.5515,0,0,2022-05-12T10:29:55.601+02:00,674036995.6008024,0,0.5699997,100.8972,1,0.98
393,2022-05-12T10:29:55.909+02:00,1652344193.9999,53.22904009842615,10.39859779180065,36.46719,0.35,0.74,113.5546875,84.1561951034528,4,5,-9999,2693.491994375,-1.28594970703125,-2.311004638671875,0.0807952880859375,2693.486997375,2.43496363621383,-0.2465870376298692,0.9281626701070494,1.548594117164612,3.102753400802612,4.036704540252686,-1.292996764183044,-1.787935256958008,0.7839518189430237,XArbitraryZVertical,0.2568797494980293,0.3787136535238703,0.8135817742112372,0.3587108720421327,-0.1462879478931427,-0.8005201816558838,-0.5811775326728821,0,0,0,-1,-1,2693.185149791667,walking,2,2022-05-12T10:29:55.601+02:00,2022-05-11T22:15:20.957+02:00,141,0.8394551,0.0,0.0,112.5515,0,0,2022-05-12T10:29:55.601+02:00,674036995.6008024,0,0.5699997,100.8972,1,0.98
394,2022-05-12T10:29:55.919+02:00,1652344193.9999,53.22904009842615,10.39859779180065,36.46719,0.35,0.74,113.5546875,84.1561951034528,4,5,-9999,2693.501989375,-1.23602294921875,-2.090194702148438,-0.051544189453125,2693.496992375,2.501375533852649,-0.2682082618036932,0.9321898099375454,1.225795745849609,3.213605880737305,3.460180997848511,-1.127986192703247,-1.50807774066925,0.6555613279342651,XArbitraryZVertical,0.2535162883276281,0.3851578796992008,0.8214294668576838,0.3356137355324777,-0.1579629480838776,-0.8029271364212036,-0.5747658014297485,0,0,0,-1,-1,2693.185149791667,walking,2,2022-05-12T10:29:55.601+02:00,2022-05-11T22:15:20.957+02:00,141,0.8394551,0.0,0.0,112.5515,0,0,2022-05-12T10:29:55.601+02:00,674036995.6008024,0,0.5699997,100.8972,1,0.98
395,2022-05-12T10:29:55.929+02:00,1652344193.9999,53.22904009842615,10.39859779180065,36.46719,0.35,0.74,113.5546875,84.1561951034528,4,5,-9999,2693.511984375,-1.201431274414062,-1.963134765625,-0.1329498291015625,2693.506987375,2.558124239858341,-0.2814894599407473,0.932764708231174,0.7161208987236023,3.24474024772644,3.034265041351318,-1.070568323135376,-1.286925196647644,0.5206295251846313,XArbitraryZVertical,0.2480532907943236,0.3903622988617985,0.8288588907793706,0.3147694334202914,-0.1654541045427322,-0.8032696843147278,-0.5721736550331116,0,0,0,-1,-1,2693.185149791667,walking,2,2022-05-12T10:29:55.601+02:00,2022-05-11T22:15:20.957+02:00,141,0.8394551,0.0,0.0,112.5515,0,0,2022-05-12T10:29:55.601+02:00,674036995.6008024,0,0.5699997,100.8972,1,0.98
396,2022-05-12T10:29:55.939+02:00,1652344193.9999,53.22904009842615,10.39859779180065,36.46719,0.35,0.74,113.5546875,84.1561951034528,4,5,-9999,2693.521979375,-1.118743896484375,-1.676116943359375,-0.112518310546875,2693.516982375,2.606810525021058,-0.2886509108441103,0.928853452854979,0.1705375462770462,3.110141515731812,2.786403179168701,-1.030990242958069,-1.162201166152954,0.4410320520401001,XArbitraryZVertical,0.2411358177165764,0.393526001234997,0.836319870921911,0.2959053149638579,-0.1704404801130295,-0.8009339570999146,-0.5739815831184387,0,0,0,-1,-1,2693.185149791667,walking,2,2022-05-12T10:29:55.601+02:00,2022-05-11T22:15:20.957+02:00,141,0.8394551,0.0,0.0,112.5515,0,0,2022-05-12T10:29:55.601+02:00,674036995.6008024,0,0.5699997,100.8972,1,0.98
397,2022-05-12T10:29:55.949+02:00,1652344193.9999,53.22904009842615,10.39859779180065,36.46719,0.35,0.74,113.5546875,84.1561951034528,4,5,-9999,2693.531974375,-1.181808471679688,-1.43255615234375,-0.0836181640625,2693.526977375,2.649582381800325,-0.2929109919392814,0.920633676757841,-0.2433001101016998,2.884543657302856,2.626745462417603,-0.943964183330536,-0.8801319003105164,0.4670159220695496,XArbitraryZVertical,0.2338326207369125,0.3944050408362319,0.8438486343516624,0.2787229682390729,-0.1747791916131973,-0.7959853410720825,-0.5795339345932007,0,0,0,-1,-1,2693.185149791667,walking,2,2022-05-12T10:29:55.601+02:00,2022-05-11T22:15:20.957+02:00,141,0.8394551,0.0,0.0,112.5515,0,0,2022-05-12T10:29:55.601+02:00,674036995.6008024,0,0.5699997,100.8972,1,0.98
398,2022-05-12T10:29:55.959+02:00,1652344193.9999,53.22904009842615,10.39859779180065,36.46719,0.35,0.74,113.5546875,84.1561951034528,4,5,-9999,2693.541970375,-1.232070922851562,-1.156631469726562,-0.07366943359375,2693.536972375,2.688538836334705,-0.2951448011817583,0.9098973153313876,-0.410281240940094,2.875049352645874,2.553234100341797,-1.003258943557739,-0.643115758895874,0.5036671161651611,XArbitraryZVertical,0.2263246672859106,0.393871352013444,0.8513093117201912,0.262516709946155,-0.1785489767789841,-0.7894406914710999,-0.5872849822044373,0,0,0,-1,-1,2693.185149791667,walking,2,2022-05-12T10:29:55.601+02:00,2022-05-11T22:15:20.957+02:00,141,0.8394551,0.0,0.0,112.5515,0,0,2022-05-12T10:29:55.601+02:00,674036995.6008024,0,0.5699997,100.8972,1,0.98
399,2022-05-12T10:29:55.969+02:00,1652344193.9999,53.22904009842615,10.39859779180065,36.46719,0.35,0.74,113.5546875,84.1561951034528,4,5,-9999,2693.551965375,-1.185653686523438,-1.019668579101562,-0.0781097412109375,2693.546967375,2.725686247442813,-0.2954563419969048,0.8984313905972282,-0.4408791065216064,2.887195348739624,2.519111394882202,-1.050714731216431,-0.3742808699607849,0.5221808552742004,XArbitraryZVertical,0.2184113164984338,0.3929013993976093,0.8585843880109768,0.2464910465948913,-0.181355744600296,-0.7823508977890015,-0.5958499908447266,0,0,0,-1,-1,2693.185149791667,walking,2,2022-05-12T10:29:55.601+02:00,2022-05-11T22:15:20.957+02:00,141,0.8394551,0.0,0.0,112.5515,0,0,2022-05-12T10:29:55.601+02:00,674036995.6008024,0,0.5699997,100.8972,1,0.98
400,2022-05-12T10:29:55.979+02:00,1652344193.9999,53.22904009842615,10.39859779180065,36.46719,0.35,0.74,113.5546875,84.1561951034528,4,5,-9999,2693.561960375,-1.152999877929688,-1.028060913085938,-0.0596771240234375,2693.556962375,2.761880753646038,-0.2950193990558042,0.8866306502530125,-0.4888421595096588,2.845735549926758,2.514724731445312,-1.001886129379272,-0.2447222471237183,0.5266115069389343,XArbitraryZVertical,0.2104509965326581,0.391599178573252,0.8655718152896317,0.2305339706207265,-0.1837670803070068,-0.7749466300010681,-0.604720950126648,0,0,0,-1,-1,2693.185149791667,walking,2,2022-05-12T10:29:55.601+02:00,2022-05-11T22:15:20.957+02:00,141,0.8394551,0.0,0.0,112.5515,0,0,2022-05-12T10:29:55.601+02:00,674036995.6008024,0,0.5699997,100.8972,1,0.98
401,2022-05-12T10:29:55.989+02:00,1652344193.9999,53.22904009842615,10.39859779180065,36.46719,0.35,0.74,113.5546875,84.1561951034528,4,5,-9999,2693.571955375,-1.072265625,-1.027633666992188,-0.0686798095703125,2693.566957375,2.797510084691882,-0.2941817070881878,0.8744624122368257,-0.5114574432373047,2.811116218566895,2.542970418930054,-0.9670183658599854,-0.2608624696731567,0.5541775226593018,XArbitraryZVertical,0.2025198978163217,0.3899468412137462,0.8722914977505128,0.2145571173039922,-0.1859810352325439,-0.7671988010406494,-0.6138542890548706,0,0,0,-1,-1,2693.185149791667,walking,2,2022-05-12T10:29:55.601+02:00,2022-05-11T22:15:20.957+02:00,141,0.8394551,0.0,0.0,112.5515,0,0,2022-05-12T10:29:55.601+02:00,674036995.6008024,0,0.5699997,100.8972,1,0.98
402,2022-05-12T10:29:55.999+02:00,1652344193.9999,53.22904009842615,10.39859779180065,36.46719,0.35,0.74,113.5546875,84.1561951034528,4,5,-9999,2693.581950375,-0.9704132080078124,-1.0089111328125,-0.1016693115234375,2693.576952375,2.83287393087208,-0.2935253638063412,0.8622680839427581,-0.4963757693767548,2.714829921722412,2.527268648147583,-0.8839941024780273,-0.2683136463165283,0.5542062520980835,XArbitraryZVertical,0.1948354379655518,0.3880673907592135,0.8786443725287224,0.1985622790876283,-0.1882710307836533,-0.7593203783035278,-0.6228857040405273,0,0,0,-1,-1,2693.185149791667,walking,2,2022-05-12T10:29:55.601+02:00,2022-05-11T22:15:20.957+02:00,141,0.8394551,0.0,0.0,112.5515,0,0,2022-05-12T10:29:55.601+02:00,674036995.6008024,0,0.5699997,100.8972,1,0.98
403,2022-05-12T10:29:56.009+02:00,1652344193.9999,53.22904009842615,10.39859779180065,36.46719,0.35,0.74,113.5546875,84.1561951034528,4,5,-9999,2693.591945375,-0.8775482177734375,-0.9417877197265624,-0.162628173828125,2693.586947375,2.867477494704466,-0.2932982144280987,0.8509997352716603,-0.3187820613384247,2.550725936889648,2.466228246688843,-0.779821515083313,-0.2569717168807983,0.529410719871521,XArbitraryZVertical,0.1876381803554796,0.3863315484772843,0.8843652121535541,0.1828611699049122,-0.1905912756919861,-0.7519398331642151,-0.6310796737670898,0,0,0,-1,-1,2693.185149791667,walking,2,2022-05-12T10:29:55.601+02:00,2022-05-11T22:15:20.957+02:00,141,0.8394551,0.0,0.0,112.5515,0,0,2022-05-12T10:29:55.601+02:00,674036995.6008024,0,0.5699997,100.8972,1,0.98
404,2022-05-12T10:29:56.019+02:00,1652344193.9999,53.22904009842615,10.39859779180065,36.46719,0.35,0.74,113.5546875,84.1561951034528,4,5,-9999,2693.601940375,-0.8181610107421875,-0.981658935546875,-0.1799774169921875,2693.596942375,2.9015553527658,-0.2942701757073102,0.8422162566010003,-0.065530702471733,2.359639406204224,2.357055187225342,-0.6844350099563599,-0.195667564868927,0.4745625853538513,XArbitraryZVertical,0.181248142798245,0.3854268973293958,0.8891062886099315,0.1675868274287222,-0.1931127905845642,-0.7461205720901489,-0.6371904611587524,0,0,0,-1,-1,2693.185149791667,walking,2,2022-05-12T10:29:55.601+02:00,2022-05-11T22:15:20.957+02:00,141,0.8394551,0.0,0.0,112.5515,0,0,2022-05-12T10:29:55.601+02:00,674036995.6008024,0,0.5699997,100.8972,1,0.98
405,2022-05-12T10:29:56.029+02:00,1652344193.9999,53.22904009842615,10.39859779180065,36.46719,0.35,0.74,113.5546875,84.1561951034528,4,5,-9999,2693.611935375,-0.7724609375,-0.9975128173828124,-0.207489013671875,2693.606937375,2.934299209076135,-0.2960328599117319,0.8360730382067715,0.1546072661876678,2.167552947998047,2.187717914581299,-0.622591495513916,-0.2396430373191833,0.4612441658973694,XArbitraryZVertical,0.1755962997992498,0.3854288044114235,0.8928499132908984,0.1530673908910231,-0.1955691128969193,-0.7420162558555603,-0.6412211656570435,0,0,0,-1,-1,2693.185149791667,walking,2,2022-05-12T10:29:55.601+02:00,2022-05-11T22:15:20.957+02:00,141,0.8394551,0.0,0.0,112.5515,0,0,2022-05-12T10:29:55.601+02:00,674036995.6008024,0,0.5699997,100.8972,1,0.98
406,2022-05-12T10:29:56.042+02:00,1652344193.9999,53.22904009842615,10.39859779180065,36.46719,0.35,0.74,113.5546875,84.1561951034528,4,5,-9999,2693.621930375,-0.771087646484375,-1.054611206054688,-0.2711639404296875,2693.616932375,2.964927649124221,-0.2977552314478581,0.8319656353428179,0.2482134997844696,2.015745878219604,1.991969466209412,-0.5748947858810425,-0.258256733417511,0.4363029599189758,XArbitraryZVertical,0.1704032500629627,0.3860918356981772,0.8957868297846644,0.1395059697865142,-0.1975657492876053,-0.7392565011978149,-0.643791675567627,0,0,0,-1,-1,2693.185149791667,walking,2,2022-05-12T10:29:55.601+02:00,2022-05-11T22:15:20.957+02:00,141,0.8394551,0.0,0.0,112.5515,0,0,2022-05-12T10:29:55.601+02:00,674036995.6008024,0,0.5699997,100.8972,1,0.98
407,2022-05-12T10:29:56.049+02:00,1652344194.999906,53.22904009842615,10.39859779180065,36.6249,0.0,0.74,104.4140625,98.23070147323452,4,5,-9999,2693.631925375,-0.824676513671875,-1.058319091796875,-0.32794189453125,2693.626927375,2.993049134100588,-0.2991591019259071,0.8283973065010111,0.1617284119129181,1.868287563323975,1.853343605995178,-0.5718417763710022,-0.3177628517150879,0.3748667240142822,XArbitraryZVertical,0.165575040642356,0.3867425143562204,0.8982712720100805,0.1269799604441881,-0.1992455124855042,-0.7368488311767578,-0.6460302472114563,0,0,0,-1,-1,2693.185149791667,walking,2,2022-05-12T10:29:55.601+02:00,2022-05-11T22:15:20.957+02:00,141,0.8394551,0.0,0.0,112.5515,0,0,2022-05-12T10:29:55.601+02:00,674036995.6008024,0,0.5699997,100.8972,1,0.98
408,2022-05-12T10:29:56.059+02:00,1652344194.999906,53.22904009842615,10.39859779180065,36.6249,0.0,0.74,104.4140625,98.23070147323452,4,5,-9999,2693.641920375,-0.891265869140625,-1.012374877929688,-0.360137939453125,2693.636923375,3.018777002387247,-0.2997347618488373,0.8238185268447427,-0.0055221272632479,1.811715245246887,1.750690579414368,-0.6240646839141846,-0.3245739936828613,0.3211905956268311,XArbitraryZVertical,0.1608551460593752,0.3867292911693031,0.9007103305093417,0.1152696649721327,-0.2006114721298218,-0.7337455749511719,-0.6491321325302124,0,0,0,-1,-1,2693.185149791667,walking,2,2022-05-12T10:29:55.601+02:00,2022-05-11T22:15:20.957+02:00,141,0.8394551,0.0,0.0,112.5515,0,0,2022-05-12T10:29:55.601+02:00,674036995.6008024,0,0.5699997,100.8972,1,0.98
409,2022-05-12T10:29:56.069+02:00,1652344194.999906,53.22904009842615,10.39859779180065,36.6249,0.0,0.74,104.4140625,98.23070147323452,4,5,-9999,2693.651915375,-0.9008331298828124,-0.976287841796875,-0.3868865966796875,2693.646918375,3.04259723818225,-0.2990647024759601,0.8183611580907335,-0.0672981366515159,1.819466590881348,1.681639671325684,-0.6899122595787048,-0.2823485136032104,0.2929458022117615,XArbitraryZVertical,0.1559752657901483,0.3861735694030113,0.9031656836523756,0.1040849773961212,-0.2013532817363739,-0.7300267815589905,-0.6530833840370178,0,0,0,-1,-1,2693.185149791667,walking,2,2022-05-12T10:29:55.601+02:00,2022-05-11T22:15:20.957+02:00,141,0.8394551,0.0,0.0,112.5515,0,0,2022-05-12T10:29:55.601+02:00,674036995.6008024,0,0.5699997,100.8972,1,0.98
410,2022-05-12T10:29:56.079+02:00,1652344194.999906,53.22904009842615,10.39859779180065,36.6249,0.0,0.74,104.4140625,98.23070147323452,4,5,-9999,2693.661910375,-0.8349609375,-0.961334228515625,-0.40582275390625,2693.656913375,3.065052070098082,-0.2973744239089756,0.8128669190058618,-0.0811266079545021,1.767323613166809,1.583087682723999,-0.6994115114212036,-0.2500273585319519,0.2703615427017212,XArbitraryZVertical,0.150931374154342,0.3854813459200505,0.905496002406,0.0932784716867454,-0.2014212906360626,-0.7262609601020813,-0.6572477221488953,0,0,0,-1,-1,2693.185149791667,walking,2,2022-05-12T10:29:55.601+02:00,2022-05-11T22:15:20.957+02:00,141,0.8394551,0.0,0.0,112.5515,0,0,2022-05-12T10:29:55.601+02:00,674036995.6008024,0,0.5699997,100.8972,1,0.98
411,2022-05-12T10:29:56.089+02:00,1652344194.999906,53.22904009842615,10.39859779180065,36.6249,0.0,0.74,104.4140625,98.23070147323452,4,5,-9999,2693.671905375,-0.829498291015625,-0.97119140625,-0.391937255859375,2693.666908375,3.086040660009308,-0.2955863152260795,0.8073184712121396,-0.1512617468833923,1.637589335441589,1.498015403747559,-0.6335441470146179,-0.2388989925384521,0.2556292414665222,XArbitraryZVertical,0.1461582001244338,0.3845932730037938,0.9076473544136888,0.0830795983626796,-0.2014164924621582,-0.7224356532096863,-0.6614515781402588,0,0,0,-1,-1,2693.185149791667,walking,2,2022-05-12T10:29:55.601+02:00,2022-05-11T22:15:20.957+02:00,141,0.8394551,0.0,0.0,112.5515,0,0,2022-05-12T10:29:55.601+02:00,674036995.6008024,0,0.5699997,100.8972,1,0.98
412,2022-05-12T10:29:56.099+02:00,1652344194.999906,53.22904009842615,10.39859779180065,36.6249,0.0,0.74,104.4140625,98.23070147323452,4,5,-9999,2693.681900375,-0.833221435546875,-0.9587554931640624,-0.3810272216796875,2693.676903375,3.104984367077041,-0.2931572333334043,0.8013992019639792,-0.2053331136703491,1.590689897537231,1.367144465446472,-0.6284565925598145,-0.2528616786003113,0.274084210395813,XArbitraryZVertical,0.1415253651234501,0.3833536577647628,0.909719047240567,0.0736333488904508,-0.2010414153337479,-0.7183302044868469,-0.6660211086273193,0,0,0,-1,-1,2693.185149791667,walking,2,2022-05-12T10:29:55.601+02:00,2022-05-11T22:15:20.957+02:00,141,0.8394551,0.0,0.0,112.5515,0,0,2022-05-12T10:29:55.601+02:00,674036995.6008024,0,0.5699997,100.8972,1,0.98
413,2022-05-12T10:29:56.109+02:00,1652344194.999906,53.22904009842615,10.39859779180065,36.6249,0.0,0.74,104.4140625,98.23070147323452,4,5,-9999,2693.691895375,-0.8033905029296875,-0.9050445556640624,-0.3658294677734375,2693.686898375,3.121925760401458,-0.289502908202762,0.7960422556911116,-0.1306713819503784,1.560596704483032,1.211262226104736,-0.6335192322731018,-0.2441628575325012,0.2894029021263123,XArbitraryZVertical,0.1367357504903913,0.3822152742071727,0.9115952661864756,0.064876316271843,-0.1997018903493881,-0.7145931124687195,-0.6704296469688416,0,0,0,-1,-1,2693.185149791667,walking,2,2022-05-12T10:29:55.601+02:00,2022-05-11T22:15:20.957+02:00,141,0.8394551,0.0,0.0,112.5515,0,0,2022-05-12T10:29:55.601+02:00,674036995.6008024,0,0.5699997,100.8972,1,0.98
414,2022-05-12T10:29:56.119+02:00,1652344194.999906,53.22904009842615,10.39859779180065,36.6249,0.0,0.74,104.4140625,98.23070147323452,4,5,-9999,2693.701890375,-0.8059539794921875,-0.911376953125,-0.374847412109375,2693.696893375,3.137306958696149,-0.2852231005172859,0.7921226073690179,-0.018665624782443,1.497418880462646,1.079290628433228,-0.605772852897644,-0.1931993961334229,0.3081317543983459,XArbitraryZVertical,0.1319441021746392,0.3815892221446153,0.9131022031237872,0.056788212625986,-0.1976173669099808,-0.7118456363677979,-0.6739608645439148,0,0,0,-1,-1,2693.185149791667,walking,2,2022-05-12T10:29:55.601+02:00,2022-05-11T22:15:20.957+02:00,141,0.8394551,0.0,0.0,112.5515,0,0,2022-05-12T10:29:55.601+02:00,674036995.6008024,0,0.5699997,100.8972,1,0.98
