loggingTime(txt),locationTimestamp_since1970(s),locationLatitude(WGS84),locationLongitude(WGS84),locationAltitude(m),locationSpeed(m/s),locationSpeedAccuracy(m/s),locationCourse(°),locationCourseAccuracy(°),locationVerticalAccuracy(m),locationHorizontalAccuracy(m),locationFloor(Z),accelerometerTimestamp_sinceReboot(s),accelerometerAccelerationX(G),accelerometerAccelerationY(G),accelerometerAccelerationZ(G),motionTimestamp_sinceReboot(s),motionYaw(rad),motionRoll(rad),motionPitch(rad),motionRotationRateX(rad/s),motionRotationRateY(rad/s),motionRotationRateZ(rad/s),motionUserAccelerationX(G),motionUserAccelerationY(G),motionUserAccelerationZ(G),motionAttitudeReferenceFrame(txt),motionQuaternionX(R),motionQuaternionY(R),motionQuaternionZ(R),motionQuaternionW(R),motionGravityX(G),motionGravityY(G),motionGravityZ(G),motionMagneticFieldX(µT),motionMagneticFieldY(µT),motionMagneticFieldZ(µT),motionHeading(°),motionMagneticFieldCalibrationAccuracy(Z),activityTimestamp_sinceReboot(s),activity(txt),activityActivityConfidence(Z),activityActivityStartDate(txt),pedometerStartDate(txt),pedometerNumberofSteps(N),pedometerAverageActivePace(s/m),pedometerCurrentPace(s/m),pedometerCurrentCadence(steps/s),pedometerDistance(m),pedometerFloorAscended(N),pedometerFloorDescended(N),pedometerEndDate(txt),altimeterTimestamp_sinceReboot(s),altimeterReset(bool),altimeterRelativeAltitude(m),altimeterPressure(kPa),batteryState(N),batteryLevel(R)
2022-06-02T10:56:22.757+02:00,1654160182.268416,53.22910367480868,10.39851799050247,36.81713,0,20,-1,-1,2.400000095367432,7.999579855010837,-9999,3320.871222125,-0.0157623291015625,-0.3490447998046875,-0.973175048828125,3320.861228125,0.0487543433574722,0.1165425273466141,0.2468490293101863,-0.09060627222061157,-0.1811922937631607,0.07703206688165665,-0.1935494393110275,-0.2193954139947891,0.03352874517440796,XArbitraryZVertical,0.1214571704048706,0.06077381111237226,0.03131594580557669,0.990239365547752,0.11275415122509,-0.2443497180938721,-0.9631093740463257,0,0,0,-1,-1,3319.902423875,unknown,2,2022-06-02T10:56:21.761+02:00,2022-06-02T10:17:13.754+02:00,521,1.631355,0,0,405.4342,0,0,2022-06-02T10:55:58.733+02:00,675852974.0836968,0,4.363281,101.3298,1,0.77
2022-06-02T10:56:22.760+02:00,1654160182.268416,53.22910367480868,10.39851799050247,36.81713,0,20,-1,-1,2.400000095367432,7.999579855010837,-9999,3320.881217125,-0.0137176513671875,-0.3903961181640625,-0.9782257080078125,3320.871222125,0.04896473528083928,0.1147589608816281,0.2458296756741783,-0.1103688850998878,-0.1576959490776062,-0.05308126285672188,-0.1300618499517441,-0.1406568288803101,0.01531374454498291,XArbitraryZVertical,0.1209738253308161,0.05989471384316374,0.0312843249035537,0.9903531136637659,0.1110646650195122,-0.2433611452579498,-0.9635559320449829,0,0,0,-1,-1,3319.902423875,unknown,2,2022-06-02T10:56:21.761+02:00,2022-06-02T10:17:13.754+02:00,521,1.631355,0,0,405.4342,0,0,2022-06-02T10:55:58.733+02:00,675852974.0836968,0,4.363281,101.3298,1,0.77
2022-06-02T10:56:22.769+02:00,1654160182.268416,53.22910367480868,10.39851799050247,36.81713,0,20,-1,-1,2.400000095367432,7.999579855010837,-9999,3320.891211125,-0.009796142578125,-0.442535400390625,-0.973907470703125,3320.881217125,0.04838247987484092,0.1134049802107134,0.2444929598730612,-0.1506108492612839,-0.1412884891033173,-0.07648591697216034,-0.1255589723587036,-0.1069804131984711,-0.009147286415100098,XArbitraryZVertical,0.1203500276987234,0.05917762859471085,0.03087848241920704,0.9904848752771285,0.1097966432571411,-0.2420644015073776,-0.9640277624130249,0,0,0,-1,-1,3319.902423875,unknown,2,2022-06-02T10:56:21.761+02:00,2022-06-02T10:17:13.754+02:00,521,1.631355,0,0,405.4342,0,0,2022-06-02T10:55:58.733+02:00,675852974.0836968,0,4.363281,101.3298,1,0.77
2022-06-02T10:56:22.771+02:00,1654160182.268416,53.22910367480868,10.39851799050247,36.81713,0,20,-1,-1,2.400000095367432,7.999579855010837,-9999,3320.901205125,0.0057373046875,-0.4204864501953125,-0.946441650390625,3320.891211125,0.04780212397454924,0.1121676021954266,0.2425876403116684,-0.2058408111333847,-0.1316566318273544,-0.08226444572210312,-0.1223727613687515,-0.150180846452713,-0.01360625028610229,XArbitraryZVertical,0.1194420977838904,0.05851380777211358,0.03046636095392523,0.9906469323721553,0.1086551174521446,-0.2402153015136719,-0.9646194577217102,0,0,0,-1,-1,3319.902423875,unknown,2,2022-06-02T10:56:21.761+02:00,2022-06-02T10:17:13.754+02:00,521,1.631355,0,0,405.4342,0,0,2022-06-02T10:55:58.733+02:00,675852974.0836968,0,4.363281,101.3298,1,0.77
2022-06-02T10:56:22.773+02:00,1654160182.268416,53.22910367480868,10.39851799050247,36.81713,0,20,-1,-1,2.400000095367432,7.999579855010837,-9999,3320.911200125,0.029083251953125,-0.3797149658203125,-0.9058380126953125,3320.901205125,0.04691147442984428,0.111093388903644,0.2404536892948616,-0.1936898678541183,-0.1287127733230591,-0.1418550759553909,-0.1174715757369995,-0.20439213514328,-0.008664608001708984,XArbitraryZVertical,0.1184267964985743,0.05791083813193568,0.02990524457699824,0.9908214144595969,0.1076754331588745,-0.2381432801485062,-0.965242862701416,0,0,0,-1,-1,3319.902423875,unknown,2,2022-06-02T10:56:21.761+02:00,2022-06-02T10:17:13.754+02:00,521,1.631355,0,0,405.4342,0,0,2022-06-02T10:55:58.733+02:00,675852974.0836968,0,4.363281,101.3298,1,0.77
2022-06-02T10:56:22.780+02:00,1654160182.268416,53.22910367480868,10.39851799050247,36.81713,0,20,-1,-1,2.400000095367432,7.999579855010837,-9999,3320.921194125,0.05218505859375,-0.394775390625,-0.876373291015625,3320.911200125,0.0452649334792495,0.110150987005697,0.238491574224388,-0.1596871912479401,-0.1380261778831482,-0.2167849093675613,-0.1010795906186104,-0.1842492967844009,0.01936483383178711,XArbitraryZVertical,0.1175156772222601,0.05733086936882698,0.02898273696044847,0.9909909886440619,0.1068168953061104,-0.2362371683120728,-0.9658064842224121,0,0,0,-1,-1,3319.902423875,unknown,2,2022-06-02T10:56:21.761+02:00,2022-06-02T10:17:13.754+02:00,521,1.631355,0,0,405.4342,0,0,2022-06-02T10:55:58.733+02:00,675852974.0836968,0,4.363281,101.3298,1,0.77
2022-06-02T10:56:22.790+02:00,1654160182.268416,53.22910367480868,10.39851799050247,36.81713,0,20,-1,-1,2.400000095367432,7.999579855010837,-9999,3320.931188125,0.0686798095703125,-0.433319091796875,-0.8615875244140625,3320.921194125,0.04299730382300958,0.1092810519073636,0.2366993986571296,-0.1518942564725876,-0.154514342546463,-0.2570971846580505,-0.0769394189119339,-0.1452196538448334,0.06048035621643066,XArbitraryZVertical,0.1167043527940275,0.05675322589731035,0.02776167113163712,0.9911550158066968,0.1060226708650589,-0.2344953417778015,-0.9663183093070984,0,0,0,-1,-1,3319.902423875,unknown,2,2022-06-02T10:56:21.761+02:00,2022-06-02T10:17:13.754+02:00,521,1.631355,0,0,405.4342,0,0,2022-06-02T10:55:58.733+02:00,675852974.0836968,0,4.363281,101.3298,1,0.77
2022-06-02T10:56:22.800+02:00,1654160182.268416,53.22910367480868,10.39851799050247,36.81713,0,20,-1,-1,2.400000095367432,7.999579855010837,-9999,3320.941182125,0.0301361083984375,-0.44451904296875,-0.839508056640625,3320.931188125,0.04022600543793527,0.1082641048389194,0.2349636245912286,-0.137395903468132,-0.1811750531196594,-0.3181165158748627,-0.05289869010448456,-0.1619677990674973,0.09045559167861938,XArbitraryZVertical,0.1159357474035732,0.05607567211393673,0.02628429507946147,0.9913240561010476,0.1050837486982346,-0.2328076064586639,-0.9668288230895996,0,0,0,-1,-1,3319.902423875,unknown,2,2022-06-02T10:56:21.761+02:00,2022-06-02T10:17:13.754+02:00,521,1.631355,0,0,405.4342,0,0,2022-06-02T10:55:58.733+02:00,675852974.0836968,0,4.363281,101.3298,1,0.77
2022-06-02T10:56:22.810+02:00,1654160182.268416,53.22910367480868,10.39851799050247,36.81713,0,20,-1,-1,2.400000095367432,7.999579855010837,-9999,3320.951177125,0.0108795166015625,-0.4238739013671875,-0.84539794921875,3320.941182125,0.0366289118117934,0.1071998132753169,0.2330587506730543,-0.1563653349876404,-0.1716670244932175,-0.4001179039478302,-0.03542214632034302,-0.2023644596338272,0.1057918071746826,XArbitraryZVertical,0.1151049164241507,0.05532816035885049,0.02439092232922965,0.9915112773911368,0.1041019633412361,-0.2309546619653702,-0.9673793315887451,0,0,0,-1,-1,3319.902423875,unknown,2,2022-06-02T10:56:21.761+02:00,2022-06-02T10:17:13.754+02:00,521,1.631355,0,0,405.4342,0,0,2022-06-02T10:55:58.733+02:00,675852974.0836968,0,4.363281,101.3298,1,0.77
2022-06-02T10:56:22.820+02:00,1654160182.268416,53.22910367480868,10.39851799050247,36.81713,0,20,-1,-1,2.400000095367432,7.999579855010837,-9999,3320.961171125,0.055328369140625,-0.399658203125,-0.861419677734375,3320.951177125,0.03302431392745112,0.1067039670657739,0.2314027605179204,-0.1084178537130356,-0.1154366433620453,-0.3663749992847443,-0.07352675497531891,-0.2151759415864944,0.128301739692688,XArbitraryZVertical,0.1143888245103428,0.05486634037189968,0.02253305144724838,0.9916637765727085,0.1036628633737564,-0.2293431162834167,-0.9678097367286682,0,0,0,-1,-1,3319.902423875,unknown,2,2022-06-02T10:56:21.761+02:00,2022-06-02T10:17:13.754+02:00,521,1.631355,0,0,405.4342,0,0,2022-06-02T10:55:58.733+02:00,675852974.0836968,0,4.363281,101.3298,1,0.77
2022-06-02T10:56:22.830+02:00,1654160182.268416,53.22910367480868,10.39851799050247,36.81713,0,20,-1,-1,2.400000095367432,7.999579855010837,-9999,3320.971165125,0.0260467529296875,-0.3896026611328125,-0.885040283203125,3320.961171125,0.02916438650685865,0.1062998796309826,0.2296911492670698,-0.1606946438550949,-0.1474363952875137,-0.4108932018280029,-0.09243375062942505,-0.196197122335434,0.12284255027771,XArbitraryZVertical,0.1136497579836849,0.05443795524579914,0.02055227855873622,0.9918153414748042,0.1033132746815681,-0.2276767939329147,-0.96824049949646,0,0,0,-1,-1,3319.902423875,unknown,2,2022-06-02T10:56:21.761+02:00,2022-06-02T10:17:13.754+02:00,521,1.631355,0,0,405.4342,0,0,2022-06-02T10:55:58.733+02:00,675852974.0836968,0,4.363281,101.3298,1,0.77
2022-06-02T10:56:22.840+02:00,1654160182.268416,53.22910367480868,10.39851799050247,36.81713,0,20,-1,-1,2.400000095367432,7.999579855010837,-9999,3320.981159125,0.0458831787109375,-0.333282470703125,-0.949493408203125,3320.971165125,0.02490668462553702,0.10583206337748,0.2276956128973545,-0.1412300318479538,-0.1336348950862885,-0.445467084646225,-0.04757972806692123,-0.17392498254776,0.1073189377784729,XArbitraryZVertical,0.1127798366506045,0.05395757711687848,0.01836318577064709,0.991983835744028,0.1029080972075462,-0.22573322057724,-0.9687385559082031,0,0,0,-1,-1,3319.902423875,unknown,2,2022-06-02T10:56:21.761+02:00,2022-06-02T10:17:13.754+02:00,521,1.631355,0,0,405.4342,0,0,2022-06-02T10:55:58.733+02:00,675852974.0836968,0,4.363281,101.3298,1,0.77
2022-06-02T10:56:22.850+02:00,1654160182.268416,53.22910367480868,10.39851799050247,36.81713,0,20,-1,-1,2.400000095367432,7.999579855010837,-9999,3320.991154125,0.052001953125,-0.3115997314453125,-0.961334228515625,3320.981159125,0.02034329963914481,0.1055014457912484,0.225830942394814,-0.1310144066810608,-0.1503009647130966,-0.4728699326515198,-0.07658519595861435,-0.1656864136457443,0.08414918184280396,XArbitraryZVertical,0.1119802409180512,0.05353226550511888,0.01603330263757126,0.9921379116334075,0.1026319563388824,-0.2239162772893906,-0.969189465045929,0,0,0,-1,-1,3319.902423875,unknown,2,2022-06-02T10:56:21.761+02:00,2022-06-02T10:17:13.754+02:00,521,1.631355,0,0,405.4342,0,0,2022-06-02T10:55:58.733+02:00,675852974.0836968,0,4.363281,101.3298,1,0.77
2022-06-02T10:56:22.860+02:00,1654160182.268416,53.22910367480868,10.39851799050247,36.81713,0,20,-1,-1,2.400000095367432,7.999579855010837,-9999,3321.001148125,0.04998779296875,-0.360565185546875,-0.9331817626953125,3320.991154125,0.01540993250076155,0.1049696901632692,0.2241717843188587,-0.09510248154401779,-0.1751346737146378,-0.527012825012207,-0.05627217143774033,-0.1109835505485535,0.0201185941696167,XArbitraryZVertical,0.1112923396255152,0.05299062550149481,0.01351362940055729,0.9922819276398167,0.1021553501486778,-0.2222989499568939,-0.9696120023727417,0,0,0,-1,-1,3319.902423875,unknown,2,2022-06-02T10:56:21.761+02:00,2022-06-02T10:17:13.754+02:00,521,1.631355,0,0,405.4342,0,0,2022-06-02T10:55:58.733+02:00,675852974.0836968,0,4.363281,101.3298,1,0.77
2022-06-02T10:56:22.870+02:00,1654160182.268416,53.22910367480868,10.39851799050247,36.81713,0,20,-1,-1,2.400000095367432,7.999579855010837,-9999,3321.011142125,0.072479248046875,-0.3858795166015625,-0.916748046875,3321.001148125,0.009738568743753244,0.1044627943105406,0.2227802208174731,-0.07198064774274826,-0.1776646822690964,-0.5953109264373779,-0.04969405382871628,-0.09065777063369751,0.008636176586151123,XArbitraryZVertical,0.1107543568539163,0.05242401084339519,0.01063581769702099,0.9924071990184808,0.1016960069537163,-0.2209419906139374,-0.9699704051017761,0,0,0,-1,-1,3319.902423875,unknown,2,2022-06-02T10:56:21.761+02:00,2022-06-02T10:17:13.754+02:00,521,1.631355,0,0,405.4342,0,0,2022-06-02T10:55:58.733+02:00,675852974.0836968,0,4.363281,101.3298,1,0.77
2022-06-02T10:56:22.880+02:00,1654160182.268416,53.22910367480868,10.39851799050247,36.81713,0,20,-1,-1,2.400000095367432,7.999579855010837,-9999,3321.021137125,0.0728912353515625,-0.3800201416015625,-0.8887939453125,3321.011142125,0.003690374803419624,0.1039362835319987,0.2213895510940671,-0.08289235085248947,-0.1930442899465561,-0.6044989228248596,-0.05122927576303482,-0.1409797370433807,0.03714668750762939,XArbitraryZVertical,0.1102242671883752,0.05183030382276001,0.007569685137262363,0.9925255061727896,0.1012170687317848,-0.2195854783058167,-0.9703284502029419,0,0,0,-1,-1,3319.902423875,unknown,2,2022-06-02T10:56:21.761+02:00,2022-06-02T10:17:13.754+02:00,521,1.631355,0,0,405.4342,0,0,2022-06-02T10:55:58.733+02:00,675852974.0836968,0,4.363281,101.3298,1,0.77
2022-06-02T10:56:22.890+02:00,1654160182.268416,53.22910367480868,10.39851799050247,36.81713,0,20,-1,-1,2.400000095367432,7.999579855010837,-9999,3321.031131125,0.04638671875,-0.359954833984375,-0.8526763916015625,3321.021137125,-0.002523837024335679,0.1033014321828106,0.2197951311711404,-0.1153677329421043,-0.2100387215614319,-0.6424476504325867,-0.02815776318311691,-0.1678498536348343,0.05399149656295776,XArbitraryZVertical,0.1095948929741103,0.05117804311962802,0.004409713753243665,0.992648108818511,0.1006370112299919,-0.2180296927690506,-0.9707395434379578,0,0,0,-1,-1,3319.902423875,unknown,2,2022-06-02T10:56:21.761+02:00,2022-06-02T10:17:13.754+02:00,521,1.631355,0,0,405.4342,0,0,2022-06-02T10:55:58.733+02:00,675852974.0836968,0,4.363281,101.3298,1,0.77
2022-06-02T10:56:22.900+02:00,1654160182.268416,53.22910367480868,10.39851799050247,36.81713,0,20,-1,-1,2.400000095367432,7.999579855010837,-9999,3321.041125125,0.02667236328125,-0.34271240234375,-0.8769378662109375,3321.031131125,-0.009121867680166611,0.1025346165336941,0.2178558221443262,-0.1255263388156891,-0.2233512699604034,-0.667880654335022,-0.02704445272684097,-0.1638835370540619,0.08244127035140991,XArbitraryZVertical,0.1088010083053764,0.05044543116916875,0.001042975950076361,0.9927821531746577,0.09993569552898407,-0.2161366194486618,-0.9712352156639099,0,0,0,-1,-1,3319.902423875,unknown,2,2022-06-02T10:56:21.761+02:00,2022-06-02T10:17:13.754+02:00,521,1.631355,0,0,405.4342,0,0,2022-06-02T10:55:58.733+02:00,675852974.0836968,0,4.363281,101.3298,1,0.77
2022-06-02T10:56:22.910+02:00,1654160182.268416,53.22910367480868,10.39851799050247,36.81713,0,20,-1,-1,2.400000095367432,7.999579855010837,-9999,3321.051119125,0.0047454833984375,-0.3454742431640625,-0.89263916015625,3321.041125125,-0.01584437202091714,0.1019501272578618,0.2159414682552929,-0.1206863075494766,-0.1789062917232513,-0.6787796020507812,-0.05302320420742035,-0.1456877291202545,0.1190268993377686,XArbitraryZVertical,0.1080190375037815,0.04980211196472326,-0.002375163221307876,0.9928976739702239,0.09940993040800095,-0.2142671197652817,-0.9717032909393311,0,0,0,-1,-1,3319.902423875,unknown,2,2022-06-02T10:56:21.761+02:00,2022-06-02T10:17:13.754+02:00,521,1.631355,0,0,405.4342,0,0,2022-06-02T10:55:58.733+02:00,675852974.0836968,0,4.363281,101.3298,1,0.77
2022-06-02T10:56:22.920+02:00,1654160182.268416,53.22910367480868,10.39851799050247,36.81713,0,20,-1,-1,2.400000095367432,7.999579855010837,-9999,3321.061114125,-0.0043182373046875,-0.3652496337890625,-0.897430419921875,3321.051119125,-0.02272716013378715,0.1018198137694065,0.2141930833615237,-0.09056378901004791,-0.1405678987503052,-0.6962079405784607,-0.07264886051416397,-0.1301534026861191,0.09514957666397095,XArbitraryZVertical,0.107321491830966,0.04938002183339423,-0.00584443584771112,0.9929801269296377,0.09932123124599457,-0.2125590145587921,-0.9720874428749084,0,0,0,-1,-1,3319.902423875,unknown,2,2022-06-02T10:56:21.761+02:00,2022-06-02T10:17:13.754+02:00,521,1.631355,0,0,405.4342,0,0,2022-06-02T10:55:58.733+02:00,675852974.0836968,0,4.363281,101.3298,1,0.77
2022-06-02T10:56:22.930+02:00,1654160182.268416,53.22910367480868,10.39851799050247,36.81713,0,20,-1,-1,2.400000095367432,7.999579855010837,-9999,3321.071108125,-0.0012054443359375,-0.336578369140625,-0.9002838134765625,3321.061114125,-0.02984110891861332,0.102036968621865,0.2126337581225942,-0.07194722443819046,-0.1192998960614204,-0.7172203063964844,-0.09482046961784363,-0.1344392001628876,0.07975524663925171,XArbitraryZVertical,0.1067234063389216,0.04912156917667473,-0.009405491316137368,0.9930300342730081,0.09956596046686172,-0.2110350728034973,-0.9723943471908569,0,0,0,-1,-1,3319.902423875,unknown,2,2022-06-02T10:56:21.761+02:00,2022-06-02T10:17:13.754+02:00,521,1.631355,0,0,405.4342,0,0,2022-06-02T10:55:58.733+02:00,675852974.0836968,0,4.363281,101.3298,1,0.77
2022-06-02T10:56:22.940+02:00,1654160182.268416,53.22910367480868,10.39851799050247,36.81713,0,20,-1,-1,2.400000095367432,7.999579855010837,-9999,3321.081102125,-0.0042724609375,-0.2823028564453125,-0.894317626953125,3321.071108125,-0.03707388779519446,0.1022609924824675,0.2113106648722314,-0.05453195050358772,-0.144781693816185,-0.7197509407997131,-0.1041304469108582,-0.1555080562829971,0.0752185583114624,XArbitraryZVertical,0.1062450169824657,0.04886227826973834,-0.01301954201109825,0.9930532563074485,0.09981220960617065,-0.2097415924072266,-0.9726489186286926,0,0,0,-1,-1,3319.902423875,unknown,2,2022-06-02T10:56:21.761+02:00,2022-06-02T10:17:13.754+02:00,521,1.631355,0,0,405.4342,0,0,2022-06-02T10:55:58.733+02:00,675852974.0836968,0,4.363281,101.3298,1,0.77
2022-06-02T10:56:22.950+02:00,1654160182.268416,53.22910367480868,10.39851799050247,36.81713,0,20,-1,-1,2.400000095367432,7.999579855010837,-9999,3321.091097125,-0.0119476318359375,-0.270660400390625,-0.94677734375,3321.081102125,-0.0444560584343765,0.1023004288997156,0.209956603644202,-0.06188413873314857,-0.1551041007041931,-0.7427420020103455,-0.1010849177837372,-0.1281609386205673,0.07264286279678345,XArbitraryZVertical,0.1057528138007676,0.04850794529579978,-0.0167187855844953,0.9930678768560151,0.09987948089838028,-0.2084174603223801,-0.9729266166687012,0,0,0,-1,-1,3319.902423875,unknown,2,2022-06-02T10:56:21.761+02:00,2022-06-02T10:17:13.754+02:00,521,1.631355,0,0,405.4342,0,0,2022-06-02T10:55:58.733+02:00,675852974.0836968,0,4.363281,101.3298,1,0.77
2022-06-02T10:56:22.960+02:00,1654160182.268416,53.22910367480868,10.39851799050247,36.81713,0,20,-1,-1,2.400000095367432,7.999579855010837,-9999,3321.101091125,-0.0077056884765625,-0.282745361328125,-0.9832000732421875,3321.091097125,-0.05189236331779997,0.102279815784093,0.2086593369164701,-0.05626234039664268,-0.1576689928770065,-0.7255635857582092,-0.1041594073176384,-0.0751543790102005,0.07887923717498779,XArbitraryZVertical,0.1052883055861597,0.04812435081837039,-0.020446851433591,0.9930660613032017,0.0998869463801384,-0.2071485072374344,-0.9731968641281128,0,0,0,-1,-1,3319.902423875,unknown,2,2022-06-02T10:56:21.761+02:00,2022-06-02T10:17:13.754+02:00,521,1.631355,0,0,405.4342,0,0,2022-06-02T10:55:58.733+02:00,675852974.0836968,0,4.363281,101.3298,1,0.77
2022-06-02T10:56:22.970+02:00,1654160182.268416,53.22910367480868,10.39851799050247,36.81713,0,20,-1,-1,2.400000095367432,7.999579855010837,-9999,3321.11108325,-0.0001983642578125,-0.3365325927734375,-1.024307250976562,3321.101091125,-0.05910156446279372,0.1022511890989005,0.2070802081786836,-0.1086658909916878,-0.1477974504232407,-0.7218918800354004,-0.1118399798870087,-0.06505705416202545,0.02674657106399536,XArbitraryZVertical,0.1046769395342818,0.04775766244948346,-0.02407035920321886,0.9930671347652461,0.09989235550165176,-0.2056033760309219,-0.9735239148139954,0,0,0,-1,-1,3319.902423875,unknown,2,2022-06-02T10:56:21.761+02:00,2022-06-02T10:17:13.754+02:00,521,1.631355,0,0,405.4342,0,0,2022-06-02T10:55:58.733+02:00,675852974.0836968,0,4.363281,101.3298,1,0.77
2022-06-02T10:56:22.980+02:00,1654160182.268416,53.22910367480868,10.39851799050247,36.81713,0,20,-1,-1,2.400000095367432,7.999579855010837,-9999,3321.12107725,0.004241943359375,-0.3680419921875,-1.00982666015625,3321.11108325,-0.06637983733071247,0.1022499741794534,0.2049707420705447,-0.1746771037578583,-0.1544377207756042,-0.7386216521263123,-0.1076408997178078,-0.07920686900615692,-0.009246766567230225,XArbitraryZVertical,0.1038030088274235,0.04741611602177097,-0.02774134090830251,0.9930795365547386,0.09993521869182587,-0.2035385072231293,-0.9739533066749573,0,0,0,-1,-1,3319.902423875,unknown,2,2022-06-02T10:56:21.761+02:00,2022-06-02T10:17:13.754+02:00,521,1.631355,0,0,405.4342,0,0,2022-06-02T10:55:58.733+02:00,675852974.0836968,0,4.363281,101.3298,1,0.77
2022-06-02T10:56:22.990+02:00,1654160182.268416,53.22910367480868,10.39851799050247,36.81713,0,20,-1,-1,2.400000095367432,7.999579855010837,-9999,3321.13107225,-0.009613037109375,-0.383697509765625,-0.963958740234375,3321.12107725,-0.07359951489396535,0.1021690923272729,0.2019120655276305,-0.2814245820045471,-0.1518560349941254,-0.7362037897109985,-0.1001178398728371,-0.1359896808862686,-0.04973107576370239,XArbitraryZVertical,0.1024541050087711,0.04706476722344072,-0.03141355658271205,0.993126929582846,0.09991946816444397,-0.2005429118871689,-0.9745761156082153,0,0,0,-1,-1,3319.902423875,unknown,2,2022-06-02T10:56:21.761+02:00,2022-06-02T10:17:13.754+02:00,521,1.631355,0,0,405.4342,0,0,2022-06-02T10:55:58.733+02:00,675852974.0836968,0,4.363281,101.3298,1,0.77
2022-06-02T10:56:23.000+02:00,1654160182.268416,53.22910367480868,10.39851799050247,36.81713,0,20,-1,-1,2.400000095367432,7.999579855010837,-9999,3321.14106625,-0.0239715576171875,-0.376953125,-0.910186767578125,3321.13107225,-0.08080348181674905,0.1022470053375286,0.1979424538811144,-0.358459085226059,-0.1178398206830025,-0.750679075717926,-0.095833919942379,-0.171389639377594,-0.03447407484054565,XArbitraryZVertical,0.1006540201723668,0.04682388184098971,-0.03509539936799261,0.9931992027024371,0.1000758707523346,-0.1966523826122284,-0.9753525853157043,0,0,0,-1,-1,3319.902423875,unknown,2,2022-06-02T10:56:21.761+02:00,2022-06-02T10:17:13.754+02:00,521,1.631355,0,0,405.4342,0,0,2022-06-02T10:55:58.733+02:00,675852974.0836968,0,4.363281,101.3298,1,0.77
2022-06-02T10:56:23.010+02:00,1654160182.268416,53.22910367480868,10.39851799050247,36.81713,0,20,-1,-1,2.400000095367432,7.999579855010837,-9999,3321.15106025,-0.0254364013671875,-0.3672332763671875,-0.88812255859375,3321.14106625,-0.08808979974010031,0.102743706248141,0.1934830308469044,-0.3789846003055573,-0.07073435932397842,-0.7647097110748291,-0.1102622896432877,-0.1914194375276566,0.01220667362213135,XArbitraryZVertical,0.09862007223799975,0.04681225107451629,-0.03881191395367866,0.9932655452840362,0.1006492599844933,-0.1922780871391296,-0.9761654138565063,0,0,0,-1,-1,3319.902423875,unknown,2,2022-06-02T10:56:21.761+02:00,2022-06-02T10:17:13.754+02:00,521,1.631355,0,0,405.4342,0,0,2022-06-02T10:55:58.733+02:00,675852974.0836968,0,4.363281,101.3298,1,0.77
2022-06-02T10:56:23.020+02:00,1654160182.268416,53.22910367480868,10.39851799050247,36.81713,0,20,-1,-1,2.400000095367432,7.999579855010837,-9999,3321.16105425,-0.0167999267578125,-0.35211181640625,-0.8849334716796875,3321.15106025,-0.09537462686952419,0.1036224225713078,0.1886812766675033,-0.4342604577541351,-0.03239941596984863,-0.7556976079940796,-0.1255728751420975,-0.1893894076347351,0.06679689884185791,XArbitraryZVertical,0.09642513011185216,0.0470146813490525,-0.04252065966824894,0.9933195296005503,0.1016013249754906,-0.1875637322664261,-0.9769836068153381,0,0,0,-1,-1,3319.902423875,unknown,2,2022-06-02T10:56:21.761+02:00,2022-06-02T10:17:13.754+02:00,521,1.631355,0,0,405.4342,0,0,2022-06-02T10:55:58.733+02:00,675852974.0836968,0,4.363281,101.3298,1,0.77
2022-06-02T10:56:23.030+02:00,1654160182.268416,53.22910367480868,10.39851799050247,36.81713,0,20,-1,-1,2.400000095367432,7.999579855010837,-9999,3321.17104925,-0.01336669921875,-0.303985595703125,-0.87298583984375,3321.16105425,-0.1024105438540841,0.1046919056050824,0.1833124015002407,-0.4837875366210938,-0.02083730511367321,-0.7333765625953674,-0.1281862854957581,-0.1849458068609238,0.08973932266235352,XArbitraryZVertical,0.09394950798797584,0.04735589183295863,-0.04611559503361711,0.993380193747632,0.1027498841285706,-0.1822874695062637,-0.9778618216514587,0,0,0,-1,-1,3319.902423875,unknown,2,2022-06-02T10:56:21.761+02:00,2022-06-02T10:17:13.754+02:00,521,1.631355,0,0,405.4342,0,0,2022-06-02T10:55:58.733+02:00,675852974.0836968,0,4.363281,101.3298,1,0.77
2022-06-02T10:56:23.040+02:00,1654160182.268416,53.22910367480868,10.39851799050247,36.81713,0,20,-1,-1,2.400000095367432,7.999579855010837,-9999,3321.18104325,-0.01409912109375,-0.21771240234375,-0.8760223388671875,3321.17104925,-0.1093934070944109,0.1055822824488776,0.1778575632048521,-0.4389588832855225,-0.05293465405702591,-0.7496920228004456,-0.120523676276207,-0.1751904934644699,0.09381073713302612,XArbitraryZVertical,0.0914285855473166,0.04763099903392688,-0.04969826638645289,0.9934294416968932,0.1037237569689751,-0.1769213378429413,-0.9787442088127136,0,0,0,-1,-1,3319.902423875,unknown,2,2022-06-02T10:56:21.761+02:00,2022-06-02T10:17:13.754+02:00,521,1.631355,0,0,405.4342,0,0,2022-06-02T10:55:58.733+02:00,675852974.0836968,0,4.363281,101.3298,1,0.77
2022-06-02T10:56:23.050+02:00,1654160182.268416,53.22910367480868,10.39851799050247,36.81713,0,20,-1,-1,2.400000095367432,7.999579855010837,-9999,3321.19103725,-0.002227783203125,-0.1559600830078125,-0.8912200927734375,3321.18104325,-0.1166672926759511,0.106139452473538,0.1734425450052255,-0.2815120220184326,-0.0836251825094223,-0.7649527192115784,-0.1177174896001816,-0.1314113587141037,0.106467604637146,XArbitraryZVertical,0.0894244884177984,0.04771314044816116,-0.05341317504343411,0.9934151347795588,0.1043508052825928,-0.1725742667913437,-0.979453444480896,0,0,0,-1,-1,3319.902423875,unknown,2,2022-06-02T10:56:21.761+02:00,2022-06-02T10:17:13.754+02:00,521,1.631355,0,0,405.4342,0,0,2022-06-02T10:55:58.733+02:00,675852974.0836968,0,4.363281,101.3298,1,0.77
2022-06-02T10:56:23.060+02:00,1654160182.268416,53.22910367480868,10.39851799050247,36.81713,0,20,-1,-1,2.400000095367432,7.999579855010837,-9999,3321.20103225,0.0308380126953125,-0.2013092041015625,-0.9423370361328125,3321.19103725,-0.1241392978908032,0.1066944403370693,0.1707689635178273,-0.0889381617307663,-0.06252150237560272,-0.7622301578521729,-0.1190422475337982,-0.04777224361896515,0.1038283109664917,XArbitraryZVertical,0.08829095832730048,0.04774293598784685,-0.05717732486694249,0.9933055872751551,0.1049431338906288,-0.169940173625946,-0.9798506498336792,0,0,0,-1,-1,3319.902423875,unknown,2,2022-06-02T10:56:21.761+02:00,2022-06-02T10:17:13.754+02:00,521,1.631355,0,0,405.4342,0,0,2022-06-02T10:55:58.733+02:00,675852974.0836968,0,4.363281,101.3298,1,0.77
2022-06-02T10:56:23.070+02:00,1654160182.268416,53.22910367480868,10.39851799050247,36.81713,0,20,-1,-1,2.400000095367432,7.999579855010837,-9999,3321.21102625,0.051025390625,-0.295623779296875,-0.9908294677734375,3321.20103225,-0.1320116248359833,0.1073001355462503,0.1699257501171321,0.06576992571353912,-0.0916474312543869,-0.8060578107833862,-0.1077796816825867,0.01314906775951385,0.08870893716812134,XArbitraryZVertical,0.08807825907685295,0.04772537326693831,-0.06108472616593414,0.9930926973075189,0.1055519133806229,-0.1691091656684875,-0.9799290299415588,0,0,0,-1,-1,3319.902423875,unknown,2,2022-06-02T10:56:21.761+02:00,2022-06-02T10:17:13.754+02:00,521,1.631355,0,0,405.4342,0,0,2022-06-02T10:55:58.733+02:00,675852974.0836968,0,4.363281,101.3298,1,0.77
2022-06-02T10:56:23.080+02:00,1654160182.268416,53.22910367480868,10.39851799050247,36.81713,0,20,-1,-1,2.400000095367432,7.999579855010837,-9999,3321.22102025,0.0455169677734375,-0.3979339599609375,-1.015274047851562,3321.21102625,-0.1403659489504566,0.107503127904516,0.1695011098915291,-0.001465571112930775,-0.1493320316076279,-0.8307577967643738,-0.07492051273584366,-0.03261858224868774,0.03764188289642334,XArbitraryZVertical,0.08807280728848942,0.04747358842179614,-0.06523613030168689,0.9928411579388462,0.1057585254311562,-0.1686906367540359,-0.9799788594245911,0,0,0,-1,-1,3319.902423875,unknown,2,2022-06-02T10:56:21.761+02:00,2022-06-02T10:17:13.754+02:00,521,1.631355,0,0,405.4342,0,0,2022-06-02T10:55:58.733+02:00,675852974.0836968,0,4.363281,101.3298,1,0.77
2022-06-02T10:56:23.090+02:00,1654160183.000349,53.22910247596652,10.39851819288777,36.81964,0,20,-1,-1,2.400000095367432,7.999579855010837,-9999,3321.23101425,0.02972412109375,-0.4280853271484375,-0.9844207763671875,3321.22102025,-0.1485676973555172,0.1072717220085654,0.1676305733345514,-0.2056756913661957,-0.1657144725322723,-0.8143479824066162,-0.05453995615243912,-0.1287771910429001,-0.01051408052444458,XArbitraryZVertical,0.08733100077685467,0.04707044636209707,-0.06937295846614627,0.9926454306768315,0.1055653467774391,-0.1668466031551361,-0.9803153276443481,0,0,0,-1,-1,3319.902423875,unknown,2,2022-06-02T10:56:21.761+02:00,2022-06-02T10:17:13.754+02:00,521,1.631355,0,0,405.4342,0,0,2022-06-02T10:55:58.733+02:00,675852974.0836968,0,4.363281,101.3298,1,0.77
2022-06-02T10:56:23.100+02:00,1654160183.000349,53.22910247596652,10.39851819288777,36.81964,0,20,-1,-1,2.400000095367432,7.999579855010837,-9999,3321.24100925,0.0244140625,-0.395294189453125,-0.9136810302734375,3321.23101425,-0.1563615640849718,0.1069418627392861,0.163614281303259,-0.4158270061016083,-0.1567914187908173,-0.8011833429336548,-0.05979567766189575,-0.235048696398735,-0.03426551818847656,XArbitraryZVertical,0.08551008521289602,0.04673102508627521,-0.07337471758931727,0.9925322053197935,0.1053126528859138,-0.1628852784633636,-0.9810084700584412,0,0,0,-1,-1,3319.902423875,unknown,2,2022-06-02T10:56:21.761+02:00,2022-06-02T10:17:13.754+02:00,521,1.631355,0,0,405.4342,0,0,2022-06-02T10:55:58.733+02:00,675852974.0836968,0,4.363281,101.3298,1,0.77
2022-06-02T10:56:23.110+02:00,1654160183.000349,53.22910247596652,10.39851819288777,36.81964,0,20,-1,-1,2.400000095367432,7.999579855010837,-9999,3321.25100325,0.0280609130859375,-0.341400146484375,-0.85198974609375,3321.24100925,-0.1639063663767566,0.1065706515886218,0.1581008294996942,-0.5132523775100708,-0.1629358530044556,-0.7960663437843323,-0.07531827688217163,-0.2706423401832581,-0.002495229244232178,XArbitraryZVertical,0.08293771039474289,0.04646032453656222,-0.0772982819529682,0.992465389008097,0.1050424128770828,-0.1574430018663406,-0.9819255471229553,0,0,0,-1,-1,3319.902423875,unknown,2,2022-06-02T10:56:21.761+02:00,2022-06-02T10:17:13.754+02:00,521,1.631355,0,0,405.4342,0,0,2022-06-02T10:55:58.733+02:00,675852974.0836968,0,4.363281,101.3298,1,0.77
2022-06-02T10:56:23.120+02:00,1654160183.000349,53.22910247596652,10.39851819288777,36.81964,0,20,-1,-1,2.400000095367432,7.999579855010837,-9999,3321.26099725,0.0115203857421875,-0.2917022705078125,-0.8498687744140625,3321.25100325,-0.1711979349447666,0.105957548561278,0.1519368311972663,-0.5502493977546692,-0.1910732835531235,-0.7678300738334656,-0.08012695610523224,-0.2439412772655487,0.06925511360168457,XArbitraryZVertical,0.08002561196719107,0.04612841157227634,-0.08112403794702713,0.9924146518182975,0.1045410260558128,-0.1513529270887375,-0.9829361438751221,0,0,0,-1,-1,3319.902423875,unknown,2,2022-06-02T10:56:21.761+02:00,2022-06-02T10:17:13.754+02:00,521,1.631355,0,0,405.4342,0,0,2022-06-02T10:55:58.733+02:00,675852974.0836968,0,4.363281,101.3298,1,0.77
2022-06-02T10:56:23.130+02:00,1654160183.000349,53.22910247596652,10.39851819288777,36.81964,0,20,-1,-1,2.400000095367432,7.999579855010837,-9999,3321.27099225,-0.012115478515625,-0.2044830322265625,-0.8715667724609375,3321.26099725,-0.1783924966925534,0.1048503369084324,0.1461916868298097,-0.422903448343277,-0.2434542030096054,-0.771093487739563,-0.07548101246356964,-0.1957286596298218,0.1319100856781006,XArbitraryZVertical,0.07729584496353775,0.04555697807656757,-0.08490642361934872,0.9923409739586549,0.1035419404506683,-0.1456715017557144,-0.9838998317718506,0,0,0,-1,-1,3319.902423875,unknown,2,2022-06-02T10:56:21.761+02:00,2022-06-02T10:17:13.754+02:00,521,1.631355,0,0,405.4342,0,0,2022-06-02T10:55:58.733+02:00,675852974.0836968,0,4.363281,101.3298,1,0.77
2022-06-02T10:56:23.140+02:00,1654160183.000349,53.22910247596652,10.39851819288777,36.81964,0,20,-1,-1,2.400000095367432,7.999579855010837,-9999,3321.28098625,-0.045684814453125,-0.1933746337890625,-0.9066925048828125,3321.27099225,-0.185908251027462,0.1034062316901369,0.1422223137227775,-0.2134735286235809,-0.2555979490280151,-0.7933434247970581,-0.09065946191549301,-0.1499589681625366,0.1347469687461853,XArbitraryZVertical,0.07543481002401073,0.04474074111253307,-0.08880593465805181,0.9921800390736155,0.1021798551082611,-0.1417433321475983,-0.984615683555603,0,0,0,-1,-1,3319.902423875,unknown,2,2022-06-02T10:56:21.761+02:00,2022-06-02T10:17:13.754+02:00,521,1.631355,0,0,405.4342,0,0,2022-06-02T10:55:58.733+02:00,675852974.0836968,0,4.363281,101.3298,1,0.77
2022-06-02T10:56:23.150+02:00,1654160183.000349,53.22910247596652,10.39851819288777,36.81964,0,20,-1,-1,2.400000095367432,7.999579855010837,-9999,3321.29098025,-0.0576629638671875,-0.248992919921875,-0.945648193359375,3321.28098625,-0.1938266455620502,0.1021089105671424,0.1404446787776941,0.01838553324341774,-0.224111407995224,-0.8020567297935486,-0.1130433976650238,-0.064499631524086,0.1134297847747803,XArbitraryZVertical,0.07467020554604119,0.04388722931999925,-0.09283358680093499,0.9919073184131333,0.10092793405056,-0.1399834305047989,-0.9849965572357178,0,0,0,-1,-1,3319.902423875,unknown,2,2022-06-02T10:56:21.761+02:00,2022-06-02T10:17:13.754+02:00,521,1.631355,0,0,405.4342,0,0,2022-06-02T10:55:58.733+02:00,675852974.0836968,0,4.363281,101.3298,1,0.77
2022-06-02T10:56:23.160+02:00,1654160183.000349,53.22910247596652,10.39851819288777,36.81964,0,20,-1,-1,2.400000095367432,7.999579855010837,-9999,3321.30097425,-0.0301055908203125,-0.291595458984375,-1.024917602539062,3321.29098025,-0.2017480042036547,0.1012113027180134,0.1404022832436669,0.1018921434879303,-0.18485027551651,-0.7441987991333008,-0.1457291543483734,-0.05343319475650787,0.07840019464492798,XArbitraryZVertical,0.07477900770134042,0.04314833586975526,-0.09679627269663794,0.9915526521019491,0.1000443547964096,-0.1399414539337158,-0.9850926399230957,0,0,0,-1,-1,3319.902423875,unknown,2,2022-06-02T10:56:21.761+02:00,2022-06-02T10:17:13.754+02:00,521,1.631355,0,0,405.4342,0,0,2022-06-02T10:55:58.733+02:00,675852974.0836968,0,4.363281,101.3298,1,0.77
2022-06-02T10:56:23.170+02:00,1654160183.000349,53.22910247596652,10.39851819288777,36.81964,0,20,-1,-1,2.400000095367432,7.999579855010837,-9999,3321.31096925,-0.00921630859375,-0.33416748046875,-1.07470703125,3321.30097425,-0.2031688541554899,0.06741989408262,0.1905981617691725,-0.01034571416676044,-0.1840585172176361,-0.6102439165115356,-0.1238118037581444,-0.05954667925834656,0.03401219844818115,XArbitraryZVertical,0.09801293802461804,0.0237335132725459,-0.09770178210836825,0.990093122101686,0.06614885479211807,-0.1894462555646896,-0.9796603918075562,0,0,0,-1,-1,3319.902423875,unknown,2,2022-06-02T10:56:21.761+02:00,2022-06-02T10:17:13.754+02:00,521,1.631355,0,0,405.4342,0,0,2022-06-02T10:55:58.733+02:00,675852974.0836968,0,4.363281,101.3298,1,0.77
2022-06-02T10:56:23.186+02:00,1654160183.000349,53.22910247596652,10.39851819288777,36.81964,0,20,-1,-1,2.400000095367432,7.999579855010837,-9999,3321.32096325,-0.0047607421875,-0.34295654296875,-1.046859741210938,3321.31096925,-0.2056854285756488,0.05025706778972414,0.2109023326543863,-0.1894901394844055,-0.1821676194667816,-0.5605704188346863,-0.07922837883234024,-0.08225314319133759,-0.0483098030090332,XArbitraryZVertical,0.1072317882753051,0.01405198691074899,-0.09942835516822714,0.9891500430794106,0.04912280663847923,-0.2093423306941986,-0.9766077995300293,0,0,0,-1,-1,3319.902423875,unknown,2,2022-06-02T10:56:21.761+02:00,2022-06-02T10:17:13.754+02:00,521,1.631355,0,0,405.4342,0,0,2022-06-02T10:55:58.733+02:00,675852974.0836968,0,4.363281,101.3298,1,0.77
2022-06-02T10:56:23.200+02:00,1654160183.000349,53.22910247596652,10.39851819288777,36.81964,0,20,-1,-1,2.400000095367432,7.999579855010837,-9999,3321.33095725,-0.006378173828125,-0.3301239013671875,-0.9847412109375,3321.32096325,-0.2090357215451644,0.03899341550076976,0.2209667732666535,-0.3719073235988617,-0.1562603712081909,-0.5743906497955322,-0.04725198447704315,-0.1149944961071014,-0.09976261854171753,XArbitraryZVertical,0.1116577503553719,0.007770014763062028,-0.1015340599586775,0.9885155043057082,0.03803569078445435,-0.2191729992628098,-0.9749443531036377,0,0,0,-1,-1,3319.902423875,unknown,2,2022-06-02T10:56:21.761+02:00,2022-06-02T10:17:13.754+02:00,521,1.631355,0,0,405.4342,0,0,2022-06-02T10:55:58.733+02:00,675852974.0836968,0,4.363281,101.3298,1,0.77
2022-06-02T10:56:23.202+02:00,1654160183.000349,53.22910247596652,10.39851819288777,36.81964,0,20,-1,-1,2.400000095367432,7.999579855010837,-9999,3321.34095125,7.62939453125e-05,-0.3154449462890625,-0.9364776611328125,3321.33095725,-0.2130303227645224,0.03081224390192062,0.2258699740338735,-0.5102440118789673,-0.1195459067821503,-0.587141215801239,-0.03478557616472244,-0.1190022379159927,-0.0727226734161377,XArbitraryZVertical,0.1136704789152983,0.003240993240098857,-0.1038977864989125,0.9880656321133581,0.03002485074102879,-0.2239543199539185,-0.974137008190155,0,0,0,-1,-1,3319.902423875,unknown,2,2022-06-02T10:56:21.761+02:00,2022-06-02T10:17:13.754+02:00,521,1.631355,0,0,405.4342,0,0,2022-06-02T10:55:58.733+02:00,675852974.0836968,0,4.363281,101.3298,1,0.77
2022-06-02T10:56:23.210+02:00,1654160183.000349,53.22910247596652,10.39851819288777,36.81964,0,20,-1,-1,2.400000095367432,7.999579855010837,-9999,3321.35094625,0.0002288818359375,-0.259307861328125,-0.9011077880859375,3321.34095125,-0.217588678732923,0.02484106689860959,0.2273026786980128,-0.6090608835220337,-0.1157375872135162,-0.6007800698280334,-0.03057776391506195,-0.1047735214233398,-0.01076400279998779,XArbitraryZVertical,0.1140675312603474,-4.561831673898859e-05,-0.1064708305587224,0.987751245915546,0.02419961057603359,-0.22535040974617,-0.9739772081375122,0,0,0,-1,-1,3319.902423875,unknown,2,2022-06-02T10:56:21.761+02:00,2022-06-02T10:17:13.754+02:00,521,1.631355,0,0,405.4342,0,0,2022-06-02T10:55:58.733+02:00,675852974.0836968,0,4.363281,101.3298,1,0.77
2022-06-02T10:56:23.220+02:00,1654160183.000349,53.22910247596652,10.39851819288777,36.81964,0,20,-1,-1,2.400000095367432,7.999579855010837,-9999,3321.36094025,-0.0071563720703125,-0.1187286376953125,-0.8901824951171875,3321.35094625,-0.2226391909028488,0.02063376407486831,0.2260595823677538,-0.6347238421440125,-0.1292001307010651,-0.6005635261535645,-0.02003104239702225,-0.09130585193634033,0.0378720760345459,XArbitraryZVertical,0.11322395817547,-0.002341657331215887,-0.1092186759413544,0.987545434381934,0.02010735496878624,-0.2241391092538834,-0.9743496775627136,0,0,0,-1,-1,3319.902423875,unknown,2,2022-06-02T10:56:21.761+02:00,2022-06-02T10:17:13.754+02:00,521,1.631355,0,0,405.4342,0,0,2022-06-02T10:55:58.733+02:00,675852974.0836968,0,4.363281,101.3298,1,0.77
2022-06-02T10:56:23.230+02:00,1654160183.000349,53.22910247596652,10.39851819288777,36.81964,0,20,-1,-1,2.400000095367432,7.999579855010837,-9999,3321.37093425,-0.0230712890625,-0.0220794677734375,-0.8884429931640625,3321.36094025,-0.2279878789902188,0.01751175907493002,0.223787861108402,-0.5007711052894592,-0.1675134301185608,-0.5978987812995911,-0.01684530824422836,-0.03738327324390411,0.0738065242767334,XArbitraryZVertical,0.111921341205086,-0.004056053043335848,-0.1120602234016267,0.9873700845148775,0.0170742105692625,-0.2219246178865433,-0.9749143123626709,0,0,0,-1,-1,3319.902423875,unknown,2,2022-06-02T10:56:21.761+02:00,2022-06-02T10:17:13.754+02:00,521,1.631355,0,0,405.4342,0,0,2022-06-02T10:55:58.733+02:00,675852974.0836968,0,4.363281,101.3298,1,0.77
2022-06-02T10:56:23.240+02:00,1654160183.000349,53.22910247596652,10.39851819288777,36.81964,0,20,-1,-1,2.400000095367432,7.999579855010837,-9999,3321.38092925,-0.0293731689453125,-0.0699310302734375,-0.93048095703125,3321.37093425,-0.2337552188332556,0.01520546943283427,0.2223046954288863,-0.2652826905250549,-0.1678955852985382,-0.6279581189155579,-0.02198706939816475,0.1017495393753052,0.08509665727615356,XArbitraryZVertical,0.1110447508059793,-0.005430420416213448,-0.1150511663535764,0.9871184090534963,0.01483072061091661,-0.2204781919717789,-0.9752791523933411,0,0,0,-1,-1,3319.902423875,unknown,2,2022-06-02T10:56:21.761+02:00,2022-06-02T10:17:13.754+02:00,521,1.631355,0,0,405.4342,0,0,2022-06-02T10:55:58.733+02:00,675852974.0836968,0,4.363281,101.3298,1,0.77
2022-06-02T10:56:23.250+02:00,1654160183.000349,53.22910247596652,10.39851819288777,36.81964,0,20,-1,-1,2.400000095367432,7.999579855010837,-9999,3321.39092325,-0.0087432861328125,-0.17437744140625,-0.9720306396484375,3321.38092925,-0.2399410637465506,0.01374287135042471,0.2222578215181401,-0.05346205830574036,-0.1357339173555374,-0.6412052512168884,-0.03647567331790924,0.1983529925346375,0.08686715364456177,XArbitraryZVertical,0.110917913318922,-0.006492658010182058,-0.1181853356196865,0.9867558212501675,0.01340440567582846,-0.220432460308075,-0.9753101468086243,0,0,0,-1,-1,3319.902423875,unknown,2,2022-06-02T10:56:21.761+02:00,2022-06-02T10:17:13.754+02:00,521,1.631355,0,0,405.4342,0,0,2022-06-02T10:55:58.733+02:00,675852974.0836968,0,4.363281,101.3298,1,0.77
2022-06-02T10:56:23.260+02:00,1654160183.000349,53.22910247596652,10.39851819288777,36.81964,0,20,-1,-1,2.400000095367432,7.999579855010837,-9999,3321.40091725,0.0100250244140625,-0.2679443359375,-0.9979248046875,3321.39092325,-0.2461481257880089,0.01297560840684422,0.2230099220405454,0.00129516189917922,-0.1082278043031693,-0.6078701615333557,-0.0420270748436451,0.1512349545955658,0.04467314481735229,XArbitraryZVertical,0.1112215588843947,-0.00726141784989178,-0.1212821870250628,0.9863404463746798,0.01265392731875181,-0.2211659997701645,-0.9751541018486023,0,0,0,-1,-1,3319.902423875,unknown,2,2022-06-02T10:56:21.761+02:00,2022-06-02T10:17:13.754+02:00,521,1.631355,0,0,405.4342,0,0,2022-06-02T10:55:58.733+02:00,675852974.0836968,0,4.363281,101.3298,1,0.77
2022-06-02T10:56:23.270+02:00,1654160183.000349,53.22910247596652,10.39851819288777,36.81964,0,20,-1,-1,2.400000095367432,7.999579855010837,-9999,3321.41091125,0.018402099609375,-0.3228912353515625,-0.9756317138671875,3321.40091725,-0.2520844564267207,0.01256364766296856,0.2233802349235289,-0.07095347344875336,-0.08364389836788177,-0.5908014178276062,-0.02099443599581718,0.04714967310428619,0.003046631813049316,XArbitraryZVertical,0.1113564512298361,-0.007817859177464734,-0.1242284310476692,0.985954246525146,0.0122511712834239,-0.2215271294116974,-0.9750772714614868,0,0,0,-1,-1,3319.902423875,unknown,2,2022-06-02T10:56:21.761+02:00,2022-06-02T10:17:13.754+02:00,521,1.631355,0,0,405.4342,0,0,2022-06-02T10:55:58.733+02:00,675852974.0836968,0,4.363281,101.3298,1,0.77
2022-06-02T10:56:23.280+02:00,1654160183.000349,53.22910247596652,10.39851819288777,36.81964,0,20,-1,-1,2.400000095367432,7.999579855010837,-9999,3321.42090625,0.020721435546875,-0.309600830078125,-0.9688720703125,3321.41091125,-0.2578777496543579,0.01259028983514604,0.2223365332853285,-0.2501171231269836,-0.04088851064443588,-0.5720633268356323,-0.00225500762462616,-0.04743510484695435,-0.02261722087860107,XArbitraryZVertical,0.1108207825788473,-0.008060212869836048,-0.1270930869758609,0.9856474680355322,0.01228005345910788,-0.2205092459917068,-0.9753075838088989,0,0,0,-1,-1,3319.902423875,unknown,2,2022-06-02T10:56:21.761+02:00,2022-06-02T10:17:13.754+02:00,521,1.631355,0,0,405.4342,0,0,2022-06-02T10:55:58.733+02:00,675852974.0836968,0,4.363281,101.3298,1,0.77
2022-06-02T10:56:23.290+02:00,1654160183.000349,53.22910247596652,10.39851819288777,36.81964,0,20,-1,-1,2.400000095367432,7.999579855010837,-9999,3321.43090025,0.0129852294921875,-0.2088623046875,-0.9981536865234375,3321.42090625,-0.263297352706433,0.01296537942954201,0.2194688139423687,-0.4135608971118927,-0.008603807538747787,-0.5190454125404358,0.005748094990849495,-0.1051800400018692,0.0002995133399963379,XArbitraryZVertical,0.1094102327394753,-0.007987608246072263,-0.1297726388200136,0.9854565601389624,0.0126540269702673,-0.2177112102508545,-0.9759312272071838,0,0,0,-1,-1,3319.902423875,unknown,2,2022-06-02T10:56:21.761+02:00,2022-06-02T10:17:13.754+02:00,521,1.631355,0,0,405.4342,0,0,2022-06-02T10:55:58.733+02:00,675852974.0836968,0,4.363281,101.3298,1,0.77
2022-06-02T10:56:23.300+02:00,1654160183.000349,53.22910247596652,10.39851819288777,36.81964,0,20,-1,-1,2.400000095367432,7.999579855010837,-9999,3321.44089425,-0.02056884765625,-0.1170654296875,-0.9980010986328125,3321.43090025,-0.2680806335846014,0.01329210019619033,0.2153363351454654,-0.5017982721328735,-0.0225862693041563,-0.4639120101928711,0.00773672666400671,-0.09592482447624207,0.007946252822875977,XArbitraryZVertical,0.1073770314849251,-0.007812352652757605,-0.1321547444341222,0.9853649605613113,0.01298473123461008,-0.2136760056018829,-0.9768182635307312,0,0,0,-1,-1,3319.902423875,unknown,2,2022-06-02T10:56:21.761+02:00,2022-06-02T10:17:13.754+02:00,521,1.631355,0,0,405.4342,0,0,2022-06-02T10:55:58.733+02:00,675852974.0836968,0,4.363281,101.3298,1,0.77
2022-06-02T10:56:23.310+02:00,1654160183.000349,53.22910247596652,10.39851819288777,36.81964,0,20,-1,-1,2.400000095367432,7.999579855010837,-9999,3321.45088925,-0.028961181640625,-0.069976806640625,-1.017349243164062,3321.44089425,-0.272550274637775,0.01369950992182925,0.2109866177654538,-0.4548832178115845,0.01931457594037056,-0.4441574811935425,-0.0004100482910871506,0.0005624145269393921,-0.02042067050933838,XArbitraryZVertical,0.1052444688744539,-0.007556289238910605,-0.1343807610923399,0.9852959653191644,0.01339530106633902,-0.2094247341156006,-0.9777330160140991,0,0,0,-1,-1,3319.902423875,unknown,2,2022-06-02T10:56:21.761+02:00,2022-06-02T10:17:13.754+02:00,521,1.631355,0,0,405.4342,0,0,2022-06-02T10:55:58.733+02:00,675852974.0836968,0,4.363281,101.3298,1,0.77
2022-06-02T10:56:23.320+02:00,1654160183.000349,53.22910247596652,10.39851819288777,36.81964,0,20,-1,-1,2.400000095367432,7.999579855010837,-9999,3321.46088325,-0.0057525634765625,-0.0897064208984375,-1.04534912109375,3321.45088925,-0.2767586262317042,0.01463137812469563,0.2075338250535855,-0.3235450387001038,0.08443073183298111,-0.4033831655979156,-0.03488573431968689,0.08898183703422546,-0.01956379413604736,XArbitraryZVertical,0.1035915827865335,-0.007080638591251627,-0.1364419578269614,0.9851914371298544,0.01431690808385611,-0.2060472667217255,-0.9784373044967651,0,0,0,-1,-1,3319.902423875,unknown,2,2022-06-02T10:56:21.761+02:00,2022-06-02T10:17:13.754+02:00,521,1.631355,0,0,405.4342,0,0,2022-06-02T10:55:58.733+02:00,675852974.0836968,0,4.363281,101.3298,1,0.77
2022-06-02T10:56:23.330+02:00,1654160183.000349,53.22910247596652,10.39851819288777,36.81964,0,20,-1,-1,2.400000095367432,7.999579855010837,-9999,3321.47087725,0.0317840576171875,-0.1488800048828125,-1.05810546875,3321.46088325,-0.2804151723210014,0.01601399649304553,0.2053594884273658,-0.1923872828483582,0.1255035996437073,-0.3387828469276428,-0.04463799297809601,0.1339422911405563,-0.0384870171546936,XArbitraryZVertical,0.1026033935495294,-0.006437113879625874,-0.1381955123874569,0.9850548814341508,0.01567683555185795,-0.2039191126823425,-0.9788622260093689,0,0,0,-1,-1,3319.902423875,unknown,2,2022-06-02T10:56:21.761+02:00,2022-06-02T10:17:13.754+02:00,521,1.631355,0,0,405.4342,0,0,2022-06-02T10:55:58.733+02:00,675852974.0836968,0,4.363281,101.3298,1,0.77
2022-06-02T10:56:23.340+02:00,1654160183.000349,53.22910247596652,10.39851819288777,36.81964,0,20,-1,-1,2.400000095367432,7.999579855010837,-9999,3321.48087125,0.0524139404296875,-0.223724365234375,-1.07843017578125,3321.47087725,-0.2834664153248228,0.01751214724358877,0.2041487833726321,-0.1138108521699905,0.1266442239284515,-0.2880661487579346,-0.02290015295147896,0.1130272448062897,-0.06626534461975098,XArbitraryZVertical,0.1021020263634524,-0.005770320897426128,-0.1396352442302594,0.9849080380410807,0.01714761182665825,-0.2027336955070496,-0.979083776473999,0,0,0,-1,-1,3319.902423875,unknown,2,2022-06-02T10:56:21.761+02:00,2022-06-02T10:17:13.754+02:00,521,1.631355,0,0,405.4342,0,0,2022-06-02T10:55:58.733+02:00,675852974.0836968,0,4.363281,101.3298,1,0.77
2022-06-02T10:56:23.350+02:00,1654160183.000349,53.22910247596652,10.39851819288777,36.81964,0,20,-1,-1,2.400000095367432,7.999579855010837,-9999,3321.49086625,0.0615386962890625,-0.270263671875,-1.079986572265625,3321.48087125,-0.2861996100571719,0.01884750580902584,0.2031831653718302,-0.1303791701793671,0.1083461791276932,-0.2724959850311279,0.01332537643611431,0.05290800333023071,-0.07885020971298218,XArbitraryZVertical,0.1017128406604524,-0.005183419268680911,-0.1409243669759362,0.9847679582454649,0.01845870539546013,-0.2017880380153656,-0.9792552590370178,0,0,0,-1,-1,3319.902423875,unknown,2,2022-06-02T10:56:21.761+02:00,2022-06-02T10:17:13.754+02:00,521,1.631355,0,0,405.4342,0,0,2022-06-02T10:55:58.733+02:00,675852974.0836968,0,4.363281,101.3298,1,0.77
2022-06-02T10:56:23.360+02:00,1654160183.000349,53.22910247596652,10.39851819288777,36.81964,0,20,-1,-1,2.400000095367432,7.999579855010837,-9999,3321.50086025,0.060150146484375,-0.238555908203125,-1.075836181640625,3321.49086625,-0.2889266457886224,0.02002148528527747,0.2017342967128985,-0.1997277587652206,0.0959174707531929,-0.2734057009220123,0.03279981389641762,-0.023355633020401,-0.09890598058700562,XArbitraryZVertical,0.1010760934410271,-0.004639688802005067,-0.1422249382672331,0.9846492465568069,0.01961415074765682,-0.2003687620162964,-0.9795241951942444,0,0,0,-1,-1,3319.902423875,unknown,2,2022-06-02T10:56:21.761+02:00,2022-06-02T10:17:13.754+02:00,521,1.631355,0,0,405.4342,0,0,2022-06-02T10:55:58.733+02:00,675852974.0836968,0,4.363281,101.3298,1,0.77
2022-06-02T10:56:23.370+02:00,1654160183.000349,53.22910247596652,10.39851819288777,36.81964,0,20,-1,-1,2.400000095367432,7.999579855010837,-9999,3321.51085425,0.022369384765625,-0.2042388916015625,-1.061203002929688,3321.50086025,-0.2913465975103252,0.02104031636014593,0.1994053489207834,-0.2970585525035858,0.09438695758581161,-0.2216269373893738,0.04091684892773628,-0.07217718660831451,-0.1000189781188965,XArbitraryZVertical,0.09999734139821624,-0.004091088672661013,-0.1433937127345316,0.9845923027268839,0.02062187157571316,-0.1980865001678467,-0.9799675941467285,0,0,0,-1,-1,3319.902423875,unknown,2,2022-06-02T10:56:21.761+02:00,2022-06-02T10:17:13.754+02:00,521,1.631355,0,0,405.4342,0,0,2022-06-02T10:55:58.733+02:00,675852974.0836968,0,4.363281,101.3298,1,0.77
2022-06-02T10:56:23.380+02:00,1654160183.000349,53.22910247596652,10.39851819288777,36.81964,0,20,-1,-1,2.400000095367432,7.999579855010837,-9999,3321.52084825,-0.0110321044921875,-0.1669464111328125,-1.022018432617188,3321.51085425,-0.2933453712779857,0.02215583603122186,0.196546809432059,-0.30552738904953,0.1317687481641769,-0.2033212333917618,0.03842268139123917,-0.04327212274074554,-0.09533011913299561,XArbitraryZVertical,0.09866703373608431,-0.003432541230383065,-0.1443580703987708,0.9845880580723692,0.02172748744487762,-0.1952838003635406,-0.9805060625076294,0,0,0,-1,-1,3319.902423875,unknown,2,2022-06-02T10:56:21.761+02:00,2022-06-02T10:17:13.754+02:00,521,1.631355,0,0,405.4342,0,0,2022-06-02T10:55:58.733+02:00,675852974.0836968,0,4.363281,101.3298,1,0.77
2022-06-02T10:56:23.390+02:00,1654160183.000349,53.22910247596652,10.39851819288777,36.81964,0,20,-1,-1,2.400000095367432,7.999579855010837,-9999,3321.53084325,-0.0164337158203125,-0.1454925537109375,-0.970062255859375,3321.52084825,-0.2952029173706446,0.02390751258876645,0.1941064640064727,-0.2364484518766403,0.2248331755399704,-0.186473548412323,-0.001086900010704994,-0.01134903728961945,-0.08026295900344849,XArbitraryZVertical,0.09759014180334895,-0.002481970800714713,-0.1452178525868938,0.9845718011673567,0.02345630526542664,-0.1928898543119431,-0.9809399843215942,0,0,0,-1,-1,3319.902423875,unknown,2,2022-06-02T10:56:21.761+02:00,2022-06-02T10:17:13.754+02:00,521,1.631355,0,0,405.4342,0,0,2022-06-02T10:55:58.733+02:00,675852974.0836968,0,4.363281,101.3298,1,0.77
2022-06-02T10:56:23.400+02:00,1654160183.000349,53.22910247596652,10.39851819288777,36.81964,0,20,-1,-1,2.400000095367432,7.999579855010837,-9999,3321.54083725,-0.008148193359375,-0.1737518310546875,-0.9318695068359375,3321.53084325,-0.2968386149935428,0.02627996801838728,0.1923659350428431,-0.1718710511922836,0.2662157714366913,-0.1617463529109955,-0.03682433813810349,0.02423529326915741,-0.0408027172088623,XArbitraryZVertical,0.09690477613730523,-0.001264825388433804,-0.1459308326622292,0.9845364491830149,0.02579225599765778,-0.1911817193031311,-0.9812157154083252,0,0,0,-1,-1,3319.902423875,unknown,2,2022-06-02T10:56:21.761+02:00,2022-06-02T10:17:13.754+02:00,521,1.631355,0,0,405.4342,0,0,2022-06-02T10:55:58.733+02:00,675852974.0836968,0,4.363281,101.3298,1,0.77
2022-06-02T10:56:23.410+02:00,1654160183.000349,53.22910247596652,10.39851819288777,36.81964,0,20,-1,-1,2.400000095367432,7.999579855010837,-9999,3321.55083125,-0.0190277099609375,-0.2130889892578125,-0.9103546142578125,3321.54083725,-0.2982027522772696,0.02880877056888204,0.1909231275671513,-0.1789827644824982,0.2713274359703064,-0.1324531733989716,-0.04471508413553238,0.044272780418396,0.01135987043380737,XArbitraryZVertical,0.09637927093242829,2.144790664226258e-05,-0.1465001567918654,0.9845043024617304,0.02828138694167137,-0.1897653341293335,-0.9814220666885376,0,0,0,-1,-1,3319.902423875,unknown,2,2022-06-02T10:56:21.761+02:00,2022-06-02T10:17:13.754+02:00,521,1.631355,0,0,405.4342,0,0,2022-06-02T10:55:58.733+02:00,675852974.0836968,0,4.363281,101.3298,1,0.77
2022-06-02T10:56:23.420+02:00,1654160183.000349,53.22910247596652,10.39851819288777,36.81964,0,20,-1,-1,2.400000095367432,7.999579855010837,-9999,3321.56082625,-0.05615234375,-0.28936767578125,-0.902587890625,3321.55083125,-0.2993593645907587,0.0314473782975444,0.1889044920791501,-0.2649604380130768,0.2816753685474396,-0.1289356052875519,-0.03903102874755859,0.01403112709522247,0.04985541105270386,XArbitraryZVertical,0.09558002713342355,0.00141576033097417,-0.1469720910404657,0.9845108261754427,0.03088285587728024,-0.1877829879522324,-0.9817249178886414,0,0,0,-1,-1,3319.902423875,unknown,2,2022-06-02T10:56:21.761+02:00,2022-06-02T10:17:13.754+02:00,521,1.631355,0,0,405.4342,0,0,2022-06-02T10:55:58.733+02:00,675852974.0836968,0,4.363281,101.3298,1,0.77
2022-06-02T10:56:23.430+02:00,1654160183.000349,53.22910247596652,10.39851819288777,36.81964,0,20,-1,-1,2.400000095367432,7.999579855010837,-9999,3321.57082025,-0.097381591796875,-0.3647308349609375,-0.88970947265625,3321.56082625,-0.300742365866224,0.03433954960258733,0.1856023249766841,-0.4224467277526855,0.3015113770961761,-0.1802621781826019,-0.05277083069086075,-0.02855046093463898,0.07189124822616577,XArbitraryZVertical,0.09416973327959176,0.003022046564757127,-0.1475654937148732,0.9845543802018596,0.03374314308166504,-0.1845385432243347,-0.9822458624839783,0,0,0,-1,-1,3319.902423875,unknown,2,2022-06-02T10:56:21.761+02:00,2022-06-02T10:17:13.754+02:00,521,1.631355,0,0,405.4342,0,0,2022-06-02T10:55:58.733+02:00,675852974.0836968,0,4.363281,101.3298,1,0.77
2022-06-02T10:56:23.440+02:00,1654160183.000349,53.22910247596652,10.39851819288777,36.81964,0,20,-1,-1,2.400000095367432,7.999579855010837,-9999,3321.58081425,-0.126251220703125,-0.3970794677734375,-0.8850860595703125,3321.57082025,-0.3026125005478247,0.03768584531237969,0.1802661034734879,-0.6661865711212158,0.3475205302238464,-0.2297912538051605,-0.09321872889995575,-0.1100763231515884,0.08050960302352905,XArbitraryZVertical,0.09179538337088003,0.004986008891242753,-0.1484144996523909,0.9846430000050287,0.03706640750169754,-0.1792913675308228,-0.9830974936485291,0,0,0,-1,-1,3319.902423875,unknown,2,2022-06-02T10:56:21.761+02:00,2022-06-02T10:17:13.754+02:00,521,1.631355,0,0,405.4342,0,0,2022-06-02T10:55:58.733+02:00,675852974.0836968,0,4.363281,101.3298,1,0.77
2022-06-02T10:56:23.450+02:00,1654160183.000349,53.22910247596652,10.39851819288777,36.81964,0,20,-1,-1,2.400000095367432,7.999579855010837,-9999,3321.59080825,-0.1349639892578125,-0.42437744140625,-0.8720855712890625,3321.58081425,-0.3047961151452625,0.04169615756236604,0.1719544988908487,-1.023168683052063,0.4098502099514008,-0.278283953666687,-0.1384509056806564,-0.1936224848031998,0.09468644857406616,XArbitraryZVertical,0.08801066254994688,0.007495645907776621,-0.1494458406348793,0.9848166700242268,0.04106932878494263,-0.1711083501577377,-0.9843958616256714,0,0,0,-1,-1,3319.902423875,unknown,2,2022-06-02T10:56:21.761+02:00,2022-06-02T10:17:13.754+02:00,521,1.631355,0,0,405.4342,0,0,2022-06-02T10:55:58.733+02:00,675852974.0836968,0,4.363281,101.3298,1,0.77
2022-06-02T10:56:23.460+02:00,1654160183.000349,53.22910247596652,10.39851819288777,36.81964,0,20,-1,-1,2.400000095367432,7.999579855010837,-9999,3321.60080325,-0.132232666015625,-0.455169677734375,-0.8218994140625,3321.59080825,-0.3075376414641897,0.04610942233744614,0.1593041477293418,-1.53425121307373,0.4156161844730377,-0.3836212158203125,-0.1717606484889984,-0.238448292016983,0.1012024879455566,XArbitraryZVertical,0.08212778366141922,0.01052477865910996,-0.150824771300776,0.9850868439765476,0.0455094501376152,-0.1586312055587769,-0.9862884879112244,0,0,0,-1,-1,3319.902423875,unknown,2,2022-06-02T10:56:21.761+02:00,2022-06-02T10:17:13.754+02:00,521,1.631355,0,0,405.4342,0,0,2022-06-02T10:55:58.733+02:00,675852974.0836968,0,4.363281,101.3298,1,0.77
2022-06-02T10:56:23.470+02:00,1654160183.000349,53.22910247596652,10.39851819288777,36.81964,0,20,-1,-1,2.400000095367432,7.999579855010837,-9999,3321.61079725,-0.1476898193359375,-0.464202880859375,-0.7735595703125,3321.60080325,-0.3110291314650276,0.05045255684281702,0.1407128571133338,-2.2062087059021,0.3983621001243591,-0.4916656613349915,-0.1848966777324677,-0.2841284871101379,0.11677086353302,XArbitraryZVertical,0.07332512334344267,0.01397260558240788,-0.1527043540414017,0.985448850786056,0.04993270710110664,-0.1402489542961121,-0.9888563752174377,0,0,0,-1,-1,3319.902423875,unknown,2,2022-06-02T10:56:21.761+02:00,2022-06-02T10:17:13.754+02:00,521,1.631355,0,0,405.4342,0,0,2022-06-02T10:55:58.733+02:00,675852974.0836968,0,4.363281,101.3298,1,0.77
2022-06-02T10:56:23.480+02:00,1654160183.000349,53.22910247596652,10.39851819288777,36.81964,0,20,-1,-1,2.400000095367432,7.999579855010837,-9999,3321.62079125,-0.172943115234375,-0.4156646728515625,-0.76678466796875,3321.61079725,-0.3152993045044249,0.05478114525018733,0.1154390750969315,-2.816636085510254,0.3999190926551819,-0.637814998626709,-0.1866219639778137,-0.3399868607521057,0.169954776763916,XArbitraryZVertical,0.06124329333380363,0.01794908583349638,-0.1551168969905292,0.9858325593996061,0.05438932403922081,-0.1151828542351723,-0.991854190826416,0,0,0,-1,-1,3319.902423875,unknown,2,2022-06-02T10:56:21.761+02:00,2022-06-02T10:17:13.754+02:00,521,1.631355,0,0,405.4342,0,0,2022-06-02T10:55:58.733+02:00,675852974.0836968,0,4.363281,101.3298,1,0.77
