,loggingTime(txt),locationTimestamp_since1970(s),locationLatitude(WGS84),locationLongitude(WGS84),locationAltitude(m),locationSpeed(m/s),locationSpeedAccuracy(m/s),locationCourse(°),locationCourseAccuracy(°),locationVerticalAccuracy(m),locationHorizontalAccuracy(m),locationFloor(Z),accelerometerTimestamp_sinceReboot(s),accelerometerAccelerationX(G),accelerometerAccelerationY(G),accelerometerAccelerationZ(G),motionTimestamp_sinceReboot(s),motionYaw(rad),motionRoll(rad),motionPitch(rad),motionRotationRateX(rad/s),motionRotationRateY(rad/s),motionRotationRateZ(rad/s),motionUserAccelerationX(G),motionUserAccelerationY(G),motionUserAccelerationZ(G),motionAttitudeReferenceFrame(txt),motionQuaternionX(R),motionQuaternionY(R),motionQuaternionZ(R),motionQuaternionW(R),motionGravityX(G),motionGravityY(G),motionGravityZ(G),motionMagneticFieldX(µT),motionMagneticFieldY(µT),motionMagneticFieldZ(µT),motionHeading(°),motionMagneticFieldCalibrationAccuracy(Z),activityTimestamp_sinceReboot(s),activity(txt),activityActivityConfidence(Z),activityActivityStartDate(txt),pedometerStartDate(txt),pedometerNumberofSteps(N),pedometerAverageActivePace(s/m),pedometerCurrentPace(s/m),pedometerCurrentCadence(steps/s),pedometerDistance(m),pedometerFloorAscended(N),pedometerFloorDescended(N),pedometerEndDate(txt),altimeterTimestamp_sinceReboot(s),altimeterReset(bool),altimeterRelativeAltitude(m),altimeterPressure(kPa),batteryState(N),batteryLevel(R)
242,2022-05-12T10:39:10.461+02:00,1652344747.999676,53.22897756942849,10.39845689200833,38.50991,0.29,0.74,129.0234375,77.60902848207787,4,5,-9999,3216.840740291667,0.71917724609375,0.37884521484375,1.659133911132812,3216.830745291667,-2.383442544003957,2.052077410890051,0.0874518118508687,-3.747344017028809,6.495395183563232,-0.8725605010986328,-0.0628858208656311,0.5772232413291931,0.8611193299293518,XArbitraryZVertical,0.8021594361160337,0.295149707762251,-0.4671269138997221,0.2263173086884029,0.883015513420105,-0.0873403847217559,0.4611462354660034,0,0,0,-1,-1,3211.819866375,walking,2,2022-05-12T10:39:05.439+02:00,2022-05-11T22:15:20.957+02:00,763,0.8982581,0.7741436,1.733193,581.0482,0,0,2022-05-12T10:39:07.997+02:00,674037547.9965956,0,-1.599998,100.9267,1,0.95
243,2022-05-12T10:39:10.471+02:00,1652344747.999676,53.22897756942849,10.39845689200833,38.50991,0.29,0.74,129.0234375,77.60902848207787,4,5,-9999,3216.850735291667,0.6515960693359375,0.32281494140625,1.91650390625,3216.840740291667,-2.344408814962344,2.116502926243917,0.0988766904835334,-4.153655529022217,7.123626232147217,-0.9527184367179872,-0.0687865614891052,0.54213547706604,0.9646375179290771,XArbitraryZVertical,0.811605721580736,0.3154992663174072,-0.4346860169920436,0.2297925490226739,0.8505860567092896,-0.0987156555056572,0.5164872407913208,0,0,0,-1,-1,3211.819866375,walking,2,2022-05-12T10:39:05.439+02:00,2022-05-11T22:15:20.957+02:00,763,0.8982581,0.7741436,1.733193,581.0482,0,0,2022-05-12T10:39:07.997+02:00,674037547.9965956,0,-1.599998,100.9267,1,0.95
244,2022-05-12T10:39:10.481+02:00,1652344747.999676,53.22897756942849,10.39845689200833,38.50991,0.29,0.74,129.0234375,77.60902848207787,4,5,-9999,3216.860730291667,0.5621185302734375,0.2953033447265625,2.189682006835938,3216.850735291667,-2.302113723587081,2.186291999902827,0.1144910079305142,-4.601605892181396,7.742964744567871,-1.046209454536438,-0.0919646024703979,0.4930857121944427,1.085550308227539,XArbitraryZVertical,0.820377875702069,0.3373008260713494,-0.3983959945285647,0.2334287960123065,0.8111419677734375,-0.1142410412430763,0.5735834240913391,0,0,0,-1,-1,3211.819866375,walking,2,2022-05-12T10:39:05.439+02:00,2022-05-11T22:15:20.957+02:00,763,0.8982581,0.7741436,1.733193,581.0482,0,0,2022-05-12T10:39:07.997+02:00,674037547.9965956,0,-1.599998,100.9267,1,0.95
245,2022-05-12T10:39:10.491+02:00,1652344747.999676,53.22897756942849,10.39845689200833,38.50991,0.29,0.74,129.0234375,77.60902848207787,4,5,-9999,3216.870725291667,0.4831390380859375,0.274169921875,2.496963500976562,3216.860730291667,-2.257134017640668,2.261412341841965,0.1349288851548091,-4.977254390716553,8.405016899108887,-1.133293747901917,-0.1122512221336365,0.4573342204093933,1.285281419754028,XArbitraryZVertical,0.8281102927737983,0.3603395861494861,-0.3580610835579859,0.2370257993584558,0.7638477087020874,-0.1345198452472687,0.6312225461006165,0,0,0,-1,-1,3211.819866375,walking,2,2022-05-12T10:39:05.439+02:00,2022-05-11T22:15:20.957+02:00,763,0.8982581,0.7741436,1.733193,581.0482,0,0,2022-05-12T10:39:07.997+02:00,674037547.9965956,0,-1.599998,100.9267,1,0.95
246,2022-05-12T10:39:10.501+02:00,1652344747.999676,53.22897756942849,10.39845689200833,38.50991,0.29,0.74,129.0234375,77.60902848207787,4,5,-9999,3216.880720291667,0.38641357421875,0.1612548828125,2.848739624023438,3216.870725291667,-2.210576311354523,2.34194558188896,0.160295962280614,-5.281477928161621,9.075772285461426,-1.25400185585022,-0.1457982659339905,0.4549131989479065,1.501656770706177,XArbitraryZVertical,0.8344624055267039,0.38429813733476,-0.313616336970262,0.2400675736185949,0.7079171538352966,-0.1596103757619858,0.6880251169204712,0,0,0,-1,-1,3211.819866375,walking,2,2022-05-12T10:39:05.439+02:00,2022-05-11T22:15:20.957+02:00,763,0.8982581,0.7741436,1.733193,581.0482,0,0,2022-05-12T10:39:07.997+02:00,674037547.9965956,0,-1.599998,100.9267,1,0.95
247,2022-05-12T10:39:10.511+02:00,1652344747.999676,53.22897756942849,10.39845689200833,38.50991,0.29,0.74,129.0234375,77.60902848207787,4,5,-9999,3216.890715291667,0.2069854736328125,0.0128021240234375,3.183731079101562,3216.880720291667,-2.162854957381732,2.427635934782288,0.190698637780245,-5.596841812133789,9.723714828491213,-1.412080883979797,-0.1598194241523743,0.4637143611907959,1.754887104034424,XArbitraryZVertical,0.8388683320779134,0.4090697333748814,-0.2650977987705284,0.2422501066437294,0.6429586410522461,-0.1895449161529541,0.7420762777328491,0,0,0,-1,-1,3211.819866375,walking,2,2022-05-12T10:39:05.439+02:00,2022-05-11T22:15:20.957+02:00,763,0.8982581,0.7741436,1.733193,581.0482,0,0,2022-05-12T10:39:07.997+02:00,674037547.9965956,0,-1.599998,100.9267,1,0.95
248,2022-05-12T10:39:10.521+02:00,1652344747.999676,53.22897756942849,10.39845689200833,38.50991,0.29,0.74,129.0234375,77.60902848207787,4,5,-9999,3216.900710291667,-0.001312255859375,-0.0502471923828125,3.57073974609375,3216.890715291667,-2.114493756386306,2.517633374621103,0.226240307339776,-5.839999198913574,10.25897598266602,-1.6205153465271,-0.182950496673584,0.3855696022510529,2.057849407196045,XArbitraryZVertical,0.8406841151387766,0.434390804747927,-0.21286349160856,0.2434012454686214,0.5693644285202026,-0.2243152409791946,0.7908902764320374,0,0,0,-1,-1,3211.819866375,walking,2,2022-05-12T10:39:05.439+02:00,2022-05-11T22:15:20.957+02:00,763,0.8982581,0.7741436,1.733193,581.0482,0,0,2022-05-12T10:39:07.997+02:00,674037547.9965956,0,-1.599998,100.9267,1,0.95
249,2022-05-12T10:39:10.531+02:00,1652344747.999676,53.22897756942849,10.39845689200833,38.50991,0.29,0.74,129.0234375,77.60902848207787,4,5,-9999,3216.910705291667,-0.1756439208984375,-0.15753173828125,3.99835205078125,3216.900710291667,-2.066053067560841,2.610534610198019,0.2661050997427608,-5.944822311401367,10.66804027557373,-1.919599294662476,-0.2816345989704132,0.2757772505283356,2.351809024810791,XArbitraryZVertical,0.8392606116995214,0.4600029671697674,-0.1578180352141408,0.2431718793495131,0.4886204898357391,-0.2629756331443787,0.8319222331047058,0,0,0,-1,-1,3211.819866375,walking,2,2022-05-12T10:39:05.439+02:00,2022-05-11T22:15:20.957+02:00,763,0.8982581,0.7741436,1.733193,581.0482,0,0,2022-05-12T10:39:07.997+02:00,674037547.9965956,0,-1.599998,100.9267,1,0.95
250,2022-05-12T10:39:10.541+02:00,1652344747.999676,53.22897756942849,10.39845689200833,38.50991,0.29,0.74,129.0234375,77.60902848207787,4,5,-9999,3216.920700291667,-0.3621063232421875,-0.200347900390625,4.384735107421875,3216.910705291667,-2.01782211565068,2.705084033616169,0.3082572522971012,-5.848948955535889,10.90563774108887,-2.38121771812439,-0.404161810874939,0.2531508803367615,2.707222461700439,XArbitraryZVertical,0.834092854031264,0.4858472795963326,-0.1012112661309885,0.2408274639758461,0.4028499126434326,-0.3033984899520874,0.8635169267654419,0,0,0,-1,-1,3211.819866375,walking,2,2022-05-12T10:39:05.439+02:00,2022-05-11T22:15:20.957+02:00,763,0.8982581,0.7741436,1.733193,581.0482,0,0,2022-05-12T10:39:07.997+02:00,674037547.9965956,0,-1.599998,100.9267,1,0.95
251,2022-05-12T10:39:10.551+02:00,1652344747.999676,53.22897756942849,10.39845689200833,38.50991,0.29,0.74,129.0234375,77.60902848207787,4,5,-9999,3216.930695291667,-0.6054229736328125,-0.2599639892578125,4.764419555664062,3216.920700291667,-1.96844924080661,2.798122639778484,0.3505606065648303,-5.50133228302002,10.81881523132324,-3.08065390586853,-0.4919186234474182,0.1858921945095062,3.114027261734009,XArbitraryZVertical,0.8245135569114124,0.5121911888315525,-0.0450422442227256,0.2362392043291857,0.3162751495838165,-0.343424379825592,0.884324848651886,0,0,0,-1,-1,3211.819866375,walking,2,2022-05-12T10:39:05.439+02:00,2022-05-11T22:15:20.957+02:00,763,0.8982581,0.7741436,1.733193,581.0482,0,0,2022-05-12T10:39:07.997+02:00,674037547.9965956,0,-1.599998,100.9267,1,0.95
252,2022-05-12T10:39:10.569+02:00,1652344747.999676,53.22897756942849,10.39845689200833,38.50991,0.29,0.74,129.0234375,77.60902848207787,4,5,-9999,3216.940690291667,-0.90435791015625,-0.575927734375,5.202468872070312,3216.930695291667,-1.915508930732554,2.884886741749448,0.3905456590287889,-5.057100296020508,10.31936740875244,-4.06346321105957,-0.5968837141990662,0.180344820022583,3.490334510803223,XArbitraryZVertical,0.8100469973992709,0.5394665094378055,0.0080184093896188,0.2296420565863602,0.2347778230905533,-0.3806930482387543,0.8944004774093628,0,0,0,-1,-1,3211.819866375,walking,2,2022-05-12T10:39:05.439+02:00,2022-05-11T22:15:20.957+02:00,763,0.8982581,0.7741436,1.733193,581.0482,0,0,2022-05-12T10:39:10.555+02:00,674037547.9965956,0,-1.599998,100.9267,1,0.95
253,2022-05-12T10:39:10.574+02:00,1652344747.999676,53.22897756942849,10.39845689200833,38.50991,0.29,0.74,129.0234375,77.60902848207787,4,5,-9999,3216.950685291667,-1.192428588867188,-0.8542327880859375,5.647628784179688,3216.940690291667,-1.854224870702935,2.959136452408589,0.4272653610364953,-4.520077228546143,9.362459182739258,-5.336662292480469,-0.7705565094947815,0.1544192433357239,3.869423866271973,XArbitraryZVertical,0.7900474976227215,0.5686147876363352,0.0554939968623529,0.2223120383367328,0.1651340425014496,-0.4143835604190826,0.8949956297874451,0,0,0,-1,-1,3216.935977291667,walking,2,2022-05-12T10:39:10.555+02:00,2022-05-11T22:15:20.957+02:00,763,0.8982581,0.7741436,1.733193,581.0482,0,0,2022-05-12T10:39:10.555+02:00,674037550.5548247,0,-1.639999,100.927,1,0.95
254,2022-05-12T10:39:10.581+02:00,1652344747.999676,53.22897756942849,10.39845689200833,38.50991,0.29,0.74,129.0234375,77.60902848207787,4,5,-9999,3216.960680291667,-1.6092529296875,-1.39459228515625,6.083038330078125,3216.950685291667,-1.780500834076911,3.014342043745303,0.4598304418635257,-3.967257976531982,7.990099906921387,-6.859303951263428,-1.018082737922668,-0.132131963968277,4.313586235046387,XArbitraryZVertical,0.7643632816498315,0.6001583316326817,0.0949876395737964,0.2157226340702516,0.1137253418564796,-0.4437961578369141,0.8888825178146362,0,0,0,-1,-1,3216.935977291667,walking,2,2022-05-12T10:39:10.555+02:00,2022-05-11T22:15:20.957+02:00,763,0.8982581,0.7741436,1.733193,581.0482,0,0,2022-05-12T10:39:10.555+02:00,674037550.5548247,0,-1.639999,100.927,1,0.95
255,2022-05-12T10:39:10.591+02:00,1652344747.999676,53.22897756942849,10.39845689200833,38.50991,0.29,0.74,129.0234375,77.60902848207787,4,5,-9999,3216.970675291667,-2.289169311523438,-1.769088745117188,6.556747436523438,3216.960680291667,-1.689792454246975,3.043880141602334,0.4870120117331415,-3.183865308761597,6.161839962005615,-8.619873046875,-1.278642654418945,-0.3862456679344177,4.76810884475708,XArbitraryZVertical,0.7327882722907437,0.634650561011658,0.1244101513512793,0.2115709666755413,0.0862146690487861,-0.4679873883724213,0.8795199990272522,0,0,0,-1,-1,3216.935977291667,walking,2,2022-05-12T10:39:10.555+02:00,2022-05-11T22:15:20.957+02:00,763,0.8982581,0.7741436,1.733193,581.0482,0,0,2022-05-12T10:39:10.555+02:00,674037550.5548247,0,-1.639999,100.927,1,0.95
256,2022-05-12T10:39:10.601+02:00,1652344747.999676,53.22897756942849,10.39845689200833,38.50991,0.29,0.74,129.0234375,77.60902848207787,4,5,-9999,3216.980669625,-3.2052001953125,-1.556671142578125,6.904190063476562,3216.970675291667,-1.577005056733149,3.040276806499435,0.5039530529904337,-2.098017454147339,3.758634328842163,-10.89231777191162,-1.697820901870728,-0.9117015600204468,5.211848258972168,XArbitraryZVertical,0.6949179016850587,0.6728180977547924,0.1407392080890114,0.2111811631263869,0.08856862783432,-0.4828909039497375,0.8711901903152466,0,0,0,-1,-1,3216.935977291667,walking,2,2022-05-12T10:39:10.555+02:00,2022-05-11T22:15:20.957+02:00,763,0.8982581,0.7741436,1.733193,581.0482,0,0,2022-05-12T10:39:10.555+02:00,674037550.5548247,0,-1.639999,100.927,1,0.95
257,2022-05-12T10:39:10.611+02:00,1652344747.999676,53.22897756942849,10.39845689200833,38.50991,0.29,0.74,129.0234375,77.60902848207787,4,5,-9999,3216.990664625,-4.309127807617188,-0.2470245361328125,6.792144775390625,3216.980669625,-1.435184211843631,2.993284707762426,0.50455020406084,-1.088836431503296,0.482845276594162,-13.81840991973877,-2.418520927429199,-1.285675287246704,5.690964698791504,XArbitraryZVertical,0.6489405148950533,0.7153793376104179,0.1403605490201589,0.2177331063601751,0.1293522417545319,-0.4834137558937073,0.8657827973365784,0,0,0,-1,-1,3216.935977291667,walking,2,2022-05-12T10:39:10.555+02:00,2022-05-11T22:15:20.957+02:00,763,0.8982581,0.7741436,1.733193,581.0482,0,0,2022-05-12T10:39:10.555+02:00,674037550.5548247,0,-1.639999,100.927,1,0.95
258,2022-05-12T10:39:10.621+02:00,1652344747.999676,53.22897756942849,10.39845689200833,38.50991,0.29,0.74,129.0234375,77.60902848207787,4,5,-9999,3217.000659625,-5.190719604492188,1.003128051757812,6.345062255859375,3216.990664625,-1.260398254703913,2.892713881867353,0.4828439054602475,-0.8365502953529358,-4.23246431350708,-17.26282501220703,-3.423357486724854,-1.092371344566345,6.04580020904541,XArbitraryZVertical,0.5917649542060645,0.7609265239477853,0.1206419588799902,0.237172292510248,0.2181580066680908,-0.4642998278141022,0.8583898544311523,0,0,0,-1,-1,3216.935977291667,walking,2,2022-05-12T10:39:10.555+02:00,2022-05-11T22:15:20.957+02:00,763,0.8982581,0.7741436,1.733193,581.0482,0,0,2022-05-12T10:39:10.555+02:00,674037550.5548247,0,-1.639999,100.927,1,0.95
259,2022-05-12T10:39:10.631+02:00,1652344747.999676,53.22897756942849,10.39845689200833,38.50991,0.29,0.74,129.0234375,77.60902848207787,4,5,-9999,3217.010654625,-5.86553955078125,1.161773681640625,5.176437377929688,3217.000659625,-1.055727359283019,2.730937838305014,0.4336508215774786,-1.728173851966858,-9.987160682678224,-20.58890151977539,-4.671385288238525,0.1731621026992798,5.960151672363281,XArbitraryZVertical,0.5194547485349594,0.8038428227642286,0.0816527310708486,0.2780940648399763,0.3622580468654633,-0.4201864898204803,0.831993043422699,0,0,0,-1,-1,3216.935977291667,walking,2,2022-05-12T10:39:10.555+02:00,2022-05-11T22:15:20.957+02:00,763,0.8982581,0.7741436,1.733193,581.0482,0,0,2022-05-12T10:39:10.555+02:00,674037550.5548247,0,-1.639999,100.927,1,0.95
260,2022-05-12T10:39:10.642+02:00,1652344747.999676,53.22897756942849,10.39845689200833,38.50991,0.29,0.74,129.0234375,77.60902848207787,4,5,-9999,3217.020649625,-6.709625244140625,1.047256469726562,3.27325439453125,3217.010654625,-0.8418189612470433,2.518076585681451,0.3427577853300062,-1.591346383094788,-16.28854751586914,-22.71531677246094,-5.74064826965332,1.339213967323303,5.58045482635498,XArbitraryZVertical,0.4309425452859125,0.8346210684996852,0.0246606620854266,0.3421814840879409,0.5499290823936462,-0.3360857367515564,0.7646076083183289,0,0,0,-1,-1,3216.935977291667,walking,2,2022-05-12T10:39:10.555+02:00,2022-05-11T22:15:20.957+02:00,763,0.8982581,0.7741436,1.733193,581.0482,0,0,2022-05-12T10:39:10.555+02:00,674037550.5548247,0,-1.639999,100.927,1,0.95
261,2022-05-12T10:39:10.651+02:00,1652344747.999676,53.22897756942849,10.39845689200833,38.50991,0.29,0.74,129.0234375,77.60902848207787,4,5,-9999,3217.030644625,-7.624908447265625,1.253036499023438,2.71875,3217.020649625,-0.6667961045049391,2.273942387693388,0.1870863698213882,2.192883014678955,-23.11096572875977,-22.9955005645752,-6.615040302276611,1.347770929336548,4.541100025177002,XArbitraryZVertical,0.332743159955862,0.8408036894652906,-0.0568717483958567,0.423198559526408,0.7495011687278748,-0.1859969049692154,0.6353377103805542,0,0,0,-1,-1,3216.935977291667,walking,2,2022-05-12T10:39:10.555+02:00,2022-05-11T22:15:20.957+02:00,763,0.8982581,0.7741436,1.733193,581.0482,0,0,2022-05-12T10:39:10.555+02:00,674037550.5548247,0,-1.639999,100.927,1,0.95
262,2022-05-12T10:39:10.661+02:00,1652344747.999676,53.22897756942849,10.39845689200833,38.50991,0.29,0.74,129.0234375,77.60902848207787,4,5,-9999,3217.040639625,-10.88372802734375,3.242416381835938,5.652481079101562,3217.030644625,-0.6048878356275167,2.003465291907627,-0.0244450537721777,11.0802640914917,-29.44670867919922,-19.25422859191895,-7.617203712463379,1.022814273834229,2.854084014892578,XArbitraryZVertical,0.2446083358600231,0.8060718341520541,-0.1703135075719647,0.511281070413066,0.9075787663459778,0.0244426187127828,0.419170081615448,0,0,0,-1,-1,3216.935977291667,walking,2,2022-05-12T10:39:10.555+02:00,2022-05-11T22:15:20.957+02:00,763,0.8982581,0.7741436,1.733193,581.0482,0,0,2022-05-12T10:39:10.555+02:00,674037550.5548247,0,-1.639999,100.927,1,0.95
263,2022-05-12T10:39:10.671+02:00,1652344747.999676,53.22897756942849,10.39845689200833,38.50991,0.29,0.74,129.0234375,77.60902848207787,4,5,-9999,3217.050634625,-18.21690368652344,3.230422973632812,7.827484130859375,3217.040639625,-0.7067274142254081,1.677595754957071,-0.2175481333729729,18.38608932495117,-31.71396255493164,-13.21675300598145,-8.59577465057373,1.037200689315796,2.614665508270264,XArbitraryZVertical,0.1878150438972611,0.7188654373106158,-0.3056837210780933,0.5954121669142672,0.9708664417266846,0.2158361971378326,0.1040840148925781,0,0,0,-1,-1,3216.935977291667,walking,2,2022-05-12T10:39:10.555+02:00,2022-05-11T22:15:20.957+02:00,763,0.8982581,0.7741436,1.733193,581.0482,0,0,2022-05-12T10:39:10.555+02:00,674037550.5548247,0,-1.639999,100.927,1,0.95
264,2022-05-12T10:39:10.681+02:00,1652344747.999676,53.22897756942849,10.39845689200833,38.50991,0.29,0.74,129.0234375,77.60902848207787,4,5,-9999,3217.060629625,-25.38191223144531,0.880157470703125,5.731277465820312,3217.050634625,-0.9269126236372418,1.284869142905679,-0.3215791669626517,21.8604850769043,-34.99326324462891,-11.08902168273926,-11.79394721984863,2.926351547241211,5.920069217681885,XArbitraryZVertical,0.1497299388519917,0.586333187969841,-0.4391065063072265,0.6640631391103253,0.9102193117141724,0.3160651624202728,-0.2675886750221252,0,0,0,-1,-1,3216.935977291667,walking,2,2022-05-12T10:39:10.555+02:00,2022-05-11T22:15:20.957+02:00,763,0.8982581,0.7741436,1.733193,581.0482,0,0,2022-05-12T10:39:10.555+02:00,674037550.5548247,0,-1.639999,100.927,1,0.95
265,2022-05-12T10:39:10.691+02:00,1652344747.999676,53.22897756942849,10.39845689200833,38.50991,0.29,0.74,129.0234375,77.60902848207787,4,5,-9999,3217.070624625,-28.9696044921875,-0.617034912109375,1.147552490234375,3217.060629625,-1.17302994452781,0.8574228625603607,-0.2935706142973477,22.97763824462891,-34.87405014038086,-5.897312164306641,-18.94071197509766,2.941051006317139,8.453875541687012,XArbitraryZVertical,0.1168083037075008,0.4161250694512594,-0.5486000804710037,0.7157050209260867,0.723807692527771,0.2893719077110291,-0.6263914704322815,0,0,0,-1,-1,3216.935977291667,walking,2,2022-05-12T10:39:10.555+02:00,2022-05-11T22:15:20.957+02:00,763,0.8982581,0.7741436,1.733193,581.0482,0,0,2022-05-12T10:39:10.555+02:00,674037550.5548247,0,-1.639999,100.927,1,0.95
266,2022-05-12T10:39:10.701+02:00,1652344747.999676,53.22897756942849,10.39845689200833,38.50991,0.29,0.74,129.0234375,77.60902848207787,4,5,-9999,3217.080620625,-23.9813232421875,2.815536499023438,1.09765625,3217.070624625,-1.356110383916141,0.4937752449375507,-0.1017694444071647,30.0522403717041,-28.09637069702148,0.0850283801555633,-25.85341453552246,0.7785635590553284,6.607271194458008,XArbitraryZVertical,0.1146901341307225,0.2210186611974608,-0.6171523434245786,0.7464046785593591,0.4715012907981873,0.101593866944313,-0.8759938478469849,0,0,0,-1,-1,3216.935977291667,walking,2,2022-05-12T10:39:10.555+02:00,2022-05-11T22:15:20.957+02:00,763,0.8982581,0.7741436,1.733193,581.0482,0,0,2022-05-12T10:39:10.555+02:00,674037550.5548247,0,-1.639999,100.927,1,0.95
267,2022-05-12T10:39:10.711+02:00,1652344747.999676,53.22897756942849,10.39845689200833,38.50991,0.29,0.74,129.0234375,77.60902848207787,4,5,-9999,3217.090615625,-15.39958190917969,-4.0341796875,2.674591064453125,3217.080620625,-1.468696188299303,0.3000308908530453,0.1994699313602915,34.03123474121094,-11.93804740905762,2.50971531867981,-29.2592945098877,-0.4188852608203888,2.083937168121338,XArbitraryZVertical,0.1727288502997737,0.0444105444377843,-0.6482389946132745,0.740255878681096,0.2896894812583923,-0.1981498003005981,-0.936384916305542,0,0,0,-1,-1,3216.935977291667,walking,2,2022-05-12T10:39:10.555+02:00,2022-05-11T22:15:20.957+02:00,763,0.8982581,0.7741436,1.733193,581.0482,0,0,2022-05-12T10:39:10.555+02:00,674037550.5548247,0,-1.639999,100.927,1,0.95
268,2022-05-12T10:39:10.721+02:00,1652344747.999676,53.22897756942849,10.39845689200833,38.50991,0.29,0.74,129.0234375,77.60902848207787,4,5,-9999,3217.100610625,-7.218856811523438,-10.59819030761719,0.2992401123046875,3217.090615625,-1.511052711396854,0.2562304775701967,0.5360385367916543,32.04091644287109,0.1578842997550964,8.008703231811523,-24.1992130279541,3.326270580291748,1.929326295852661,XArbitraryZVertical,0.275664087213106,-0.0904116572263517,-0.631143911630959,0.7193694596845198,0.2178886532783508,-0.5107342004776001,-0.8316701054573059,0,0,0,-1,-1,3216.935977291667,walking,2,2022-05-12T10:39:10.555+02:00,2022-05-11T22:15:20.957+02:00,763,0.8982581,0.7741436,1.733193,581.0482,0,0,2022-05-12T10:39:10.555+02:00,674037550.5548247,0,-1.639999,100.927,1,0.95
269,2022-05-12T10:39:10.731+02:00,1652344747.999676,53.22897756942849,10.39845689200833,38.50991,0.29,0.74,129.0234375,77.60902848207787,4,5,-9999,3217.110605625,-0.493927001953125,-10.70252990722656,-3.545166015625,3217.100610625,-1.470065819686439,0.2592506606234016,0.8387986368158207,24.02815628051758,5.243288040161133,12.06660175323486,-15.57091999053955,-3.29033899307251,3.320613145828247,XArbitraryZVertical,0.3787113987088293,-0.1832121172228698,-0.5683067919072419,0.7071338995965395,0.1713375151157379,-0.7438406944274902,-0.6460220217704773,0,0,0,-1,-1,3216.935977291667,walking,2,2022-05-12T10:39:10.555+02:00,2022-05-11T22:15:20.957+02:00,763,0.8982581,0.7741436,1.733193,581.0482,0,0,2022-05-12T10:39:10.555+02:00,674037550.5548247,0,-1.639999,100.927,1,0.95
270,2022-05-12T10:39:10.741+02:00,1652344747.999676,53.22897756942849,10.39845689200833,38.50991,0.29,0.74,129.0234375,77.60902848207787,4,5,-9999,3217.120600625,-0.98956298828125,-7.205337524414062,-4.980194091796875,3217.110605625,-1.36676840245393,0.2302062235465696,1.021858711746022,8.00129508972168,4.565919876098633,8.868658065795898,-7.337916374206543,-9.745111465454102,0.8072565793991089,XArbitraryZVertical,0.4399288711968136,-0.2290291137619753,-0.5035892262724028,0.707394067836011,0.1190592050552368,-0.8530793190002441,-0.5080165266990662,0,0,0,-1,-1,3216.935977291667,walking,2,2022-05-12T10:39:10.555+02:00,2022-05-11T22:15:20.957+02:00,763,0.8982581,0.7741436,1.733193,581.0482,0,0,2022-05-12T10:39:10.555+02:00,674037550.5548247,0,-1.639999,100.927,1,0.95
271,2022-05-12T10:39:10.751+02:00,1652344747.999676,53.22897756942849,10.39845689200833,38.50991,0.29,0.74,129.0234375,77.60902848207787,4,5,-9999,3217.130595625,-3.0352783203125,-4.248977661132812,-3.826690673828125,3217.120600625,-1.204118132467985,0.1147848906128342,1.054464228249766,-3.699965000152588,1.447863221168518,8.349878311157227,-0.550471842288971,-9.832894325256348,-3.054720878601074,XArbitraryZVertical,0.4420677714030476,-0.2436258634610184,-0.4648412626622312,0.7274236881791037,0.0565442331135273,-0.869635820388794,-0.4904450476169586,0,0,0,-1,-1,3216.935977291667,walking,2,2022-05-12T10:39:10.555+02:00,2022-05-11T22:15:20.957+02:00,763,0.8982581,0.7741436,1.733193,581.0482,0,0,2022-05-12T10:39:10.555+02:00,674037550.5548247,0,-1.639999,100.927,1,0.95
272,2022-05-12T10:39:10.761+02:00,1652344747.999676,53.22897756942849,10.39845689200833,38.50991,0.29,0.74,129.0234375,77.60902848207787,4,5,-9999,3217.140590625,-2.542984008789062,-2.554885864257812,-1.982803344726562,3217.130595625,-1.044501401191091,-0.0084205025518747,0.992713081990366,-8.837170600891113,1.115492939949036,7.699019432067871,-0.984962522983551,-6.367825984954834,-4.433794021606445,XArbitraryZVertical,0.4108930647009089,-0.2407627542238443,-0.4403686045218138,0.7611017050115908,-0.0046010743826627,-0.8375115394592285,-0.5464003682136536,0,0,0,-1,-1,3216.935977291667,walking,2,2022-05-12T10:39:10.555+02:00,2022-05-11T22:15:20.957+02:00,763,0.8982581,0.7741436,1.733193,581.0482,0,0,2022-05-12T10:39:10.555+02:00,674037550.5548247,0,-1.639999,100.927,1,0.95
273,2022-05-12T10:39:10.771+02:00,1652344747.999676,53.22897756942849,10.39845689200833,38.50991,0.29,0.74,129.0234375,77.60902848207787,4,5,-9999,3217.150585625,-3.494186401367188,-0.9008026123046876,-1.575637817382812,3217.140590625,-0.9203462650398694,-0.1002641076551914,0.8998461516388467,-8.278449058532715,0.8881610035896301,7.822670936584473,-2.973046064376831,-3.465746402740479,-3.208082675933838,XArbitraryZVertical,0.369127161771522,-0.233326171362169,-0.4189299769121074,0.7961167212653688,-0.0622328668832778,-0.783231258392334,-0.6186080574989319,0,0,0,-1,-1,3216.935977291667,walking,2,2022-05-12T10:39:10.555+02:00,2022-05-11T22:15:20.957+02:00,763,0.8982581,0.7741436,1.733193,581.0482,0,0,2022-05-12T10:39:10.555+02:00,674037550.5548247,0,-1.639999,100.927,1,0.95
274,2022-05-12T10:39:10.788+02:00,1652344747.999676,53.22897756942849,10.39845689200833,38.50991,0.29,0.74,129.0234375,77.60902848207787,4,5,-9999,3217.160580625,-3.402511596679688,-0.901947021484375,-1.19476318359375,3217.150585625,-0.8120862972000663,-0.1666872638133003,0.8240648387152533,-4.731611251831055,2.452581405639648,8.189920425415039,-2.430286884307861,-1.820972800254822,-1.312974214553833,XArbitraryZVertical,0.3365044520265489,-0.2277063479956043,-0.3912924273989844,0.8257147243002718,-0.1126976832747459,-0.7339128851890564,-0.6698291301727295,0,0,0,-1,-1,3216.935977291667,walking,2,2022-05-12T10:39:10.555+02:00,2022-05-11T22:15:20.957+02:00,763,0.8982581,0.7741436,1.733193,581.0482,0,0,2022-05-12T10:39:10.555+02:00,674037550.5548247,0,-1.639999,100.927,1,0.95
275,2022-05-12T10:39:10.823+02:00,1652344747.999676,53.22897756942849,10.39845689200833,38.50991,0.29,0.74,129.0234375,77.60902848207787,4,5,-9999,3217.170575625,-2.515625,-1.449234008789062,-1.195465087890625,3217.160580625,-0.7033120527624517,-0.2119454040030798,0.7762962064314067,-1.991935014724731,3.959843397140503,8.517477989196777,-3.344090700149536,-0.2001609802246094,-0.8780902624130249,XArbitraryZVertical,0.3195963067419502,-0.221549990201656,-0.3546241218183975,0.8503032912433559,-0.1500962525606155,-0.7006415128707886,-0.6975476145744324,0,0,0,-1,-1,3216.935977291667,walking,2,2022-05-12T10:39:10.555+02:00,2022-05-11T22:15:20.957+02:00,763,0.8982581,0.7741436,1.733193,581.0482,0,0,2022-05-12T10:39:10.555+02:00,674037550.5548247,0,-1.639999,100.927,1,0.95
276,2022-05-12T10:39:10.859+02:00,1652344747.999676,53.22897756942849,10.39845689200833,38.50991,0.29,0.74,129.0234375,77.60902848207787,4,5,-9999,3217.180570625,-1.91143798828125,-1.72216796875,-1.336166381835938,3217.170575625,-0.591700311312893,-0.2463930475394547,0.7442111707299376,-0.7114533185958862,4.3390793800354,8.695533752441406,-3.223088264465332,-0.2245550751686096,-0.4813576936721802,XArbitraryZVertical,0.3117704205094884,-0.2147007411132269,-0.3122791322222876,0.8713120019458218,-0.1794238686561584,-0.677391767501831,-0.7134056091308594,0,0,0,-1,-1,3216.935977291667,walking,2,2022-05-12T10:39:10.555+02:00,2022-05-11T22:15:20.957+02:00,763,0.8982581,0.7741436,1.733193,581.0482,0,0,2022-05-12T10:39:10.555+02:00,674037550.5548247,0,-1.639999,100.927,1,0.95
277,2022-05-12T10:39:10.870+02:00,1652344747.999676,53.22897756942849,10.39845689200833,38.50991,0.29,0.74,129.0234375,77.60902848207787,4,5,-9999,3217.190565625,-1.8978271484375,-1.794570922851562,-1.383651733398438,3217.180570625,-0.4817472593326452,-0.2773434168706656,0.7159690091558722,-0.5952998399734497,4.130123138427734,8.547775268554688,-2.309053897857666,-0.792884886264801,-0.4698382616043091,XArbitraryZVertical,0.3061211162666008,-0.208509970135322,-0.2683183005579387,0.8892799131425505,-0.2065716534852982,-0.6563488245010376,-0.7256268858909607,0,0,0,-1,-1,3216.935977291667,walking,2,2022-05-12T10:39:10.555+02:00,2022-05-11T22:15:20.957+02:00,763,0.8982581,0.7741436,1.733193,581.0482,0,0,2022-05-12T10:39:10.555+02:00,674037550.5548247,0,-1.639999,100.927,1,0.95
278,2022-05-12T10:39:10.880+02:00,1652344747.999676,53.22897756942849,10.39845689200833,38.50991,0.29,0.74,129.0234375,77.60902848207787,4,5,-9999,3217.200560625,-1.858978271484375,-1.90545654296875,-1.315963745117188,3217.190565625,-0.3780322342156691,-0.3045826001577405,0.6862451367185722,-0.5269882082939148,3.744267225265503,8.392505645751953,-1.679430484771729,-1.088530898094177,-0.5981443524360657,XArbitraryZVertical,0.2997704653468004,-0.2027968857851893,-0.2250206668356153,0.904641817949943,-0.2320079803466797,-0.6336367726325989,-0.7380222082138062,0,0,0,-1,-1,3216.935977291667,walking,2,2022-05-12T10:39:10.555+02:00,2022-05-11T22:15:20.957+02:00,763,0.8982581,0.7741436,1.733193,581.0482,0,0,2022-05-12T10:39:10.555+02:00,674037550.5548247,0,-1.639999,100.927,1,0.95
279,2022-05-12T10:39:10.883+02:00,1652344747.999676,53.22897756942849,10.39845689200833,38.50991,0.29,0.74,129.0234375,77.60902848207787,4,5,-9999,3217.210555625,-1.836669921875,-1.763153076171875,-1.214187622070312,3217.200560625,-0.2794975912466072,-0.3308433855923024,0.6551230912353748,-0.5478999018669128,3.29815936088562,8.208598136901855,-1.64023768901825,-1.185313701629639,-0.6336828470230103,XArbitraryZVertical,0.2925316215692145,-0.1985969331373328,-0.1825507088338864,0.9174201941850868,-0.2575899660587311,-0.6092568635940552,-0.7499690055847168,0,0,0,-1,-1,3216.935977291667,walking,2,2022-05-12T10:39:10.555+02:00,2022-05-11T22:15:20.957+02:00,763,0.8982581,0.7741436,1.733193,581.0482,0,0,2022-05-12T10:39:10.555+02:00,674037550.5548247,0,-1.639999,100.927,1,0.95
280,2022-05-12T10:39:10.886+02:00,1652344747.999676,53.22897756942849,10.39845689200833,38.50991,0.29,0.74,129.0234375,77.60902848207787,4,5,-9999,3217.220550625,-1.755081176757812,-1.61822509765625,-1.12939453125,3217.210555625,-0.1864418580928044,-0.3548534519143632,0.6235841779066138,-0.3249055445194244,2.995190620422363,7.975118637084961,-1.576919555664062,-1.321507692337036,-0.5547498464584351,XArbitraryZVertical,0.2850006081541529,-0.1953653301469123,-0.1411150261165695,0.9277358099104374,-0.2820591032505035,-0.5839484930038452,-0.7612140774726868,0,0,0,-1,-1,3216.935977291667,walking,2,2022-05-12T10:39:10.555+02:00,2022-05-11T22:15:20.957+02:00,763,0.8982581,0.7741436,1.733193,581.0482,0,0,2022-05-12T10:39:10.555+02:00,674037550.5548247,0,-1.639999,100.927,1,0.95
281,2022-05-12T10:39:10.887+02:00,1652344747.999676,53.22897756942849,10.39845689200833,38.50991,0.29,0.74,129.0234375,77.60902848207787,4,5,-9999,3217.230545625,-1.712005615234375,-1.55108642578125,-1.143768310546875,3217.220550625,-0.0979589041092782,-0.3772549832535123,0.594340340171756,0.0686593204736709,2.641425371170044,7.670424461364746,-1.531469106674194,-1.203190326690674,-0.4439316391944885,XArbitraryZVertical,0.278498713641692,-0.193159002489187,-0.100823806022466,0.9353944186655369,-0.3052011132240295,-0.5599623322486877,-0.7702561616897583,0,0,0,-1,-1,3216.935977291667,walking,2,2022-05-12T10:39:10.555+02:00,2022-05-11T22:15:20.957+02:00,763,0.8982581,0.7741436,1.733193,581.0482,0,0,2022-05-12T10:39:10.555+02:00,674037550.5548247,0,-1.639999,100.927,1,0.95
282,2022-05-12T10:39:10.889+02:00,1652344747.999676,53.22897756942849,10.39845689200833,38.50991,0.29,0.74,129.0234375,77.60902848207787,4,5,-9999,3217.240540625,-1.710067749023438,-1.568710327148438,-1.174301147460938,3217.230545625,-0.0134115523061108,-0.3991459942034786,0.5681884285623721,0.3889968991279602,2.335258960723877,7.375514030456543,-1.427512764930725,-1.080118656158447,-0.3527733683586121,XArbitraryZVertical,0.273442432512884,-0.1921420687574901,-0.061875260602705,0.9404691043154544,-0.3275687098503113,-0.5381060242652893,-0.7766213417053223,0,0,0,-1,-1,3216.935977291667,walking,2,2022-05-12T10:39:10.555+02:00,2022-05-11T22:15:20.957+02:00,763,0.8982581,0.7741436,1.733193,581.0482,0,0,2022-05-12T10:39:10.555+02:00,674037550.5548247,0,-1.639999,100.927,1,0.95
283,2022-05-12T10:39:10.894+02:00,1652344747.999676,53.22897756942849,10.39845689200833,38.50991,0.29,0.74,129.0234375,77.60902848207787,4,5,-9999,3217.250535625,-1.57110595703125,-1.539093017578125,-1.18499755859375,3217.240540625,0.0664852100272827,-0.4188437064505489,0.5436921092393349,0.5146269798278809,2.152224540710449,7.019689559936523,-1.363946437835693,-1.033786773681641,-0.3619397878646851,XArbitraryZVertical,0.2691543494041034,-0.1914198773041597,-0.0244744807090195,0.9435653395143084,-0.3480595052242279,-0.517299234867096,-0.781828761100769,0,0,0,-1,-1,3216.935977291667,walking,2,2022-05-12T10:39:10.555+02:00,2022-05-11T22:15:20.957+02:00,763,0.8982581,0.7741436,1.733193,581.0482,0,0,2022-05-12T10:39:10.555+02:00,674037550.5548247,0,-1.639999,100.927,1,0.95
284,2022-05-12T10:39:10.896+02:00,1652344747.999676,53.22897756942849,10.39845689200833,38.50991,0.29,0.74,129.0234375,77.60902848207787,4,5,-9999,3217.260530625,-1.553115844726562,-1.480331420898438,-1.15399169921875,3217.250535625,0.1410468046142905,-0.4366158953376325,0.5199792867668839,0.4905763864517212,1.825377464294434,6.642165184020996,-1.343084335327148,-1.071847677230835,-0.3878847360610962,XArbitraryZVertical,0.2650934670230124,-0.191094628645981,0.0109431273268266,0.9450336776088352,-0.3669836223125458,-0.4968621730804443,-0.7864165902137756,0,0,0,-1,-1,3216.935977291667,walking,2,2022-05-12T10:39:10.555+02:00,2022-05-11T22:15:20.957+02:00,763,0.8982581,0.7741436,1.733193,581.0482,0,0,2022-05-12T10:39:10.555+02:00,674037550.5548247,0,-1.639999,100.927,1,0.95
285,2022-05-12T10:39:10.897+02:00,1652344747.999676,53.22897756942849,10.39845689200833,38.50991,0.29,0.74,129.0234375,77.60902848207787,4,5,-9999,3217.270525625,-1.632080078125,-1.318283081054688,-1.111801147460938,3217.260530625,0.2094688124752175,-0.4526616328084627,0.4960697816168905,0.3180719912052155,1.752926468849182,6.194015026092529,-1.18646502494812,-1.063119769096375,-0.3941115140914917,XArbitraryZVertical,0.2606692295610811,-0.1913332262551114,0.0439700013696306,0.9452565592236,-0.3846412301063538,-0.4759727418422699,-0.7908862829208374,0,0,0,-1,-1,3216.935977291667,walking,2,2022-05-12T10:39:10.555+02:00,2022-05-11T22:15:20.957+02:00,763,0.8982581,0.7741436,1.733193,581.0482,0,0,2022-05-12T10:39:10.555+02:00,674037550.5548247,0,-1.639999,100.927,1,0.95
286,2022-05-12T10:39:10.904+02:00,1652344747.999676,53.22897756942849,10.39845689200833,38.50991,0.29,0.74,129.0234375,77.60902848207787,4,5,-9999,3217.280520625,-1.63714599609375,-1.108612060546875,-1.057159423828125,3217.270525625,0.2713807596866136,-0.4645008747100465,0.4723118107133252,0.281024158000946,1.71137535572052,5.728215217590332,-1.154184341430664,-1.025384664535522,-0.3578276634216309,XArbitraryZVertical,0.255863942135827,-0.1909227759364039,0.0746318499120567,0.9447287615579392,-0.3989316821098328,-0.4549462199211121,-0.7961642742156982,0,0,0,-1,-1,3216.935977291667,walking,2,2022-05-12T10:39:10.555+02:00,2022-05-11T22:15:20.957+02:00,763,0.8982581,0.7741436,1.733193,581.0482,0,0,2022-05-12T10:39:10.555+02:00,674037550.5548247,0,-1.639999,100.927,1,0.95
287,2022-05-12T10:39:10.911+02:00,1652344747.999676,53.22897756942849,10.39845689200833,38.50991,0.29,0.74,129.0234375,77.60902848207787,4,5,-9999,3217.290515625,-1.601165771484375,-0.9716949462890624,-1.012649536132812,3217.280520625,0.3272239927498152,-0.4715203842239675,0.4499926753268701,0.2618259489536285,1.900464773178101,5.203211784362793,-1.223058462142944,-0.8833235502243042,-0.3096093535423279,XArbitraryZVertical,0.25112169571582,-0.1893195898485414,0.1029683896394172,0.9436596146256584,-0.4090217053890228,-0.4349589347839355,-0.802191972732544,0,0,0,-1,-1,3216.935977291667,walking,2,2022-05-12T10:39:10.555+02:00,2022-05-11T22:15:20.957+02:00,763,0.8982581,0.7741436,1.733193,581.0482,0,0,2022-05-12T10:39:10.555+02:00,674037550.5548247,0,-1.639999,100.927,1,0.95
288,2022-05-12T10:39:10.921+02:00,1652344747.999676,53.22897756942849,10.39845689200833,38.50991,0.29,0.74,129.0234375,77.60902848207787,4,5,-9999,3217.300510625,-1.5452880859375,-0.909271240234375,-1.001190185546875,3217.290515625,0.3779362010554317,-0.4736703609624963,0.4304345337907937,0.4539441168308258,1.944673538208008,4.761592388153076,-1.222599029541016,-0.6913458108901978,-0.2484322786331177,XArbitraryZVertical,0.2469596037088727,-0.1861377504836775,0.1291742458495738,0.942166531469066,-0.4145471453666687,-0.4172657430171967,-0.8087273836135864,0,0,0,-1,-1,3216.935977291667,walking,2,2022-05-12T10:39:10.555+02:00,2022-05-11T22:15:20.957+02:00,763,0.8982581,0.7741436,1.733193,581.0482,0,0,2022-05-12T10:39:10.555+02:00,674037550.5548247,0,-1.639999,100.927,1,0.95
289,2022-05-12T10:39:10.930+02:00,1652344747.999676,53.22897756942849,10.39845689200833,38.50991,0.29,0.74,129.0234375,77.60902848207787,4,5,-9999,3217.310505625,-1.626129150390625,-0.898223876953125,-1.007766723632812,3217.300510625,0.4256645316590762,-0.4744165023814576,0.4148346962777542,0.7454433441162109,1.858759760856628,4.432292938232422,-1.183092474937439,-0.568655788898468,-0.1985400915145874,XArbitraryZVertical,0.2442230414130309,-0.1824836329140043,0.1536131573488722,0.93992447256439,-0.4180734157562256,-0.4030386507511139,-0.8141096830368042,0,0,0,-1,-1,3216.935977291667,walking,2,2022-05-12T10:39:10.555+02:00,2022-05-11T22:15:20.957+02:00,763,0.8982581,0.7741436,1.733193,581.0482,0,0,2022-05-12T10:39:10.555+02:00,674037550.5548247,0,-1.639999,100.927,1,0.95
290,2022-05-12T10:39:10.940+02:00,1652344748.999699,53.22897731797139,10.39845957421735,38.13284,0.17,0.74,-1.0,-1.0,4,5,-9999,3217.320500625,-1.564285278320312,-0.8787689208984375,-1.006927490234375,3217.310505625,0.4715924223724857,-0.4737898277620949,0.4029264052465326,0.9714239835739136,1.947889566421509,4.174014568328857,-1.125564813613892,-0.5171586275100708,-0.1826059818267822,XArbitraryZVertical,0.2428497123712803,-0.1781341692463201,0.1768378345392084,0.9370276492778904,-0.4197233319282532,-0.3921120762825012,-0.8185844421386719,0,0,0,-1,-1,3216.935977291667,walking,2,2022-05-12T10:39:10.555+02:00,2022-05-11T22:15:20.957+02:00,763,0.8982581,0.7741436,1.733193,581.0482,0,0,2022-05-12T10:39:10.555+02:00,674037550.5548247,0,-1.639999,100.927,1,0.95
291,2022-05-12T10:39:10.953+02:00,1652344748.999699,53.22897731797139,10.39845957421735,38.13284,0.17,0.74,-1.0,-1.0,4,5,-9999,3217.330495625,-1.468124389648438,-0.8834075927734375,-0.9835662841796876,3217.320500625,0.516281930691061,-0.4712671763992512,0.3938254859121157,1.140597343444824,2.031089544296265,3.980721235275269,-1.20686936378479,-0.5144994854927063,-0.1849806904792786,XArbitraryZVertical,0.2423796945712766,-0.1727974503303209,0.1992710451689826,0.93364031387123,-0.4192598462104797,-0.3837238550186157,-0.822786271572113,0,0,0,-1,-1,3216.935977291667,walking,2,2022-05-12T10:39:10.555+02:00,2022-05-11T22:15:20.957+02:00,763,0.8982581,0.7741436,1.733193,581.0482,0,0,2022-05-12T10:39:10.555+02:00,674037550.5548247,0,-1.639999,100.927,1,0.95
292,2022-05-12T10:39:10.960+02:00,1652344748.999699,53.22897731797139,10.39845957421735,38.13284,0.17,0.74,-1.0,-1.0,4,5,-9999,3217.340490625,-1.397354125976562,-0.8826446533203125,-0.9580078125,3217.330495625,0.5594682326701388,-0.4671500395764833,0.3868627517570056,1.212063431739807,2.095903396606445,3.774398326873779,-1.147223353385925,-0.5014835596084595,-0.1800568103790283,XArbitraryZVertical,0.2424517627589451,-0.1666783676932912,0.2208304204885633,0.9298760761924048,-0.4170618951320648,-0.3772848844528198,-0.8268709182739258,0,0,0,-1,-1,3216.935977291667,walking,2,2022-05-12T10:39:10.555+02:00,2022-05-11T22:15:20.957+02:00,763,0.8982581,0.7741436,1.733193,581.0482,0,0,2022-05-12T10:39:10.555+02:00,674037550.5548247,0,-1.639999,100.927,1,0.95
293,2022-05-12T10:39:10.970+02:00,1652344748.999699,53.22897731797139,10.39845957421735,38.13284,0.17,0.74,-1.0,-1.0,4,5,-9999,3217.350485625,-1.26708984375,-0.841827392578125,-0.9309234619140624,3217.340490625,0.6004969929826447,-0.4609472438053873,0.3810888741810428,1.159145832061768,2.235032558441162,3.530876159667969,-1.055237293243408,-0.5114756226539612,-0.1521874070167542,XArbitraryZVertical,0.242476425160252,-0.1597360577591841,0.2413967014862476,0.9259682933578672,-0.4128870666027069,-0.3719314336776733,-0.8313791751861572,0,0,0,-1,-1,3216.935977291667,walking,2,2022-05-12T10:39:10.555+02:00,2022-05-11T22:15:20.957+02:00,763,0.8982581,0.7741436,1.733193,581.0482,0,0,2022-05-12T10:39:10.555+02:00,674037550.5548247,0,-1.639999,100.927,1,0.95
294,2022-05-12T10:39:10.981+02:00,1652344748.999699,53.22897731797139,10.39845957421735,38.13284,0.17,0.74,-1.0,-1.0,4,5,-9999,3217.360480625,-1.130264282226562,-0.802154541015625,-0.920928955078125,3217.350485625,0.638621129269597,-0.4521802425187383,0.3762281672508588,1.110195159912109,2.316880941390991,3.267802000045776,-0.9909864068031312,-0.5152290463447571,-0.1214248538017273,XArbitraryZVertical,0.2421630006162218,-0.1518732284363624,0.260724161918615,0.9221249959992244,-0.406367689371109,-0.3674150705337524,-0.8365831971168518,0,0,0,-1,-1,3216.935977291667,walking,2,2022-05-12T10:39:10.555+02:00,2022-05-11T22:15:20.957+02:00,763,0.8982581,0.7741436,1.733193,581.0482,0,0,2022-05-12T10:39:10.555+02:00,674037550.5548247,0,-1.639999,100.927,1,0.95
295,2022-05-12T10:39:10.990+02:00,1652344748.999699,53.22897731797139,10.39845957421735,38.13284,0.17,0.74,-1.0,-1.0,4,5,-9999,3217.370475625,-1.03363037109375,-0.771087646484375,-0.911529541015625,3217.360480625,0.6739191304435047,-0.4417441281510777,0.3726487501074211,1.087532758712769,2.355943918228149,2.956870317459106,-0.8689150214195251,-0.4777432084083557,-0.0889617204666137,XArbitraryZVertical,0.2417619173926127,-0.1434230590529333,0.2787019509250854,0.9183171614255864,-0.3981747627258301,-0.3640836775302887,-0.8419619798660278,0,0,0,-1,-1,3216.935977291667,walking,2,2022-05-12T10:39:10.555+02:00,2022-05-11T22:15:20.957+02:00,763,0.8982581,0.7741436,1.733193,581.0482,0,0,2022-05-12T10:39:10.555+02:00,674037550.5548247,0,-1.639999,100.927,1,0.95
296,2022-05-12T10:39:11.003+02:00,1652344748.999699,53.22897731797139,10.39845957421735,38.13284,0.17,0.74,-1.0,-1.0,4,5,-9999,3217.380470625,-0.9760589599609376,-0.727996826171875,-0.8901519775390625,3217.370475625,0.7059725685349977,-0.4300979737703186,0.3705159584673661,1.044968843460083,2.314944267272949,2.629278182983398,-0.7415989637374878,-0.4400576055049896,-0.0736833810806274,XArbitraryZVertical,0.241370608457513,-0.1346004947982918,0.295075545593821,0.9146330153861312,-0.3886652290821075,-0.3620964288711548,-0.8472458720207214,0,0,0,-1,-1,3216.935977291667,walking,2,2022-05-12T10:39:10.555+02:00,2022-05-11T22:15:20.957+02:00,763,0.8982581,0.7741436,1.733193,581.0482,0,0,2022-05-12T10:39:10.555+02:00,674037550.5548247,0,-1.639999,100.927,1,0.95
297,2022-05-12T10:39:11.010+02:00,1652344748.999699,53.22897731797139,10.39845957421735,38.13284,0.17,0.74,-1.0,-1.0,4,5,-9999,3217.390465625,-0.9373016357421876,-0.6600494384765625,-0.86260986328125,3217.380470625,0.7347785213633868,-0.4176667613892214,0.3697187283321165,1.022771835327148,2.263683080673218,2.335112333297729,-0.65541011095047,-0.4097339808940887,-0.0592543482780456,XArbitraryZVertical,0.2410114488074317,-0.1256015744166934,0.3098256958558632,0.9111234610599896,-0.3782201707363129,-0.3613531887531281,-0.8522754311561584,0,0,0,-1,-1,3216.935977291667,walking,2,2022-05-12T10:39:10.555+02:00,2022-05-11T22:15:20.957+02:00,763,0.8982581,0.7741436,1.733193,581.0482,0,0,2022-05-12T10:39:10.555+02:00,674037550.5548247,0,-1.639999,100.927,1,0.95
298,2022-05-12T10:39:11.020+02:00,1652344748.999699,53.22897731797139,10.39845957421735,38.13284,0.17,0.74,-1.0,-1.0,4,5,-9999,3217.400460625,-0.8904876708984375,-0.61920166015625,-0.822296142578125,3217.390465625,0.7607566692460094,-0.404566754297807,0.3703679533480064,1.033673048019409,2.236522912979126,2.064666032791138,-0.6091280579566956,-0.3660378754138947,-0.0332112312316894,XArbitraryZVertical,0.2407964191038859,-0.1163897777764354,0.3231349105437618,0.907774423998727,-0.3669307827949524,-0.3619584739208221,-0.8569409847259521,0,0,0,-1,-1,3216.935977291667,walking,2,2022-05-12T10:39:10.555+02:00,2022-05-11T22:15:20.957+02:00,763,0.8982581,0.7741436,1.733193,581.0482,0,0,2022-05-12T10:39:10.555+02:00,674037550.5548247,0,-1.639999,100.927,1,0.95
299,2022-05-12T10:39:11.030+02:00,1652344748.999699,53.22897731797139,10.39845957421735,38.13284,0.17,0.74,-1.0,-1.0,4,5,-9999,3217.410455625,-0.8677215576171875,-0.5833740234375,-0.784393310546875,3217.400460625,0.7843593109343079,-0.3909993325614392,0.3726152843713225,1.087007403373718,2.193768262863159,1.831188082695007,-0.5823414921760559,-0.2959964871406555,-0.0015240907669067,XArbitraryZVertical,0.2408686892508535,-0.106954384774623,0.3351840580655139,0.904541193041444,-0.3549599945545197,-0.3640525043010712,-0.8610860705375671,0,0,0,-1,-1,3216.935977291667,walking,2,2022-05-12T10:39:10.555+02:00,2022-05-11T22:15:20.957+02:00,763,0.8982581,0.7741436,1.733193,581.0482,0,0,2022-05-12T10:39:10.555+02:00,674037550.5548247,0,-1.639999,100.927,1,0.95
300,2022-05-12T10:39:11.041+02:00,1652344748.999699,53.22897731797139,10.39845957421735,38.13284,0.17,0.74,-1.0,-1.0,4,5,-9999,3217.420450625,-0.8707427978515625,-0.581451416015625,-0.7670440673828125,3217.410455625,0.8062572970748056,-0.3771468605627238,0.3766125626805754,1.179215550422668,2.183816432952881,1.655099272727966,-0.5480279922485352,-0.251428633928299,0.0422641038894653,XArbitraryZVertical,0.2413763449841301,-0.0972481672168711,0.3462536039273876,0.901326123854358,-0.342459499835968,-0.3677725493907928,-0.8645604848861694,0,0,0,-1,-1,3216.935977291667,walking,2,2022-05-12T10:39:10.555+02:00,2022-05-11T22:15:20.957+02:00,763,0.8982581,0.7741436,1.733193,581.0482,0,0,2022-05-12T10:39:10.555+02:00,674037550.5548247,0,-1.639999,100.927,1,0.95
301,2022-05-12T10:39:11.050+02:00,1652344748.999699,53.22897731797139,10.39845957421735,38.13284,0.17,0.74,-1.0,-1.0,4,5,-9999,3217.430445625,-0.86224365234375,-0.5899810791015625,-0.7765655517578125,3217.420450625,0.8267645172576646,-0.3626952901552485,0.3821040048461118,1.203372001647949,2.235369443893433,1.503349661827087,-0.5385130047798157,-0.2105000019073486,0.0831242203712463,XArbitraryZVertical,0.2421772081892127,-0.0871279756381472,0.3565691214247002,0.8981188951789545,-0.3292084038257599,-0.3728735744953156,-0.8675178289413452,0,0,0,-1,-1,3216.935977291667,walking,2,2022-05-12T10:39:10.555+02:00,2022-05-11T22:15:20.957+02:00,763,0.8982581,0.7741436,1.733193,581.0482,0,0,2022-05-12T10:39:10.555+02:00,674037550.5548247,0,-1.639999,100.927,1,0.95
