,loggingTime(txt),locationTimestamp_since1970(s),locationLatitude(WGS84),locationLongitude(WGS84),locationAltitude(m),locationSpeed(m/s),locationSpeedAccuracy(m/s),locationCourse(°),locationCourseAccuracy(°),locationVerticalAccuracy(m),locationHorizontalAccuracy(m),locationFloor(Z),accelerometerTimestamp_sinceReboot(s),accelerometerAccelerationX(G),accelerometerAccelerationY(G),accelerometerAccelerationZ(G),motionTimestamp_sinceReboot(s),motionYaw(rad),motionRoll(rad),motionPitch(rad),motionRotationRateX(rad/s),motionRotationRateY(rad/s),motionRotationRateZ(rad/s),motionUserAccelerationX(G),motionUserAccelerationY(G),motionUserAccelerationZ(G),motionAttitudeReferenceFrame(txt),motionQuaternionX(R),motionQuaternionY(R),motionQuaternionZ(R),motionQuaternionW(R),motionGravityX(G),motionGravityY(G),motionGravityZ(G),motionMagneticFieldX(µT),motionMagneticFieldY(µT),motionMagneticFieldZ(µT),motionHeading(°),motionMagneticFieldCalibrationAccuracy(Z),activityTimestamp_sinceReboot(s),activity(txt),activityActivityConfidence(Z),activityActivityStartDate(txt),pedometerStartDate(txt),pedometerNumberofSteps(N),pedometerAverageActivePace(s/m),pedometerCurrentPace(s/m),pedometerCurrentCadence(steps/s),pedometerDistance(m),pedometerFloorAscended(N),pedometerFloorDescended(N),pedometerEndDate(txt),altimeterTimestamp_sinceReboot(s),altimeterReset(bool),altimeterRelativeAltitude(m),altimeterPressure(kPa),batteryState(N),batteryLevel(R)
179,2022-06-02T10:48:07.026+02:00,1654159685.999801,53.22910676774569,10.39856181678278,36.72617,0,20,-1,-1,2.400000095367432,7.999579855010836,-9999,2831.304202,0.9500579833984376,0.1305389404296875,2.773208618164062,2831.294207,-2.250103713419725,2.01561007851517,0.0765531199272918,-2.509963989257812,4.153544425964355,1.922047138214111,0.0037615299224853,0.1634687781333923,2.104509353637695,XArbitraryZVertical,0.7712791423098608,0.3458948389902171,-0.4672639598966692,0.2591323507429685,0.9000470042228699,-0.0764783695340156,0.4290295243263245,0,0,0,-1,-1,2829.8874025,unknown,2,2022-06-02T10:48:05.609+02:00,2022-06-02T10:17:13.754+02:00,465,1.442409,0,0,360.0712,0,0,2022-06-02T10:48:05.609+02:00,675852485.6088139,0,6.761719,101.3009,1,0.8
180,2022-06-02T10:48:07.037+02:00,1654159685.999801,53.22910676774569,10.39856181678278,36.72617,0,20,-1,-1,2.400000095367432,7.999579855010836,-9999,2831.314196,1.014678955078125,0.205474853515625,2.893692016601562,2831.304202,-2.231980247066092,2.056132798918558,0.1059922815878628,-3.357093334197998,4.292221546173096,1.716165065765381,0.051582932472229,0.2213335335254669,2.225732803344727,XArbitraryZVertical,0.7801937786457556,0.3510578860681978,-0.4433965178329864,0.2673115536331074,0.8795540928840637,-0.1057939305901527,0.4638879299163818,0,0,0,-1,-1,2829.8874025,unknown,2,2022-06-02T10:48:05.609+02:00,2022-06-02T10:17:13.754+02:00,465,1.442409,0,0,360.0712,0,0,2022-06-02T10:48:05.609+02:00,675852485.6088139,0,6.761719,101.3009,1,0.8
181,2022-06-02T10:48:07.046+02:00,1654159685.999801,53.22910676774569,10.39856181678278,36.72617,0,20,-1,-1,2.400000095367432,7.999579855010836,-9999,2831.32419,1.069061279296875,0.1787261962890625,2.950698852539062,2831.314196,-2.206918586340334,2.097035875269301,0.1381592468642735,-4.123100757598877,4.495437145233154,1.519442439079285,0.1187573075294495,0.3036594986915588,2.3504319190979,XArbitraryZVertical,0.7874183907079698,0.3587782353079957,-0.4173513885238234,0.2776118329064815,0.8564624786376953,-0.137720137834549,0.4974990785121918,0,0,0,-1,-1,2829.8874025,unknown,2,2022-06-02T10:48:05.609+02:00,2022-06-02T10:17:13.754+02:00,465,1.442409,0,0,360.0712,0,0,2022-06-02T10:48:05.609+02:00,675852485.6088139,0,6.761719,101.3009,1,0.8
182,2022-06-02T10:48:07.057+02:00,1654159685.999801,53.22910676774569,10.39856181678278,36.72617,0,20,-1,-1,2.400000095367432,7.999579855010836,-9999,2831.334185,1.012664794921875,0.1071319580078125,3.00604248046875,2831.334185,-2.140377148695256,2.180769188827093,0.210057357475999,-5.183234691619873,5.134596824645996,0.9658498167991638,0.2440077662467957,0.3379411101341248,2.407229900360107,XArbitraryZVertical,0.7969524026916628,0.380780235780146,-0.3585797512710568,0.3021486350572983,0.8016464710235596,-0.208516001701355,0.5602534413337708,0,0,0,-1,-1,2829.8874025,unknown,2,2022-06-02T10:48:05.609+02:00,2022-06-02T10:17:13.754+02:00,465,1.442409,0,0,360.0712,0,0,2022-06-02T10:48:05.609+02:00,675852485.6088139,0,6.761719,101.3009,1,0.8
183,2022-06-02T10:48:07.066+02:00,1654159685.999801,53.22910676774569,10.39856181678278,36.72617,0,20,-1,-1,2.400000095367432,7.999579855010836,-9999,2831.344179,1.014877319335938,0.0224456787109375,3.112579345703125,2831.334185,-2.140377148695256,2.180769188827093,0.210057357475999,-5.183234691619873,5.134596824645996,0.9658498167991638,0.2440077662467957,0.3379411101341248,2.407229900360107,XArbitraryZVertical,0.7969524026916628,0.380780235780146,-0.3585797512710568,0.3021486350572983,0.8016464710235596,-0.208516001701355,0.5602534413337708,0,0,0,-1,-1,2829.8874025,unknown,2,2022-06-02T10:48:05.609+02:00,2022-06-02T10:17:13.754+02:00,465,1.442409,0,0,360.0712,0,0,2022-06-02T10:48:05.609+02:00,675852485.6088139,0,6.761719,101.3009,1,0.8
184,2022-06-02T10:48:07.077+02:00,1654159685.999801,53.22910676774569,10.39856181678278,36.72617,0,20,-1,-1,2.400000095367432,7.999579855010836,-9999,2831.354173,1.051025390625,-0.165496826171875,3.384506225585938,2831.344179,-2.100715141470372,2.22508642385592,0.2483011413886093,-5.530625820159912,5.518133640289307,0.6272429823875427,0.230305552482605,0.3332514762878418,2.465320825576782,XArbitraryZVertical,0.7993394583068887,0.3949962838146931,-0.3256334322704838,0.3146382577853833,0.7691451907157898,-0.2457575649023056,0.5899312496185303,0,0,0,-1,-1,2829.8874025,unknown,2,2022-06-02T10:48:05.609+02:00,2022-06-02T10:17:13.754+02:00,465,1.442409,0,0,360.0712,0,0,2022-06-02T10:48:05.609+02:00,675852485.6088139,0,6.761719,101.3009,1,0.8
185,2022-06-02T10:48:07.098+02:00,1654159685.999801,53.22910676774569,10.39856181678278,36.72617,0,20,-1,-1,2.400000095367432,7.999579855010836,-9999,2831.364168,1.111083984375,-0.0608062744140625,3.74169921875,2831.354173,-2.058161468181058,2.271490204587339,0.2852837878617445,-5.503566265106201,6.025107383728027,-0.0595273785293102,0.3045254349708557,0.19558385014534,2.595361471176147,XArbitraryZVertical,0.8000112766188043,0.4114927341928154,-0.2909772311045437,0.3255577942164362,0.7334994673728943,-0.2814297676086426,0.6186886429786682,0,0,0,-1,-1,2829.8874025,unknown,2,2022-06-02T10:48:05.609+02:00,2022-06-02T10:17:13.754+02:00,465,1.442409,0,0,360.0712,0,0,2022-06-02T10:48:05.609+02:00,675852485.6088139,0,6.761719,101.3009,1,0.8
186,2022-06-02T10:48:07.102+02:00,1654159686.999801,53.22910712529924,10.39855512747151,36.69913,0,20,-1,-1,2.400000095367432,7.999579855010835,-9999,2831.374162,1.172866821289062,0.0915069580078125,4.040802001953125,2831.364168,-2.012033519960336,2.320439665331038,0.3177057565871755,-5.364921569824219,6.466023445129395,-0.9325336813926696,0.3723248839378357,0.163034975528717,2.924728155136108,XArbitraryZVertical,0.7985455664839711,0.4312353165821233,-0.2552803241664661,0.3334560748462053,0.6953020095825195,-0.3123879432678223,0.64727783203125,0,0,0,-1,-1,2829.8874025,unknown,2,2022-06-02T10:48:05.609+02:00,2022-06-02T10:17:13.754+02:00,465,1.442409,0,0,360.0712,0,0,2022-06-02T10:48:05.609+02:00,675852485.6088139,0,6.761719,101.3009,1,0.8
187,2022-06-02T10:48:07.106+02:00,1654159686.999801,53.22910712529924,10.39855512747151,36.69913,0,20,-1,-1,2.400000095367432,7.999579855010835,-9999,2831.384156,1.02069091796875,0.14605712890625,4.4019775390625,2831.374162,-1.962387791793295,2.369611869629312,0.3435879215140233,-4.947359561920166,6.563964366912842,-1.958410859107971,0.5051562786102295,0.3677513301372528,3.220643520355225,XArbitraryZVertical,0.7944605847557675,0.4540459094393388,-0.2202469143985349,0.3378845341814596,0.6567851901054382,-0.336867481470108,0.6746506094932556,0,0,0,-1,-1,2829.8874025,unknown,2,2022-06-02T10:48:05.609+02:00,2022-06-02T10:17:13.754+02:00,465,1.442409,0,0,360.0712,0,0,2022-06-02T10:48:05.609+02:00,675852485.6088139,0,6.761719,101.3009,1,0.8
188,2022-06-02T10:48:07.116+02:00,1654159686.999801,53.22910712529924,10.39855512747151,36.69913,0,20,-1,-1,2.400000095367432,7.999579855010835,-9999,2831.394151,0.8060302734375,0.101287841796875,4.975112915039062,2831.394151,-1.840411910870421,2.456004252244537,0.3705125849495331,-4.842438220977783,6.142458438873291,-4.959795475006104,0.3181595802307129,0.4857200086116791,3.927862167358398,XArbitraryZVertical,0.7741047643312684,0.5113926476543552,-0.1578128506977473,0.3381337828091371,0.5901656150817871,-0.3620932698249817,0.721521258354187,0,0,0,-1,-1,2829.8874025,unknown,2,2022-06-02T10:48:05.609+02:00,2022-06-02T10:17:13.754+02:00,465,1.442409,0,0,360.0712,0,0,2022-06-02T10:48:05.609+02:00,675852485.6088139,0,6.761719,101.3009,1,0.8
189,2022-06-02T10:48:07.126+02:00,1654159686.999801,53.22910712529924,10.39855512747151,36.69913,0,20,-1,-1,2.400000095367432,7.999579855010835,-9999,2831.404145,0.6445770263671875,0.1829681396484375,5.68389892578125,2831.394151,-1.840411910870421,2.456004252244537,0.3705125849495331,-4.842438220977783,6.142458438873291,-4.959795475006104,0.3181595802307129,0.4857200086116791,3.927862167358398,XArbitraryZVertical,0.7741047643312684,0.5113926476543552,-0.1578128506977473,0.3381337828091371,0.5901656150817871,-0.3620932698249817,0.721521258354187,0,0,0,-1,-1,2829.8874025,unknown,2,2022-06-02T10:48:05.609+02:00,2022-06-02T10:17:13.754+02:00,465,1.442409,0,0,360.0712,0,0,2022-06-02T10:48:05.609+02:00,675852485.6088139,0,6.761719,101.3009,1,0.8
190,2022-06-02T10:48:07.136+02:00,1654159686.999801,53.22910712529924,10.39855512747151,36.69913,0,20,-1,-1,2.400000095367432,7.999579855010835,-9999,2831.414139,0.423309326171875,0.241546630859375,6.645187377929688,2831.404145,-1.758105210949455,2.482392324449221,0.3721234828517995,-4.919191837310791,5.004660129547119,-6.916990756988525,0.153586745262146,0.4862903952598572,4.601587295532227,XArbitraryZVertical,0.7542961918051955,0.5470164745916821,-0.1333134436494235,0.3376947290533105,0.5705648064613342,-0.3635943830013275,0.7363795638084412,0,0,0,-1,-1,2829.8874025,unknown,2,2022-06-02T10:48:05.609+02:00,2022-06-02T10:17:13.754+02:00,465,1.442409,0,0,360.0712,0,0,2022-06-02T10:48:05.609+02:00,675852485.6088139,0,6.761719,101.3009,1,0.8
191,2022-06-02T10:48:07.146+02:00,1654159686.999801,53.22910712529924,10.39855512747151,36.69913,0,20,-1,-1,2.400000095367432,7.999579855010835,-9999,2831.424133,0.023345947265625,0.2243499755859375,7.756622314453125,2831.414139,-1.658065710405265,2.486855930562394,0.3607499190569302,-4.607586860656738,2.894828796386719,-9.34017848968506,-0.0163022875785827,0.5975438356399536,5.342947006225586,XArbitraryZVertical,0.7257688446783689,0.5868009109064889,-0.1184644098023814,0.3389550486967201,0.5697538256645203,-0.352975994348526,0.7421514391899109,0,0,0,-1,-1,2829.8874025,unknown,2,2022-06-02T10:48:05.609+02:00,2022-06-02T10:17:13.754+02:00,465,1.442409,0,0,360.0712,0,0,2022-06-02T10:48:05.609+02:00,675852485.6088139,0,6.761719,101.3009,1,0.8
192,2022-06-02T10:48:07.156+02:00,1654159686.999801,53.22910712529924,10.39855512747151,36.69913,0,20,-1,-1,2.400000095367432,7.999579855010835,-9999,2831.434128,-0.5621337890625,1.16552734375,8.761550903320312,2831.424133,-1.541929707920541,2.459301839117958,0.3282968034240656,-3.818311929702759,-0.694830060005188,-11.83288192749023,-0.354143500328064,0.5068643093109131,6.503373146057129,XArbitraryZVertical,0.6870569006806487,0.6287228185175447,-0.1195501857164684,0.3440465571749902,0.5968953967094421,-0.3224312663078308,0.7346791625022888,0,0,0,-1,-1,2829.8874025,unknown,2,2022-06-02T10:48:05.609+02:00,2022-06-02T10:17:13.754+02:00,465,1.442409,0,0,360.0712,0,0,2022-06-02T10:48:05.609+02:00,675852485.6088139,0,6.761719,101.3009,1,0.8
193,2022-06-02T10:48:07.166+02:00,1654159686.999801,53.22910712529924,10.39855512747151,36.69913,0,20,-1,-1,2.400000095367432,7.999579855010835,-9999,2831.444122,-1.6263427734375,2.545150756835938,9.657318115234377,2831.434128,-1.413625211124448,2.389952791211387,0.2740556401960319,-4.321374416351318,-5.74073314666748,-13.61988353729248,-0.8952395915985107,0.8202290534973145,7.542665481567383,XArbitraryZVertical,0.6365520868633917,0.6681724373347563,-0.1394980208636951,0.3590086459344203,0.6573548913002014,-0.2706379294395447,0.7033059597015381,0,0,0,-1,-1,2829.8874025,unknown,2,2022-06-02T10:48:05.609+02:00,2022-06-02T10:17:13.754+02:00,465,1.442409,0,0,360.0712,0,0,2022-06-02T10:48:05.609+02:00,675852485.6088139,0,6.761719,101.3009,1,0.8
194,2022-06-02T10:48:07.176+02:00,1654159686.999801,53.22910712529924,10.39855512747151,36.69913,0,20,-1,-1,2.400000095367432,7.999579855010835,-9999,2831.454116,-3.487274169921875,3.131805419921875,9.465835571289062,2831.444122,-1.274204118943401,2.271562172855108,0.2097087350068141,-6.4486985206604,-11.17509269714355,-14.2969913482666,-1.752974033355713,2.100127458572388,8.658966064453125,XArbitraryZVertical,0.5719562059148012,0.6987162244550112,-0.1730206999670639,0.3933515893821445,0.7476028203964233,-0.2081750184297562,0.6306765079498291,0,0,0,-1,-1,2829.8874025,unknown,2,2022-06-02T10:48:05.609+02:00,2022-06-02T10:17:13.754+02:00,465,1.442409,0,0,360.0712,0,0,2022-06-02T10:48:05.609+02:00,675852485.6088139,0,6.761719,101.3009,1,0.8
195,2022-06-02T10:48:07.186+02:00,1654159686.999801,53.22910712529924,10.39855512747151,36.69913,0,20,-1,-1,2.400000095367432,7.999579855010835,-9999,2831.464111,-6.648452758789062,2.977142333984375,8.90997314453125,2831.454116,-1.130191337196309,2.11014644440091,0.1328444860892467,-7.311787605285645,-16.29641914367676,-14.82686138153076,-3.294055461883545,3.114555597305298,9.17316722869873,XArbitraryZVertical,0.4924649727204787,0.7155451508967356,-0.2147411479455949,0.4464968038030893,0.8504822254180908,-0.1324540972709656,0.5090532302856445,0,0,0,-1,-1,2829.8874025,unknown,2,2022-06-02T10:48:05.609+02:00,2022-06-02T10:17:13.754+02:00,465,1.442409,0,0,360.0712,0,0,2022-06-02T10:48:05.609+02:00,675852485.6088139,0,6.761719,101.3009,1,0.8
196,2022-06-02T10:48:07.196+02:00,1654159686.999801,53.22910712529924,10.39855512747151,36.69913,0,20,-1,-1,2.400000095367432,7.999579855010835,-9999,2831.474105,-12.32865905761719,3.930709838867188,7.862045288085938,2831.464111,-1.011027837329851,1.909058196086863,0.0195991439277699,-3.770681381225586,-21.85197830200195,-15.94547843933105,-5.774176120758057,3.089101791381836,8.9539213180542,XArbitraryZVertical,0.4001106003323938,0.711198720647485,-0.2728873024763918,0.5095492217141883,0.9431517124176024,-0.019597889855504,0.3317842185497284,0,0,0,-1,-1,2829.8874025,unknown,2,2022-06-02T10:48:05.609+02:00,2022-06-02T10:17:13.754+02:00,465,1.442409,0,0,360.0712,0,0,2022-06-02T10:48:05.609+02:00,675852485.6088139,0,6.761719,101.3009,1,0.8
197,2022-06-02T10:48:07.206+02:00,1654159686.999801,53.22910712529924,10.39855512747151,36.69913,0,20,-1,-1,2.400000095367432,7.999579855010835,-9999,2831.484099,-18.95208740234375,5.4324951171875,9.201187133789062,2831.474105,-0.9756250311347808,1.668704329559151,-0.1349183246862399,4.147732257843018,-26.47366905212402,-15.92731952667236,-10.11923885345459,3.117382764816284,8.107939720153809,XArbitraryZVertical,0.3064538468166796,0.6741792754158267,-0.3582014124517814,0.5685596096080366,0.9861665964126588,0.1345093846321106,0.0968633145093917,0,0,0,-1,-1,2829.8874025,unknown,2,2022-06-02T10:48:05.609+02:00,2022-06-02T10:17:13.754+02:00,465,1.442409,0,0,360.0712,0,0,2022-06-02T10:48:05.609+02:00,675852485.6088139,0,6.761719,101.3009,1,0.8
198,2022-06-02T10:48:07.216+02:00,1654159686.999801,53.22910712529924,10.39855512747151,36.69913,0,20,-1,-1,2.400000095367432,7.999579855010835,-9999,2831.494094,-27.37228393554688,8.429855346679688,11.01934814453125,2831.484099,-1.08595051105912,1.348019638232231,-0.2674329268572214,16.41020393371582,-33.01630020141602,-11.89893817901611,-16.62502098083496,4.39924144744873,8.589274406433105,XArbitraryZVertical,0.2304137522400192,0.5834099340157081,-0.4713357579130984,0.6199878130283825,0.9406185746192932,0.264256477355957,-0.2130846977233887,0,0,0,-1,-1,2829.8874025,unknown,2,2022-06-02T10:48:05.609+02:00,2022-06-02T10:17:13.754+02:00,465,1.442409,0,0,360.0712,0,0,2022-06-02T10:48:05.609+02:00,675852485.6088139,0,6.761719,101.3009,1,0.8
199,2022-06-02T10:48:07.226+02:00,1654159686.999801,53.22910712529924,10.39855512747151,36.69913,0,20,-1,-1,2.400000095367432,7.999579855010835,-9999,2831.504088,-32.0274658203125,11.56721496582031,13.02851867675781,2831.494094,-1.376916126283529,0.9256863262923424,-0.231863480326204,34.95148468017578,-35.13095855712891,-5.142453670501709,-23.26634407043457,5.726827621459961,10.07901573181152,XArbitraryZVertical,0.2018475514066631,0.4082397254767877,-0.6045672599814392,0.6535259105985892,0.777651309967041,0.2297915369272232,-0.585195779800415,0,0,0,-1,-1,2829.8874025,unknown,2,2022-06-02T10:48:05.609+02:00,2022-06-02T10:17:13.754+02:00,465,1.442409,0,0,360.0712,0,0,2022-06-02T10:48:05.609+02:00,675852485.6088139,0,6.761719,101.3009,1,0.8
200,2022-06-02T10:48:07.236+02:00,1654159686.999801,53.22910712529924,10.39855512747151,36.69913,0,20,-1,-1,2.400000095367432,7.999579855010835,-9999,2831.514082,-31.50608825683594,5.977294921875,20.53605651855469,2831.504088,-1.612323994497571,0.5647951715632258,0.0257949523279874,35.17002487182617,-27.08810615539551,3.887796878814697,-32.2164306640625,11.47343921661377,14.06200790405273,XArbitraryZVertical,0.2096482741022884,0.1839537741412963,-0.6905060159167339,0.6673903432769633,0.5350647568702698,-0.0257920920848846,-0.8444172143936157,0,0,0,-1,-1,2829.8874025,unknown,2,2022-06-02T10:48:05.609+02:00,2022-06-02T10:17:13.754+02:00,465,1.442409,0,0,360.0712,0,0,2022-06-02T10:48:05.609+02:00,675852485.6088139,0,6.761719,101.3009,1,0.8
201,2022-06-02T10:48:07.246+02:00,1654159686.999801,53.22910712529924,10.39855512747151,36.69913,0,20,-1,-1,2.400000095367432,7.999579855010835,-9999,2831.524077,-20.59043884277344,-16.40769958496094,31.49961853027344,2831.514082,-1.768286927565743,0.5044862217125111,0.3422373529005558,35.00164031982422,10.2135181427002,-0.0137286614626646,-32.49319839477539,8.83376407623291,13.20873260498047,XArbitraryZVertical,0.2947329628194627,0.0283827719064761,-0.7110187576176918,0.6377924162801257,0.4553259611129761,-0.3355955183506012,-0.8246538043022156,0,0,0,-1,-1,2829.8874025,unknown,2,2022-06-02T10:48:05.609+02:00,2022-06-02T10:17:13.754+02:00,465,1.442409,0,0,360.0712,0,0,2022-06-02T10:48:05.609+02:00,675852485.6088139,0,6.761719,101.3009,1,0.8
202,2022-06-02T10:48:07.256+02:00,1654159686.999801,53.22910712529924,10.39855512747151,36.69913,0,20,-1,-1,2.400000095367432,7.999579855010835,-9999,2831.534071,6.985366821289062,-32.05908203125,8.481369018554688,2831.524077,-2.003441485471896,0.8106198733525387,0.6226036090856554,34.94637680053711,24.08725166320801,-2.482747077941895,-29.18168830871582,-1.724281787872314,31.03110122680664,XArbitraryZVertical,0.4678736041980291,-0.034860710984051,-0.6718596710596753,0.573134703146881,0.588731050491333,-0.5831522345542908,-0.5597580671310425,0,0,0,-1,-1,2829.8874025,unknown,2,2022-06-02T10:48:05.609+02:00,2022-06-02T10:17:13.754+02:00,465,1.442409,0,0,360.0712,0,0,2022-06-02T10:48:05.609+02:00,675852485.6088139,0,6.761719,101.3009,1,0.8
203,2022-06-02T10:48:07.266+02:00,1654159686.999801,53.22910712529924,10.39855512747151,36.69913,0,20,-1,-1,2.400000095367432,7.999579855010835,-9999,2831.544065,4.34521484375,-6.36419677734375,4.043441772460938,2831.534071,-1.943395481801792,0.8925120508375689,0.7135775298933066,-31.18997192382812,1.632537484169006,26.91677474975586,-9.976374626159668,-26.4147777557373,23.62362098693848,XArbitraryZVertical,0.5116440857367686,-0.0321464277220013,-0.6130505547477966,0.6011286973237902,0.5886790752410889,-0.6545426845550537,-0.4743738770484924,0,0,0,-1,-1,2829.8874025,unknown,2,2022-06-02T10:48:05.609+02:00,2022-06-02T10:17:13.754+02:00,465,1.442409,0,0,360.0712,0,0,2022-06-02T10:48:05.609+02:00,675852485.6088139,0,6.761719,101.3009,1,0.8
204,2022-06-02T10:48:07.276+02:00,1654159686.999801,53.22910712529924,10.39855512747151,36.69913,0,20,-1,-1,2.400000095367432,7.999579855010835,-9999,2831.55406,-1.432235717773438,7.861495971679688,7.332901000976562,2831.544065,-1.514268198558676,0.77018965874561,0.5749980050232855,-35.11396408081055,19.14475440979004,-2.676122426986694,11.30755424499512,-24.47492027282715,1.932707786560059,XArbitraryZVertical,0.4384164278864225,0.0813234259812019,-0.5329959199734275,0.7190916955891155,0.5843063592910767,-0.5438331365585327,-0.6023550629615784,0,0,0,-1,-1,2829.8874025,unknown,2,2022-06-02T10:48:05.609+02:00,2022-06-02T10:17:13.754+02:00,465,1.442409,0,0,360.0712,0,0,2022-06-02T10:48:05.609+02:00,675852485.6088139,0,6.761719,101.3009,1,0.8
205,2022-06-02T10:48:07.287+02:00,1654159686.999801,53.22910712529924,10.39855512747151,36.69913,0,20,-1,-1,2.400000095367432,7.999579855010835,-9999,2831.564054,-4.963699340820312,-2.850921630859375,0.82958984375,2831.55406,-1.285309978152444,0.8021543059363525,0.2969807230549776,-31.89040565490723,7.732376098632812,-3.652842044830322,-1.645425319671631,6.018113613128662,8.555094718933105,XArbitraryZVertical,0.3404396861449419,0.2274566200014748,-0.4994525975416484,0.7634862490394925,0.6873869895935059,-0.2926344275474548,-0.6647286415100098,0,0,0,-1,-1,2829.8874025,unknown,2,2022-06-02T10:48:05.609+02:00,2022-06-02T10:17:13.754+02:00,465,1.442409,0,0,360.0712,0,0,2022-06-02T10:48:05.609+02:00,675852485.6088139,0,6.761719,101.3009,1,0.8
206,2022-06-02T10:48:07.296+02:00,1654159686.999801,53.22910712529924,10.39855512747151,36.69913,0,20,-1,-1,2.400000095367432,7.999579855010835,-9999,2831.574048,-5.212860107421875,-1.835556030273438,-0.800872802734375,2831.564054,-1.1785865420168,0.7802817784894103,0.1851286593053593,-3.645443916320801,-5.660785675048828,1.119178533554077,-4.324088573455811,3.519812107086182,4.417534828186035,XArbitraryZVertical,0.2815340251458129,0.2673071095557012,-0.4825853534133953,0.7851093443167337,0.6914590001106262,-0.1840730011463165,-0.6985710263252258,0,0,0,-1,-1,2829.8874025,unknown,2,2022-06-02T10:48:05.609+02:00,2022-06-02T10:17:13.754+02:00,465,1.442409,0,0,360.0712,0,0,2022-06-02T10:48:05.609+02:00,675852485.6088139,0,6.761719,101.3009,1,0.8
207,2022-06-02T10:48:07.306+02:00,1654159686.999801,53.22910712529924,10.39855512747151,36.69913,0,20,-1,-1,2.400000095367432,7.999579855010835,-9999,2831.584043,-5.570404052734375,1.364273071289062,2.2347412109375,2831.574048,-1.119254681479428,0.7100985223586703,0.20641955226801,-1.507321357727051,-4.357782363891602,9.755867958068848,-6.041786193847656,-4.029341697692871,-0.4700347185134888,XArbitraryZVertical,0.2654325930308235,0.2417554117714238,-0.4647586934907888,0.8093818402336385,0.6380690932273865,-0.2049567848443985,-0.742199718952179,0,0,0,-1,-1,2829.8874025,unknown,2,2022-06-02T10:48:05.609+02:00,2022-06-02T10:17:13.754+02:00,465,1.442409,0,0,360.0712,0,0,2022-06-02T10:48:05.609+02:00,675852485.6088139,0,6.761719,101.3009,1,0.8
208,2022-06-02T10:48:07.316+02:00,1654159686.999801,53.22910712529924,10.39855512747151,36.69913,0,20,-1,-1,2.400000095367432,7.999579855010835,-9999,2831.594037,-4.549453735351562,-1.367660522460938,-1.145660400390625,2831.584043,-1.045425978654894,0.6626058399789256,0.2751296388697496,4.335134029388428,-3.465935707092285,9.395620346069336,-6.305018901824951,0.9262737631797792,2.168835639953613,XArbitraryZVertical,0.2732124008054504,0.2144405751529546,-0.4289750535423067,0.8338768947918028,0.5920366644859314,-0.2716717123985291,-0.7587404251098633,0,0,0,-1,-1,2829.8874025,unknown,2,2022-06-02T10:48:05.609+02:00,2022-06-02T10:17:13.754+02:00,465,1.442409,0,0,360.0712,0,0,2022-06-02T10:48:05.609+02:00,675852485.6088139,0,6.761719,101.3009,1,0.8
209,2022-06-02T10:48:07.326+02:00,1654159686.999801,53.22910712529924,10.39855512747151,36.69913,0,20,-1,-1,2.400000095367432,7.999579855010835,-9999,2831.604031,-4.604171752929688,-4.561965942382812,-4.540237426757812,2831.594037,-1.010097391458546,0.6110864197380633,0.3744366863823314,6.466422557830811,-3.472801208496094,8.042075157165527,-5.622200012207031,0.8129376769065857,1.755716800689697,XArbitraryZVertical,0.29834866684318,0.1727688439209148,-0.4043778075605731,0.8471230680754397,0.5340040922164917,-0.3657483160495758,-0.7622780203819275,0,0,0,-1,-1,2829.8874025,unknown,2,2022-06-02T10:48:05.609+02:00,2022-06-02T10:17:13.754+02:00,465,1.442409,0,0,360.0712,0,0,2022-06-02T10:48:05.609+02:00,675852485.6088139,0,6.761719,101.3009,1,0.8
210,2022-06-02T10:48:07.336+02:00,1654159686.999801,53.22910712529924,10.39855512747151,36.69913,0,20,-1,-1,2.400000095367432,7.999579855010835,-9999,2831.614025625,-4.749465942382812,-5.939208984375,-3.942306518554688,2831.604031,-0.9652400867339246,0.5842419510747313,0.4634707782428515,4.095412254333496,1.735552310943604,8.633654594421387,-5.100069999694824,-2.75150728225708,-2.52617359161377,XArbitraryZVertical,0.324897515034726,0.1461991141372682,-0.3739738462212728,0.8562772729537794,0.4933803081512451,-0.4470554292201996,-0.746134877204895,0,0,0,-1,-1,2829.8874025,unknown,2,2022-06-02T10:48:05.609+02:00,2022-06-02T10:17:13.754+02:00,465,1.442409,0,0,360.0712,0,0,2022-06-02T10:48:05.609+02:00,675852485.6088139,0,6.761719,101.3009,1,0.8
211,2022-06-02T10:48:07.346+02:00,1654159686.999801,53.22910712529924,10.39855512747151,36.69913,0,20,-1,-1,2.400000095367432,7.999579855010835,-9999,2831.624019625,-4.990631103515625,-3.972549438476562,-1.339584350585938,2831.614025625,-0.91335992443808,0.5888953373340444,0.5430996147004973,4.046634197235107,3.7950439453125,7.849452018737793,-5.184718608856201,-5.228279113769531,-4.039119243621826,XArbitraryZVertical,0.3536620756496653,0.1377374397286791,-0.3366644037287432,0.861747289331487,0.4755205810070038,-0.5167920589447021,-0.7119030952453613,0,0,0,-1,-1,2829.8874025,unknown,2,2022-06-02T10:48:05.609+02:00,2022-06-02T10:17:13.754+02:00,465,1.442409,0,0,360.0712,0,0,2022-06-02T10:48:05.609+02:00,675852485.6088139,0,6.761719,101.3009,1,0.8
212,2022-06-02T10:48:07.356+02:00,1654159686.999801,53.22910712529924,10.39855512747151,36.69913,0,20,-1,-1,2.400000095367432,7.999579855010835,-9999,2831.634013625,-4.096176147460938,-5.364852905273438,-0.3621826171875,2831.624019625,-0.8584695495985604,0.604140304019715,0.6149720655928199,2.510256290435791,5.289797306060791,7.6656494140625,-5.383918285369873,-4.348143577575684,-1.879562854766846,XArbitraryZVertical,0.3807505693470304,0.1375641834698887,-0.2968225409667413,0.8648706790837032,0.4639811515808105,-0.5769357085227966,-0.6722102165222168,0,0,0,-1,-1,2829.8874025,unknown,2,2022-06-02T10:48:05.609+02:00,2022-06-02T10:17:13.754+02:00,465,1.442409,0,0,360.0712,0,0,2022-06-02T10:48:05.609+02:00,675852485.6088139,0,6.761719,101.3009,1,0.8
213,2022-06-02T10:48:07.366+02:00,1654159686.999801,53.22910712529924,10.39855512747151,36.69913,0,20,-1,-1,2.400000095367432,7.999579855010835,-9999,2831.644008625,-2.083389282226562,-5.91864013671875,0.1124725341796875,2831.634013625,-0.7957127425546604,0.627063625208897,0.6688597702189808,0.6430831551551819,6.522780418395996,6.968229293823242,-5.28406810760498,-3.63707971572876,-0.0642940998077392,XArbitraryZVertical,0.4007174073074927,0.147606834122415,-0.2548103815454165,0.8675881575239061,0.4603377878665924,-0.6200918555259705,-0.6352755427360535,0,0,0,-1,-1,2829.8874025,unknown,2,2022-06-02T10:48:05.609+02:00,2022-06-02T10:17:13.754+02:00,465,1.442409,0,0,360.0712,0,0,2022-06-02T10:48:05.609+02:00,675852485.6088139,0,6.761719,101.3009,1,0.8
214,2022-06-02T10:48:07.376+02:00,1654159686.999801,53.22910712529924,10.39855512747151,36.69913,0,20,-1,-1,2.400000095367432,7.999579855010835,-9999,2831.654002625,-0.9617462158203124,-3.963943481445312,-0.535888671875,2831.644008625,-0.7247033649723921,0.6414837259692223,0.7147158520279852,0.3184651434421539,5.140768051147461,7.173751831054688,-3.544126272201538,-5.500846862792969,0.5423008799552917,XArbitraryZVertical,0.4151006136437189,0.1585030443785565,-0.2120238190550286,0.8704102690652238,0.4519477784633636,-0.6554028391838074,-0.605136513710022,0,0,0,-1,-1,2829.8874025,unknown,2,2022-06-02T10:48:05.609+02:00,2022-06-02T10:17:13.754+02:00,465,1.442409,0,0,360.0712,0,0,2022-06-02T10:48:05.609+02:00,675852485.6088139,0,6.761719,101.3009,1,0.8
215,2022-06-02T10:48:07.386+02:00,1654159686.999801,53.22910712529924,10.39855512747151,36.69913,0,20,-1,-1,2.400000095367432,7.999579855010835,-9999,2831.663996625,-0.644287109375,-3.560287475585938,-1.342880249023438,2831.654002625,-0.6585317193567242,0.6401697509215275,0.7547565589631745,0.3239957094192505,3.549490213394165,5.258693695068359,-1.833434700965881,-4.250175952911377,0.5461327433586121,XArbitraryZVertical,0.425560696393261,0.1636960107228872,-0.1756138485146022,0.8725029547208849,0.4351192116737366,-0.6851113438606262,-0.5842034220695496,0,0,0,-1,-1,2829.8874025,unknown,2,2022-06-02T10:48:05.609+02:00,2022-06-02T10:17:13.754+02:00,465,1.442409,0,0,360.0712,0,0,2022-06-02T10:48:05.609+02:00,675852485.6088139,0,6.761719,101.3009,1,0.8
216,2022-06-02T10:48:07.396+02:00,1654159686.999801,53.22910712529924,10.39855512747151,36.69913,0,20,-1,-1,2.400000095367432,7.999579855010835,-9999,2831.673991625,-1.2218017578125,-3.987594604492188,-1.2591552734375,2831.663996625,-0.6180948179281579,0.642194511478703,0.784849590795628,0.9762731194496156,2.517683029174805,3.16925048828125,-1.152135133743286,-2.811606884002686,-0.5147032141685486,XArbitraryZVertical,0.4343874418845687,0.1674294917515196,-0.1516877787212007,0.8719321943444942,0.423756867647171,-0.7067188024520874,-0.5665498375892639,0,0,0,-1,-1,2829.8874025,unknown,2,2022-06-02T10:48:05.609+02:00,2022-06-02T10:17:13.754+02:00,465,1.442409,0,0,360.0712,0,0,2022-06-02T10:48:05.609+02:00,675852485.6088139,0,6.761719,101.3009,1,0.8
217,2022-06-02T10:48:07.406+02:00,1654159686.999801,53.22910712529924,10.39855512747151,36.69913,0,20,-1,-1,2.400000095367432,7.999579855010835,-9999,2831.683985625,-1.983123779296875,-4.013916015625,-1.065353393554688,2831.673991625,-0.5924464152146963,0.6473660832603703,0.8056704774552184,-0.060793437063694,2.349265575408936,2.258130788803101,-1.242422103881836,-3.067919731140137,-0.7797072529792786,XArbitraryZVertical,0.440895669587652,0.171362472530182,-0.1353402040232132,0.8705910642153781,0.4177151024341583,-0.721295177936554,-0.5524918437004089,0,0,0,-1,-1,2829.8874025,unknown,2,2022-06-02T10:48:05.609+02:00,2022-06-02T10:17:13.754+02:00,465,1.442409,0,0,360.0712,0,0,2022-06-02T10:48:05.609+02:00,675852485.6088139,0,6.761719,101.3009,1,0.8
218,2022-06-02T10:48:07.416+02:00,1654159686.999801,53.22910712529924,10.39855512747151,36.69913,0,20,-1,-1,2.400000095367432,7.999579855010835,-9999,2831.693979625,-1.587066650390625,-3.228179931640625,-0.248687744140625,2831.683985625,-0.5610979433234811,0.6517949182228698,0.8087820126100309,-1.972400069236755,3.093919992446899,1.615501761436462,-2.125795125961304,-3.362124443054199,-0.6650634407997131,XArbitraryZVertical,0.4396723206404186,0.1796204393187276,-0.1201072864469772,0.8717791046533208,0.4187943935394287,-0.7234468460083008,-0.5488495230674744,0,0,0,-1,-1,2829.8874025,unknown,2,2022-06-02T10:48:05.609+02:00,2022-06-02T10:17:13.754+02:00,465,1.442409,0,0,360.0712,0,0,2022-06-02T10:48:05.609+02:00,675852485.6088139,0,6.761719,101.3009,1,0.8
219,2022-06-02T10:48:07.426+02:00,1654159686.999801,53.22910712529924,10.39855512747151,36.69913,0,20,-1,-1,2.400000095367432,7.999579855010835,-9999,2831.703974625,-0.68841552734375,-2.251373291015625,0.5316619873046875,2831.693979625,-0.5237482661831271,0.6577852354746196,0.799685871924652,-2.427697420120239,3.333214044570923,1.394243597984314,-2.366876125335693,-3.016657829284668,-0.1839883327484131,XArbitraryZVertical,0.4328733291527998,0.1919967670228538,-0.1042417427268641,0.874580742868843,0.4260802865028381,-0.7171372175216675,-0.5515158176422119,0,0,0,-1,-1,2829.8874025,unknown,2,2022-06-02T10:48:05.609+02:00,2022-06-02T10:17:13.754+02:00,465,1.442409,0,0,360.0712,0,0,2022-06-02T10:48:05.609+02:00,675852485.6088139,0,6.761719,101.3009,1,0.8
220,2022-06-02T10:48:07.436+02:00,1654159686.999801,53.22910712529924,10.39855512747151,36.69913,0,20,-1,-1,2.400000095367432,7.999579855010835,-9999,2831.713968625,-0.4408416748046875,-1.809310913085938,0.5874176025390625,2831.703974625,-0.4928670018043811,0.6658495795172369,0.792445187471392,-1.205029010772705,2.616513967514038,1.128432393074036,-1.547601938247681,-1.969370007514954,0.7744362354278564,XArbitraryZVertical,0.4272726962572632,0.2034025298095938,-0.0903730275951621,0.8762979618276565,0.4337103068828583,-0.7120721936225891,-0.552130937576294,0,0,0,-1,-1,2829.8874025,unknown,2,2022-06-02T10:48:05.609+02:00,2022-06-02T10:17:13.754+02:00,465,1.442409,0,0,360.0712,0,0,2022-06-02T10:48:05.609+02:00,675852485.6088139,0,6.761719,101.3009,1,0.8
221,2022-06-02T10:48:07.446+02:00,1654159686.999801,53.22910712529924,10.39855512747151,36.69913,0,20,-1,-1,2.400000095367432,7.999579855010835,-9999,2831.723962625,-0.8922882080078125,-1.591629028320312,-0.034027099609375,2831.713968625,-0.4786826138860116,0.6771080524177591,0.7967506556961789,0.5961297154426575,1.698836088180542,0.9721691012382508,-0.8988046646118164,-1.260924696922302,1.193591833114624,XArbitraryZVertical,0.4280397833150091,0.2106481381071373,-0.0809308344796038,0.8751339902284285,0.4379739165306091,-0.7150884866714478,-0.544818639755249,0,0,0,-1,-1,2829.8874025,unknown,2,2022-06-02T10:48:05.609+02:00,2022-06-02T10:17:13.754+02:00,465,1.442409,0,0,360.0712,0,0,2022-06-02T10:48:05.609+02:00,675852485.6088139,0,6.761719,101.3009,1,0.8
222,2022-06-02T10:48:07.456+02:00,1654159686.999801,53.22910712529924,10.39855512747151,36.69913,0,20,-1,-1,2.400000095367432,7.999579855010835,-9999,2831.733957625,-1.434524536132812,-1.58612060546875,-0.57049560546875,2831.723962625,-0.4796788260620427,0.6921736686771662,0.8118732441528013,1.724426031112671,1.253710031509399,0.821671724319458,-1.051911592483521,-0.9615409970283508,0.8524040579795837,XArbitraryZVertical,0.4348650440428861,0.2144907424901729,-0.0751852569636241,0.8713399654761832,0.4391795992851257,-0.7255774736404419,-0.5297722220420837,0,0,0,-1,-1,2829.8874025,unknown,2,2022-06-02T10:48:05.609+02:00,2022-06-02T10:17:13.754+02:00,465,1.442409,0,0,360.0712,0,0,2022-06-02T10:48:05.609+02:00,675852485.6088139,0,6.761719,101.3009,1,0.8
223,2022-06-02T10:48:07.466+02:00,1654159686.999801,53.22910712529924,10.39855512747151,36.69913,0,20,-1,-1,2.400000095367432,7.999579855010835,-9999,2831.743951625,-1.612564086914062,-1.698623657226562,-0.79974365234375,2831.733957625,-0.4901161426345431,0.7123703731489383,0.8299679206317561,1.821092009544373,1.309668660163879,0.401918351650238,-1.63867449760437,-0.8137107491493225,0.163025975227356,XArbitraryZVertical,0.4439988002066598,0.2178948656189953,-0.0716975465168341,0.8661676285062405,0.4411342144012451,-0.737909734249115,-0.510773777961731,0,0,0,-1,-1,2829.8874025,unknown,2,2022-06-02T10:48:05.609+02:00,2022-06-02T10:17:13.754+02:00,465,1.442409,0,0,360.0712,0,0,2022-06-02T10:48:05.609+02:00,675852485.6088139,0,6.761719,101.3009,1,0.8
224,2022-06-02T10:48:07.476+02:00,1654159686.999801,53.22910712529924,10.39855512747151,36.69913,0,20,-1,-1,2.400000095367432,7.999579855010835,-9999,2831.753945625,-1.547958374023438,-1.61712646484375,-0.7581329345703125,2831.743951625,-0.5018996697836215,0.7354627208656377,0.8422394599229485,0.987931191921234,1.562726497650146,0.0661251544952392,-2.020523071289062,-0.9086186289787292,-0.2201829552650452,XArbitraryZVertical,0.4509781339933727,0.2230896461806677,-0.0691233718304148,0.8614358061661369,0.4467010796070099,-0.7461360096931458,-0.4936994612216949,0,0,0,-1,-1,2829.8874025,unknown,2,2022-06-02T10:48:05.609+02:00,2022-06-02T10:17:13.754+02:00,465,1.442409,0,0,360.0712,0,0,2022-06-02T10:48:05.609+02:00,675852485.6088139,0,6.761719,101.3009,1,0.8
225,2022-06-02T10:48:07.486+02:00,1654159686.999801,53.22910712529924,10.39855512747151,36.69913,0,20,-1,-1,2.400000095367432,7.999579855010835,-9999,2831.763940625,-1.395492553710938,-1.44683837890625,-0.5135650634765625,2831.753945625,-0.5064264990863524,0.7555636228866413,0.8450943138276341,-0.1480647623538971,1.778327345848083,-0.120930016040802,-2.05062198638916,-0.9357430934906006,-0.3372894525527954,XArbitraryZVertical,0.4532912696187237,0.2302012475041247,-0.065930745034175,0.8585962708395557,0.4550715386867523,-0.7480337023735046,-0.4830688238143921,0,0,0,-1,-1,2829.8874025,unknown,2,2022-06-02T10:48:05.609+02:00,2022-06-02T10:17:13.754+02:00,465,1.442409,0,0,360.0712,0,0,2022-06-02T10:48:05.609+02:00,675852485.6088139,0,6.761719,101.3009,1,0.8
226,2022-06-02T10:48:07.496+02:00,1654159686.999801,53.22910712529924,10.39855512747151,36.69913,0,20,-1,-1,2.400000095367432,7.999579855010835,-9999,2831.773934625,-1.192169189453125,-1.430023193359375,-0.383819580078125,2831.763940625,-0.502004188269822,0.7709504510454883,0.8391374200226659,-1.084720253944397,1.955742239952087,-0.271453469991684,-1.94912850856781,-0.7775698304176331,-0.1557666659355164,XArbitraryZVertical,0.4509341545754422,0.2388717171454462,-0.0618170333379627,0.8577746627800749,0.4655470252037048,-0.7440671324729919,-0.4791973829269409,0,0,0,-1,-1,2829.8874025,unknown,2,2022-06-02T10:48:05.609+02:00,2022-06-02T10:17:13.754+02:00,465,1.442409,0,0,360.0712,0,0,2022-06-02T10:48:05.609+02:00,675852485.6088139,0,6.761719,101.3009,1,0.8
227,2022-06-02T10:48:07.506+02:00,1654159686.999801,53.22910712529924,10.39855512747151,36.69913,0,20,-1,-1,2.400000095367432,7.999579855010835,-9999,2831.783928625,-1.055343627929688,-1.332992553710938,-0.271484375,2831.773934625,-0.4893023000671945,0.7812607726493093,0.825734463354758,-2.038207769393921,1.994498491287231,-0.3859743475914001,-1.770243883132935,-0.6848911643028259,0.0525161027908325,XArbitraryZVertical,0.4444436767369679,0.2485251539519085,-0.0569218490689316,0.8587578380197801,0.4774429500102997,-0.7350459694862366,-0.4814101457595825,0,0,0,-1,-1,2829.8874025,unknown,2,2022-06-02T10:48:05.609+02:00,2022-06-02T10:17:13.754+02:00,465,1.442409,0,0,360.0712,0,0,2022-06-02T10:48:05.609+02:00,675852485.6088139,0,6.761719,101.3009,1,0.8
228,2022-06-02T10:48:07.516+02:00,1654159686.999801,53.22910712529924,10.39855512747151,36.69913,0,20,-1,-1,2.400000095367432,7.999579855010835,-9999,2831.793923625,-0.8331146240234375,-0.720947265625,0.2023162841796875,2831.783928625,-0.4675728117202287,0.7855584235735034,0.8051194561084135,-2.953852415084839,2.041509389877319,-0.3765470087528229,-1.607507109642029,-0.7050813436508179,0.1220442056655884,XArbitraryZVertical,0.4336769102339934,0.2587320786293382,-0.0510371951349976,0.8616130300698381,0.4901211559772491,-0.7209134101867676,-0.489964097738266,0,0,0,-1,-1,2829.8874025,unknown,2,2022-06-02T10:48:05.609+02:00,2022-06-02T10:17:13.754+02:00,465,1.442409,0,0,360.0712,0,0,2022-06-02T10:48:05.609+02:00,675852485.6088139,0,6.761719,101.3009,1,0.8
229,2022-06-02T10:48:07.526+02:00,1654159686.999801,53.22910712529924,10.39855512747151,36.69913,0,20,-1,-1,2.400000095367432,7.999579855010835,-9999,2831.803917625,-0.6374359130859375,-0.0003662109375,0.344268798828125,2831.793923625,-0.4372427302564725,0.7842410093256982,0.7802673338648404,-3.438653230667114,1.978500723838806,-0.1282426565885544,-1.462990760803223,-0.3866488933563232,0.4864315986633301,XArbitraryZVertical,0.4197353886577967,0.2687976912547274,-0.043486134911891,0.8658400152857484,0.5019769072532654,-0.703469455242157,-0.5031400322914124,0,0,0,-1,-1,2829.8874025,unknown,2,2022-06-02T10:48:05.609+02:00,2022-06-02T10:17:13.754+02:00,465,1.442409,0,0,360.0712,0,0,2022-06-02T10:48:05.609+02:00,675852485.6088139,0,6.761719,101.3009,1,0.8
230,2022-06-02T10:48:07.536+02:00,1654159686.999801,53.22910712529924,10.39855512747151,36.69913,0,20,-1,-1,2.400000095367432,7.999579855010835,-9999,2831.813911625,-0.58135986328125,0.363494873046875,0.3472442626953125,2831.803917625,-0.4070701279230262,0.78169028515971,0.7573134017163785,-2.75045371055603,1.682088494300842,-0.0660485252737999,-1.228502631187439,0.3457393646240234,0.8145579695701599,XArbitraryZVertical,0.4062908973038087,0.2775880902889061,-0.0357233859235774,0.8698255309987271,0.5119345784187317,-0.6869716048240662,-0.5157451033592224,0,0,0,-1,-1,2829.8874025,unknown,2,2022-06-02T10:48:05.609+02:00,2022-06-02T10:17:13.754+02:00,465,1.442409,0,0,360.0712,0,0,2022-06-02T10:48:05.609+02:00,675852485.6088139,0,6.761719,101.3009,1,0.8
231,2022-06-02T10:48:07.546+02:00,1654159686.999801,53.22910712529924,10.39855512747151,36.69913,0,20,-1,-1,2.400000095367432,7.999579855010835,-9999,2831.823905625,-0.6673126220703125,0.2126007080078125,0.2193603515625,2831.813911625,-0.3877846708801588,0.7836546128384911,0.7424442719021631,-1.318392753601074,1.362013220787048,-0.0143841989338398,-1.109867453575134,0.9287764430046082,0.881795346736908,XArbitraryZVertical,0.397548368555397,0.2845995375501545,-0.0300151502076372,0.8718127957382499,0.5200999975204468,-0.6760908961296082,-0.5219168066978455,0,0,0,-1,-1,2829.8874025,unknown,2,2022-06-02T10:48:05.609+02:00,2022-06-02T10:17:13.754+02:00,465,1.442409,0,0,360.0712,0,0,2022-06-02T10:48:05.609+02:00,675852485.6088139,0,6.761719,101.3009,1,0.8
232,2022-06-02T10:48:07.556+02:00,1654159686.999801,53.22910712529924,10.39855512747151,36.69913,0,20,-1,-1,2.400000095367432,7.999579855010835,-9999,2831.833900625,-0.715301513671875,-0.1971893310546875,0.0456695556640625,2831.823905625,-0.3803782491281891,0.7915612394830608,0.7376209561433821,-0.3116901218891144,1.253281950950623,0.1077238693833351,-1.142368912696838,1.007230758666992,0.8149651885032654,XArbitraryZVertical,0.3946209202820545,0.2902368829573049,-0.0262220740373194,0.871406388679549,0.5265241265296936,-0.6725291609764099,-0.5200737714767456,0,0,0,-1,-1,2829.8874025,unknown,2,2022-06-02T10:48:05.609+02:00,2022-06-02T10:17:13.754+02:00,465,1.442409,0,0,360.0712,0,0,2022-06-02T10:48:05.609+02:00,675852485.6088139,0,6.761719,101.3009,1,0.8
233,2022-06-02T10:48:07.566+02:00,1654159686.999801,53.22910712529924,10.39855512747151,36.69913,0,20,-1,-1,2.400000095367432,7.999579855010835,-9999,2831.843894625,-0.611114501953125,-0.4407501220703125,-0.0533294677734375,2831.833900625,-0.3781746381573741,0.8026698146129401,0.7375884978777215,-0.0121561652049422,1.260066390037537,0.1248189657926559,-1.242275953292847,0.6919754147529602,0.6418325901031494,XArbitraryZVertical,0.3944218355006283,0.2955120527909688,-0.0230783413563533,0.8698111115456796,0.5322845578193665,-0.6725051403045654,-0.5142080783843994,0,0,0,-1,-1,2829.8874025,unknown,2,2022-06-02T10:48:05.609+02:00,2022-06-02T10:17:13.754+02:00,465,1.442409,0,0,360.0712,0,0,2022-06-02T10:48:05.609+02:00,675852485.6088139,0,6.761719,101.3009,1,0.8
234,2022-06-02T10:48:07.576+02:00,1654159686.999801,53.22910712529924,10.39855512747151,36.69913,0,20,-1,-1,2.400000095367432,7.999579855010835,-9999,2831.853888625,-0.4898834228515625,-0.5497283935546875,-0.1296234130859375,2831.843894625,-0.3740782476574016,0.8122309340237482,0.7370172826951257,-0.5943964123725891,1.203548192977905,0.2124910205602646,-1.214564085006714,0.3220762014389038,0.5028136372566223,XArbitraryZVertical,0.3936800997310446,0.3005597399384051,-0.0195348709912916,0.8685034682579861,0.5374553203582764,-0.672082245349884,-0.5093596577644348,0,0,0,-1,-1,2829.8874025,unknown,2,2022-06-02T10:48:05.609+02:00,2022-06-02T10:17:13.754+02:00,465,1.442409,0,0,360.0712,0,0,2022-06-02T10:48:05.609+02:00,675852485.6088139,0,6.761719,101.3009,1,0.8
235,2022-06-02T10:48:07.586+02:00,1654159686.999801,53.22910712529924,10.39855512747151,36.69913,0,20,-1,-1,2.400000095367432,7.999579855010835,-9999,2831.863883625,-0.43994140625,-0.5039825439453125,-0.09716796875,2831.853888625,-0.3612589569606832,0.8152576909920861,0.731523236490503,-1.570492506027222,1.113591432571411,0.2882544696331024,-1.085756778717041,0.1598405838012695,0.4115455746650696,XArbitraryZVertical,0.3895209334938269,0.3051985032921599,-0.0145373199850967,0.8688589189363757,0.5416740775108337,-0.6680039167404175,-0.5102546215057373,0,0,0,-1,-1,2829.8874025,unknown,2,2022-06-02T10:48:05.609+02:00,2022-06-02T10:17:13.754+02:00,465,1.442409,0,0,360.0712,0,0,2022-06-02T10:48:05.609+02:00,675852485.6088139,0,6.761719,101.3009,1,0.8
236,2022-06-02T10:48:07.596+02:00,1654159686.999801,53.22910712529924,10.39855512747151,36.69913,0,20,-1,-1,2.400000095367432,7.999579855010835,-9999,2831.873877625,-0.4449310302734375,-0.410980224609375,-0.0443267822265625,2831.863883625,-0.3379583825347302,0.8105107618032396,0.7193663213470366,-2.624375104904175,1.031356453895569,0.3417525887489319,-1.000687599182129,0.1154969334602356,0.3947212696075439,XArbitraryZVertical,0.3809220884857601,0.3093688992519437,-0.0078720685761313,0.8712790657444404,0.5450905561447144,-0.6589081287384033,-0.518378496170044,0,0,0,-1,-1,2829.8874025,unknown,2,2022-06-02T10:48:05.609+02:00,2022-06-02T10:17:13.754+02:00,465,1.442409,0,0,360.0712,0,0,2022-06-02T10:48:05.609+02:00,675852485.6088139,0,6.761719,101.3009,1,0.8
237,2022-06-02T10:48:07.606+02:00,1654159686.999801,53.22910712529924,10.39855512747151,36.69913,0,20,-1,-1,2.400000095367432,7.999579855010835,-9999,2831.883871625,-0.4561767578125,-0.3453826904296875,-0.01995849609375,2831.873877625,-0.3055310096716349,0.7993413399742499,0.7007735211276125,-3.47460675239563,0.966793417930603,0.3875024914741516,-0.9859745502471924,0.1905244588851929,0.4671646952629089,XArbitraryZVertical,0.3681405405893893,0.3130980262627726,0.0003505984979137,0.8754667057497746,0.5479556322097778,-0.6448091268539429,-0.5328843593597412,0,0,0,-1,-1,2829.8874025,unknown,2,2022-06-02T10:48:05.609+02:00,2022-06-02T10:17:13.754+02:00,465,1.442409,0,0,360.0712,0,0,2022-06-02T10:48:05.609+02:00,675852485.6088139,0,6.761719,101.3009,1,0.8
238,2022-06-02T10:48:07.616+02:00,1654159686.999801,53.22910712529924,10.39855512747151,36.69913,0,20,-1,-1,2.400000095367432,7.999579855010835,-9999,2831.893866625,-0.44879150390625,-0.2986907958984375,0.0172576904296875,2831.883871625,-0.2664443073921905,0.7838697815387817,0.6768519111803057,-4.173187255859375,0.9050512313842772,0.4493381977081299,-1.003124356269836,0.2502739429473877,0.5207089185714722,XArbitraryZVertical,0.351968318842189,0.3163628362798159,0.009900461489364,0.880871565588745,0.5503807663917542,-0.6263420581817627,-0.5520657300949097,0,0,0,-1,-1,2829.8874025,unknown,2,2022-06-02T10:48:05.609+02:00,2022-06-02T10:17:13.754+02:00,465,1.442409,0,0,360.0712,0,0,2022-06-02T10:48:05.609+02:00,675852485.6088139,0,6.761719,101.3009,1,0.8
