,loggingTime(txt),locationTimestamp_since1970(s),locationLatitude(WGS84),locationLongitude(WGS84),locationAltitude(m),locationSpeed(m/s),locationSpeedAccuracy(m/s),locationCourse(°),locationCourseAccuracy(°),locationVerticalAccuracy(m),locationHorizontalAccuracy(m),locationFloor(Z),accelerometerTimestamp_sinceReboot(s),accelerometerAccelerationX(G),accelerometerAccelerationY(G),accelerometerAccelerationZ(G),motionTimestamp_sinceReboot(s),motionYaw(rad),motionRoll(rad),motionPitch(rad),motionRotationRateX(rad/s),motionRotationRateY(rad/s),motionRotationRateZ(rad/s),motionUserAccelerationX(G),motionUserAccelerationY(G),motionUserAccelerationZ(G),motionAttitudeReferenceFrame(txt),motionQuaternionX(R),motionQuaternionY(R),motionQuaternionZ(R),motionQuaternionW(R),motionGravityX(G),motionGravityY(G),motionGravityZ(G),motionMagneticFieldX(µT),motionMagneticFieldY(µT),motionMagneticFieldZ(µT),motionHeading(°),motionMagneticFieldCalibrationAccuracy(Z),activityTimestamp_sinceReboot(s),activity(txt),activityActivityConfidence(Z),activityActivityStartDate(txt),pedometerStartDate(txt),pedometerNumberofSteps(N),pedometerAverageActivePace(s/m),pedometerCurrentPace(s/m),pedometerCurrentCadence(steps/s),pedometerDistance(m),pedometerFloorAscended(N),pedometerFloorDescended(N),pedometerEndDate(txt),altimeterTimestamp_sinceReboot(s),altimeterReset(bool),altimeterRelativeAltitude(m),altimeterPressure(kPa),batteryState(N),batteryLevel(R)
207,2022-06-02T10:51:35.010+02:00,1654159891.80054,53.22895481256138,10.39874564857259,39.6105,0,0.95,55.546875,97.82255668919125,4,5,-9999,3039.28824325,1.48699951171875,-0.0478363037109375,0.3408050537109375,3039.28324525,-3.128047935020761,1.362985994436784,0.7128385811265682,0.1186022087931633,7.764871597290039,-3.71805214881897,0.7078115940093994,0.5367353558540344,0.2073506563901901,XArbitraryZVertical,0.5921837169055101,-0.2669791101014101,-0.7263181011238302,0.2247278045444477,0.7402322292327881,-0.6539838314056396,-0.1560811996459961,0,0,0,-1,-1,3037.026882041667,unknown,2,2022-06-02T10:51:32.749+02:00,2022-06-02T10:17:13.754+02:00,512,1.445976,0,0,397.4887,0,0,2022-06-02T10:51:32.748+02:00,675852692.7483444,0,5.351562,101.3188,1,0.79
208,2022-06-02T10:51:35.020+02:00,1654159891.80054,53.22895481256138,10.39874564857259,39.6105,0,0.95,55.546875,97.82255668919125,4,5,-9999,3039.29823725,1.572860717773438,0.120330810546875,0.7095184326171875,3039.29324025,-3.13423830713961,1.44927443724793,0.6752685853790983,-0.4126309156417847,8.709689140319824,-3.836893081665039,0.7122166752815247,0.5772708058357239,0.435424268245697,XArbitraryZVertical,0.626347003907943,-0.2457229917575721,-0.705654512934709,0.2221738930581412,0.7747827172279358,-0.6251069903373718,-0.0946192815899848,0,0,0,-1,-1,3037.026882041667,unknown,2,2022-06-02T10:51:32.749+02:00,2022-06-02T10:17:13.754+02:00,512,1.445976,0,0,397.4887,0,0,2022-06-02T10:51:32.748+02:00,675852692.7483444,0,5.351562,101.3188,1,0.79
209,2022-06-02T10:51:35.030+02:00,1654159891.80054,53.22895481256138,10.39874564857259,39.6105,0,0.95,55.546875,97.82255668919125,4,5,-9999,3039.30823125,1.699615478515625,0.250213623046875,1.188583374023438,3039.30323425,-3.128545261315061,1.537854777959428,0.6363630508674792,-1.145527243614197,9.700779914855955,-3.854584693908691,0.7690346837043762,0.7146052718162537,0.7360072135925293,XArbitraryZVertical,0.661914199295791,-0.2205111485803107,-0.681150791597156,0.2219861956017353,0.8038259148597717,-0.5942743420600891,-0.0264888517558574,0,0,0,-1,-1,3037.026882041667,unknown,2,2022-06-02T10:51:32.749+02:00,2022-06-02T10:17:13.754+02:00,512,1.445976,0,0,397.4887,0,0,2022-06-02T10:51:32.748+02:00,675852692.7483444,0,5.351562,101.3188,1,0.79
210,2022-06-02T10:51:35.040+02:00,1654159891.80054,53.22895481256138,10.39874564857259,39.6105,0,0.95,55.546875,97.82255668919125,4,5,-9999,3039.31822525,1.707077026367188,0.2932891845703125,1.7113037109375,3039.31322825,-3.106921690940381,1.627565039420258,0.5984676534974386,-2.369107246398926,10.75431728363037,-3.762806177139282,0.874746561050415,0.8135908246040344,1.141706109046936,XArbitraryZVertical,0.697993917286928,-0.1903760673026093,-0.6524232520601504,0.225621998375677,0.8248688578605652,-0.5633770823478699,0.0468771122395992,0,0,0,-1,-1,3037.026882041667,unknown,2,2022-06-02T10:51:32.749+02:00,2022-06-02T10:17:13.754+02:00,512,1.445976,0,0,397.4887,0,0,2022-06-02T10:51:32.748+02:00,675852692.7483444,0,5.351562,101.3188,1,0.79
211,2022-06-02T10:51:35.050+02:00,1654159891.80054,53.22895481256138,10.39874564857259,39.6105,0,0.95,55.546875,97.82255668919125,4,5,-9999,3039.32822025,1.637725830078125,0.3082122802734375,2.227447509765625,3039.32322225,-3.065989337604188,1.717945832260472,0.5654744502745888,-3.760211229324341,11.82161140441895,-3.502682447433472,0.871867299079895,0.829105794429779,1.587508082389832,XArbitraryZVertical,0.7334766203035996,-0.1546279158939812,-0.6188482918965605,0.2347955055636728,0.8352096080780029,-0.535816490650177,0.1237954869866371,0,0,0,-1,-1,3037.026882041667,unknown,2,2022-06-02T10:51:32.749+02:00,2022-06-02T10:17:13.754+02:00,512,1.445976,0,0,397.4887,0,0,2022-06-02T10:51:32.748+02:00,675852692.7483444,0,5.351562,101.3188,1,0.79
212,2022-06-02T10:51:35.060+02:00,1654159891.80054,53.22895481256138,10.39874564857259,39.6105,0,0.95,55.546875,97.82255668919125,4,5,-9999,3039.33821425,1.603759765625,0.268585205078125,2.723297119140625,3039.33321725,-3.007392745731677,1.810912386066864,0.5411831780783296,-5.109586238861084,12.91408348083496,-3.208407878875732,0.8052160143852234,0.8233628869056702,2.023615837097168,XArbitraryZVertical,0.767438947710096,-0.1138120345580828,-0.5794255402952869,0.249700158928174,0.8325096964836121,-0.5151504278182983,0.2038314342498779,0,0,0,-1,-1,3037.026882041667,unknown,2,2022-06-02T10:51:32.749+02:00,2022-06-02T10:17:13.754+02:00,512,1.445976,0,0,397.4887,0,0,2022-06-02T10:51:32.748+02:00,675852692.7483444,0,5.351562,101.3188,1,0.79
213,2022-06-02T10:51:35.070+02:00,1654159891.80054,53.22895481256138,10.39874564857259,39.6105,0,0.95,55.546875,97.82255668919125,4,5,-9999,3039.34820825,1.550613403320312,0.11395263671875,3.057388305664062,3039.34321125,-2.933746681689562,1.907618650237788,0.5283277266492946,-6.285286903381348,13.88507556915283,-2.876477956771851,0.7886374592781067,0.7726750373840332,2.437869310379028,XArbitraryZVertical,0.7987558094462672,-0.0685788463025868,-0.5334050121059289,0.269750266579847,0.8151223659515381,-0.5040897727012634,0.2854278087615967,0,0,0,-1,-1,3037.026882041667,unknown,2,2022-06-02T10:51:32.749+02:00,2022-06-02T10:17:13.754+02:00,512,1.445976,0,0,397.4887,0,0,2022-06-02T10:51:32.748+02:00,675852692.7483444,0,5.351562,101.3188,1,0.79
214,2022-06-02T10:51:35.080+02:00,1654159891.80054,53.22895481256138,10.39874564857259,39.6105,0,0.95,55.546875,97.82255668919125,4,5,-9999,3039.35820225,1.524169921875,0.0224151611328125,3.46038818359375,3039.35320525,-2.851055939767561,2.009353646582991,0.528626667519554,-6.963655948638916,14.77928733825684,-2.484411001205444,0.7688301205635071,0.6183006167411804,2.690716743469238,XArbitraryZVertical,0.8263816429870976,-0.020715303839755,-0.4803635382290666,0.2931128702396437,0.781783401966095,-0.5043479204177856,0.3666714727878571,0,0,0,-1,-1,3037.026882041667,unknown,2,2022-06-02T10:51:32.749+02:00,2022-06-02T10:17:13.754+02:00,512,1.445976,0,0,397.4887,0,0,2022-06-02T10:51:32.748+02:00,675852692.7483444,0,5.351562,101.3188,1,0.79
215,2022-06-02T10:51:35.090+02:00,1654159891.80054,53.22895481256138,10.39874564857259,39.6105,0,0.95,55.546875,97.82255668919125,4,5,-9999,3039.36819725,1.41375732421875,-0.18927001953125,3.970779418945312,3039.36319925,-2.764791008618176,2.117602573833182,0.5414885226392614,-7.291009902954102,15.65792274475098,-2.268457412719727,0.792178750038147,0.5378274321556091,3.014810800552368,XArbitraryZVertical,0.8496880590207311,0.0286151634664069,-0.4200505216393369,0.3174410675429635,0.7319910526275635,-0.5154121518135071,0.4455772638320923,0,0,0,-1,-1,3037.026882041667,unknown,2,2022-06-02T10:51:32.749+02:00,2022-06-02T10:17:13.754+02:00,512,1.445976,0,0,397.4887,0,0,2022-06-02T10:51:32.748+02:00,675852692.7483444,0,5.351562,101.3188,1,0.79
216,2022-06-02T10:51:35.100+02:00,1654159891.80054,53.22895481256138,10.39874564857259,39.6105,0,0.95,55.546875,97.82255668919125,4,5,-9999,3039.37819125,1.212158203125,-0.4259490966796875,4.730422973632812,3039.37319425,-2.678662184946139,2.232816184780454,0.5653094281904261,-7.48961877822876,16.408935546875,-2.19877552986145,0.7477169632911682,0.3464072346687317,3.451703071594238,XArbitraryZVertical,0.867945417530504,0.0787960670059145,-0.3527652896547234,0.340614831737732,0.6660402417182922,-0.5356771349906921,0.5190761089324951,0,0,0,-1,-1,3037.026882041667,unknown,2,2022-06-02T10:51:32.749+02:00,2022-06-02T10:17:13.754+02:00,512,1.445976,0,0,397.4887,0,0,2022-06-02T10:51:32.748+02:00,675852692.7483444,0,5.351562,101.3188,1,0.79
217,2022-06-02T10:51:35.110+02:00,1654159891.80054,53.22895481256138,10.39874564857259,39.6105,0,0.95,55.546875,97.82255668919125,4,5,-9999,3039.38818525,1.041213989257812,-0.751190185546875,5.730712890625,3039.38318825,-2.594099139249953,2.353802671688222,0.5975883555607745,-7.408836364746094,17.09440612792969,-2.352370262145996,0.6262001991271973,0.1367013454437256,4.147261142730713,XArbitraryZVertical,0.880187750368121,0.1298089937432877,-0.2796404147960047,0.3608605656771082,0.5859580039978027,-0.5626504421234131,0.5831617116928101,0,0,0,-1,-1,3037.026882041667,unknown,2,2022-06-02T10:51:32.749+02:00,2022-06-02T10:17:13.754+02:00,512,1.445976,0,0,397.4887,0,0,2022-06-02T10:51:32.748+02:00,675852692.7483444,0,5.351562,101.3188,1,0.79
218,2022-06-02T10:51:35.120+02:00,1654159891.80054,53.22895481256138,10.39874564857259,39.6105,0,0.95,55.546875,97.82255668919125,4,5,-9999,3039.39817925,0.7118988037109375,-1.326095581054688,6.82672119140625,3039.39318225,-2.509945142303807,2.478426998028791,0.6346567345492816,-7.201947689056396,17.5389289855957,-3.106750249862671,0.5454748868942261,-0.1582888960838318,5.096117973327637,XArbitraryZVertical,0.885440214973382,0.1824637505296199,-0.2023524774830302,0.3765048722550746,0.4957390129566193,-0.5929011106491089,0.6345947980880737,0,0,0,-1,-1,3037.026882041667,unknown,2,2022-06-02T10:51:32.749+02:00,2022-06-02T10:17:13.754+02:00,512,1.445976,0,0,397.4887,0,0,2022-06-02T10:51:32.748+02:00,675852692.7483444,0,5.351562,101.3188,1,0.79
219,2022-06-02T10:51:35.130+02:00,1654159891.80054,53.22895481256138,10.39874564857259,39.6105,0,0.95,55.546875,97.82255668919125,4,5,-9999,3039.40817425,0.11529541015625,-2.13629150390625,8.267929077148438,3039.40317625,-2.420898819818392,2.599355405562479,0.6690752073424676,-6.380367755889893,17.36384201049805,-4.819540977478027,0.3071086704730988,-0.7058345675468445,6.154842376708984,XArbitraryZVertical,0.8826143774392403,0.2386026612248984,-0.1251751161013753,0.3852164082612956,0.4047900438308716,-0.6202608346939087,0.6718787550926208,0,0,0,-1,-1,3037.026882041667,unknown,2,2022-06-02T10:51:32.749+02:00,2022-06-02T10:17:13.754+02:00,512,1.445976,0,0,397.4887,0,0,2022-06-02T10:51:32.748+02:00,675852692.7483444,0,5.351562,101.3188,1,0.79
220,2022-06-02T10:51:35.140+02:00,1654159891.80054,53.22895481256138,10.39874564857259,39.6105,0,0.95,55.546875,97.82255668919125,4,5,-9999,3039.41816825,-0.18768310546875,-2.71820068359375,10.23304748535156,3039.41317125,-2.313903531567169,2.699826223466715,0.689684200825466,-5.018964290618896,16.03224182128906,-8.163732528686523,-0.2145266830921173,-1.499997854232788,7.570542812347412,XArbitraryZVertical,0.8705284043541479,0.3014522427371543,-0.056149471253361,0.3849078079211676,0.3298220634460449,-0.6362935900688171,0.6973863244056702,0,0,0,-1,-1,3037.026882041667,unknown,2,2022-06-02T10:51:32.749+02:00,2022-06-02T10:17:13.754+02:00,512,1.445976,0,0,397.4887,0,0,2022-06-02T10:51:32.748+02:00,675852692.7483444,0,5.351562,101.3188,1,0.79
221,2022-06-02T10:51:35.150+02:00,1654159891.80054,53.22895481256138,10.39874564857259,39.6105,0,0.95,55.546875,97.82255668919125,4,5,-9999,3039.42816225,-0.9109039306640624,-2.094039916992188,12.13766479492188,3039.42316525,-2.164683539211734,2.751812374407182,0.6885089530627739,-4.130171298980713,13.13608837127686,-13.16806602478027,-0.4811054766178131,-2.08281397819519,9.518774032592772,XArbitraryZVertical,0.846181670221958,0.3756506746509093,-0.005603058948654,0.3779307206210578,0.2934222817420959,-0.6353865265846252,0.7142736911773682,0,0,0,-1,-1,3037.026882041667,unknown,2,2022-06-02T10:51:32.749+02:00,2022-06-02T10:17:13.754+02:00,512,1.445976,0,0,397.4887,0,0,2022-06-02T10:51:32.748+02:00,675852692.7483444,0,5.351562,101.3188,1,0.79
222,2022-06-02T10:51:35.160+02:00,1654159891.80054,53.22895481256138,10.39874564857259,39.6105,0,0.95,55.546875,97.82255668919125,4,5,-9999,3039.43815625,-2.076156616210938,-0.44671630859375,14.04791259765625,3039.43315925,-1.953494872563583,2.728424589569812,0.6715508356655909,-5.744629859924316,8.508121490478516,-18.4276008605957,-1.225231289863586,-1.47183895111084,11.42068195343018,XArbitraryZVertical,0.8035971861126932,0.4612188941193197,0.0200224825008956,0.3756430051899995,0.3143272697925568,-0.6222008466720581,0.7169826030731201,0,0,0,-1,-1,3037.026882041667,unknown,2,2022-06-02T10:51:32.749+02:00,2022-06-02T10:17:13.754+02:00,512,1.445976,0,0,397.4887,0,0,2022-06-02T10:51:32.748+02:00,675852692.7483444,0,5.351562,101.3188,1,0.79
223,2022-06-02T10:51:35.170+02:00,1654159891.80054,53.22895481256138,10.39874564857259,39.6105,0,0.95,55.546875,97.82255668919125,4,5,-9999,3039.44815125,-4.213455200195312,1.702224731445312,16.08285522460938,3039.44315325,-1.675534956228873,2.606966092308975,0.6449301115654027,-9.638511657714844,0.7725343704223633,-23.01326179504395,-2.483335018157959,0.1544264554977417,13.36028385162354,XArbitraryZVertical,0.7358245098850599,0.5498877328702083,0.0183388188000299,0.3947775579790502,0.4071783721446991,-0.6011425852775574,0.687628448009491,0,0,0,-1,-1,3037.026882041667,unknown,2,2022-06-02T10:51:32.749+02:00,2022-06-02T10:17:13.754+02:00,512,1.445976,0,0,397.4887,0,0,2022-06-02T10:51:32.748+02:00,675852692.7483444,0,5.351562,101.3188,1,0.79
224,2022-06-02T10:51:35.180+02:00,1654159891.80054,53.22895481256138,10.39874564857259,39.6105,0,0.95,55.546875,97.82255668919125,4,5,-9999,3039.45814525,-7.995376586914062,3.612808227539062,15.93104553222656,3039.45314825,-1.34058852420891,2.376867321670132,0.5952518732660392,-15.28802967071533,-7.559700489044189,-26.40389633178711,-4.786716938018799,2.26294207572937,15.48538780212402,XArbitraryZVertical,0.6367592830208876,0.6271134603146828,-0.0083859475356399,0.44854878567964,0.5732616186141968,-0.5607173442840576,0.5974673628807068,0,0,0,-1,-1,3037.026882041667,unknown,2,2022-06-02T10:51:32.749+02:00,2022-06-02T10:17:13.754+02:00,512,1.445976,0,0,397.4887,0,0,2022-06-02T10:51:32.748+02:00,675852692.7483444,0,5.351562,101.3188,1,0.79
225,2022-06-02T10:51:35.190+02:00,1654159891.80054,53.22895481256138,10.39874564857259,39.6105,0,0.95,55.546875,97.82255668919125,4,5,-9999,3039.46813925,-14.16006469726562,4.258331298828125,13.47599792480469,3039.46314225,-0.9808997729019572,2.076542060794559,0.4726154051859983,-18.13953971862793,-15.30326366424561,-30.73696708679199,-8.774293899536133,4.0680251121521,15.4996919631958,XArbitraryZVertical,0.4993727047695387,0.6828643691420064,-0.0545767542115758,0.5304190464420826,0.7789168357849121,-0.4552165567874908,0.4313536882400513,0,0,0,-1,-1,3037.026882041667,unknown,2,2022-06-02T10:51:32.749+02:00,2022-06-02T10:17:13.754+02:00,512,1.445976,0,0,397.4887,0,0,2022-06-02T10:51:32.748+02:00,675852692.7483444,0,5.351562,101.3188,1,0.79
226,2022-06-02T10:51:35.200+02:00,1654159891.80054,53.22895481256138,10.39874564857259,39.6105,0,0.95,55.546875,97.82255668919125,4,5,-9999,3039.47813325,-21.66444396972656,3.862655639648438,13.00942993164062,3039.47313625,-0.6841066505380335,1.776501666150933,0.2256727376195156,-16.69764518737793,-23.23517990112305,-34.79618453979492,-15.11416053771973,4.482093334197998,13.2769193649292,XArbitraryZVertical,0.3255306712687518,0.7025446554038148,-0.1279185777665244,0.6197559157235981,0.9540952444076538,-0.2237620949745178,0.1990784257650375,0,0,0,-1,-1,3037.026882041667,unknown,2,2022-06-02T10:51:32.749+02:00,2022-06-02T10:17:13.754+02:00,512,1.445976,0,0,397.4887,0,0,2022-06-02T10:51:32.748+02:00,675852692.7483444,0,5.351562,101.3188,1,0.79
227,2022-06-02T10:51:35.210+02:00,1654159891.80054,53.22895481256138,10.39874564857259,39.6105,0,0.95,55.546875,97.82255668919125,4,5,-9999,3039.48812825,-32.07041931152344,3.164321899414062,15.72549438476562,3039.48313025,-0.5392028057828673,1.491918923168325,-0.1060594210790689,-5.399076461791992,-29.74535751342773,-32.59975051879883,-22.65573310852051,3.756794929504395,13.08778285980225,XArbitraryZVertical,0.1429870952605274,0.663610015625782,-0.2300140336539199,0.6973305401152496,0.9912891387939452,0.1058606952428818,-0.0783528760075569,0,0,0,-1,-1,3037.026882041667,unknown,2,2022-06-02T10:51:32.749+02:00,2022-06-02T10:17:13.754+02:00,512,1.445976,0,0,397.4887,0,0,2022-06-02T10:51:32.748+02:00,675852692.7483444,0,5.351562,101.3188,1,0.79
228,2022-06-02T10:51:35.220+02:00,1654159891.80054,53.22895481256138,10.39874564857259,39.6105,0,0.95,55.546875,97.82255668919125,4,5,-9999,3039.49812225,-32.07357788085938,10.35536193847656,17.01083374023438,3039.49312525,-0.6397241882914513,1.127215273012206,-0.3929455147567494,9.687015533447266,-35.13308715820312,-30.66306495666504,-32.90480041503906,2.781410694122314,16.12196159362793,XArbitraryZVertical,0.0081035659488606,0.5492729960435184,-0.3596890261490249,0.75422616102912,0.834381639957428,0.3829110860824585,-0.3964670300483704,0,0,0,-1,-1,3037.026882041667,unknown,2,2022-06-02T10:51:32.749+02:00,2022-06-02T10:17:13.754+02:00,512,1.445976,0,0,397.4887,0,0,2022-06-02T10:51:32.748+02:00,675852692.7483444,0,5.351562,101.3188,1,0.79
229,2022-06-02T10:51:35.230+02:00,1654159891.80054,53.22895481256138,10.39874564857259,39.6105,0,0.95,55.546875,97.82255668919125,4,5,-9999,3039.50811625,-32.07499694824219,21.11669921875,27.40187072753906,3039.50311925,-1.022479657055815,0.6035418434958818,-0.4790142242242551,33.6911506652832,-35.17084121704102,-26.29710578918457,-32.5772590637207,9.89445686340332,17.74149894714355,XArbitraryZVertical,-0.0562803328756014,0.362629719727163,-0.5153060733507262,0.774462186409804,0.5036827921867371,0.4609045684337616,-0.7306644320487976,0,0,0,-1,-1,3037.026882041667,unknown,2,2022-06-02T10:51:32.749+02:00,2022-06-02T10:17:13.754+02:00,512,1.445976,0,0,397.4887,0,0,2022-06-02T10:51:32.748+02:00,675852692.7483444,0,5.351562,101.3188,1,0.79
230,2022-06-02T10:51:35.240+02:00,1654159891.80054,53.22895481256138,10.39874564857259,39.6105,0,0.95,55.546875,97.82255668919125,4,5,-9999,3039.51811025,-24.13597106933594,15.53492736816406,30.61392211914062,3039.51311325,-1.396572560137806,0.1126667208374598,-0.236584389611146,35.44675827026367,-35.1685905456543,-24.61726570129395,-32.18429183959961,20.88231658935547,28.36785125732422,XArbitraryZVertical,-0.0543058279697098,0.1185772417936403,-0.6424899573533421,0.7551137995240121,0.1092967242002487,0.2343835383653641,-0.9659806489944458,0,0,0,-1,-1,3037.026882041667,unknown,2,2022-06-02T10:51:32.749+02:00,2022-06-02T10:17:13.754+02:00,512,1.445976,0,0,397.4887,0,0,2022-06-02T10:51:32.748+02:00,675852692.7483444,0,5.351562,101.3188,1,0.79
231,2022-06-02T10:51:35.250+02:00,1654159891.80054,53.22895481256138,10.39874564857259,39.6105,0,0.95,55.546875,97.82255668919125,4,5,-9999,3039.52810525,-28.74932861328125,-27.47628784179688,18.35855102539062,3039.52310825,-1.501043283800266,-0.167114570553014,0.1145852226531674,35.08916473388672,-16.05508422851562,6.588021278381348,-23.97072410583496,15.64926242828369,31.59352493286133,XArbitraryZVertical,-0.0150971207678475,-0.0998540889324649,-0.6820207891547571,0.724326463384887,-0.1652470231056213,-0.1143346428871155,-0.9796024560928344,0,0,0,-1,-1,3037.026882041667,unknown,2,2022-06-02T10:51:32.749+02:00,2022-06-02T10:17:13.754+02:00,512,1.445976,0,0,397.4887,0,0,2022-06-02T10:51:32.748+02:00,675852692.7483444,0,5.351562,101.3188,1,0.79
232,2022-06-02T10:51:35.260+02:00,1654159891.80054,53.22895481256138,10.39874564857259,39.6105,0,0.95,55.546875,97.82255668919125,4,5,-9999,3039.53809925,-11.8079833984375,-17.30281066894531,-1.010421752929688,3039.53310225,-1.28965032429404,-0.3107847055047114,0.3094895918921948,10.19173526763916,-5.44244909286499,18.79788398742676,-28.45805168151855,-27.17171478271484,19.26540946960449,XArbitraryZVertical,0.0297826625392552,-0.2137368475016356,-0.6057851748234694,0.7658027691888845,-0.291276752948761,-0.3045725226402283,-0.9068590998649596,0,0,0,-1,-1,3037.026882041667,unknown,2,2022-06-02T10:51:32.749+02:00,2022-06-02T10:17:13.754+02:00,512,1.445976,0,0,397.4887,0,0,2022-06-02T10:51:32.748+02:00,675852692.7483444,0,5.351562,101.3188,1,0.79
233,2022-06-02T10:51:35.270+02:00,1654159891.80054,53.22895481256138,10.39874564857259,39.6105,0,0.95,55.546875,97.82255668919125,4,5,-9999,3039.54809325,-9.654708862304688,-3.363784790039062,-1.427032470703125,3039.54309625,-1.115666561139148,-0.4190561594456197,0.2712506117836021,-4.543091297149658,-3.768631219863892,15.15406131744385,-11.41596221923828,-17.03487396240234,-0.1303480863571167,XArbitraryZVertical,0.0031111055747946,-0.2448540148472577,-0.5368772172764282,0.8073410955225117,-0.3920208513736725,-0.2679365277290344,-0.8800736665725708,0,0,0,-1,-1,3037.026882041667,unknown,2,2022-06-02T10:51:32.749+02:00,2022-06-02T10:17:13.754+02:00,512,1.445976,0,0,397.4887,0,0,2022-06-02T10:51:32.748+02:00,675852692.7483444,0,5.351562,101.3188,1,0.79
234,2022-06-02T10:51:35.280+02:00,1654159891.80054,53.22895481256138,10.39874564857259,39.6105,0,0.95,55.546875,97.82255668919125,4,5,-9999,3039.55808725,-8.312469482421875,1.5142822265625,-1.55322265625,3039.55309025,-1.004139698312069,-0.4908021064865891,0.1637604220879119,-3.24737548828125,-6.614772319793701,15.157883644104,-9.18968105316162,-3.20075535774231,-0.5568768978118896,XArbitraryZVertical,-0.0469765001300842,-0.2504304709242725,-0.4826769693333455,0.8379144736610245,-0.4650275707244873,-0.1630294620990753,-0.8701555728912354,0,0,0,-1,-1,3037.026882041667,unknown,2,2022-06-02T10:51:32.749+02:00,2022-06-02T10:17:13.754+02:00,512,1.445976,0,0,397.4887,0,0,2022-06-02T10:51:32.748+02:00,675852692.7483444,0,5.351562,101.3188,1,0.79
235,2022-06-02T10:51:35.290+02:00,1654159891.80054,53.22895481256138,10.39874564857259,39.6105,0,0.95,55.546875,97.82255668919125,4,5,-9999,3039.56808225,-12.18400573730469,1.746200561523438,1.507293701171875,3039.56308525,-0.8687796821935034,-0.5576077842490001,0.0862124268541528,2.640569925308228,-1.938404083251953,14.62886047363281,-7.785276889801025,1.600387930870056,-0.7078506946563721,XArbitraryZVertical,-0.0781335296342098,-0.2668504470257158,-0.4149878731494056,0.8662972852243018,-0.5271925926208496,-0.0861056670546531,-0.8453719615936279,0,0,0,-1,-1,3037.026882041667,unknown,2,2022-06-02T10:51:32.749+02:00,2022-06-02T10:17:13.754+02:00,512,1.445976,0,0,397.4887,0,0,2022-06-02T10:51:32.748+02:00,675852692.7483444,0,5.351562,101.3188,1,0.79
236,2022-06-02T10:51:35.300+02:00,1654159891.80054,53.22895481256138,10.39874564857259,39.6105,0,0.95,55.546875,97.82255668919125,4,5,-9999,3039.57807625,-8.276077270507812,-0.404266357421875,1.652175903320312,3039.57307925,-0.7396454207615257,-0.5486071751860186,0.0408742013609786,3.065860509872437,4.749444007873535,12.16569423675537,-11.66294193267822,1.787063360214233,2.359832763671875,XArbitraryZVertical,-0.0795462467011574,-0.2596206320658137,-0.3530256214068378,0.8953448776612293,-0.5210637450218201,-0.0408628210425376,-0.8525390625,0,0,0,-1,-1,3037.026882041667,unknown,2,2022-06-02T10:51:32.749+02:00,2022-06-02T10:17:13.754+02:00,512,1.445976,0,0,397.4887,0,0,2022-06-02T10:51:32.748+02:00,675852692.7483444,0,5.351562,101.3188,1,0.79
237,2022-06-02T10:51:35.311+02:00,1654159891.80054,53.22895481256138,10.39874564857259,39.6105,0,0.95,55.546875,97.82255668919125,4,5,-9999,3039.58807025,-5.278732299804688,2.344833374023438,1.792068481445312,3039.58307325,-0.6154701170043527,-0.5132783744085463,0.0105966898269322,4.187847137451172,1.981614589691162,12.14137744903564,-7.785068988800049,-0.3936698734760284,2.523266315460205,XArbitraryZVertical,-0.0720005970740405,-0.2434556983430174,-0.2942580191562143,0.9213888285238214,-0.4910082221031189,-0.0105964913964271,-0.8710904717445374,0,0,0,-1,-1,3039.58281325,running,2,2022-06-02T10:51:35.304+02:00,2022-06-02T10:17:13.754+02:00,512,1.445976,0,0,397.4887,0,0,2022-06-02T10:51:35.304+02:00,675852695.3042176,0,5.320312,101.3176,1,0.79
238,2022-06-02T10:51:35.320+02:00,1654159891.80054,53.22895481256138,10.39874564857259,39.6105,0,0.95,55.546875,97.82255668919125,4,5,-9999,3039.59806425,-6.5098876953125,2.157791137695312,1.120498657226562,3039.59306725,-0.4894474370766173,-0.5166182675085096,0.0019025956067397,6.558135986328125,-2.47054648399353,10.64278221130371,-4.784790515899658,2.346735954284668,2.661561489105225,XArbitraryZVertical,-0.0609992543432698,-0.2480576881169939,-0.2344856199770805,0.9379567697136328,-0.4939416646957397,-0.0019025944638997,-0.8694929480552673,0,0,0,-1,-1,3039.58281325,running,2,2022-06-02T10:51:35.304+02:00,2022-06-02T10:17:13.754+02:00,512,1.445976,0,0,397.4887,0,0,2022-06-02T10:51:35.304+02:00,675852695.3042176,0,5.320312,101.3176,1,0.79
239,2022-06-02T10:51:35.330+02:00,1654159891.80054,53.22895481256138,10.39874564857259,39.6105,0,0.95,55.546875,97.82255668919125,4,5,-9999,3039.60805925,-7.552597045898438,-0.24908447265625,1.261566162109375,3039.60306225,-0.3704057426839115,-0.5536691426287055,0.0071328090520246,6.06666898727417,-4.35546350479126,9.394608497619627,-5.984089374542236,2.164923906326294,1.971077919006348,XArbitraryZVertical,-0.0469570569849562,-0.269268208477412,-0.1780916027372644,0.9452899176234992,-0.5257983803749084,-0.007132748607546,-0.8505793213844299,0,0,0,-1,-1,3039.58281325,running,2,2022-06-02T10:51:35.304+02:00,2022-06-02T10:17:13.754+02:00,512,1.445976,0,0,397.4887,0,0,2022-06-02T10:51:35.304+02:00,675852695.3042176,0,5.320312,101.3176,1,0.79
240,2022-06-02T10:51:35.340+02:00,1654159891.80054,53.22895481256138,10.39874564857259,39.6105,0,0.95,55.546875,97.82255668919125,4,5,-9999,3039.61805325,-6.709915161132812,0.956207275390625,0.9589080810546876,3039.61305625,-0.2625387732967437,-0.5989406211078055,0.0004603009331986,4.720561981201172,-4.609277248382568,9.484478950500488,-6.988829135894775,-0.2486242055892944,2.087499380111694,XArbitraryZVertical,-0.0383971877171986,-0.2925047750478563,-0.1251343701656542,0.9472633934931683,-0.5637677311897278,-0.0004603009147103,-0.8259332180023193,0,0,0,-1,-1,3039.58281325,running,2,2022-06-02T10:51:35.304+02:00,2022-06-02T10:17:13.754+02:00,512,1.445976,0,0,397.4887,0,0,2022-06-02T10:51:35.304+02:00,675852695.3042176,0,5.320312,101.3176,1,0.79
241,2022-06-02T10:51:35.350+02:00,1654159891.80054,53.22895481256138,10.39874564857259,39.6105,0,0.95,55.546875,97.82255668919125,4,5,-9999,3039.62804725,-6.098358154296875,2.244125366210938,0.78326416015625,3039.62305025,-0.1597202333646919,-0.6477161896263756,-0.0152497855042204,4.885451316833496,-5.267861843109131,8.956645011901855,-6.106618404388428,0.9409580230712892,1.756279230117798,XArbitraryZVertical,-0.0325912686327037,-0.316626374022051,-0.0732072394888933,0.9451592804970556,-0.6032965183258057,0.0152491945773363,-0.7973710894584656,0,0,0,-1,-1,3039.58281325,running,2,2022-06-02T10:51:35.304+02:00,2022-06-02T10:17:13.754+02:00,512,1.445976,0,0,397.4887,0,0,2022-06-02T10:51:35.304+02:00,675852695.3042176,0,5.320312,101.3176,1,0.79
242,2022-06-02T10:51:35.360+02:00,1654159891.80054,53.22895481256138,10.39874564857259,39.6105,0,0.95,55.546875,97.82255668919125,4,5,-9999,3039.63804225,-6.424850463867188,1.913589477539062,0.63873291015625,3039.63304425,-0.0594932475265095,-0.6978532109913723,-0.0277192702492852,5.670620441436768,-5.020833969116211,8.322587013244629,-5.45603084564209,2.216409683227539,1.549193143844604,XArbitraryZVertical,-0.0231858539040427,-0.3413178567192112,-0.0232110795378163,0.9393752045032018,-0.6423274278640747,0.0277157202363014,-0.765929102897644,0,0,0,-1,-1,3039.58281325,running,2,2022-06-02T10:51:35.304+02:00,2022-06-02T10:17:13.754+02:00,512,1.445976,0,0,397.4887,0,0,2022-06-02T10:51:35.304+02:00,675852695.3042176,0,5.320312,101.3176,1,0.79
243,2022-06-02T10:51:35.370+02:00,1654159891.80054,53.22895481256138,10.39874564857259,39.6105,0,0.95,55.546875,97.82255668919125,4,5,-9999,3039.64803625,-6.326934814453125,1.88128662109375,0.448028564453125,3039.64303925,0.0421595546302898,-0.740370959010461,-0.0359046352383685,6.504777908325195,-4.115099906921387,8.046120643615723,-5.750723361968994,1.877692461013794,1.37647545337677,XArbitraryZVertical,-0.0091069911062622,-0.3620024335296776,0.0261403636222211,0.9317660839456712,-0.6741270422935486,0.0358969196677207,-0.7377426028251648,0,0,0,-1,-1,3039.58281325,running,2,2022-06-02T10:51:35.304+02:00,2022-06-02T10:17:13.754+02:00,512,1.445976,0,0,397.4887,0,0,2022-06-02T10:51:35.304+02:00,675852695.3042176,0,5.320312,101.3176,1,0.79
244,2022-06-02T10:51:35.380+02:00,1654159891.80054,53.22895481256138,10.39874564857259,39.6105,0,0.95,55.546875,97.82255668919125,4,5,-9999,3039.65803025,-6.048171997070312,1.567031860351562,0.2399444580078125,3039.65303325,0.1474109126265774,-0.7732151726947718,-0.0401161635050865,7.324872970581055,-3.265396595001221,7.837760448455811,-5.629056930541992,1.84118115901947,1.163121461868286,XArbitraryZVertical,0.0092338120094081,-0.3773171700947835,0.075731834199996,0.9229361726367764,-0.6978779435157776,0.0401054061949253,-0.7150929570198059,0,0,0,-1,-1,3039.58281325,running,2,2022-06-02T10:51:35.304+02:00,2022-06-02T10:17:13.754+02:00,512,1.445976,0,0,397.4887,0,0,2022-06-02T10:51:35.304+02:00,675852695.3042176,0,5.320312,101.3176,1,0.79
245,2022-06-02T10:51:35.390+02:00,1654159891.80054,53.22895481256138,10.39874564857259,39.6105,0,0.95,55.546875,97.82255668919125,4,5,-9999,3039.66802425,-5.731643676757812,1.013763427734375,0.0732879638671875,3039.66302725,0.2561873196975478,-0.7980015993963406,-0.0418140738563104,7.747881412506104,-2.605831623077393,7.781661510467529,-5.33283519744873,1.525229930877686,0.9374730587005616,XArbitraryZVertical,0.0305117288158837,-0.3876915136827119,0.1257388270251415,0.912663168133588,-0.7153365612030029,0.0418018884956836,-0.6975286602973938,0,0,0,-1,-1,3039.58281325,running,2,2022-06-02T10:51:35.304+02:00,2022-06-02T10:17:13.754+02:00,512,1.445976,0,0,397.4887,0,0,2022-06-02T10:51:35.304+02:00,675852695.3042176,0,5.320312,101.3176,1,0.79
246,2022-06-02T10:51:35.400+02:00,1654159891.80054,53.22895481256138,10.39874564857259,39.6105,0,0.95,55.546875,97.82255668919125,4,5,-9999,3039.67801925,-5.437103271484375,0.4310302734375,0.0091705322265625,3039.67302125,0.3654810187808674,-0.8170709029825091,-0.0444981410949289,7.604020595550537,-2.17158842086792,7.685293197631836,-5.003221035003662,0.9692798852920532,0.7569703459739685,XArbitraryZVertical,0.0520988887288041,-0.3942645049059977,0.1754194482341666,0.9005937417521981,-0.7284225821495056,0.0444834567606449,-0.6836824417114258,0,0,0,-1,-1,3039.58281325,running,2,2022-06-02T10:51:35.304+02:00,2022-06-02T10:17:13.754+02:00,512,1.445976,0,0,397.4887,0,0,2022-06-02T10:51:35.304+02:00,675852695.3042176,0,5.320312,101.3176,1,0.79
247,2022-06-02T10:51:35.410+02:00,1654159891.80054,53.22895481256138,10.39874564857259,39.6105,0,0.95,55.546875,97.82255668919125,4,5,-9999,3039.68801325,-5.2103271484375,-0.1320953369140625,-0.0395355224609375,3039.68301625,0.4708768839700657,-0.8321868712121859,-0.0506049161637226,6.986007213592529,-1.841234564781189,7.50127649307251,-4.698644161224365,0.3804469108581543,0.6815690398216248,XArbitraryZVertical,0.0717524042461339,-0.3983118772360921,0.2232411447347501,0.8867708332751221,-0.7384588718414307,0.0505833216011524,-0.6723985075950623,0,0,0,-1,-1,3039.58281325,running,2,2022-06-02T10:51:35.304+02:00,2022-06-02T10:17:13.754+02:00,512,1.445976,0,0,397.4887,0,0,2022-06-02T10:51:35.304+02:00,675852695.3042176,0,5.320312,101.3176,1,0.79
248,2022-06-02T10:51:35.420+02:00,1654159891.80054,53.22895481256138,10.39874564857259,39.6105,0,0.95,55.546875,97.82255668919125,4,5,-9999,3039.69800725,-4.952377319335938,-0.5863494873046875,-0.1052398681640625,3039.69301025,0.5686752776588649,-0.8430503646735433,-0.0620944264367586,5.967814445495605,-1.415765523910522,7.28341817855835,-4.465090274810791,-0.1941499263048172,0.6243707537651062,XArbitraryZVertical,0.0875332539318559,-0.4004807019495578,0.2680342378086059,0.8718432225524129,-0.7452365756034851,0.0620545297861099,-0.6639062762260437,0,0,0,-1,-1,3039.58281325,running,2,2022-06-02T10:51:35.304+02:00,2022-06-02T10:17:13.754+02:00,512,1.445976,0,0,397.4887,0,0,2022-06-02T10:51:35.304+02:00,675852695.3042176,0,5.320312,101.3176,1,0.79
249,2022-06-02T10:51:35.430+02:00,1654159891.80054,53.22895481256138,10.39874564857259,39.6105,0,0.95,55.546875,97.82255668919125,4,5,-9999,3039.70800125,-4.57928466796875,-0.6602783203125,-0.18304443359375,3039.70300425,0.6574560574380738,-0.8491061287382438,-0.079724863171439,5.01033353805542,-1.059894323348999,7.115699768066406,-4.204071521759033,-0.6659899950027466,0.5533161163330078,XArbitraryZVertical,0.0985068251839947,-0.4012710038976577,0.309481525707526,0.8564456859412425,-0.7483057379722595,0.0796404331922531,-0.6585559844970703,0,0,0,-1,-1,3039.58281325,running,2,2022-06-02T10:51:35.304+02:00,2022-06-02T10:17:13.754+02:00,512,1.445976,0,0,397.4887,0,0,2022-06-02T10:51:35.304+02:00,675852695.3042176,0,5.320312,101.3176,1,0.79
250,2022-06-02T10:51:35.440+02:00,1654159891.80054,53.22895481256138,10.39874564857259,39.6105,0,0.95,55.546875,97.82255668919125,4,5,-9999,3039.71799625,-4.23260498046875,-0.5465240478515625,-0.2591094970703125,3039.71299825,0.7389739032211904,-0.8503387516436688,-0.1013580612480074,4.369274616241455,-0.6289340853691101,6.817841053009033,-3.831637620925903,-0.7614629864692688,0.473298192024231,XArbitraryZVertical,0.1057358728539845,-0.4008099172345989,0.3480469831937446,0.8408535319596926,-0.7476469874382019,0.1011845991015434,-0.6563426852226257,0,0,0,-1,-1,3039.58281325,running,2,2022-06-02T10:51:35.304+02:00,2022-06-02T10:17:13.754+02:00,512,1.445976,0,0,397.4887,0,0,2022-06-02T10:51:35.304+02:00,675852695.3042176,0,5.320312,101.3176,1,0.79
251,2022-06-02T10:51:35.450+02:00,1654159891.80054,53.22895481256138,10.39874564857259,39.6105,0,0.95,55.546875,97.82255668919125,4,5,-9999,3039.72799025,-3.882049560546875,-0.4564208984375,-0.3288726806640625,3039.72299325,0.8146523525285221,-0.8458431116580402,-0.1226878654482622,4.139182090759277,-0.1761501282453537,6.310647964477539,-3.48970103263855,-0.6689044237136841,0.3990065455436707,XArbitraryZVertical,0.1109567322419787,-0.3982845370202666,0.3836751656627242,0.8257428822673328,-0.7429039478302002,0.1223803088068962,-0.6581160426139832,0,0,0,-1,-1,3039.58281325,running,2,2022-06-02T10:51:35.304+02:00,2022-06-02T10:17:13.754+02:00,512,1.445976,0,0,397.4887,0,0,2022-06-02T10:51:35.304+02:00,675852695.3042176,0,5.320312,101.3176,1,0.79
252,2022-06-02T10:51:35.460+02:00,1654159891.80054,53.22895481256138,10.39874564857259,39.6105,0,0.95,55.546875,97.82255668919125,4,5,-9999,3039.73798425,-3.51275634765625,-0.37158203125,-0.2353515625,3039.73298725,0.8853472062000192,-0.8363947626702072,-0.1402481444456741,3.982447862625122,0.2217881828546524,5.637146472930908,-3.14710521697998,-0.5962097644805908,0.3346905112266541,XArbitraryZVertical,0.1156774222837175,-0.3934935274157362,0.4161923619933778,0.8115203924715524,-0.7349441647529602,0.1397888213396072,-0.6635631322860718,0,0,0,-1,-1,3039.58281325,running,2,2022-06-02T10:51:35.304+02:00,2022-06-02T10:17:13.754+02:00,512,1.445976,0,0,397.4887,0,0,2022-06-02T10:51:35.304+02:00,675852695.3042176,0,5.320312,101.3176,1,0.79
253,2022-06-02T10:51:35.470+02:00,1654159891.80054,53.22895481256138,10.39874564857259,39.6105,0,0.95,55.546875,97.82255668919125,4,5,-9999,3039.74797825,-3.092605590820312,-0.37786865234375,-0.1441650390625,3039.74298125,0.9505858087901108,-0.8223134718477993,-0.1525135147725545,3.910603284835815,0.6947802901268005,4.893678665161133,-2.788539409637451,-0.5235050320625305,0.4372770190238953,XArbitraryZVertical,0.12026379121891,-0.3862931005246494,0.4453163191756677,0.7987536931890741,-0.7242169380187988,0.1519229412078857,-0.6726285219192505,0,0,0,-1,-1,3039.58281325,running,2,2022-06-02T10:51:35.304+02:00,2022-06-02T10:17:13.754+02:00,512,1.445976,0,0,397.4887,0,0,2022-06-02T10:51:35.304+02:00,675852695.3042176,0,5.320312,101.3176,1,0.79
254,2022-06-02T10:51:35.480+02:00,1654159891.80054,53.22895481256138,10.39874564857259,39.6105,0,0.95,55.546875,97.82255668919125,4,5,-9999,3039.75797325,-2.607391357421875,-0.343963623046875,-0.0685272216796875,3039.75297525,1.010900085339128,-0.8038039691037785,-0.1583024806743038,3.976490259170532,1.11991810798645,4.13676929473877,-2.381607055664062,-0.5355108380317688,0.5411306023597717,XArbitraryZVertical,0.1251426731200115,-0.3764193264085601,0.4712860498843934,0.787741741036912,-0.7109984159469604,0.1576421409845352,-0.685295581817627,0,0,0,-1,-1,3039.58281325,running,2,2022-06-02T10:51:35.304+02:00,2022-06-02T10:17:13.754+02:00,512,1.445976,0,0,397.4887,0,0,2022-06-02T10:51:35.304+02:00,675852695.3042176,0,5.320312,101.3176,1,0.79
255,2022-06-02T10:51:35.490+02:00,1654159891.80054,53.22895481256138,10.39874564857259,39.6105,0,0.95,55.546875,97.82255668919125,4,5,-9999,3039.76796725,-2.206741333007812,-0.2649078369140625,-0.0053253173828125,3039.76297025,1.066863894043399,-0.782510417944504,-0.1569170327328079,4.09050178527832,1.357048273086548,3.439990043640137,-1.910991907119751,-0.5002375245094299,0.6319057941436768,XArbitraryZVertical,0.1309275101714258,-0.3641997586544569,0.4943560469995443,0.7783499466418402,-0.6963993310928345,0.1562738716602325,-0.700433075428009,0,0,0,-1,-1,3039.58281325,running,2,2022-06-02T10:51:35.304+02:00,2022-06-02T10:17:13.754+02:00,512,1.445976,0,0,397.4887,0,0,2022-06-02T10:51:35.304+02:00,675852695.3042176,0,5.320312,101.3176,1,0.79
256,2022-06-02T10:51:35.500+02:00,1654159891.80054,53.22895481256138,10.39874564857259,39.6105,0,0.95,55.546875,97.82255668919125,4,5,-9999,3039.77796125,-1.92950439453125,-0.220489501953125,0.0609283447265625,3039.77296425,1.11825009048649,-0.7604441631702641,-0.1492023483822484,4.076831817626953,1.48289680480957,2.763208389282227,-1.525155544281006,-0.4135572910308838,0.7111550569534302,XArbitraryZVertical,0.1376447594630451,-0.3504479052137128,0.5146401320645912,0.7703152778996748,-0.6815857887268066,0.1486493945121765,-0.7164803743362427,0,0,0,-1,-1,3039.58281325,running,2,2022-06-02T10:51:35.304+02:00,2022-06-02T10:17:13.754+02:00,512,1.445976,0,0,397.4887,0,0,2022-06-02T10:51:35.304+02:00,675852695.3042176,0,5.320312,101.3176,1,0.79
257,2022-06-02T10:51:35.510+02:00,1654159891.80054,53.22895481256138,10.39874564857259,39.6105,0,0.95,55.546875,97.82255668919125,4,5,-9999,3039.78795525,-1.718048095703125,-0.1203155517578125,0.0892791748046875,3039.78295825,1.163978288092734,-0.7389209787995237,-0.1363951076874049,3.974328279495239,1.496634006500244,2.13043737411499,-1.262268543243408,-0.3564621210098267,0.7932588458061218,XArbitraryZVertical,0.1449524047206177,-0.3358921861064995,0.5319602748779658,0.7636644803602152,-0.6672357320785522,0.1359725892543793,-0.7323305010795593,0,0,0,-1,-1,3039.58281325,running,2,2022-06-02T10:51:35.304+02:00,2022-06-02T10:17:13.754+02:00,512,1.445976,0,0,397.4887,0,0,2022-06-02T10:51:35.304+02:00,675852695.3042176,0,5.320312,101.3176,1,0.79
258,2022-06-02T10:51:35.520+02:00,1654159891.80054,53.22895481256138,10.39874564857259,39.6105,0,0.95,55.546875,97.82255668919125,4,5,-9999,3039.79795025,-1.594970703125,0.06280517578125,0.0819854736328125,3039.79295225,1.204032908076966,-0.7187304281431924,-0.1195275130796413,3.8386070728302,1.541497588157654,1.55488121509552,-1.064316272735596,-0.2395586967468262,0.8365514278411865,XArbitraryZVertical,0.1527198054314982,-0.3209993168249229,0.546496071090739,0.7582730525090473,-0.6537318229675293,0.1192431077361107,-0.7472721934318542,0,0,0,-1,-1,3039.58281325,running,2,2022-06-02T10:51:35.304+02:00,2022-06-02T10:17:13.754+02:00,512,1.445976,0,0,397.4887,0,0,2022-06-02T10:51:35.304+02:00,675852695.3042176,0,5.320312,101.3176,1,0.79
259,2022-06-02T10:51:35.530+02:00,1654159891.80054,53.22895481256138,10.39874564857259,39.6105,0,0.95,55.546875,97.82255668919125,4,5,-9999,3039.80794425,-1.459823608398438,0.223602294921875,0.0500946044921875,3039.80294725,1.239073125556742,-0.6985873078407971,-0.0990794815239267,3.817200183868408,1.727916717529297,1.096403121948242,-0.9549883008003236,-0.0361123085021972,0.8439814448356628,XArbitraryZVertical,0.1605955390445523,-0.3053048998137217,0.55872291797238,0.754205987508886,-0.6399824023246765,0.0989174544811248,-0.7619959712028503,0,0,0,-1,-1,3039.58281325,running,2,2022-06-02T10:51:35.304+02:00,2022-06-02T10:17:13.754+02:00,512,1.445976,0,0,397.4887,0,0,2022-06-02T10:51:35.304+02:00,675852695.3042176,0,5.320312,101.3176,1,0.79
260,2022-06-02T10:51:35.540+02:00,1654159891.80054,53.22895481256138,10.39874564857259,39.6105,0,0.95,55.546875,97.82255668919125,4,5,-9999,3039.81793825,-1.27691650390625,0.370086669921875,0.0068511962890625,3039.81294125,1.270604761792011,-0.6775889394600765,-0.0752942700630753,3.854043245315552,1.931357145309448,0.7474325895309448,-0.8346834182739258,0.1483791172504425,0.8269737362861633,XArbitraryZVertical,0.1685112696001114,-0.2883823707227788,0.5693604027768296,0.7511778270291495,-0.6251401901245117,0.0752231478691101,-0.7768791317939758,0,0,0,-1,-1,3039.58281325,running,2,2022-06-02T10:51:35.304+02:00,2022-06-02T10:17:13.754+02:00,512,1.445976,0,0,397.4887,0,0,2022-06-02T10:51:35.304+02:00,675852695.3042176,0,5.320312,101.3176,1,0.79
261,2022-06-02T10:51:35.550+02:00,1654159891.80054,53.22895481256138,10.39874564857259,39.6105,0,0.95,55.546875,97.82255668919125,4,5,-9999,3039.827932291667,-1.036087036132812,0.395904541015625,-0.0581207275390625,3039.822935291667,1.299445292339534,-0.6553979570174245,-0.0486684291931897,3.912839889526367,2.137565851211548,0.4889850616455078,-0.6681632995605469,0.3214374184608459,0.7987179160118103,XArbitraryZVertical,0.1763165578593723,-0.2701464957516007,0.5788389493994909,0.7489183435487587,-0.6087530851364136,0.0486492179334163,-0.791866660118103,0,0,0,-1,-1,3039.58281325,running,2,2022-06-02T10:51:35.304+02:00,2022-06-02T10:17:13.754+02:00,512,1.445976,0,0,397.4887,0,0,2022-06-02T10:51:35.304+02:00,675852695.3042176,0,5.320312,101.3176,1,0.79
262,2022-06-02T10:51:35.560+02:00,1654159891.80054,53.22895481256138,10.39874564857259,39.6105,0,0.95,55.546875,97.82255668919125,4,5,-9999,3039.837927291667,-0.7427978515625,0.389007568359375,-0.1541748046875,3039.832929291667,1.326206426028295,-0.6324479352065808,-0.019411833950745,3.971418857574463,2.257241010665894,0.287511944770813,-0.4450774192810059,0.376493901014328,0.7483102083206177,XArbitraryZVertical,0.1841498318704968,-0.2507456612667336,0.5873946237040546,0.7471163265459648,-0.5910096168518066,0.0194106139242649,-0.8064308762550354,0,0,0,-1,-1,3039.58281325,running,2,2022-06-02T10:51:35.304+02:00,2022-06-02T10:17:13.754+02:00,512,1.445976,0,0,397.4887,0,0,2022-06-02T10:51:35.304+02:00,675852695.3042176,0,5.320312,101.3176,1,0.79
263,2022-06-02T10:51:35.570+02:00,1654159891.80054,53.22895481256138,10.39874564857259,39.6105,0,0.95,55.546875,97.82255668919125,4,5,-9999,3039.847921291667,-0.4813385009765625,0.377899169921875,-0.239959716796875,3039.842924291667,1.350697218807978,-0.6101319215424961,0.0116847369482569,3.922894239425659,2.154466867446899,0.0715090706944465,-0.169861376285553,0.4006920158863068,0.6653416752815247,XArbitraryZVertical,0.192119620126695,-0.2309368366722638,0.5949238191243359,0.7455358296255489,-0.572936475276947,-0.0116844708099961,-0.8195164799690247,0,0,0,-1,-1,3039.58281325,running,2,2022-06-02T10:51:35.304+02:00,2022-06-02T10:17:13.754+02:00,512,1.445976,0,0,397.4887,0,0,2022-06-02T10:51:35.304+02:00,675852695.3042176,0,5.320312,101.3176,1,0.79
264,2022-06-02T10:51:35.580+02:00,1654159891.80054,53.22895481256138,10.39874564857259,39.6105,0,0.95,55.546875,97.82255668919125,4,5,-9999,3039.857915291667,-0.28424072265625,0.3556976318359375,-0.30859375,3039.852918291667,1.372096352697227,-0.5903725261916611,0.0437844357895752,3.789807081222534,1.906235218048096,-0.1772183179855347,0.0747985243797302,0.421669602394104,0.589977502822876,XArbitraryZVertical,0.2004532014709419,-0.211778016939277,0.6010121418675569,0.7441456768356999,-0.5561370253562927,-0.0437704473733902,-0.8299371600151062,0,0,0,-1,-1,3039.58281325,running,2,2022-06-02T10:51:35.304+02:00,2022-06-02T10:17:13.754+02:00,512,1.445976,0,0,397.4887,0,0,2022-06-02T10:51:35.304+02:00,675852695.3042176,0,5.320312,101.3176,1,0.79
265,2022-06-02T10:51:35.590+02:00,1654159891.80054,53.22895481256138,10.39874564857259,39.6105,0,0.95,55.546875,97.82255668919125,4,5,-9999,3039.867909291667,-0.1650543212890625,0.3573760986328125,-0.3633575439453125,3039.862912291667,1.389801145712694,-0.5743737209494979,0.076435090745795,3.617679595947266,1.486008644104004,-0.4455469846725464,0.25748211145401,0.4320583045482635,0.5284878015518188,XArbitraryZVertical,0.2093850501091098,-0.1939514295376258,0.605323393001043,0.7430505681184014,-0.5417227745056152,-0.0763606876134872,-0.8370814919471741,0,0,0,-1,-1,3039.58281325,running,2,2022-06-02T10:51:35.304+02:00,2022-06-02T10:17:13.754+02:00,512,1.445976,0,0,397.4887,0,0,2022-06-02T10:51:35.304+02:00,675852695.3042176,0,5.320312,101.3176,1,0.79
266,2022-06-02T10:51:35.600+02:00,1654159891.80054,53.22895481256138,10.39874564857259,39.6105,0,0.95,55.546875,97.82255668919125,4,5,-9999,3039.877904291667,-0.182586669921875,0.416168212890625,-0.4090118408203125,3039.872906291667,1.404504327535549,-0.5632884509543618,0.1091377540006502,3.472850561141968,1.017786502838135,-0.5894790291786194,0.3657382726669312,0.4662973284721375,0.4771157503128052,XArbitraryZVertical,0.2192581715046313,-0.1780145965371852,0.6079925571605276,0.7420118546876096,-0.5307925343513489,-0.1089212223887444,-0.8404732942581177,0,0,0,-1,-1,3039.58281325,running,2,2022-06-02T10:51:35.304+02:00,2022-06-02T10:17:13.754+02:00,512,1.445976,0,0,397.4887,0,0,2022-06-02T10:51:35.304+02:00,675852695.3042176,0,5.320312,101.3176,1,0.79
