loggingTime(txt),locationTimestamp_since1970(s),locationLatitude(WGS84),locationLongitude(WGS84),locationAltitude(m),locationSpeed(m/s),locationSpeedAccuracy(m/s),locationCourse(°),locationCourseAccuracy(°),locationVerticalAccuracy(m),locationHorizontalAccuracy(m),locationFloor(Z),accelerometerTimestamp_sinceReboot(s),accelerometerAccelerationX(G),accelerometerAccelerationY(G),accelerometerAccelerationZ(G),motionTimestamp_sinceReboot(s),motionYaw(rad),motionRoll(rad),motionPitch(rad),motionRotationRateX(rad/s),motionRotationRateY(rad/s),motionRotationRateZ(rad/s),motionUserAccelerationX(G),motionUserAccelerationY(G),motionUserAccelerationZ(G),motionAttitudeReferenceFrame(txt),motionQuaternionX(R),motionQuaternionY(R),motionQuaternionZ(R),motionQuaternionW(R),motionGravityX(G),motionGravityY(G),motionGravityZ(G),motionMagneticFieldX(µT),motionMagneticFieldY(µT),motionMagneticFieldZ(µT),motionHeading(°),motionMagneticFieldCalibrationAccuracy(Z),activityTimestamp_sinceReboot(s),activity(txt),activityActivityConfidence(Z),activityActivityStartDate(txt),pedometerStartDate(txt),pedometerNumberofSteps(N),pedometerAverageActivePace(s/m),pedometerCurrentPace(s/m),pedometerCurrentCadence(steps/s),pedometerDistance(m),pedometerFloorAscended(N),pedometerFloorDescended(N),pedometerEndDate(txt),altimeterTimestamp_sinceReboot(s),altimeterReset(bool),altimeterRelativeAltitude(m),altimeterPressure(kPa),batteryState(N),batteryLevel(R)
2022-06-02T10:47:45.304+02:00,1654159664.99981,53.22908065161268,10.39850427764146,36.66956,0,20,-1,-1,2.400000095367432,7.999579855010836,-9999,2809.537055625,0.1147003173828125,-0.3404388427734375,-0.9528350830078125,2809.537055625,0.2591293238066951,-0.01787968894813136,0.3443435652406146,0.140699103474617,0.03240141645073891,-0.02002011239528656,0.1243121176958084,0.01915845274925232,-0.01318365335464478,XArbitraryZVertical,0.1710176105811059,0.01340066693615318,0.1257683859215897,0.9771160062141964,-0.01682920567691326,-0.3375788629055023,-0.9411467909812927,0,0,0,-1,-1,2809.410636625,unknown,2,2022-06-02T10:47:45.132+02:00,2022-06-02T10:17:13.754+02:00,465,1.41607,0,0,360.0712,0,0,2022-06-02T10:47:45.132+02:00,675852465.132046,0,7.472656,101.2929,1,0.81
2022-06-02T10:47:45.307+02:00,1654159664.99981,53.22908065161268,10.39850427764146,36.66956,0,20,-1,-1,2.400000095367432,7.999579855010836,-9999,2809.547050625,0.028533935546875,-0.349395751953125,-0.9425201416015625,2809.537055625,0.2591293238066951,-0.01787968894813136,0.3443435652406146,0.140699103474617,0.03240141645073891,-0.02002011239528656,0.1243121176958084,0.01915845274925232,-0.01318365335464478,XArbitraryZVertical,0.1710176105811059,0.01340066693615318,0.1257683859215897,0.9771160062141964,-0.01682920567691326,-0.3375788629055023,-0.9411467909812927,0,0,0,-1,-1,2809.410636625,unknown,2,2022-06-02T10:47:45.132+02:00,2022-06-02T10:17:13.754+02:00,465,1.41607,0,0,360.0712,0,0,2022-06-02T10:47:45.132+02:00,675852465.132046,0,7.472656,101.2929,1,0.81
2022-06-02T10:47:45.321+02:00,1654159664.99981,53.22908065161268,10.39850427764146,36.66956,0,20,-1,-1,2.400000095367432,7.999579855010836,-9999,2809.557044625,-0.0893096923828125,-0.3123016357421875,-0.9419708251953125,2809.547050625,0.2589518968177041,-0.01777450855295412,0.345253376202864,0.04725702852010727,-0.02198699116706848,-0.01729942858219147,0.1054698750376701,-0.01318842172622681,-0.004593491554260254,XArbitraryZVertical,0.1714564895946095,0.01349543126431465,0.125676668838909,0.9770496048720213,-0.01672474853694439,-0.3384351134300232,-0.9408410787582397,0,0,0,-1,-1,2809.410636625,unknown,2,2022-06-02T10:47:45.132+02:00,2022-06-02T10:17:13.754+02:00,465,1.41607,0,0,360.0712,0,0,2022-06-02T10:47:45.132+02:00,675852465.132046,0,7.472656,101.2929,1,0.81
2022-06-02T10:47:45.323+02:00,1654159664.99981,53.22908065161268,10.39850427764146,36.66956,0,20,-1,-1,2.400000095367432,7.999579855010836,-9999,2809.567039625,-0.09222412109375,-0.280517578125,-0.92669677734375,2809.567039625,0.2591594616630538,-0.01752774566118572,0.3459351085831661,0.03719117864966393,0.02919143997132778,0.05264750123023987,-0.08698131144046783,0.04667234420776367,0.007447779178619385,XArbitraryZVertical,0.171772475910752,0.01367767518993782,0.1257887397818202,0.9769770743485409,-0.01648853719234467,-0.3390765488147736,-0.9406142830848694,0,0,0,-1,-1,2809.410636625,unknown,2,2022-06-02T10:47:45.132+02:00,2022-06-02T10:17:13.754+02:00,465,1.41607,0,0,360.0712,0,0,2022-06-02T10:47:45.132+02:00,675852465.132046,0,7.472656,101.2929,1,0.81
2022-06-02T10:47:45.325+02:00,1654159664.99981,53.22908065161268,10.39850427764146,36.66956,0,20,-1,-1,2.400000095367432,7.999579855010836,-9999,2809.577033625,-0.0444793701171875,-0.291595458984375,-0.9462432861328125,2809.567039625,0.2591594616630538,-0.01752774566118572,0.3459351085831661,0.03719117864966393,0.02919143997132778,0.05264750123023987,-0.08698131144046783,0.04667234420776367,0.007447779178619385,XArbitraryZVertical,0.171772475910752,0.01367767518993782,0.1257887397818202,0.9769770743485409,-0.01648853719234467,-0.3390765488147736,-0.9406142830848694,0,0,0,-1,-1,2809.410636625,unknown,2,2022-06-02T10:47:45.132+02:00,2022-06-02T10:17:13.754+02:00,465,1.41607,0,0,360.0712,0,0,2022-06-02T10:47:45.132+02:00,675852465.132046,0,7.472656,101.2929,1,0.81
2022-06-02T10:47:45.326+02:00,1654159664.99981,53.22908065161268,10.39850427764146,36.66956,0,20,-1,-1,2.400000095367432,7.999579855010836,-9999,2809.587027625,-0.0132598876953125,-0.311065673828125,-0.955078125,2809.577033625,0.2597772202274987,-0.01752159487912319,0.3464789459585948,0.05880409479141235,0.0193021260201931,0.05258698016405106,-0.05348202586174011,0.05682745575904846,0.006302058696746826,XArbitraryZVertical,0.1720333841858429,0.01376883291138937,0.1260826327841301,0.9768920340527542,-0.01647951826453209,-0.3395881056785583,-0.9404298663139343,0,0,0,-1,-1,2809.410636625,unknown,2,2022-06-02T10:47:45.132+02:00,2022-06-02T10:17:13.754+02:00,465,1.41607,0,0,360.0712,0,0,2022-06-02T10:47:45.132+02:00,675852465.132046,0,7.472656,101.2929,1,0.81
2022-06-02T10:47:45.328+02:00,1654159664.99981,53.22908065161268,10.39850427764146,36.66956,0,20,-1,-1,2.400000095367432,7.999579855010836,-9999,2809.597023,-0.0101318359375,-0.3267669677734375,-0.976715087890625,2809.587027625,0.2602927324126852,-0.01755768142967224,0.3468091841345476,0.002475308254361153,0.01227936986833811,0.04355300217866898,-0.009413192048668861,0.03901064395904541,-0.01035118103027344,XArbitraryZVertical,0.1721933437295112,0.01381690569567779,0.1263262160049494,0.976831680890152,-0.01651148498058319,-0.3398987054824829,-0.9403170943260193,0,0,0,-1,-1,2809.410636625,unknown,2,2022-06-02T10:47:45.132+02:00,2022-06-02T10:17:13.754+02:00,465,1.41607,0,0,360.0712,0,0,2022-06-02T10:47:45.132+02:00,675852465.132046,0,7.472656,101.2929,1,0.81
2022-06-02T10:47:45.332+02:00,1654159664.99981,53.22908065161268,10.39850427764146,36.66956,0,20,-1,-1,2.400000095367432,7.999579855010836,-9999,2809.607017,-0.0125579833984375,-0.303070068359375,-0.95263671875,2809.597023,0.2607482195928507,-0.01765765561019069,0.346616857507697,-0.03432295098900795,0.007384945172816515,0.0390469990670681,0.007573448121547699,0.0176963210105896,-0.02640080451965332,XArbitraryZVertical,0.172102622561318,0.01379483459106014,0.1265430578317661,0.9768199151395007,-0.01660664565861225,-0.3397178053855896,-0.9403807520866394,0,0,0,-1,-1,2809.410636625,unknown,2,2022-06-02T10:47:45.132+02:00,2022-06-02T10:17:13.754+02:00,465,1.41607,0,0,360.0712,0,0,2022-06-02T10:47:45.132+02:00,675852465.132046,0,7.472656,101.2929,1,0.81
2022-06-02T10:47:45.339+02:00,1654159664.99981,53.22908065161268,10.39850427764146,36.66956,0,20,-1,-1,2.400000095367432,7.999579855010836,-9999,2809.617011,0.0048370361328125,-0.274810791015625,-0.93865966796875,2809.607017,0.2611364273612292,-0.01762995957085953,0.3459698787671014,-0.03762686997652054,0.01305348426103592,0.03770636394619942,0.002149665728211403,0.01910191774368286,-0.02775239944458008,XArbitraryZVertical,0.1717823231417425,0.0137997936683632,0.1267450842653278,0.9768500302559331,-0.01658447273075581,-0.3391092419624329,-0.9406008124351501,0,0,0,-1,-1,2809.410636625,unknown,2,2022-06-02T10:47:45.132+02:00,2022-06-02T10:17:13.754+02:00,465,1.41607,0,0,360.0712,0,0,2022-06-02T10:47:45.132+02:00,675852465.132046,0,7.472656,101.2929,1,0.81
2022-06-02T10:47:45.349+02:00,1654159664.99981,53.22908065161268,10.39850427764146,36.66956,0,20,-1,-1,2.400000095367432,7.999579855010836,-9999,2809.627006,0.017059326171875,-0.28692626953125,-0.926727294921875,2809.617011,0.2614905481538728,-0.0174400890348763,0.3457524393363347,0.0135347843170166,-0.001551957102492452,0.04675618559122086,0.01173798181116581,0.05396205186843872,-0.002040863037109375,XArbitraryZVertical,0.1716616546907792,0.01390881591615113,0.1269377060639321,0.9768447643814907,-0.01640716567635536,-0.3389046788215637,-0.9406776428222656,0,0,0,-1,-1,2809.410636625,unknown,2,2022-06-02T10:47:45.132+02:00,2022-06-02T10:17:13.754+02:00,465,1.41607,0,0,360.0712,0,0,2022-06-02T10:47:45.132+02:00,675852465.132046,0,7.472656,101.2929,1,0.81
2022-06-02T10:47:45.359+02:00,1654159664.99981,53.22908065161268,10.39850427764146,36.66956,0,20,-1,-1,2.400000095367432,7.999579855010836,-9999,2809.637,0.018798828125,-0.318939208984375,-0.9278106689453125,2809.627006,0.2618123532429908,-0.01746111823935039,0.3461709928606647,0.0639050155878067,-0.024030901491642,0.02482718601822853,0.02916556037962437,0.06398409605026245,0.009779810905456543,XArbitraryZVertical,0.1718650901118555,0.01395338558247008,0.1270865890613957,0.9767890069559361,-0.01642446964979172,-0.33929842710495,-0.9405353665351868,0,0,0,-1,-1,2809.410636625,unknown,2,2022-06-02T10:47:45.132+02:00,2022-06-02T10:17:13.754+02:00,465,1.41607,0,0,360.0712,0,0,2022-06-02T10:47:45.132+02:00,675852465.132046,0,7.472656,101.2929,1,0.81
2022-06-02T10:47:45.369+02:00,1654159664.99981,53.22908065161268,10.39850427764146,36.66956,0,20,-1,-1,2.400000095367432,7.999579855010836,-9999,2809.646994,-0.0005645751953125,-0.32586669921875,-0.936370849609375,2809.637,0.2620555276997598,-0.01798260465199387,0.3469256748445372,0.08094091713428497,-0.05000884085893631,0.01683836802840233,0.03914239257574081,0.03519865870475769,0.01062870025634766,XArbitraryZVertical,0.1722649790418885,0.01376873905872535,0.1271487320382028,0.9767130290929006,-0.01691033318638802,-0.3400082588195801,-0.9402704238891602,0,0,0,-1,-1,2809.410636625,unknown,2,2022-06-02T10:47:45.132+02:00,2022-06-02T10:17:13.754+02:00,465,1.41607,0,0,360.0712,0,0,2022-06-02T10:47:45.132+02:00,675852465.132046,0,7.472656,101.2929,1,0.81
2022-06-02T10:47:45.379+02:00,1654159664.99981,53.22908065161268,10.39850427764146,36.66956,0,20,-1,-1,2.400000095367432,7.999579855010836,-9999,2809.656989,-0.017608642578125,-0.311431884765625,-0.9591064453125,2809.646994,0.2623668307932924,-0.01887720418938543,0.347447620145016,0.04228966683149338,-0.06644373387098312,0.02774587646126747,0.02815463952720165,0.01335060596466064,0.01103073358535767,XArbitraryZVertical,0.172574524462953,0.0133927176531795,0.1272153842308707,0.976654980644148,-0.0177481397986412,-0.3404990434646606,-0.9400773644447327,0,0,0,-1,-1,2809.410636625,unknown,2,2022-06-02T10:47:45.132+02:00,2022-06-02T10:17:13.754+02:00,465,1.41607,0,0,360.0712,0,0,2022-06-02T10:47:45.132+02:00,675852465.132046,0,7.472656,101.2929,1,0.81
2022-06-02T10:47:45.389+02:00,1654159664.99981,53.22908065161268,10.39850427764146,36.66956,0,20,-1,-1,2.400000095367432,7.999579855010836,-9999,2809.666983,-0.022125244140625,-0.2693328857421875,-0.9764404296875,2809.656989,0.2627692029323929,-0.01980817593102233,0.3475245876654898,0.004017578437924385,-0.06802286207675934,0.03684869408607483,0.008231569081544876,0.02013683319091797,-0.005140960216522217,XArbitraryZVertical,0.1726686986764188,0.0129778643812638,0.1273302945363785,0.9766288749672472,-0.01862279884517193,-0.3405714333057404,-0.9400342106819153,0,0,0,-1,-1,2809.410636625,unknown,2,2022-06-02T10:47:45.132+02:00,2022-06-02T10:17:13.754+02:00,465,1.41607,0,0,360.0712,0,0,2022-06-02T10:47:45.132+02:00,675852465.132046,0,7.472656,101.2929,1,0.81
2022-06-02T10:47:45.399+02:00,1654159664.99981,53.22908065161268,10.39850427764146,36.66956,0,20,-1,-1,2.400000095367432,7.999579855010836,-9999,2809.676977,-0.0178985595703125,-0.2406005859375,-0.988372802734375,2809.666983,0.2632227099678716,-0.02064143836116415,0.347415612639401,0.0005338974297046661,-0.06337537616491318,0.04349834471940994,-0.001009400933980942,0.04782065749168396,-0.0326617956161499,XArbitraryZVertical,0.1726656882398806,0.01260299430663392,0.1274815794411728,0.9766145963147593,-0.01940685324370861,-0.3404689729213715,-0.9400554299354553,0,0,0,-1,-1,2809.410636625,unknown,2,2022-06-02T10:47:45.132+02:00,2022-06-02T10:17:13.754+02:00,465,1.41607,0,0,360.0712,0,0,2022-06-02T10:47:45.132+02:00,675852465.132046,0,7.472656,101.2929,1,0.81
2022-06-02T10:47:45.409+02:00,1654159664.99981,53.22908065161268,10.39850427764146,36.66956,0,20,-1,-1,2.400000095367432,7.999579855010836,-9999,2809.686972,-0.015350341796875,-0.25616455078125,-1.011306762695312,2809.676977,0.263625759107896,-0.02129581883695538,0.3472524446166291,0.01775822415947914,-0.05703958496451378,0.03844992071390152,-0.0005151405930519104,0.09069699048995972,-0.0395771861076355,XArbitraryZVertical,0.1726252643567459,0.01230754604960077,0.1276245813627056,0.9766068955876832,-0.02002318575978279,-0.3403155505657196,-0.9400981068611145,0,0,0,-1,-1,2809.410636625,unknown,2,2022-06-02T10:47:45.132+02:00,2022-06-02T10:17:13.754+02:00,465,1.41607,0,0,360.0712,0,0,2022-06-02T10:47:45.132+02:00,675852465.132046,0,7.472656,101.2929,1,0.81
2022-06-02T10:47:45.419+02:00,1654159664.99981,53.22908065161268,10.39850427764146,36.66956,0,20,-1,-1,2.400000095367432,7.999579855010836,-9999,2809.696966,-0.0198211669921875,-0.2765350341796875,-0.9897003173828125,2809.686972,0.2639395178605495,-0.02187631193755523,0.3472783234233801,0.03341361880302429,-0.04581116512417793,0.02092179283499718,0.005187854170799255,0.09604665637016296,-0.06515628099441528,XArbitraryZVertical,0.1726730397252206,0.01205287643742063,0.1277272471463741,0.9765882125351654,-0.02056870982050896,-0.340339869260788,-0.9400774836540222,0,0,0,-1,-1,2809.410636625,unknown,2,2022-06-02T10:47:45.132+02:00,2022-06-02T10:17:13.754+02:00,465,1.41607,0,0,360.0712,0,0,2022-06-02T10:47:45.132+02:00,675852465.132046,0,7.472656,101.2929,1,0.81
2022-06-02T10:47:45.429+02:00,1654159664.99981,53.22908065161268,10.39850427764146,36.66956,0,20,-1,-1,2.400000095367432,7.999579855010836,-9999,2809.70696,-0.0225067138671875,-0.2940826416015625,-0.984130859375,2809.696966,0.2639651382004952,-0.02206383639059678,0.3466323245005895,-0.006526408717036247,-0.03336820751428604,0.0008877646178007126,0.00312594510614872,0.07232207059860229,-0.06004244089126587,XArbitraryZVertical,0.1723695892248228,0.01192104960299941,0.1277343907548982,0.97664243449777,-0.02074984274804592,-0.3397323787212372,-0.9402932524681091,0,0,0,-1,-1,2809.410636625,unknown,2,2022-06-02T10:47:45.132+02:00,2022-06-02T10:17:13.754+02:00,465,1.41607,0,0,360.0712,0,0,2022-06-02T10:47:45.132+02:00,675852465.132046,0,7.472656,101.2929,1,0.81
2022-06-02T10:47:45.439+02:00,1654159664.99981,53.22908065161268,10.39850427764146,36.66956,0,20,-1,-1,2.400000095367432,7.999579855010836,-9999,2809.716955,-0.018463134765625,-0.301116943359375,-0.9622802734375,2809.70696,0.2635522018081199,-0.021395736328976,0.3449798724138831,-0.01948987692594528,-0.02283940277993679,-0.01808672584593296,-0.001411795616149902,0.05134299397468567,-0.04630047082901001,XArbitraryZVertical,0.1715228341605672,0.01210327259980154,0.1276176262266219,0.9768045036233087,-0.0201336108148098,-0.3381777405738831,-0.9408668279647827,0,0,0,-1,-1,2809.410636625,unknown,2,2022-06-02T10:47:45.132+02:00,2022-06-02T10:17:13.754+02:00,465,1.41607,0,0,360.0712,0,0,2022-06-02T10:47:45.132+02:00,675852465.132046,0,7.472656,101.2929,1,0.81
2022-06-02T10:47:45.449+02:00,1654159664.99981,53.22908065161268,10.39850427764146,36.66956,0,20,-1,-1,2.400000095367432,7.999579855010836,-9999,2809.726949,-0.0111236572265625,-0.31536865234375,-0.96356201171875,2809.716955,0.2627961205731959,-0.02030094226884751,0.3440267262739332,-0.02495947852730751,-0.02417071722447872,-0.04567573964595795,-0.001809712499380112,0.03836092352867126,-0.03272777795791626,XArbitraryZVertical,0.1709923862773244,0.01251082161798552,0.1273576537402572,0.9769262325009064,-0.01911007799208164,-0.3372806012630463,-0.941210150718689,0,0,0,-1,-1,2809.410636625,unknown,2,2022-06-02T10:47:45.132+02:00,2022-06-02T10:17:13.754+02:00,465,1.41607,0,0,360.0712,0,0,2022-06-02T10:47:45.132+02:00,675852465.132046,0,7.472656,101.2929,1,0.81
2022-06-02T10:47:45.459+02:00,1654159664.99981,53.22908065161268,10.39850427764146,36.66956,0,20,-1,-1,2.400000095367432,7.999579855010836,-9999,2809.736943,-0.011199951171875,-0.3533935546875,-0.96051025390625,2809.726949,0.2617657331016225,-0.01919789267446971,0.3436015189260788,-0.03793173655867577,-0.04599479213356972,-0.06924604624509811,0.003517737612128258,0.03175023198127747,-0.01989918947219849,XArbitraryZVertical,0.1707211794191603,0.01293387061642215,0.1269553487639414,0.9770206127274386,-0.01807461678981781,-0.3368802666664124,-0.9413740038871765,0,0,0,-1,-1,2809.410636625,unknown,2,2022-06-02T10:47:45.132+02:00,2022-06-02T10:17:13.754+02:00,465,1.41607,0,0,360.0712,0,0,2022-06-02T10:47:45.132+02:00,675852465.132046,0,7.472656,101.2929,1,0.81
2022-06-02T10:47:45.469+02:00,1654159664.99981,53.22908065161268,10.39850427764146,36.66956,0,20,-1,-1,2.400000095367432,7.999579855010836,-9999,2809.746938,-0.0114288330078125,-0.35565185546875,-0.969757080078125,2809.736943,0.2607529979504835,-0.0190834895755811,0.3425772049622641,-0.05872463434934616,-0.04921641200780869,-0.1028119996190071,0.008879264816641808,0.004647344350814819,-0.01767575740814209,XArbitraryZVertical,0.1702202426141728,0.01283687941068118,0.1264865032416361,0.9771701204816089,-0.01797349564731121,-0.3359156548976898,-0.9417205452919006,0,0,0,-1,-1,2809.410636625,unknown,2,2022-06-02T10:47:45.132+02:00,2022-06-02T10:17:13.754+02:00,465,1.41607,0,0,360.0712,0,0,2022-06-02T10:47:45.132+02:00,675852465.132046,0,7.472656,101.2929,1,0.81
2022-06-02T10:47:45.479+02:00,1654159664.99981,53.22908065161268,10.39850427764146,36.66956,0,20,-1,-1,2.400000095367432,7.999579855010836,-9999,2809.756932,-0.0069580078125,-0.310333251953125,-1.002243041992188,2809.746938,0.2596115229959235,-0.01933564654733301,0.3406688721226609,-0.09492125362157822,-0.06094843521714211,-0.1153237968683243,0.005070244893431664,-0.0308573842048645,-0.02276319265365601,XArbitraryZVertical,0.1693112920027783,0.01249325595558782,0.125937318138058,0.9774034017280665,-0.01822331920266151,-0.334117591381073,-0.942355215549469,0,0,0,-1,-1,2809.410636625,unknown,2,2022-06-02T10:47:45.132+02:00,2022-06-02T10:17:13.754+02:00,465,1.41607,0,0,360.0712,0,0,2022-06-02T10:47:45.132+02:00,675852465.132046,0,7.472656,101.2929,1,0.81
2022-06-02T10:47:45.489+02:00,1654159664.99981,53.22908065161268,10.39850427764146,36.66956,0,20,-1,-1,2.400000095367432,7.999579855010836,-9999,2809.766927,-0.0104522705078125,-0.2860565185546875,-1.020980834960938,2809.756932,0.2583347909353921,-0.01967692775882362,0.3377119522784492,-0.09223482757806778,-0.06684473901987076,-0.1308590173721313,0.01023299247026443,-0.002533107995986938,-0.03983694314956665,XArbitraryZVertical,0.1678959094407405,0.01202824685076511,0.1253308286351336,0.9777311854507191,-0.01856428198516369,-0.3313291668891907,-0.9433325529098511,0,0,0,-1,-1,2809.410636625,unknown,2,2022-06-02T10:47:45.132+02:00,2022-06-02T10:17:13.754+02:00,465,1.41607,0,0,360.0712,0,0,2022-06-02T10:47:45.132+02:00,675852465.132046,0,7.472656,101.2929,1,0.81
2022-06-02T10:47:45.504+02:00,1654159664.99981,53.22908065161268,10.39850427764146,36.66956,0,20,-1,-1,2.400000095367432,7.999579855010836,-9999,2809.776921,-0.0163421630859375,-0.2891082763671875,-1.034011840820312,2809.766927,0.2567565160008908,-0.01980871441746148,0.3348199117082123,-0.05594285950064659,-0.06203294545412064,-0.1693419516086578,0.01193260587751865,0.03563034534454346,-0.07147812843322754,XArbitraryZVertical,0.1665000263181056,0.01164642941311699,0.1245931369775998,0.9780687852010665,-0.01870750263333321,-0.3285990953445435,-0.944284200668335,0,0,0,-1,-1,2809.410636625,unknown,2,2022-06-02T10:47:45.132+02:00,2022-06-02T10:17:13.754+02:00,465,1.41607,0,0,360.0712,0,0,2022-06-02T10:47:45.132+02:00,675852465.132046,0,7.472656,101.2929,1,0.81
2022-06-02T10:47:45.509+02:00,1654159664.99981,53.22908065161268,10.39850427764146,36.66956,0,20,-1,-1,2.400000095367432,7.999579855010836,-9999,2809.786915,-0.0324554443359375,-0.2888641357421875,-1.008132934570312,2809.776921,0.2547631231458852,-0.01981438565165258,0.3329029237352366,-0.01313527580350637,-0.05784126371145248,-0.2060865312814713,0.005907924845814705,0.04030418395996094,-0.08176016807556152,XArbitraryZVertical,0.1655746362175738,0.01135606886234246,0.1236472843996957,0.9783492846818868,-0.01872530393302441,-0.3267879486083984,-0.9449121356010437,0,0,0,-1,-1,2809.410636625,unknown,2,2022-06-02T10:47:45.132+02:00,2022-06-02T10:17:13.754+02:00,465,1.41607,0,0,360.0712,0,0,2022-06-02T10:47:45.132+02:00,675852465.132046,0,7.472656,101.2929,1,0.81
2022-06-02T10:47:45.519+02:00,1654159664.99981,53.22908065161268,10.39850427764146,36.66956,0,20,-1,-1,2.400000095367432,7.999579855010836,-9999,2809.79691,-0.0401458740234375,-0.295196533203125,-0.987701416015625,2809.786915,0.2525329692770893,-0.0196670594245817,0.3319799175447328,-0.0004213452339172363,-0.03756608441472054,-0.2219198197126389,-0.004708144813776016,0.03689876198768616,-0.08154779672622681,XArbitraryZVertical,0.165126759061387,0.01118545092292789,0.1225825211970095,0.9785609496496457,-0.01859201863408089,-0.3259154856204987,-0.9452160596847534,0,0,0,-1,-1,2809.410636625,unknown,2,2022-06-02T10:47:45.132+02:00,2022-06-02T10:17:13.754+02:00,465,1.41607,0,0,360.0712,0,0,2022-06-02T10:47:45.132+02:00,675852465.132046,0,7.472656,101.2929,1,0.81
2022-06-02T10:47:45.529+02:00,1654159664.99981,53.22908065161268,10.39850427764146,36.66956,0,20,-1,-1,2.400000095367432,7.999579855010836,-9999,2809.806904,-0.046295166015625,-0.3157501220703125,-0.9834442138671875,2809.79691,0.2501547218311159,-0.01932336266475878,0.3314651675611736,-0.007972970604896545,-0.03597291558980942,-0.2306846082210541,-0.01804552413523197,0.03638154268264771,-0.04888790845870972,XArbitraryZVertical,0.1648672908650892,0.01112520670545898,0.1214549250885353,0.9787458951094636,-0.01827038824558258,-0.3254287838935852,-0.945389986038208,0,0,0,-1,-1,2809.410636625,unknown,2,2022-06-02T10:47:45.132+02:00,2022-06-02T10:17:13.754+02:00,465,1.41607,0,0,360.0712,0,0,2022-06-02T10:47:45.132+02:00,675852465.132046,0,7.472656,101.2929,1,0.81
2022-06-02T10:47:45.539+02:00,1654159664.99981,53.22908065161268,10.39850427764146,36.66956,0,20,-1,-1,2.400000095367432,7.999579855010836,-9999,2809.816898,-0.0498199462890625,-0.3303985595703125,-0.96197509765625,2809.806904,0.2476190884307963,-0.01882882988086793,0.3310185674165371,-0.03130119666457176,-0.03571512177586555,-0.2435631304979324,-0.02629230171442032,0.01966282725334167,-0.04317957162857056,XArbitraryZVertical,0.1646330296884788,0.01113068418725911,0.1202613286670429,0.978932620359603,-0.01780559495091438,-0.3250064551830292,-0.9455441236495972,0,0,0,-1,-1,2809.410636625,unknown,2,2022-06-02T10:47:45.132+02:00,2022-06-02T10:17:13.754+02:00,465,1.41607,0,0,360.0712,0,0,2022-06-02T10:47:45.132+02:00,675852465.132046,0,7.472656,101.2929,1,0.81
2022-06-02T10:47:45.549+02:00,1654159664.99981,53.22908065161268,10.39850427764146,36.66956,0,20,-1,-1,2.400000095367432,7.999579855010836,-9999,2809.826893,-0.0431671142578125,-0.3009185791015625,-0.9286346435546875,2809.816898,0.2449275076953389,-0.01821145856890541,0.3307306510469107,-0.03832858055830002,-0.03545832633972168,-0.2537676095962524,-0.03036861680448055,-0.002978861331939697,-0.02957123517990112,XArbitraryZVertical,0.1644702349055654,0.01119378389473268,0.118998776862594,0.9791135632164721,-0.01722354255616665,-0.3247341811656952,-0.9456484913825989,0,0,0,-1,-1,2809.410636625,unknown,2,2022-06-02T10:47:45.132+02:00,2022-06-02T10:17:13.754+02:00,465,1.41607,0,0,360.0712,0,0,2022-06-02T10:47:45.132+02:00,675852465.132046,0,7.472656,101.2929,1,0.81
2022-06-02T10:47:45.559+02:00,1654159664.99981,53.22908065161268,10.39850427764146,36.66956,0,20,-1,-1,2.400000095367432,7.999579855010836,-9999,2809.836887,-0.026031494140625,-0.2741241455078125,-0.9267578125,2809.826893,0.2421887730803814,-0.01763601840557777,0.3307864348103771,-0.03653547167778015,-0.04887746274471283,-0.2539734840393066,-0.0320880301296711,0.003558903932571411,0.005286753177642822,XArbitraryZVertical,0.1644788421425664,0.01125366990229106,0.1177044168787415,0.9792679448575905,-0.0166790559887886,-0.3247869312763214,-0.9456401467323303,0,0,0,-1,-1,2809.410636625,unknown,2,2022-06-02T10:47:45.132+02:00,2022-06-02T10:17:13.754+02:00,465,1.41607,0,0,360.0712,0,0,2022-06-02T10:47:45.132+02:00,675852465.132046,0,7.472656,101.2929,1,0.81
2022-06-02T10:47:45.569+02:00,1654159664.99981,53.22908065161268,10.39850427764146,36.66956,0,20,-1,-1,2.400000095367432,7.999579855010836,-9999,2809.846881,-0.0137481689453125,-0.285308837890625,-0.9273529052734375,2809.836887,0.2394556241386535,-0.01721165033562423,0.3306084098403464,0.001080744434148073,-0.06901948153972626,-0.2561447620391846,-0.01780937984585762,0.04150694608688354,0.01835203170776367,XArbitraryZVertical,0.1643822194062193,0.01122609342352703,0.1164034640156859,0.9794399865620316,-0.01627874933183193,-0.3246185481548309,-0.9457049369812012,0,0,0,-1,-1,2809.410636625,unknown,2,2022-06-02T10:47:45.132+02:00,2022-06-02T10:17:13.754+02:00,465,1.41607,0,0,360.0712,0,0,2022-06-02T10:47:45.132+02:00,675852465.132046,0,7.472656,101.2929,1,0.81
2022-06-02T10:47:45.579+02:00,1654159664.99981,53.22908065161268,10.39850427764146,36.66956,0,20,-1,-1,2.400000095367432,7.999579855010836,-9999,2809.856876,-0.0117340087890625,-0.323638916015625,-0.9327239990234375,2809.846881,0.2365910128130499,-0.01699742757597009,0.3298970317669507,0.008162888698279858,-0.1029220595955849,-0.2765328586101532,-0.004549797624349594,0.04823455214500427,0.02053928375244141,XArbitraryZVertical,0.1640374930967106,0.01105366690722688,0.1150279632374197,0.9796621696661065,-0.01608007960021496,-0.3239456117153168,-0.9459390640258789,0,0,0,-1,-1,2809.410636625,unknown,2,2022-06-02T10:47:45.132+02:00,2022-06-02T10:17:13.754+02:00,465,1.41607,0,0,360.0712,0,0,2022-06-02T10:47:45.132+02:00,675852465.132046,0,7.472656,101.2929,1,0.81
2022-06-02T10:47:45.589+02:00,1654159664.99981,53.22908065161268,10.39850427764146,36.66956,0,20,-1,-1,2.400000095367432,7.999579855010836,-9999,2809.86687,-0.0289459228515625,-0.3482666015625,-0.9334259033203125,2809.856876,0.2335288593796411,-0.0171849817341953,0.3286309423938208,-0.05440565198659897,-0.1343020051717758,-0.2972451150417328,0.006163213402032852,0.02024203538894653,0.01595592498779297,XArbitraryZVertical,0.1634447709488115,0.01063698093362716,0.1135299258534364,0.9799405189912926,-0.01626452803611755,-0.322747528553009,-0.946345329284668,0,0,0,-1,-1,2809.410636625,unknown,2,2022-06-02T10:47:45.132+02:00,2022-06-02T10:17:13.754+02:00,465,1.41607,0,0,360.0712,0,0,2022-06-02T10:47:45.132+02:00,675852465.132046,0,7.472656,101.2929,1,0.81
2022-06-02T10:47:45.599+02:00,1654159664.99981,53.22908065161268,10.39850427764146,36.66956,0,20,-1,-1,2.400000095367432,7.999579855010836,-9999,2809.876864,-0.0479888916015625,-0.335357666015625,-0.93206787109375,2809.86687,0.2303553834100765,-0.01777657842840265,0.3266274509946969,-0.1579759865999222,-0.1529404073953629,-0.3142784237861633,-0.002191862091422081,-0.01935935020446777,0.01254719495773315,XArbitraryZVertical,0.1625129556338081,0.009972678419071589,0.1119540037826422,0.9802838599420871,-0.01683584041893482,-0.3208506107330322,-0.9469801783561707,0,0,0,-1,-1,2809.410636625,unknown,2,2022-06-02T10:47:45.132+02:00,2022-06-02T10:17:13.754+02:00,465,1.41607,0,0,360.0712,0,0,2022-06-02T10:47:45.132+02:00,675852465.132046,0,7.472656,101.2929,1,0.81
2022-06-02T10:47:45.609+02:00,1654159664.99981,53.22908065161268,10.39850427764146,36.66956,0,20,-1,-1,2.400000095367432,7.999579855010836,-9999,2809.886859,-0.060791015625,-0.2975616455078125,-0.9499664306640625,2809.876864,0.2270803866431335,-0.018723011755905,0.3239318471259821,-0.2377581000328064,-0.1668656766414642,-0.3253362774848938,-0.02180255949497223,-0.0277729332447052,0.01667279005050659,XArbitraryZVertical,0.1612601216363906,0.009089871786706179,0.1103088228901657,0.9806856733120105,-0.01774821430444717,-0.3182963728904724,-0.9478250741958618,0,0,0,-1,-1,2809.410636625,unknown,2,2022-06-02T10:47:45.132+02:00,2022-06-02T10:17:13.754+02:00,465,1.41607,0,0,360.0712,0,0,2022-06-02T10:47:45.132+02:00,675852465.132046,0,7.472656,101.2929,1,0.81
2022-06-02T10:47:45.619+02:00,1654159664.99981,53.22908065161268,10.39850427764146,36.66956,0,20,-1,-1,2.400000095367432,7.999579855010836,-9999,2809.896853,-0.073150634765625,-0.25616455078125,-0.95220947265625,2809.886859,0.2237005567515423,-0.01986808055886868,0.3213842499020468,-0.1846437454223633,-0.1825128197669983,-0.3384158611297607,-0.03634145855903625,-0.003181010484695435,0.01301920413970947,XArbitraryZVertical,0.1600883238705186,0.008113415917356193,0.1085942882527901,0.9810774733746369,-0.0188495758920908,-0.3158802390098572,-0.9486117959022522,0,0,0,-1,-1,2809.410636625,unknown,2,2022-06-02T10:47:45.132+02:00,2022-06-02T10:17:13.754+02:00,465,1.41607,0,0,360.0712,0,0,2022-06-02T10:47:45.132+02:00,675852465.132046,0,7.472656,101.2929,1,0.81
2022-06-02T10:47:45.629+02:00,1654159664.99981,53.22908065161268,10.39850427764146,36.66956,0,20,-1,-1,2.400000095367432,7.999579855010836,-9999,2809.906848,-0.0901641845703125,-0.25665283203125,-0.93072509765625,2809.896853,0.2199961445553324,-0.02065372922448614,0.3204295337299862,-0.03254555910825729,-0.2013067454099655,-0.3642528057098389,-0.04569128900766373,0.04022449254989624,-0.01054435968399048,XArbitraryZVertical,0.1596767272266251,0.007378901843449096,0.1067272433532368,0.9813552856217141,-0.01960106566548347,-0.3149742484092712,-0.9488977789878845,0,0,0,-1,-1,2809.410636625,unknown,2,2022-06-02T10:47:45.132+02:00,2022-06-02T10:17:13.754+02:00,465,1.41607,0,0,360.0712,0,0,2022-06-02T10:47:45.132+02:00,675852465.132046,0,7.472656,101.2929,1,0.81
2022-06-02T10:47:45.639+02:00,1654159664.99981,53.22908065161268,10.39850427764146,36.66956,0,20,-1,-1,2.400000095367432,7.999579855010836,-9999,2809.916842,-0.1059722900390625,-0.31591796875,-0.909698486328125,2809.906848,0.2160625508647099,-0.02155468508397688,0.3209064772015954,0.08569665998220444,-0.2223561108112335,-0.3879370987415314,-0.06185317039489746,0.06593042612075806,0.006606042385101318,XArbitraryZVertical,0.1599721080039502,0.006648452140369981,0.1047183377715283,0.9815287981401379,-0.02045273222029209,-0.3154268860816956,-0.9487294554710388,0,0,0,-1,-1,2809.410636625,unknown,2,2022-06-02T10:47:45.132+02:00,2022-06-02T10:17:13.754+02:00,465,1.41607,0,0,360.0712,0,0,2022-06-02T10:47:45.132+02:00,675852465.132046,0,7.472656,101.2929,1,0.81
2022-06-02T10:47:45.649+02:00,1654159664.99981,53.22908065161268,10.39850427764146,36.66956,0,20,-1,-1,2.400000095367432,7.999579855010836,-9999,2809.926836,-0.1071929931640625,-0.365203857421875,-0.900482177734375,2809.916842,0.211887683556335,-0.02247183149157127,0.321989987956548,0.08283226191997528,-0.2211683988571167,-0.4086649417877197,-0.07608168572187424,0.03634929656982422,0.02959060668945312,XArbitraryZVertical,0.1605643408329794,0.005921819218023241,0.1025807169430934,0.9816624694254303,-0.02131515555083752,-0.3164549171924591,-0.9483680725097656,0,0,0,-1,-1,2809.410636625,unknown,2,2022-06-02T10:47:45.132+02:00,2022-06-02T10:17:13.754+02:00,465,1.41607,0,0,360.0712,0,0,2022-06-02T10:47:45.132+02:00,675852465.132046,0,7.472656,101.2929,1,0.81
2022-06-02T10:47:45.659+02:00,1654159664.99981,53.22908065161268,10.39850427764146,36.66956,0,20,-1,-1,2.400000095367432,7.999579855010836,-9999,2809.936831,-0.09979248046875,-0.3753814697265625,-0.9206695556640625,2809.926836,0.2076012678497723,-0.02332999921215305,0.322390246295501,-0.04786928743124008,-0.2193643748760223,-0.4045098721981049,-0.08637919276952744,-0.03073015809059143,0.04705387353897095,XArbitraryZVertical,0.1608161870325746,0.005177213155742276,0.1004020499950359,0.9818506659485975,-0.02212604880332947,-0.316834568977356,-0.9482226967811584,0,0,0,-1,-1,2809.410636625,unknown,2,2022-06-02T10:47:45.132+02:00,2022-06-02T10:17:13.754+02:00,465,1.41607,0,0,360.0712,0,0,2022-06-02T10:47:45.132+02:00,675852465.132046,0,7.472656,101.2929,1,0.81
2022-06-02T10:47:45.669+02:00,1654159664.99981,53.22908065161268,10.39850427764146,36.66956,0,20,-1,-1,2.400000095367432,7.999579855010836,-9999,2809.946825,-0.092987060546875,-0.3859100341796875,-0.939453125,2809.936831,0.20329335257967,-0.02419792372979567,0.3212588468990172,-0.2074178010225296,-0.218010425567627,-0.414469301700592,-0.0799475833773613,-0.05609545111656189,0.03867930173873901,XArbitraryZVertical,0.1603142533918831,0.004346884753422036,0.09823307355378567,0.9821560801824737,-0.02295768447220325,-0.3157612383365631,-0.948560893535614,0,0,0,-1,-1,2809.410636625,unknown,2,2022-06-02T10:47:45.132+02:00,2022-06-02T10:17:13.754+02:00,465,1.41607,0,0,360.0712,0,0,2022-06-02T10:47:45.132+02:00,675852465.132046,0,7.472656,101.2929,1,0.81
2022-06-02T10:47:45.679+02:00,1654159664.99981,53.22908065161268,10.39850427764146,36.66956,0,20,-1,-1,2.400000095367432,7.999579855010836,-9999,2809.956819,-0.088714599609375,-0.376373291015625,-0.9509429931640625,2809.946825,0.1986538630652941,-0.02487621581202364,0.3187853201671516,-0.3143005669116974,-0.2062994539737701,-0.4599036276340485,-0.07359330356121063,-0.06765967607498169,0.01879626512527466,XArbitraryZVertical,0.1591418203728776,0.003518307332089968,0.09593472568167288,0.9825772235332457,-0.02362043596804142,-0.3134133219718933,-0.9493229985237122,0,0,0,-1,-1,2809.410636625,unknown,2,2022-06-02T10:47:45.132+02:00,2022-06-02T10:17:13.754+02:00,465,1.41607,0,0,360.0712,0,0,2022-06-02T10:47:45.132+02:00,675852465.132046,0,7.472656,101.2929,1,0.81
2022-06-02T10:47:45.689+02:00,1654159664.99981,53.22908065161268,10.39850427764146,36.66956,0,20,-1,-1,2.400000095367432,7.999579855010836,-9999,2809.966814,-0.091217041015625,-0.345428466796875,-0.9451751708984375,2809.956819,0.1935671418139838,-0.02534915884136481,0.3155090610581293,-0.372623085975647,-0.1987399160861969,-0.4869601428508759,-0.066206194460392,-0.07536545395851135,0.004364550113677979,XArbitraryZVertical,0.1575627851976367,0.002721571867564518,0.09344313362460736,0.9830742065077167,-0.02409530617296696,-0.3103004395961761,-0.9503331184387207,0,0,0,-1,-1,2809.410636625,unknown,2,2022-06-02T10:47:45.132+02:00,2022-06-02T10:17:13.754+02:00,465,1.41607,0,0,360.0712,0,0,2022-06-02T10:47:45.132+02:00,675852465.132046,0,7.472656,101.2929,1,0.81
2022-06-02T10:47:45.699+02:00,1654159664.99981,53.22908065161268,10.39850427764146,36.66956,0,20,-1,-1,2.400000095367432,7.999579855010836,-9999,2809.976808,-0.0910797119140625,-0.31829833984375,-0.9232025146484375,2809.966814,0.1882951804348109,-0.0256581150081261,0.3120853149170174,-0.3385356962680817,-0.1812360286712646,-0.5001552700996399,-0.06463425606489182,-0.05371966958045959,-0.001391887664794922,XArbitraryZVertical,0.1559005470858356,0.001991971958145103,0.09087384400709687,0.983581701792301,-0.02441602945327759,-0.3070438802242279,-0.9513821005821228,0,0,0,-1,-1,2809.410636625,unknown,2,2022-06-02T10:47:45.132+02:00,2022-06-02T10:17:13.754+02:00,465,1.41607,0,0,360.0712,0,0,2022-06-02T10:47:45.132+02:00,675852465.132046,0,7.472656,101.2929,1,0.81
2022-06-02T10:47:45.709+02:00,1654159664.99981,53.22908065161268,10.39850427764146,36.66956,0,20,-1,-1,2.400000095367432,7.999579855010836,-9999,2809.986802,-0.0807037353515625,-0.304534912109375,-0.90301513671875,2809.976808,0.182846343086119,-0.02574033380684215,0.3093439266451088,-0.2447589784860611,-0.1639193594455719,-0.5210328698158264,-0.06735733151435852,-0.02776533365249634,0.01879209280014038,XArbitraryZVertical,0.1545608615955556,0.001400444678911409,0.08822413472226179,0.9840352239705064,-0.02451582252979279,-0.3044337630271912,-0.9522179365158081,0,0,0,-1,-1,2809.410636625,unknown,2,2022-06-02T10:47:45.132+02:00,2022-06-02T10:17:13.754+02:00,465,1.41607,0,0,360.0712,0,0,2022-06-02T10:47:45.132+02:00,675852465.132046,0,7.472656,101.2929,1,0.81
2022-06-02T10:47:45.719+02:00,1654159664.99981,53.22908065161268,10.39850427764146,36.66956,0,20,-1,-1,2.400000095367432,7.999579855010836,-9999,2809.996797,-0.072052001953125,-0.3193206787109375,-0.87713623046875,2809.986802,0.1772529205156095,-0.02567751799955885,0.3076768427337038,-0.1329666823148727,-0.1578910350799561,-0.5384470224380493,-0.06152952089905739,-0.005351632833480835,0.03828155994415283,XArbitraryZVertical,0.1537412873023427,0.0009245582257672959,0.08549845066875886,0.9844047207185415,-0.02446900494396687,-0.3028453886508942,-0.9527255296707153,0,0,0,-1,-1,2809.410636625,unknown,2,2022-06-02T10:47:45.132+02:00,2022-06-02T10:17:13.754+02:00,465,1.41607,0,0,360.0712,0,0,2022-06-02T10:47:45.132+02:00,675852465.132046,0,7.472656,101.2929,1,0.81
2022-06-02T10:47:45.729+02:00,1654159664.99981,53.22908065161268,10.39850427764146,36.66956,0,20,-1,-1,2.400000095367432,7.999579855010836,-9999,2810.006791,-0.07366943359375,-0.346649169921875,-0.858642578125,2809.996797,0.1714775294086795,-0.02558902468455989,0.3068388093717878,-0.08995219320058823,-0.1692493408918381,-0.5592905879020691,-0.05182646214962006,-0.007600009441375732,0.06438547372817993,XArbitraryZVertical,0.1533272077561047,0.0004878914157068347,0.08267301078281568,0.9847108767342365,-0.0243911799043417,-0.3020465970039368,-0.9529810547828674,0,0,0,-1,-1,2809.410636625,unknown,2,2022-06-02T10:47:45.132+02:00,2022-06-02T10:17:13.754+02:00,465,1.41607,0,0,360.0712,0,0,2022-06-02T10:47:45.132+02:00,675852465.132046,0,7.472656,101.2929,1,0.81
2022-06-02T10:47:45.739+02:00,1654159664.99981,53.22908065161268,10.39850427764146,36.66956,0,20,-1,-1,2.400000095367432,7.999579855010836,-9999,2810.016785,-0.08526611328125,-0.37701416015625,-0.837677001953125,2810.006791,0.1655169902000366,-0.0256023550574514,0.3059131987473783,-0.150198221206665,-0.1876682937145233,-0.5767481923103333,-0.04794614017009735,-0.03268295526504517,0.08631646633148193,XArbitraryZVertical,0.1528727960549628,-1.43399646394061e-05,0.07974858968226889,0.9850228316425746,-0.02441103011369705,-0.3011640906333923,-0.9532598257064819,0,0,0,-1,-1,2809.410636625,unknown,2,2022-06-02T10:47:45.132+02:00,2022-06-02T10:17:13.754+02:00,465,1.41607,0,0,360.0712,0,0,2022-06-02T10:47:45.132+02:00,675852465.132046,0,7.472656,101.2929,1,0.81
2022-06-02T10:47:45.749+02:00,1654159664.99981,53.22908065161268,10.39850427764146,36.66956,0,20,-1,-1,2.400000095367432,7.999579855010836,-9999,2810.02678,-0.0926971435546875,-0.4080963134765625,-0.8106231689453125,2810.016785,0.1592039659632277,-0.0256753576826129,0.3040133750271045,-0.2837862372398376,-0.202609971165657,-0.6244930028915405,-0.05463680624961853,-0.06341049075126648,0.1043105125427246,XArbitraryZVertical,0.1519390881211227,-0.0006093473073030013,0.07665686485825608,0.985412526139672,-0.02449526451528072,-0.2993519306182861,-0.9538282752037048,0,0,0,-1,-1,2809.410636625,unknown,2,2022-06-02T10:47:45.132+02:00,2022-06-02T10:17:13.754+02:00,465,1.41607,0,0,360.0712,0,0,2022-06-02T10:47:45.132+02:00,675852465.132046,0,7.472656,101.2929,1,0.81
2022-06-02T10:47:45.759+02:00,1654159664.99981,53.22908065161268,10.39850427764146,36.66956,0,20,-1,-1,2.400000095367432,7.999579855010836,-9999,2810.036774,-0.11688232421875,-0.42327880859375,-0.785797119140625,2810.02678,0.1521592578837576,-0.02574474785228008,0.3004792732958398,-0.47922283411026,-0.227940633893013,-0.7113336324691772,-0.06652168929576874,-0.09711888432502747,0.1322005987167358,XArbitraryZVertical,0.1501970962286484,-0.001314901810220339,0.07322279743207152,0.9859398383361089,-0.02458853088319302,-0.2959780395030975,-0.9548782110214233,0,0,0,-1,-1,2809.410636625,unknown,2,2022-06-02T10:47:45.132+02:00,2022-06-02T10:17:13.754+02:00,465,1.41607,0,0,360.0712,0,0,2022-06-02T10:47:45.132+02:00,675852465.132046,0,7.472656,101.2929,1,0.81
2022-06-02T10:47:45.769+02:00,1654159664.99981,53.22908065161268,10.39850427764146,36.66956,0,20,-1,-1,2.400000095367432,7.999579855010836,-9999,2810.046768,-0.1396026611328125,-0.4479827880859375,-0.760406494140625,2810.036774,0.1441095002143221,-0.0258755617774859,0.2946569885276129,-0.7504012584686279,-0.2587162554264069,-0.8046565651893616,-0.07591986656188965,-0.1255887448787689,0.1583636999130249,XArbitraryZVertical,0.1473242448367053,-0.002196737330866708,0.06931231469412275,0.9866541692960079,-0.02475760877132416,-0.290411651134491,-0.9565814733505249,0,0,0,-1,-1,2809.410636625,unknown,2,2022-06-02T10:47:45.132+02:00,2022-06-02T10:17:13.754+02:00,465,1.41607,0,0,360.0712,0,0,2022-06-02T10:47:45.132+02:00,675852465.132046,0,7.472656,101.2929,1,0.81
2022-06-02T10:47:45.779+02:00,1654159664.99981,53.22908065161268,10.39850427764146,36.66956,0,20,-1,-1,2.400000095367432,7.999579855010836,-9999,2810.056763,-0.1560211181640625,-0.4746551513671875,-0.7446441650390625,2810.046768,0.1347651508304913,-0.02602591406711766,0.285530859773201,-1.157640695571899,-0.3000013828277588,-0.9414637088775635,-0.1060731038451195,-0.1524304449558258,0.1869705319404602,XArbitraryZVertical,0.1428132957630008,-0.003271781205484698,0.06479370277806655,0.9876210669066746,-0.02496936544775963,-0.2816668450832367,-0.9591873288154602,0,0,0,-1,-1,2809.410636625,unknown,2,2022-06-02T10:47:45.132+02:00,2022-06-02T10:17:13.754+02:00,465,1.41607,0,0,360.0712,0,0,2022-06-02T10:47:45.132+02:00,675852465.132046,0,7.472656,101.2929,1,0.81
2022-06-02T10:47:45.789+02:00,1654159664.99981,53.22908065161268,10.39850427764146,36.66956,0,20,-1,-1,2.400000095367432,7.999579855010836,-9999,2810.066757,-0.18865966796875,-0.5207366943359375,-0.74822998046875,2810.056763,0.1238860106095349,-0.02641727977017234,0.2717750870388526,-1.676313281059265,-0.3728507161140442,-1.079017877578735,-0.1204598322510719,-0.1922668218612671,0.2120900750160217,XArbitraryZVertical,0.1360082169989187,-0.004676092226408616,0.05954150566692109,0.9889058244776414,-0.02544469758868217,-0.2684417963027954,-0.9629598259925842,0,0,0,-1,-1,2809.410636625,unknown,2,2022-06-02T10:47:45.132+02:00,2022-06-02T10:17:13.754+02:00,465,1.41607,0,0,360.0712,0,0,2022-06-02T10:47:45.132+02:00,675852465.132046,0,7.472656,101.2929,1,0.81
2022-06-02T10:47:45.799+02:00,1654159664.99981,53.22908065161268,10.39850427764146,36.66956,0,20,-1,-1,2.400000095367432,7.999579855010836,-9999,2810.076752,-0.2421417236328125,-0.51190185546875,-0.7584686279296875,2810.066757,0.1113149637075524,-0.02711054146629254,0.2526828775197351,-2.22652792930603,-0.3989478349685669,-1.25289511680603,-0.1436601728200912,-0.244077056646347,0.2257019281387329,XArbitraryZVertical,0.1265469432379399,-0.006417105461221921,0.05347494902738884,0.9904974449241132,-0.02624643594026566,-0.250002533197403,-0.9678893685340881,0,0,0,-1,-1,2809.410636625,unknown,2,2022-06-02T10:47:45.132+02:00,2022-06-02T10:17:13.754+02:00,465,1.41607,0,0,360.0712,0,0,2022-06-02T10:47:45.132+02:00,675852465.132046,0,7.472656,101.2929,1,0.81
2022-06-02T10:47:45.809+02:00,1654159664.99981,53.22908065161268,10.39850427764146,36.66956,0,20,-1,-1,2.400000095367432,7.999579855010836,-9999,2810.086746,-0.30419921875,-0.48126220703125,-0.7758941650390625,2810.076752,0.0969040197395238,-0.02752899972479767,0.2279286256110573,-2.826283931732178,-0.3533470034599304,-1.413272380828857,-0.1873434782028198,-0.3021007180213928,0.2149936556816101,XArbitraryZVertical,0.1142358854603082,-0.008151552769399249,0.04655093672558093,0.9923288648972475,-0.02681361697614193,-0.2259602099657059,-0.9737673997879028,0,0,0,-1,-1,2809.410636625,unknown,2,2022-06-02T10:47:45.132+02:00,2022-06-02T10:17:13.754+02:00,465,1.41607,0,0,360.0712,0,0,2022-06-02T10:47:45.132+02:00,675852465.132046,0,7.472656,101.2929,1,0.81
2022-06-02T10:47:45.819+02:00,1654159664.99981,53.22908065161268,10.39850427764146,36.66956,0,20,-1,-1,2.400000095367432,7.999579855010836,-9999,2810.09674,-0.3464202880859375,-0.4011383056640625,-0.8145599365234375,2810.086746,0.08068225549766896,-0.02716211976509667,0.1976282074756859,-3.324703216552734,-0.2474711835384369,-1.581096053123474,-0.2466547638177872,-0.2994900941848755,0.2226965427398682,XArbitraryZVertical,0.09910907174324089,-0.009525056954274618,0.03879106767255741,0.9942744412097094,-0.02663013525307178,-0.196344256401062,-0.9801733493804932,0,0,0,-1,-1,2809.410636625,unknown,2,2022-06-02T10:47:45.132+02:00,2022-06-02T10:17:13.754+02:00,465,1.41607,0,0,360.0712,0,0,2022-06-02T10:47:45.132+02:00,675852465.132046,0,7.472656,101.2929,1,0.81
2022-06-02T10:47:45.829+02:00,1654159664.99981,53.22908065161268,10.39850427764146,36.66956,0,20,-1,-1,2.400000095367432,7.999579855010836,-9999,2810.106735,-0.366729736328125,-0.335906982421875,-0.813690185546875,2810.09674,0.06311464479740692,-0.02589895539857512,0.1632350562209903,-3.660303592681885,-0.1221942901611328,-1.696716785430908,-0.3035039603710175,-0.2853038609027863,0.1873951554298401,XArbitraryZVertical,0.08188673083113118,-0.0103274547822457,0.03038923929299567,0.9961246984887848,-0.0255518164485693,-0.1625111103057861,-0.9863758087158203,0,0,0,-1,-1,2809.410636625,unknown,2,2022-06-02T10:47:45.132+02:00,2022-06-02T10:17:13.754+02:00,465,1.41607,0,0,360.0712,0,0,2022-06-02T10:47:45.132+02:00,675852465.132046,0,7.472656,101.2929,1,0.81
2022-06-02T10:47:45.839+02:00,1654159664.99981,53.22908065161268,10.39850427764146,36.66956,0,20,-1,-1,2.400000095367432,7.999579855010836,-9999,2810.116729,-0.3693084716796875,-0.315887451171875,-0.780670166015625,2810.106735,0.04445863083370178,-0.02396182614577012,0.1261386222543033,-3.860263586044312,-0.02222960442304611,-1.810042262077332,-0.3350717425346375,-0.2372785061597824,0.1744027733802795,XArbitraryZVertical,0.06327318341202458,-0.01055301003467961,0.02142677739857529,0.9977103873484031,-0.02376917563378811,-0.1258043944835663,-0.9917702674865723,0,0,0,-1,-1,2809.410636625,unknown,2,2022-06-02T10:47:45.132+02:00,2022-06-02T10:17:13.754+02:00,465,1.41607,0,0,360.0712,0,0,2022-06-02T10:47:45.132+02:00,675852465.132046,0,7.472656,101.2929,1,0.81
2022-06-02T10:47:45.849+02:00,1654159664.99981,53.22908065161268,10.39850427764146,36.66956,0,20,-1,-1,2.400000095367432,7.999579855010836,-9999,2810.126723,-0.360076904296875,-0.32586669921875,-0.7267303466796875,2810.116729,0.02476007726132756,-0.02179624887728196,0.08765715821596301,-3.957414865493774,0.04144750535488129,-1.933941960334778,-0.3480095863342285,-0.2334389686584473,0.1898784041404724,XArbitraryZVertical,0.04394337532876429,-0.01034422974815208,0.01188964976682411,0.9989096521168863,-0.02171084471046925,-0.08754494786262512,-0.9959239363670349,0,0,0,-1,-1,2809.410636625,unknown,2,2022-06-02T10:47:45.132+02:00,2022-06-02T10:17:13.754+02:00,465,1.41607,0,0,360.0712,0,0,2022-06-02T10:47:45.132+02:00,675852465.132046,0,7.472656,101.2929,1,0.81
2022-06-02T10:47:45.859+02:00,1654159664.99981,53.22908065161268,10.39850427764146,36.66956,0,20,-1,-1,2.400000095367432,7.999579855010836,-9999,2810.136718,-0.3536529541015625,-0.3242340087890625,-0.7010955810546875,2810.126723,0.00388443116383796,-0.01985645221966909,0.04816972190825979,-4.070615291595459,0.07066824287176132,-2.066092252731323,-0.3453869819641113,-0.2717799842357635,0.2492992877960205,XArbitraryZVertical,0.02410057736718327,-0.009878393895536512,0.001702462943348197,0.9996592679607793,-0.01983211748301983,-0.04815109446644783,-0.998643159866333,0,0,0,-1,-1,2809.410636625,unknown,2,2022-06-02T10:47:45.132+02:00,2022-06-02T10:17:13.754+02:00,465,1.41607,0,0,360.0712,0,0,2022-06-02T10:47:45.132+02:00,675852465.132046,0,7.472656,101.2929,1,0.81
2022-06-02T10:47:45.869+02:00,1654159664.99981,53.22908065161268,10.39850427764146,36.66956,0,20,-1,-1,2.400000095367432,7.999579855010836,-9999,2810.146712,-0.3621826171875,-0.276214599609375,-0.72137451171875,2810.136718,-0.01815025627613662,-0.01837731986894137,0.007398826676153254,-4.21555233001709,0.1178325563669205,-2.182573556900024,-0.3363452553749084,-0.3214434385299683,0.2900717258453369,XArbitraryZVertical,0.003615711020641571,-0.009221660085585445,-0.009108549066366833,0.9999094566905344,-0.01837578229606152,-0.007398759014904499,-0.9998037815093994,0,0,0,-1,-1,2809.410636625,unknown,2,2022-06-02T10:47:45.132+02:00,2022-06-02T10:17:13.754+02:00,465,1.41607,0,0,360.0712,0,0,2022-06-02T10:47:45.132+02:00,675852465.132046,0,7.472656,101.2929,1,0.81
2022-06-02T10:47:45.879+02:00,1654159664.99981,53.22908065161268,10.39850427764146,36.66956,0,20,-1,-1,2.400000095367432,7.999579855010836,-9999,2810.156706,-0.3759765625,-0.1811065673828125,-0.7389373779296875,2810.146712,-0.04124158230204859,-0.01727696741110283,-0.03495335766356801,-4.414679527282715,0.1771195828914642,-2.283689022064209,-0.3396680355072021,-0.3439978063106537,0.2918730974197388,XArbitraryZVertical,-0.01764951337983389,-0.008274895691307904,-0.02046448266909694,0.9996004692858879,-0.0172655563801527,0.03494624048471451,-0.9992400407791138,0,0,0,-1,-1,2809.410636625,unknown,2,2022-06-02T10:47:45.132+02:00,2022-06-02T10:17:13.754+02:00,465,1.41607,0,0,360.0712,0,0,2022-06-02T10:47:45.132+02:00,675852465.132046,0,7.472656,101.2929,1,0.81
2022-06-02T10:47:45.889+02:00,1654159664.99981,53.22908065161268,10.39850427764146,36.66956,0,20,-1,-1,2.400000095367432,7.999579855010836,-9999,2810.166701,-0.4037322998046875,-0.1348114013671875,-0.768096923828125,2810.156706,-0.06518019648023884,-0.01675367908638683,-0.08012832191062592,-4.818317890167236,0.2210164070129395,-2.336662292480469,-0.3518616259098053,-0.3088024258613586,0.2651605010032654,XArbitraryZVertical,-0.04030350281216723,-0.007060506283754,-0.03222170103823956,0.9986428255478758,-0.01669914275407791,0.08004260808229446,-0.9966515302658081,0,0,0,-1,-1,2809.410636625,unknown,2,2022-06-02T10:47:45.132+02:00,2022-06-02T10:17:13.754+02:00,465,1.41607,0,0,360.0712,0,0,2022-06-02T10:47:45.132+02:00,675852465.132046,0,7.472656,101.2929,1,0.81
2022-06-02T10:47:45.899+02:00,1654159664.99981,53.22908065161268,10.39850427764146,36.66956,0,20,-1,-1,2.400000095367432,7.999579855010836,-9999,2810.176695,-0.4397125244140625,-0.114013671875,-0.8160858154296875,2810.166701,-0.0896926466321866,-0.01694703329223211,-0.1297940174255631,-5.368622303009033,0.2980760335922241,-2.369554281234741,-0.3690910637378693,-0.2795153856277466,0.2411715388298035,XArbitraryZVertical,-0.06516301429696697,-0.005539806003038179,-0.04418635522807164,0.9968803965947232,-0.0168036799877882,0.129429891705513,-0.9914461970329285,0,0,0,-1,-1,2809.410636625,unknown,2,2022-06-02T10:47:45.132+02:00,2022-06-02T10:17:13.754+02:00,465,1.41607,0,0,360.0712,0,0,2022-06-02T10:47:45.132+02:00,675852465.132046,0,7.472656,101.2929,1,0.81
2022-06-02T10:47:45.909+02:00,1654159664.99981,53.22908065161268,10.39850427764146,36.66956,0,20,-1,-1,2.400000095367432,7.999579855010836,-9999,2810.186689,-0.4642791748046875,-0.04486083984375,-0.8514556884765625,2810.176695,-0.1149552952347884,-0.01745616625680733,-0.1845198799278761,-5.958238124847412,0.4590183794498444,-2.420680046081543,-0.4053568840026855,-0.3111907243728638,0.1928356289863586,XArbitraryZVertical,-0.09247273232763563,-0.003384252315133157,-0.05639674590394354,0.9941109229137609,-0.01715896651148796,0.1834745854139328,-0.9828746914863586,0,0,0,-1,-1,2809.410636625,unknown,2,2022-06-02T10:47:45.132+02:00,2022-06-02T10:17:13.754+02:00,465,1.41607,0,0,360.0712,0,0,2022-06-02T10:47:45.132+02:00,675852465.132046,0,7.472656,101.2929,1,0.81
2022-06-02T10:47:45.919+02:00,1654159664.99981,53.22908065161268,10.39850427764146,36.66956,0,20,-1,-1,2.400000095367432,7.999579855010836,-9999,2810.196684,-0.484405517578125,0.046966552734375,-0.865509033203125,2810.186689,-0.1411913057000514,-0.01757278982669961,-0.2456018886112258,-6.573650360107422,0.6873463988304138,-2.482285261154175,-0.4367823004722595,-0.3284368813037872,0.1320880651473999,XArbitraryZVertical,-0.1227978045779596,-5.84692992761932e-05,-0.06892957164768125,0.9900350286729175,-0.01704457402229309,0.2431401908397675,-0.9698414206504822,0,0,0,-1,-1,2809.410636625,unknown,2,2022-06-02T10:47:45.132+02:00,2022-06-02T10:17:13.754+02:00,465,1.41607,0,0,360.0712,0,0,2022-06-02T10:47:45.132+02:00,675852465.132046,0,7.472656,101.2929,1,0.81
2022-06-02T10:47:45.929+02:00,1654159664.99981,53.22908065161268,10.39850427764146,36.66956,0,20,-1,-1,2.400000095367432,7.999579855010836,-9999,2810.206678,-0.486907958984375,0.161346435546875,-0.8395538330078125,2810.196684,-0.1685587193476933,-0.01689153851096028,-0.312774504666721,-7.035793304443359,0.9749561548233032,-2.538937330245972,-0.4602165520191193,-0.3097444474697113,0.08892101049423218,XArbitraryZVertical,-0.1558944979270587,0.004797567728288321,-0.08183861775886771,0.9843659150722238,-0.01607125625014305,0.3076997101306915,-0.9513477683067322,0,0,0,-1,-1,2809.410636625,unknown,2,2022-06-02T10:47:45.132+02:00,2022-06-02T10:17:13.754+02:00,465,1.41607,0,0,360.0712,0,0,2022-06-02T10:47:45.132+02:00,675852465.132046,0,7.472656,101.2929,1,0.81
2022-06-02T10:47:45.939+02:00,1654159664.99981,53.22908065161268,10.39850427764146,36.66956,0,20,-1,-1,2.400000095367432,7.999579855010836,-9999,2810.216672,-0.4801483154296875,0.262603759765625,-0.777435302734375,2810.206678,-0.1969079088477762,-0.01547018567052224,-0.383840545205652,-7.312414169311523,1.250395536422729,-2.551372528076172,-0.4743035435676575,-0.2726777493953705,0.06910532712936401,XArbitraryZVertical,-0.1905612455916814,0.01119241883320259,-0.09501911623634879,0.977001685245891,-0.01434389781206846,0.3744843006134033,-0.9271222949028015,0,0,0,-1,-1,2809.410636625,unknown,2,2022-06-02T10:47:45.132+02:00,2022-06-02T10:17:13.754+02:00,465,1.41607,0,0,360.0712,0,0,2022-06-02T10:47:45.132+02:00,675852465.132046,0,7.472656,101.2929,1,0.81
2022-06-02T10:47:45.949+02:00,1654159664.99981,53.22908065161268,10.39850427764146,36.66956,0,20,-1,-1,2.400000095367432,7.999579855010836,-9999,2810.226667,-0.4628448486328125,0.3282318115234375,-0.71270751953125,2810.216672,-0.2259702576656424,-0.01370995622965136,-0.4566295766991856,-7.352675437927246,1.476789355278015,-2.542670726776123,-0.4715665280818939,-0.2234421074390411,0.08248740434646606,XArbitraryZVertical,-0.2256407809196053,0.01888321726148243,-0.1082748794944248,0.9679907084429957,-0.01230489928275347,0.4409255087375641,-0.8974593281745911,0,0,0,-1,-1,2809.410636625,unknown,2,2022-06-02T10:47:45.132+02:00,2022-06-02T10:17:13.754+02:00,465,1.41607,0,0,360.0712,0,0,2022-06-02T10:47:45.132+02:00,675852465.132046,0,7.472656,101.2929,1,0.81
2022-06-02T10:47:45.959+02:00,1654159664.99981,53.22908065161268,10.39850427764146,36.66956,0,20,-1,-1,2.400000095367432,7.999579855010836,-9999,2810.236661,-0.4512176513671875,0.41802978515625,-0.7085723876953125,2810.226667,-0.2558592164447356,-0.01237869732258697,-0.5289679112917599,-7.224037647247314,1.612546920776367,-2.524456977844238,-0.4616186618804932,-0.2094613909721375,0.1232414245605469,XArbitraryZVertical,-0.2600322309506963,0.02742518601443342,-0.1215375590943933,0.9575278351587403,-0.01068660710006952,0.5046426057815552,-0.8632621765136719,0,0,0,-1,-1,2809.410636625,unknown,2,2022-06-02T10:47:45.132+02:00,2022-06-02T10:17:13.754+02:00,465,1.41607,0,0,360.0712,0,0,2022-06-02T10:47:45.132+02:00,675852465.132046,0,7.472656,101.2929,1,0.81
2022-06-02T10:47:45.969+02:00,1654159664.99981,53.22908065161268,10.39850427764146,36.66956,0,20,-1,-1,2.400000095367432,7.999579855010836,-9999,2810.246656,-0.4833831787109375,0.536865234375,-0.728912353515625,2810.236661,-0.2860461914663421,-0.01174142145887903,-0.5997646480581087,-7.033460140228271,1.75871217250824,-2.388564109802246,-0.443524569272995,-0.1947125792503357,0.1241633892059326,XArbitraryZVertical,-0.2931859675979511,0.03655411006162713,-0.1344559093970789,0.9458474185209005,-0.009691950865089893,0.5644482374191284,-0.8254115581512451,0,0,0,-1,-1,2809.410636625,unknown,2,2022-06-02T10:47:45.132+02:00,2022-06-02T10:17:13.754+02:00,465,1.41607,0,0,360.0712,0,0,2022-06-02T10:47:45.132+02:00,675852465.132046,0,7.472656,101.2929,1,0.81
2022-06-02T10:47:45.979+02:00,1654159664.99981,53.22908065161268,10.39850427764146,36.66956,0,20,-1,-1,2.400000095367432,7.999579855010836,-9999,2810.25665,-0.509796142578125,0.6984100341796875,-0.7327423095703125,2810.246656,-0.3152726733300689,-0.01046788306811709,-0.6683295360131938,-6.76081657409668,1.968600153923035,-2.16439151763916,-0.4560635089874268,-0.1443798542022705,0.06196022033691406,XArbitraryZVertical,-0.3246854257794695,0.04660395085563263,-0.146603274288293,0.9332282013126421,-0.008215650916099548,0.6196757555007935,-0.7848148941993713,0,0,0,-1,-1,2809.410636625,unknown,2,2022-06-02T10:47:45.132+02:00,2022-06-02T10:17:13.754+02:00,465,1.41607,0,0,360.0712,0,0,2022-06-02T10:47:45.132+02:00,675852465.132046,0,7.472656,101.2929,1,0.81
2022-06-02T10:47:45.989+02:00,1654159664.99981,53.22908065161268,10.39850427764146,36.66956,0,20,-1,-1,2.400000095367432,7.999579855010836,-9999,2810.266644,-0.5082855224609375,0.89117431640625,-0.750701904296875,2810.25665,-0.3428920132508323,-0.007583790704300357,-0.7342005793589896,-6.500811576843262,2.173480272293091,-1.934991717338562,-0.4944616258144379,-0.06173288822174072,0.01439410448074341,XArbitraryZVertical,-0.3542497998104596,0.05774497961045462,-0.1578979853765618,0.9199133987711485,-0.005629898514598608,0.6699938774108887,-0.7423452138900757,0,0,0,-1,-1,2809.410636625,unknown,2,2022-06-02T10:47:45.132+02:00,2022-06-02T10:17:13.754+02:00,465,1.41607,0,0,360.0712,0,0,2022-06-02T10:47:45.132+02:00,675852465.132046,0,7.472656,101.2929,1,0.81
2022-06-02T10:47:46.013+02:00,1654159664.99981,53.22908065161268,10.39850427764146,36.66956,0,20,-1,-1,2.400000095367432,7.999579855010836,-9999,2810.276639,-0.4797515869140625,0.9838714599609375,-0.778228759765625,2810.266644,-0.3686198019759137,-0.002770245936985497,-0.7979692546050525,-6.300682067871094,2.362815141677856,-1.710364699363708,-0.5112800002098083,0.08391058444976807,-0.04096120595932007,XArbitraryZVertical,-0.3821367295557036,0.06994178129150608,-0.1683443996929354,0.9059468913180454,-0.001934078056365252,0.7159397602081299,-0.6981593370437622,0,0,0,-1,-1,2809.410636625,unknown,2,2022-06-02T10:47:45.132+02:00,2022-06-02T10:17:13.754+02:00,465,1.41607,0,0,360.0712,0,0,2022-06-02T10:47:45.132+02:00,675852465.132046,0,7.472656,101.2929,1,0.81
2022-06-02T10:47:46.022+02:00,1654159664.99981,53.22908065161268,10.39850427764146,36.66956,0,20,-1,-1,2.400000095367432,7.999579855010836,-9999,2810.286633,-0.424468994140625,0.975738525390625,-0.8019256591796875,2810.276639,-0.3926210176827516,0.004059693975889971,-0.8592411344320664,-5.979425430297852,2.538979053497314,-1.552359342575073,-0.5014760494232178,0.1950300335884094,-0.1145254373550415,XArbitraryZVertical,-0.4081648624329595,0.08305400785085966,-0.1781553527506543,0.8914954069428725,0.002651022979989648,0.7573472261428833,-0.6530069708824158,0,0,0,-1,-1,2809.410636625,unknown,2,2022-06-02T10:47:45.132+02:00,2022-06-02T10:17:13.754+02:00,465,1.41607,0,0,360.0712,0,0,2022-06-02T10:47:45.132+02:00,675852465.132046,0,7.472656,101.2929,1,0.81
