,loggingTime(txt),locationTimestamp_since1970(s),locationLatitude(WGS84),locationLongitude(WGS84),locationAltitude(m),locationSpeed(m/s),locationSpeedAccuracy(m/s),locationCourse(°),locationCourseAccuracy(°),locationVerticalAccuracy(m),locationHorizontalAccuracy(m),locationFloor(Z),accelerometerTimestamp_sinceReboot(s),accelerometerAccelerationX(G),accelerometerAccelerationY(G),accelerometerAccelerationZ(G),motionTimestamp_sinceReboot(s),motionYaw(rad),motionRoll(rad),motionPitch(rad),motionRotationRateX(rad/s),motionRotationRateY(rad/s),motionRotationRateZ(rad/s),motionUserAccelerationX(G),motionUserAccelerationY(G),motionUserAccelerationZ(G),motionAttitudeReferenceFrame(txt),motionQuaternionX(R),motionQuaternionY(R),motionQuaternionZ(R),motionQuaternionW(R),motionGravityX(G),motionGravityY(G),motionGravityZ(G),motionMagneticFieldX(µT),motionMagneticFieldY(µT),motionMagneticFieldZ(µT),motionHeading(°),motionMagneticFieldCalibrationAccuracy(Z),activityTimestamp_sinceReboot(s),activity(txt),activityActivityConfidence(Z),activityActivityStartDate(txt),pedometerStartDate(txt),pedometerNumberofSteps(N),pedometerAverageActivePace(s/m),pedometerCurrentPace(s/m),pedometerCurrentCadence(steps/s),pedometerDistance(m),pedometerFloorAscended(N),pedometerFloorDescended(N),pedometerEndDate(txt),altimeterTimestamp_sinceReboot(s),altimeterReset(bool),altimeterRelativeAltitude(m),altimeterPressure(kPa),batteryState(N),batteryLevel(R)
264,2022-05-12T10:32:46.999+02:00,1652344366.000525,53.22908054999783,10.39837733287801,36.83999,0.09839888,0.7854848,3.014853610493271,180.0,2.400000095367432,7.999579855010836,-9999,2864.579725375,0.437286376953125,0.482208251953125,2.274383544921875,2864.574727375,-1.749490210522526,2.318341384781351,0.047680723059153,-3.315979957580566,6.538792610168457,-1.043294429779053,-0.2114385962486267,0.457192987203598,1.302896022796631,XArbitraryZVertical,-0.7091976691310005,-0.5801487819139302,0.2929332218518902,-0.2732329638311907,0.7325266599655151,-0.0476626567542552,0.6790679097175598,0,0,0,-1,-1,2864.560896375,walking,2,2022-05-12T10:32:46.977+02:00,2022-05-11T22:15:20.957+02:00,335,0.8999186,0.7476743,1.72769,251.5268,0,0,2022-05-12T10:32:44.417+02:00,674037166.976727,0,0.2000008,100.905,1,0.96
265,2022-05-12T10:32:47.007+02:00,1652344366.000525,53.22908054999783,10.39837733287801,36.83999,0.09839888,0.7854848,3.014853610493271,180.0,2.400000095367432,7.999579855010836,-9999,2864.589720375,0.3914642333984375,0.46600341796875,2.522705078125,2864.584722375,-1.715882231962421,2.383461937803211,0.0644391827510378,-3.817267417907715,6.865317821502686,-1.293735265731812,-0.2320821285247803,0.522966742515564,1.441399812698364,XArbitraryZVertical,-0.7102260306129649,-0.5982364033203449,0.2602262034760144,-0.2645271755387959,0.686138391494751,-0.0643945932388305,0.7246156334877014,0,0,0,-1,-1,2864.560896375,walking,2,2022-05-12T10:32:46.977+02:00,2022-05-11T22:15:20.957+02:00,335,0.8999186,0.7476743,1.72769,251.5268,0,0,2022-05-12T10:32:44.417+02:00,674037166.976727,0,0.2000008,100.905,1,0.96
266,2022-05-12T10:32:47.017+02:00,1652344366.000525,53.22908054999783,10.39837733287801,36.83999,0.09839888,0.7854848,3.014853610493271,180.0,2.400000095367432,7.999579855010836,-9999,2864.599715375,0.310394287109375,0.55712890625,2.770492553710938,2864.594718375,-1.678364064918803,2.451217055593255,0.0853010940628645,-4.291911125183105,7.199405193328857,-1.520256638526917,-0.217747688293457,0.561241090297699,1.629119753837585,XArbitraryZVertical,-0.7092058552552327,-0.6173564098623295,0.2247489601323238,-0.2557072150296197,0.6345115303993225,-0.0851976871490478,0.7682037353515625,0,0,0,-1,-1,2864.560896375,walking,2,2022-05-12T10:32:46.977+02:00,2022-05-11T22:15:20.957+02:00,335,0.8999186,0.7476743,1.72769,251.5268,0,0,2022-05-12T10:32:44.417+02:00,674037166.976727,0,0.2000008,100.905,1,0.96
267,2022-05-12T10:32:47.027+02:00,1652344366.000525,53.22908054999783,10.39837733287801,36.83999,0.09839888,0.7854848,3.014853610493271,180.0,2.400000095367432,7.999579855010836,-9999,2864.609710375,0.1994781494140625,0.6380157470703125,3.010498046875,2864.604713375,-1.637518291341745,2.520761162421722,0.1111895509288814,-4.777669906616211,7.508588790893555,-1.768977761268616,-0.2230929136276245,0.6055129766464233,1.839653015136719,XArbitraryZVertical,-0.7059156108745641,-0.637078804108786,0.1865838563953487,-0.2469826556553703,0.5781197547912598,-0.1109605878591537,0.8083724975585938,0,0,0,-1,-1,2864.560896375,walking,2,2022-05-12T10:32:46.977+02:00,2022-05-11T22:15:20.957+02:00,335,0.8999186,0.7476743,1.72769,251.5268,0,0,2022-05-12T10:32:44.417+02:00,674037166.976727,0,0.2000008,100.905,1,0.96
268,2022-05-12T10:32:47.037+02:00,1652344366.000525,53.22908054999783,10.39837733287801,36.83999,0.09839888,0.7854848,3.014853610493271,180.0,2.400000095367432,7.999579855010836,-9999,2864.619705375,0.045562744140625,0.6562652587890625,3.276138305664062,2864.614708375,-1.594135550945194,2.591797622293898,0.1421468954929838,-5.112440586090088,7.792036056518555,-2.001275539398193,-0.2572933435440063,0.7506009340286255,2.046257019042969,XArbitraryZVertical,-0.7001848419715005,-0.657082488513728,0.1459179721634498,-0.2381006773008449,0.5172426700592041,-0.1416686773300171,0.8440324068069458,0,0,0,-1,-1,2864.560896375,walking,2,2022-05-12T10:32:46.977+02:00,2022-05-11T22:15:20.957+02:00,335,0.8999186,0.7476743,1.72769,251.5268,0,0,2022-05-12T10:32:44.417+02:00,674037166.976727,0,0.2000008,100.905,1,0.96
269,2022-05-12T10:32:47.047+02:00,1652344366.000525,53.22908054999783,10.39837733287801,36.83999,0.09839888,0.7854848,3.014853610493271,180.0,2.400000095367432,7.999579855010836,-9999,2864.629701,-0.136444091796875,0.6506195068359375,3.563385009765625,2864.624703,-1.549485002444165,2.663873243273185,0.1770340088361529,-5.298440933227539,8.04027271270752,-2.267810106277466,-0.3272789418697357,0.8285610675811768,2.265695810317993,XArbitraryZVertical,-0.691956405171138,-0.6769633409607949,0.1034795066603196,-0.2284929955636757,0.4525693655014038,-0.176110714673996,0.8741660714149475,0,0,0,-1,-1,2864.560896375,walking,2,2022-05-12T10:32:46.977+02:00,2022-05-11T22:15:20.957+02:00,335,0.8999186,0.7476743,1.72769,251.5268,0,0,2022-05-12T10:32:44.417+02:00,674037166.976727,0,0.2000008,100.905,1,0.96
270,2022-05-12T10:32:47.057+02:00,1652344366.000525,53.22908054999783,10.39837733287801,36.83999,0.09839888,0.7854848,3.014853610493271,180.0,2.400000095367432,7.999579855010836,-9999,2864.639696,-0.322174072265625,0.582550048828125,3.811477661132812,2864.634698,-1.503357271672293,2.736044690516908,0.2152632027298414,-5.491740703582764,8.180096626281738,-2.659134149551392,-0.4256385266780853,0.8687862753868103,2.521647930145264,XArbitraryZVertical,-0.6808091366158323,-0.696662275100735,0.0598547625502765,-0.2181240364560778,0.3854169249534607,-0.2136045694351196,0.897678792476654,0,0,0,-1,-1,2864.560896375,walking,2,2022-05-12T10:32:46.977+02:00,2022-05-11T22:15:20.957+02:00,335,0.8999186,0.7476743,1.72769,251.5268,0,0,2022-05-12T10:32:44.417+02:00,674037166.976727,0,0.2000008,100.905,1,0.96
271,2022-05-12T10:32:47.073+02:00,1652344366.000525,53.22908054999783,10.39837733287801,36.83999,0.09839888,0.7854848,3.014853610493271,180.0,2.400000095367432,7.999579855010836,-9999,2864.649691,-0.488677978515625,0.4594879150390625,4.057830810546875,2864.644693,-1.455308582337109,2.806586903106928,0.2563991026853017,-5.527646064758301,8.166647911071777,-3.101228713989258,-0.5492884516716003,0.883252739906311,2.778649091720581,XArbitraryZVertical,-0.6663458357267319,-0.7160663825108754,0.0158461628356145,-0.2073193946803097,0.3180269598960876,-0.2535990178585052,0.9135356545448304,0,0,0,-1,-1,2864.560896375,walking,2,2022-05-12T10:32:46.977+02:00,2022-05-11T22:15:20.957+02:00,335,0.8999186,0.7476743,1.72769,251.5268,0,0,2022-05-12T10:32:44.417+02:00,674037166.976727,0,0.2000008,100.905,1,0.96
272,2022-05-12T10:32:47.087+02:00,1652344366.000525,53.22908054999783,10.39837733287801,36.83999,0.09839888,0.7854848,3.014853610493271,180.0,2.400000095367432,7.999579855010836,-9999,2864.659686,-0.6861114501953125,0.31390380859375,4.374496459960938,2864.654688,-1.40455017681016,2.873756846648665,0.2982499113024108,-5.36777400970459,8.026643753051758,-3.770100116729736,-0.6608589291572571,0.8153626322746277,3.007365703582764,XArbitraryZVertical,-0.648210656387338,-0.7353292487761031,-0.0271116998220002,-0.1959052795050356,0.2529615759849548,-0.2938478291034698,0.921772301197052,0,0,0,-1,-1,2864.560896375,walking,2,2022-05-12T10:32:46.977+02:00,2022-05-11T22:15:20.957+02:00,335,0.8999186,0.7476743,1.72769,251.5268,0,0,2022-05-12T10:32:44.417+02:00,674037166.976727,0,0.2000008,100.905,1,0.96
273,2022-05-12T10:32:47.089+02:00,1652344367.000525,53.22908060553391,10.39837672454023,36.84318,0.05902638,0.9468474,2.927491862470811,27.20368237328598,2.400000095367432,7.999579855010837,-9999,2864.669681,-0.983642578125,0.0448455810546875,4.72283935546875,2864.664684,-1.348570939085742,2.934918289361418,0.3397413425891887,-5.214221954345703,7.716310977935791,-4.653294563293457,-0.7735085487365723,0.737997829914093,3.283141136169434,XArbitraryZVertical,-0.6256925548886921,-0.7549151633768834,-0.0678775730610683,-0.184403354642737,0.1934767961502075,-0.3332432210445404,0.9227761626243592,0,0,0,-1,-1,2864.560896375,walking,2,2022-05-12T10:32:46.977+02:00,2022-05-11T22:15:20.957+02:00,335,0.8999186,0.7476743,1.72769,251.5268,0,0,2022-05-12T10:32:44.417+02:00,674037166.976727,0,0.2000008,100.905,1,0.96
274,2022-05-12T10:32:47.097+02:00,1652344367.000525,53.22908060553391,10.39837672454023,36.84318,0.05902638,0.9468474,2.927491862470811,27.20368237328598,2.400000095367432,7.999579855010837,-9999,2864.679676,-1.336517333984375,-0.2484893798828125,5.097381591796875,2864.674679,-1.284467988719808,2.986144618627778,0.3791498535399948,-4.6622633934021,7.015052795410156,-5.786857604980469,-0.9598819017410278,0.5715620517730713,3.628486156463623,XArbitraryZVertical,-0.5981951673995958,-0.775275307478333,-0.104765250304434,-0.1735946916218239,0.1438272297382355,-0.3701308369636536,0.917778491973877,0,0,0,-1,-1,2864.560896375,walking,2,2022-05-12T10:32:46.977+02:00,2022-05-11T22:15:20.957+02:00,335,0.8999186,0.7476743,1.72769,251.5268,0,0,2022-05-12T10:32:44.417+02:00,674037166.976727,0,0.2000008,100.905,1,0.96
275,2022-05-12T10:32:47.106+02:00,1652344367.000525,53.22908060553391,10.39837672454023,36.84318,0.05902638,0.9468474,2.927491862470811,27.20368237328598,2.400000095367432,7.999579855010837,-9999,2864.689672,-1.709869384765625,-0.77264404296875,5.321258544921875,2864.684674,-1.208531469516117,3.021885551162959,0.4127863560698234,-3.873246669769287,5.968829154968262,-7.222232341766357,-1.278823852539062,0.316324383020401,4.004076957702637,XArbitraryZVertical,-0.5651916212138929,-0.7970471294225998,-0.1350750341544427,-0.164405184948217,0.1093908026814461,-0.4011631906032562,0.9094513654708862,0,0,0,-1,-1,2864.560896375,walking,2,2022-05-12T10:32:46.977+02:00,2022-05-11T22:15:20.957+02:00,335,0.8999186,0.7476743,1.72769,251.5268,0,0,2022-05-12T10:32:44.417+02:00,674037166.976727,0,0.2000008,100.905,1,0.96
276,2022-05-12T10:32:47.116+02:00,1652344367.000525,53.22908060553391,10.39837672454023,36.84318,0.05902638,0.9468474,2.927491862470811,27.20368237328598,2.400000095367432,7.999579855010837,-9999,2864.699667,-2.400802612304688,-1.293991088867188,5.62774658203125,2864.694669,-1.115310052601997,3.035733775265323,0.4361679052985568,-2.624582052230835,4.418777465820312,-9.243895530700684,-1.596043109893799,-0.0583962202072143,4.330858707427979,XArbitraryZVertical,-0.5256519668360318,-0.8211832453916273,-0.1559895362284535,-0.1581628865933271,0.0957690104842186,-0.4224692583084106,0.9013038277626038,0,0,0,-1,-1,2864.560896375,walking,2,2022-05-12T10:32:46.977+02:00,2022-05-11T22:15:20.957+02:00,335,0.8999186,0.7476743,1.72769,251.5268,0,0,2022-05-12T10:32:44.417+02:00,674037166.976727,0,0.2000008,100.905,1,0.96
277,2022-05-12T10:32:47.126+02:00,1652344367.000525,53.22908060553391,10.39837672454023,36.84318,0.05902638,0.9468474,2.927491862470811,27.20368237328598,2.400000095367432,7.999579855010837,-9999,2864.709662,-3.296707153320312,-0.946380615234375,6.138198852539062,2864.704664,-0.996475859265694,3.017148792047093,0.4449205862475896,-1.626453399658203,1.890780448913574,-11.99299907684326,-2.121239423751831,-0.6554747819900513,4.536357402801514,XArbitraryZVertical,-0.4772516441719468,-0.8485653461041396,-0.1644489576738599,-0.1585063432691406,0.1120389103889465,-0.4303861856460571,0.8956645727157593,0,0,0,-1,-1,2864.560896375,walking,2,2022-05-12T10:32:46.977+02:00,2022-05-11T22:15:20.957+02:00,335,0.8999186,0.7476743,1.72769,251.5268,0,0,2022-05-12T10:32:44.417+02:00,674037166.976727,0,0.2000008,100.905,1,0.96
278,2022-05-12T10:32:47.136+02:00,1652344367.000525,53.22908060553391,10.39837672454023,36.84318,0.05902638,0.9468474,2.927491862470811,27.20368237328598,2.400000095367432,7.999579855010837,-9999,2864.719657,-4.367538452148438,0.205841064453125,6.718276977539062,2864.714659,-0.8444003326236251,2.953527258103268,0.440347288622678,-1.933060765266418,-1.724816560745239,-15.34136295318604,-2.995416879653931,-0.8305668830871582,4.981280326843262,XArbitraryZVertical,-0.4168155396490248,-0.8778335346382015,-0.160795157240207,-0.1726793667385574,0.1691236346960068,-0.4262536466121674,0.8886538147926331,0,0,0,-1,-1,2864.560896375,walking,2,2022-05-12T10:32:46.977+02:00,2022-05-11T22:15:20.957+02:00,335,0.8999186,0.7476743,1.72769,251.5268,0,0,2022-05-12T10:32:44.417+02:00,674037166.976727,0,0.2000008,100.905,1,0.96
279,2022-05-12T10:32:47.146+02:00,1652344367.000525,53.22908060553391,10.39837672454023,36.84318,0.05902638,0.9468474,2.927491862470811,27.20368237328598,2.400000095367432,7.999579855010837,-9999,2864.729652,-5.087112426757812,1.187835693359375,6.851303100585938,2864.724655,-0.6546922222734526,2.833102232424002,0.4263893639604357,-3.889923810958862,-6.423206806182861,-18.67778587341309,-4.105063915252686,0.0346038341522216,5.548256397247314,XArbitraryZVertical,-0.3413011640430113,-0.9040221376687608,-0.1496895918733231,-0.2094055824523391,0.2764360904693604,-0.4135861396789551,0.8674850463867188,0,0,0,-1,-1,2864.560896375,walking,2,2022-05-12T10:32:46.977+02:00,2022-05-11T22:15:20.957+02:00,335,0.8999186,0.7476743,1.72769,251.5268,0,0,2022-05-12T10:32:44.417+02:00,674037166.976727,0,0.2000008,100.905,1,0.96
280,2022-05-12T10:32:47.156+02:00,1652344367.000525,53.22908060553391,10.39837672454023,36.84318,0.05902638,0.9468474,2.927491862470811,27.20368237328598,2.400000095367432,7.999579855010837,-9999,2864.739647,-5.89837646484375,1.547149658203125,5.903884887695312,2864.73465,-0.4340281025773216,2.656497405136549,0.3923723600227621,-5.108756542205811,-11.2273588180542,-21.196533203125,-5.202233791351318,1.142208456993103,6.100077629089355,XArbitraryZVertical,-0.250722274596293,-0.9196955361729892,-0.134064499834706,-0.270786703295901,0.4308567345142365,-0.3823815584182739,0.8174030780792236,0,0,0,-1,-1,2864.560896375,walking,2,2022-05-12T10:32:46.977+02:00,2022-05-11T22:15:20.957+02:00,335,0.8999186,0.7476743,1.72769,251.5268,0,0,2022-05-12T10:32:44.417+02:00,674037166.976727,0,0.2000008,100.905,1,0.96
281,2022-05-12T10:32:47.166+02:00,1652344367.000525,53.22908060553391,10.39837672454023,36.84318,0.05902638,0.9468474,2.927491862470811,27.20368237328598,2.400000095367432,7.999579855010837,-9999,2864.749643,-6.87530517578125,1.616744995117188,4.828384399414062,2864.744645,-0.2135979261720993,2.443123730084538,0.3074631296248571,-3.527421474456787,-16.2056770324707,-22.56217193603516,-6.075231075286865,1.71018922328949,5.756536483764648,XArbitraryZVertical,-0.1510782833018294,-0.9176776445560182,-0.1070187222106737,-0.3515539441377359,0.6128900051116943,-0.3026417195796967,0.7299138307571411,0,0,0,-1,-1,2864.560896375,walking,2,2022-05-12T10:32:46.977+02:00,2022-05-11T22:15:20.957+02:00,335,0.8999186,0.7476743,1.72769,251.5268,0,0,2022-05-12T10:32:44.417+02:00,674037166.976727,0,0.2000008,100.905,1,0.96
282,2022-05-12T10:32:47.176+02:00,1652344367.000525,53.22908060553391,10.39837672454023,36.84318,0.05902638,0.9468474,2.927491862470811,27.20368237328598,2.400000095367432,7.999579855010837,-9999,2864.759638,-7.970779418945312,1.637176513671875,3.815185546875,2864.75464,-0.0468771937120596,2.213257603277285,0.1548669153132008,1.606566667556763,-21.64940071105957,-21.63245391845703,-7.172175407409668,1.789167404174805,4.74500846862793,XArbitraryZVertical,-0.0555151055669151,-0.8904586567221163,-0.0586918418504069,-0.4478356917649724,0.7910417914390564,-0.1542486101388931,0.5919970870018005,0,0,0,-1,-1,2864.560896375,walking,2,2022-05-12T10:32:46.977+02:00,2022-05-11T22:15:20.957+02:00,335,0.8999186,0.7476743,1.72769,251.5268,0,0,2022-05-12T10:32:44.417+02:00,674037166.976727,0,0.2000008,100.905,1,0.96
283,2022-05-12T10:32:47.186+02:00,1652344367.000525,53.22908060553391,10.39837672454023,36.84318,0.05902638,0.9468474,2.927491862470811,27.20368237328598,2.400000095367432,7.999579855010837,-9999,2864.769633,-9.613296508789062,3.453903198242188,3.64886474609375,2864.764635,-3.602734223216615e-05,1.962561149238438,-0.0449668193809814,10.50253391265869,-27.79403686523438,-17.99445343017578,-8.28438663482666,1.45071542263031,3.935689210891724,XArbitraryZVertical,0.012483822027524,-0.8310001446425355,0.0186968725526901,-0.555817736014611,0.9233024120330812,0.0449516661465168,0.3814341723918915,0,0,0,-1,-1,2864.560896375,walking,2,2022-05-12T10:32:46.977+02:00,2022-05-11T22:15:20.957+02:00,335,0.8999186,0.7476743,1.72769,251.5268,0,0,2022-05-12T10:32:44.417+02:00,674037166.976727,0,0.2000008,100.905,1,0.96
284,2022-05-12T10:32:47.196+02:00,1652344367.000525,53.22908060553391,10.39837672454023,36.84318,0.05902638,0.9468474,2.927491862470811,27.20368237328598,2.400000095367432,7.999579855010837,-9999,2864.779628,-15.41177368164062,5.555587768554688,4.804443359375,2864.77463,-0.0960710577461489,1.644008482032891,-0.2253407505795089,15.78538036346436,-32.33220672607422,-12.95341968536377,-9.6771240234375,2.14756441116333,3.453208208084106,XArbitraryZVertical,0.0415003646658245,-0.7307027211304947,0.1147434073245237,-0.6717033856324127,0.9721071720123292,0.2234385162591934,0.0712974965572357,0,0,0,-1,-1,2864.560896375,walking,2,2022-05-12T10:32:46.977+02:00,2022-05-11T22:15:20.957+02:00,335,0.8999186,0.7476743,1.72769,251.5268,0,0,2022-05-12T10:32:44.417+02:00,674037166.976727,0,0.2000008,100.905,1,0.96
285,2022-05-12T10:32:47.206+02:00,1652344367.000525,53.22908060553391,10.39837672454023,36.84318,0.05902638,0.9468474,2.927491862470811,27.20368237328598,2.400000095367432,7.999579855010837,-9999,2864.789623,-21.50718688964844,4.627853393554688,4.650436401367188,2864.784626,-0.277205371723965,1.251173015575065,-0.3242354663669462,16.48150062561035,-35.11940383911133,-10.74711608886719,-12.47313022613525,4.320958137512207,4.479538440704346,XArbitraryZVertical,0.0497446727821344,-0.5904294683366135,0.2041361976596018,-0.7792606133898261,0.8998875021934509,0.3185841739177704,-0.2978370189666748,0,0,0,-1,-1,2864.560896375,walking,2,2022-05-12T10:32:46.977+02:00,2022-05-11T22:15:20.957+02:00,335,0.8999186,0.7476743,1.72769,251.5268,0,0,2022-05-12T10:32:44.417+02:00,674037166.976727,0,0.2000008,100.905,1,0.96
286,2022-05-12T10:32:47.216+02:00,1652344367.000525,53.22908060553391,10.39837672454023,36.84318,0.05902638,0.9468474,2.927491862470811,27.20368237328598,2.400000095367432,7.999579855010837,-9999,2864.799618,-25.93597412109375,2.154312133789062,3.76483154296875,2864.794621,-0.4809075819287522,0.8346636752685785,-0.3089721536442474,19.45215225219727,-35.13148498535156,-6.293887615203857,-19.93765258789062,5.43153190612793,5.914046287536621,XArbitraryZVertical,0.0412436859932493,-0.4224720388676769,0.2756853103196173,-0.8624465890685753,0.7059785723686218,0.3040796220302582,-0.6396326422691345,0,0,0,-1,-1,2864.560896375,walking,2,2022-05-12T10:32:46.977+02:00,2022-05-11T22:15:20.957+02:00,335,0.8999186,0.7476743,1.72769,251.5268,0,0,2022-05-12T10:32:44.417+02:00,674037166.976727,0,0.2000008,100.905,1,0.96
287,2022-05-12T10:32:47.226+02:00,1652344367.000525,53.22908060553391,10.39837672454023,36.84318,0.05902638,0.9468474,2.927491862470811,27.20368237328598,2.400000095367432,7.999579855010837,-9999,2864.809614,-26.22724914550781,4.739852905273438,1.199630737304688,2864.804616,-0.6517600144939,0.4831106486827238,-0.1491904064238712,26.37862968444824,-24.37699127197266,-1.107743740081787,-23.60638046264648,2.4902024269104,4.731689453125,XArbitraryZVertical,-0.0078154571395168,-0.2491591730130824,0.3268727910729823,-0.9115991220976476,0.4593758881092072,0.1486375778913498,-0.8757172226905823,0,0,0,-1,-1,2864.560896375,walking,2,2022-05-12T10:32:46.977+02:00,2022-05-11T22:15:20.957+02:00,335,0.8999186,0.7476743,1.72769,251.5268,0,0,2022-05-12T10:32:44.417+02:00,674037166.976727,0,0.2000008,100.905,1,0.96
288,2022-05-12T10:32:47.236+02:00,1652344367.000525,53.22908060553391,10.39837672454023,36.84318,0.05902638,0.9468474,2.927491862470811,27.20368237328598,2.400000095367432,7.999579855010837,-9999,2864.819609,-16.838134765625,0.702667236328125,2.303298950195312,2864.814611,-0.7505771957937114,0.2986795113373363,0.1260674648102687,31.50610160827637,-12.19172859191895,2.841724634170532,-28.43988800048828,3.900987386703491,3.861318588256836,XArbitraryZVertical,-0.1123831288252918,-0.1153230127761185,0.3530214378101684,-0.9216543086913352,0.2919232249259949,-0.1257337927818298,-0.9481412768363952,0,0,0,-1,-1,2864.560896375,walking,2,2022-05-12T10:32:46.977+02:00,2022-05-11T22:15:20.957+02:00,335,0.8999186,0.7476743,1.72769,251.5268,0,0,2022-05-12T10:32:44.417+02:00,674037166.976727,0,0.2000008,100.905,1,0.96
289,2022-05-12T10:32:47.247+02:00,1652344367.000525,53.22908060553391,10.39837672454023,36.84318,0.05902638,0.9468474,2.927491862470811,27.20368237328598,2.400000095367432,7.999579855010837,-9999,2864.829604,-11.5281982421875,-5.342025756835938,1.705978393554688,2864.824606,-0.783676236404255,0.2458152432238825,0.4468021746034934,31.39273834228516,-0.8200328350067139,7.952256202697754,-21.34488677978516,3.847809791564941,1.823606491088867,XArbitraryZVertical,-0.2488668447674182,-0.0265227578267721,0.3444857776906854,-0.9048157229314312,0.219458594918251,-0.4320838451385498,-0.8747236728668213,0,0,0,-1,-1,2864.560896375,walking,2,2022-05-12T10:32:46.977+02:00,2022-05-11T22:15:20.957+02:00,335,0.8999186,0.7476743,1.72769,251.5268,0,0,2022-05-12T10:32:44.417+02:00,674037166.976727,0,0.2000008,100.905,1,0.96
290,2022-05-12T10:32:47.257+02:00,1652344367.000525,53.22908060553391,10.39837672454023,36.84318,0.05902638,0.9468474,2.927491862470811,27.20368237328598,2.400000095367432,7.999579855010837,-9999,2864.839599,-5.998046875,-9.7144775390625,-2.037551879882812,2864.834601,-0.7491272880910541,0.2398659438232684,0.7469490960237203,24.11033630371094,3.142489910125732,11.66317367553711,-14.18501949310303,-1.706064105033875,3.523075103759766,XArbitraryZVertical,-0.3778740557101844,0.028854044464154,0.2975721190353947,-0.8762588359036669,0.1743223369121552,-0.6794033050537109,-0.7127572894096375,0,0,0,-1,-1,2864.560896375,walking,2,2022-05-12T10:32:46.977+02:00,2022-05-11T22:15:20.957+02:00,335,0.8999186,0.7476743,1.72769,251.5268,0,0,2022-05-12T10:32:44.417+02:00,674037166.976727,0,0.2000008,100.905,1,0.96
291,2022-05-12T10:32:47.266+02:00,1652344367.000525,53.22908060553391,10.39837672454023,36.84318,0.05902638,0.9468474,2.927491862470811,27.20368237328598,2.400000095367432,7.999579855010837,-9999,2864.849594,-2.712234497070312,-8.8687744140625,-4.289230346679688,2864.844597,-0.6351092323540015,0.190858258034339,0.9343317529946462,9.096047401428224,3.843037843704224,10.71869468688965,-8.700626373291016,-7.014843940734863,0.3473724722862244,XArbitraryZVertical,-0.452457929934124,0.059160891589438,0.2367518626402029,-0.8577473475405425,0.1127503216266632,-0.8042020797729492,-0.5835636258125305,0,0,0,-1,-1,2864.560896375,walking,2,2022-05-12T10:32:46.977+02:00,2022-05-11T22:15:20.957+02:00,335,0.8999186,0.7476743,1.72769,251.5268,0,0,2022-05-12T10:32:44.417+02:00,674037166.976727,0,0.2000008,100.905,1,0.96
292,2022-05-12T10:32:47.276+02:00,1652344367.000525,53.22908060553391,10.39837672454023,36.84318,0.05902638,0.9468474,2.927491862470811,27.20368237328598,2.400000095367432,7.999579855010837,-9999,2864.859589,-3.001373291015625,-4.57049560546875,-4.079345703125,2864.854592,-0.4655432118574173,0.0717549407178296,0.9780559984638656,-2.241478204727173,0.2806937992572784,9.81138038635254,-4.14756441116333,-9.424874305725098,-2.911292314529419,XArbitraryZVertical,-0.4641089706518234,0.0774825957057291,0.1871106896955018,-0.8623161326059344,0.0400505140423774,-0.8294129371643066,-0.5571986436843872,0,0,0,-1,-1,2864.560896375,walking,2,2022-05-12T10:32:46.977+02:00,2022-05-11T22:15:20.957+02:00,335,0.8999186,0.7476743,1.72769,251.5268,0,0,2022-05-12T10:32:44.417+02:00,674037166.976727,0,0.2000008,100.905,1,0.96
293,2022-05-12T10:32:47.286+02:00,1652344367.000525,53.22908060553391,10.39837672454023,36.84318,0.05902638,0.9468474,2.927491862470811,27.20368237328598,2.400000095367432,7.999579855010837,-9999,2864.869584,-4.356109619140625,-3.330108642578125,-2.92681884765625,2864.864587,-0.2981449547208499,-0.0656425734527613,0.9305996701834074,-6.375184535980225,0.0133393015712499,9.63022518157959,-2.214524507522583,-5.697762012481689,-3.791415214538574,XArbitraryZVertical,-0.4391198301467188,0.0956055140258333,0.1472204273509495,-0.881112714063229,-0.0391836501657962,-0.8019782900810242,-0.5960667133331299,0,0,0,-1,-1,2864.560896375,walking,2,2022-05-12T10:32:46.977+02:00,2022-05-11T22:15:20.957+02:00,335,0.8999186,0.7476743,1.72769,251.5268,0,0,2022-05-12T10:32:44.417+02:00,674037166.976727,0,0.2000008,100.905,1,0.96
294,2022-05-12T10:32:47.297+02:00,1652344367.000525,53.22908060553391,10.39837672454023,36.84318,0.05902638,0.9468474,2.927491862470811,27.20368237328598,2.400000095367432,7.999579855010837,-9999,2864.87958,-3.913223266601562,-2.272354125976562,-2.237518310546875,2864.874582,-0.1580063254033491,-0.16830001669748,0.8574165097984563,-5.704835414886475,1.351223826408386,9.423433303833008,-3.847157001495361,-2.886392831802368,-2.882791996002197,XArbitraryZVertical,-0.4069002008801106,0.1088970463176285,0.1063555079347654,-0.9007010403931354,-0.1096152141690254,-0.756154477596283,-0.6451473236083984,0,0,0,-1,-1,2864.560896375,walking,2,2022-05-12T10:32:46.977+02:00,2022-05-11T22:15:20.957+02:00,335,0.8999186,0.7476743,1.72769,251.5268,0,0,2022-05-12T10:32:44.417+02:00,674037166.976727,0,0.2000008,100.905,1,0.96
295,2022-05-12T10:32:47.306+02:00,1652344367.000525,53.22908060553391,10.39837672454023,36.84318,0.05902638,0.9468474,2.927491862470811,27.20368237328598,2.400000095367432,7.999579855010837,-9999,2864.889575,-3.97979736328125,-1.25701904296875,-1.953643798828125,2864.884577,-0.0374126407882923,-0.2354054805228837,0.7955264159682743,-3.054816722869873,3.056073904037476,9.097504615783691,-3.985681295394897,-2.226716041564941,-1.806669235229492,XArbitraryZVertical,-0.382584636291525,0.1154398016304529,0.0626054262391486,-0.9145399014208996,-0.1632448583841324,-0.7142321467399597,-0.6806052923202515,0,0,0,-1,-1,2864.560896375,walking,2,2022-05-12T10:32:46.977+02:00,2022-05-11T22:15:20.957+02:00,335,0.8999186,0.7476743,1.72769,251.5268,0,0,2022-05-12T10:32:44.417+02:00,674037166.976727,0,0.2000008,100.905,1,0.96
296,2022-05-12T10:32:47.316+02:00,1652344367.000525,53.22908060553391,10.39837672454023,36.84318,0.05902638,0.9468474,2.927491862470811,27.20368237328598,2.400000095367432,7.999579855010837,-9999,2864.89957,-3.258819580078125,-1.741500854492188,-1.735382080078125,2864.894572,0.0775064442657317,-0.2767374877929764,0.7530865007008233,-1.202388644218445,4.584463119506836,8.956843376159668,-3.725210189819336,-0.9138535857200624,-1.37965989112854,XArbitraryZVertical,-0.3688895978621331,0.1140581408523171,0.0149941710122543,-0.9223267032204078,-0.1993353515863419,-0.6838938593864441,-0.7018224000930786,0,0,0,-1,-1,2864.560896375,walking,2,2022-05-12T10:32:46.977+02:00,2022-05-11T22:15:20.957+02:00,335,0.8999186,0.7476743,1.72769,251.5268,0,0,2022-05-12T10:32:44.417+02:00,674037166.976727,0,0.2000008,100.905,1,0.96
297,2022-05-12T10:32:47.326+02:00,1652344367.000525,53.22908060553391,10.39837672454023,36.84318,0.05902638,0.9468474,2.927491862470811,27.20368237328598,2.400000095367432,7.999579855010837,-9999,2864.909565,-2.540084838867188,-2.118255615234375,-1.7266845703125,2864.904568,0.1877747645392635,-0.3035566836869537,0.7182250045210854,-0.8885061740875244,4.744154453277588,8.671010971069336,-3.513098239898682,-0.7119302749633789,-1.106326580047607,XArbitraryZVertical,-0.3591435119737476,0.1083590194946246,-0.033857217299927,-0.9263520427428852,-0.2250763922929764,-0.6580491662025452,-0.7185485363006592,0,0,0,-1,-1,2864.560896375,walking,2,2022-05-12T10:32:46.977+02:00,2022-05-11T22:15:20.957+02:00,335,0.8999186,0.7476743,1.72769,251.5268,0,0,2022-05-12T10:32:44.417+02:00,674037166.976727,0,0.2000008,100.905,1,0.96
298,2022-05-12T10:32:47.337+02:00,1652344367.000525,53.22908060553391,10.39837672454023,36.84318,0.05902638,0.9468474,2.927491862470811,27.20368237328598,2.400000095367432,7.999579855010837,-9999,2864.91956,-2.376678466796875,-2.116165161132812,-1.725967407226562,2864.914563,0.2900022206307214,-0.3226937502375042,0.6832959631149134,-0.9496625065803528,4.636753559112549,8.344192504882812,-2.553099393844604,-1.414637088775635,-0.9792534708976746,XArbitraryZVertical,-0.3490893318247826,0.1019920861473718,-0.0811154852122524,-0.927984144774008,-0.2459271848201752,-0.6313524842262268,-0.7354685068130493,0,0,0,-1,-1,2864.560896375,walking,2,2022-05-12T10:32:46.977+02:00,2022-05-11T22:15:20.957+02:00,335,0.8999186,0.7476743,1.72769,251.5268,0,0,2022-05-12T10:32:44.417+02:00,674037166.976727,0,0.2000008,100.905,1,0.96
299,2022-05-12T10:32:47.346+02:00,1652344367.000525,53.22908060553391,10.39837672454023,36.84318,0.05902638,0.9468474,2.927491862470811,27.20368237328598,2.400000095367432,7.999579855010837,-9999,2864.929555,-2.196685791015625,-2.078262329101562,-1.643722534179688,2864.924558,0.3845255903331625,-0.3353912937329472,0.6473868597303241,-1.026240944862366,4.47722864151001,8.069758415222168,-2.167756319046021,-1.502165794372559,-0.9815539717674256,XArbitraryZVertical,-0.3380670740254223,0.0954024370093257,-0.1265046924426691,-0.9276883543404948,-0.2625415921211243,-0.6031040549278259,-0.7532180547714233,0,0,0,-1,-1,2864.560896375,walking,2,2022-05-12T10:32:46.977+02:00,2022-05-11T22:15:20.957+02:00,335,0.8999186,0.7476743,1.72769,251.5268,0,0,2022-05-12T10:32:44.417+02:00,674037166.976727,0,0.2000008,100.905,1,0.96
300,2022-05-12T10:32:47.356+02:00,1652344367.000525,53.22908060553391,10.39837672454023,36.84318,0.05902638,0.9468474,2.927491862470811,27.20368237328598,2.400000095367432,7.999579855010837,-9999,2864.939551,-2.037918090820312,-1.988067626953125,-1.4737548828125,2864.934553,0.4729688953541739,-0.344429480613116,0.6109621594092794,-1.068015336990356,4.145093441009521,7.839685440063477,-2.020406007766724,-1.537351369857788,-0.9214088916778564,XArbitraryZVertical,-0.3263459801823185,0.0894625012835325,-0.1700304146095899,-0.9255185538033546,-0.276575893163681,-0.5736558437347412,-0.7709895372390747,0,0,0,-1,-1,2864.560896375,walking,2,2022-05-12T10:32:46.977+02:00,2022-05-11T22:15:20.957+02:00,335,0.8999186,0.7476743,1.72769,251.5268,0,0,2022-05-12T10:32:44.417+02:00,674037166.976727,0,0.2000008,100.905,1,0.96
301,2022-05-12T10:32:47.366+02:00,1652344367.000525,53.22908060553391,10.39837672454023,36.84318,0.05902638,0.9468474,2.927491862470811,27.20368237328598,2.400000095367432,7.999579855010837,-9999,2864.949546,-1.892074584960938,-1.7880859375,-1.315811157226562,2864.944548,0.555921160850573,-0.3504466026799408,0.5752817620954713,-0.9428631067276,3.945417404174805,7.526060581207275,-1.811735868453979,-1.496852397918701,-0.7773423790931702,XArbitraryZVertical,-0.3144941390269679,0.0840981885567288,-0.2115357312674933,-0.9215605211234028,-0.2880566418170929,-0.5440711975097656,-0.788041889667511,0,0,0,-1,-1,2864.560896375,walking,2,2022-05-12T10:32:46.977+02:00,2022-05-11T22:15:20.957+02:00,335,0.8999186,0.7476743,1.72769,251.5268,0,0,2022-05-12T10:32:44.417+02:00,674037166.976727,0,0.2000008,100.905,1,0.96
302,2022-05-12T10:32:47.376+02:00,1652344367.000525,53.22908060553391,10.39837672454023,36.84318,0.05902638,0.9468474,2.927491862470811,27.20368237328598,2.400000095367432,7.999579855010837,-9999,2864.959541,-1.699859619140625,-1.66766357421875,-1.240753173828125,2864.954543,0.63392214386598,-0.3539532606768601,0.5420543044344762,-0.7333796620368958,3.606886625289917,7.178630828857422,-1.683591842651367,-1.377169132232666,-0.5845913887023926,XArbitraryZVertical,-0.3032814224031783,0.0790378476588626,-0.2508267965415549,-0.9158927641487388,-0.2969225943088531,-0.5158969163894653,-0.8035467863082886,0,0,0,-1,-1,2864.560896375,walking,2,2022-05-12T10:32:46.977+02:00,2022-05-11T22:15:20.957+02:00,335,0.8999186,0.7476743,1.72769,251.5268,0,0,2022-05-12T10:32:44.417+02:00,674037166.976727,0,0.2000008,100.905,1,0.96
303,2022-05-12T10:32:47.386+02:00,1652344367.000525,53.22908060553391,10.39837672454023,36.84318,0.05902638,0.9468474,2.927491862470811,27.20368237328598,2.400000095367432,7.999579855010837,-9999,2864.969536,-1.586822509765625,-1.654464721679688,-1.243194580078125,2864.964538,0.7067718319050095,-0.3567496307312772,0.5114032021398527,-0.6473649144172668,3.145590543746948,6.768485069274902,-1.480942487716675,-1.225655555725098,-0.4503052234649658,XArbitraryZVertical,-0.292938020501463,0.0749115571326045,-0.2874082498436046,-0.9088301357786724,-0.304549366235733,-0.4894014000892639,-0.8171511292457581,0,0,0,-1,-1,2864.560896375,walking,2,2022-05-12T10:32:46.977+02:00,2022-05-11T22:15:20.957+02:00,335,0.8999186,0.7476743,1.72769,251.5268,0,0,2022-05-12T10:32:44.417+02:00,674037166.976727,0,0.2000008,100.905,1,0.96
304,2022-05-12T10:32:47.397+02:00,1652344367.000525,53.22908060553391,10.39837672454023,36.84318,0.05902638,0.9468474,2.927491862470811,27.20368237328598,2.400000095367432,7.999579855010837,-9999,2864.979531,-1.580703735351562,-1.621444702148438,-1.226715087890625,2864.974534,0.7738066669528376,-0.3596927636222244,0.4816631033547327,-0.8261349201202393,2.692096710205078,6.350401878356934,-1.321528911590576,-1.188937067985535,-0.4086630344390869,XArbitraryZVertical,-0.2828644557463268,0.0723314898828524,-0.3210121184455865,-0.9009478916735648,-0.3119396567344666,-0.4632537066936493,-0.8295117020606995,0,0,0,-1,-1,2864.560896375,walking,2,2022-05-12T10:32:46.977+02:00,2022-05-11T22:15:20.957+02:00,335,0.8999186,0.7476743,1.72769,251.5268,0,0,2022-05-12T10:32:44.417+02:00,674037166.976727,0,0.2000008,100.905,1,0.96
305,2022-05-12T10:32:47.406+02:00,1652344367.000525,53.22908060553391,10.39837672454023,36.84318,0.05902638,0.9468474,2.927491862470811,27.20368237328598,2.400000095367432,7.999579855010837,-9999,2864.989526,-1.605804443359375,-1.387283325195312,-1.201248168945312,2864.984529,0.8340293442569156,-0.3608260181302357,0.451278654666671,-1.00272011756897,2.527260541915894,5.849854469299316,-1.251982927322388,-1.215875864028931,-0.4030073881149292,XArbitraryZVertical,-0.2720714761444622,0.0707529314996223,-0.3516537493624434,-0.8929227225098436,-0.3177037239074707,-0.4361165463924408,-0.8419422507286072,0,0,0,-1,-1,2864.560896375,walking,2,2022-05-12T10:32:46.977+02:00,2022-05-11T22:15:20.957+02:00,335,0.8999186,0.7476743,1.72769,251.5268,0,0,2022-05-12T10:32:44.417+02:00,674037166.976727,0,0.2000008,100.905,1,0.96
306,2022-05-12T10:32:47.416+02:00,1652344367.000525,53.22908060553391,10.39837672454023,36.84318,0.05902638,0.9468474,2.927491862470811,27.20368237328598,2.400000095367432,7.999579855010837,-9999,2864.999522,-1.558944702148438,-1.21270751953125,-1.182952880859375,2864.994524,0.888127190449902,-0.3587832962390763,0.4228496951110791,-0.8376137614250183,2.453781843185425,5.331398010253906,-1.283703804016113,-1.127236366271973,-0.3574324250221252,XArbitraryZVertical,-0.2614085096342573,0.0688290116096821,-0.3794927962864466,-0.8848240016656636,-0.3202084302902222,-0.4103608131408691,-0.8538563251495361,0,0,0,-1,-1,2864.560896375,walking,2,2022-05-12T10:32:46.977+02:00,2022-05-11T22:15:20.957+02:00,335,0.8999186,0.7476743,1.72769,251.5268,0,0,2022-05-12T10:32:44.417+02:00,674037166.976727,0,0.2000008,100.905,1,0.96
307,2022-05-12T10:32:47.426+02:00,1652344367.000525,53.22908060553391,10.39837672454023,36.84318,0.05902638,0.9468474,2.927491862470811,27.20368237328598,2.400000095367432,7.999579855010837,-9999,2865.009517,-1.589370727539062,-1.14947509765625,-1.16815185546875,2865.004519,0.9373524127605064,-0.3545637633340714,0.3982894035333436,-0.616602897644043,2.342605829238892,4.841003894805908,-1.263245820999146,-0.8731436729431152,-0.3314542174339294,XArbitraryZVertical,-0.2518179826441161,0.0662674781482198,-0.4047120639120973,-0.8765869313949488,-0.3200059533119202,-0.387842208147049,-0.8643926382064819,0,0,0,-1,-1,2864.560896375,walking,2,2022-05-12T10:32:46.977+02:00,2022-05-11T22:15:20.957+02:00,335,0.8999186,0.7476743,1.72769,251.5268,0,0,2022-05-12T10:32:44.417+02:00,674037166.976727,0,0.2000008,100.905,1,0.96
308,2022-05-12T10:32:47.436+02:00,1652344367.000525,53.22908060553391,10.39837672454023,36.84318,0.05902638,0.9468474,2.927491862470811,27.20368237328598,2.400000095367432,7.999579855010837,-9999,2865.019512,-1.621673583984375,-0.9998321533203124,-1.228195190429688,2865.014514,0.9823082417087724,-0.3483242726147906,0.377717073809461,-0.3700311481952667,2.311911344528198,4.409370899200439,-1.245252013206482,-0.8246816396713257,-0.2903897762298584,XArbitraryZVertical,-0.2433154884304863,0.062876291661955,-0.4275633579849605,-0.8683512738758461,-0.3172629773616791,-0.3687994182109833,-0.873688280582428,0,0,0,-1,-1,2864.560896375,walking,2,2022-05-12T10:32:46.977+02:00,2022-05-11T22:15:20.957+02:00,335,0.8999186,0.7476743,1.72769,251.5268,0,0,2022-05-12T10:32:44.417+02:00,674037166.976727,0,0.2000008,100.905,1,0.96
309,2022-05-12T10:32:47.446+02:00,1652344367.000525,53.22908060553391,10.39837672454023,36.84318,0.05902638,0.9468474,2.927491862470811,27.20368237328598,2.400000095367432,7.999579855010837,-9999,2865.029507,-1.597625732421875,-0.8896026611328125,-1.274948120117188,2865.024509,1.024000698991925,-0.3401424620291057,0.3615838966710546,-0.0361926220357418,2.3371901512146,4.002889633178711,-1.300545692443848,-0.7213472127914429,-0.3166302442550659,XArbitraryZVertical,-0.2360587117539546,0.0583225570634394,-0.4484535388321328,-0.8600954945470024,-0.3120486736297607,-0.3537561595439911,-0.8817495107650757,0,0,0,-1,-1,2864.560896375,walking,2,2022-05-12T10:32:46.977+02:00,2022-05-11T22:15:20.957+02:00,335,0.8999186,0.7476743,1.72769,251.5268,0,0,2022-05-12T10:32:44.417+02:00,674037166.976727,0,0.2000008,100.905,1,0.96
310,2022-05-12T10:32:47.456+02:00,1652344367.000525,53.22908060553391,10.39837672454023,36.84318,0.05902638,0.9468474,2.927491862470811,27.20368237328598,2.400000095367432,7.999579855010837,-9999,2865.039502,-1.537582397460938,-0.8571929931640625,-1.283218383789062,2865.034505,1.062957676019717,-0.3305881904791927,0.3501721482269479,0.2725162208080292,2.274763822555542,3.650371551513672,-1.312896847724915,-0.594577431678772,-0.3648295998573303,XArbitraryZVertical,-0.2302343339748323,0.0525974187733696,-0.4675497981659069,-0.8518350239340778,-0.3049006760120392,-0.3430595099925995,-0.888451337814331,0,0,0,-1,-1,2864.560896375,walking,2,2022-05-12T10:32:46.977+02:00,2022-05-11T22:15:20.957+02:00,335,0.8999186,0.7476743,1.72769,251.5268,0,0,2022-05-12T10:32:44.417+02:00,674037166.976727,0,0.2000008,100.905,1,0.96
311,2022-05-12T10:32:47.466+02:00,1652344367.000525,53.22908060553391,10.39837672454023,36.84318,0.05902638,0.9468474,2.927491862470811,27.20368237328598,2.400000095367432,7.999579855010837,-9999,2865.049497,-1.490814208984375,-0.8668212890625,-1.221145629882812,2865.0445,1.099327970295439,-0.32040301336397,0.3422955005730806,0.3933863341808319,2.246391773223877,3.347731351852417,-1.270048499107361,-0.5307128429412842,-0.3946641683578491,XArbitraryZVertical,-0.225481052985483,0.0462004312798498,-0.4850108081859075,-0.8436755937575637,-0.2966778576374054,-0.3356502950191498,-0.8940476179122925,0,0,0,-1,-1,2864.560896375,walking,2,2022-05-12T10:32:46.977+02:00,2022-05-11T22:15:20.957+02:00,335,0.8999186,0.7476743,1.72769,251.5268,0,0,2022-05-12T10:32:44.417+02:00,674037166.976727,0,0.2000008,100.905,1,0.96
312,2022-05-12T10:32:47.476+02:00,1652344367.000525,53.22908060553391,10.39837672454023,36.84318,0.05902638,0.9468474,2.927491862470811,27.20368237328598,2.400000095367432,7.999579855010837,-9999,2865.059492,-1.423583984375,-0.828338623046875,-1.1568603515625,2865.054495,1.132587549034594,-0.3088041854305854,0.3359919472246798,0.335284948348999,2.288244962692261,3.014609098434448,-1.227386832237244,-0.5296382904052734,-0.3573487401008606,XArbitraryZVertical,-0.2207740639631911,0.0393143526291991,-0.5009619300448224,-0.8359129566117331,-0.2869255542755127,-0.3297058045864105,-0.8994264006614685,0,0,0,-1,-1,2864.560896375,walking,2,2022-05-12T10:32:46.977+02:00,2022-05-11T22:15:20.957+02:00,335,0.8999186,0.7476743,1.72769,251.5268,0,0,2022-05-12T10:32:44.417+02:00,674037166.976727,0,0.2000008,100.905,1,0.96
313,2022-05-12T10:32:47.487+02:00,1652344367.000525,53.22908060553391,10.39837672454023,36.84318,0.05902638,0.9468474,2.927491862470811,27.20368237328598,2.400000095367432,7.999579855010837,-9999,2865.069488,-1.367385864257812,-0.7830657958984375,-1.0777587890625,2865.06449,1.162260830005097,-0.2954765911859311,0.329866079281489,0.1563064903020859,2.317124128341675,2.715289831161499,-1.184677958488464,-0.5332763195037842,-0.2842761278152466,XArbitraryZVertical,-0.2154513349270006,0.0322162236933108,-0.5154192076013768,-0.8287858878105231,-0.2754962146282196,-0.3239163160324097,-0.9050856828689576,0,0,0,-1,-1,2864.560896375,walking,2,2022-05-12T10:32:46.977+02:00,2022-05-11T22:15:20.957+02:00,335,0.8999186,0.7476743,1.72769,251.5268,0,0,2022-05-12T10:32:44.417+02:00,674037166.976727,0,0.2000008,100.905,1,0.96
314,2022-05-12T10:32:47.496+02:00,1652344367.000525,53.22908060553391,10.39837672454023,36.84318,0.05902638,0.9468474,2.927491862470811,27.20368237328598,2.400000095367432,7.999579855010837,-9999,2865.079483,-1.308074951171875,-0.695068359375,-1.01348876953125,2865.074485,1.188585636760615,-0.2802815689871976,0.3234542562243016,0.0470740050077438,2.419777393341064,2.430288076400757,-1.126588582992554,-0.4871639609336853,-0.2052346467971802,XArbitraryZVertical,-0.2092976500924908,0.0249463854618237,-0.5285629455693458,-0.8223098768007481,-0.2622812688350677,-0.3178435862064362,-0.9111443161964417,0,0,0,-1,-1,2864.560896375,walking,2,2022-05-12T10:32:46.977+02:00,2022-05-11T22:15:20.957+02:00,335,0.8999186,0.7476743,1.72769,251.5268,0,0,2022-05-12T10:32:44.417+02:00,674037166.976727,0,0.2000008,100.905,1,0.96
315,2022-05-12T10:32:47.506+02:00,1652344367.000525,53.22908060553391,10.39837672454023,36.84318,0.05902638,0.9468474,2.927491862470811,27.20368237328598,2.400000095367432,7.999579855010837,-9999,2865.089478,-1.217010498046875,-0.631561279296875,-0.9442138671875,2865.08448,1.212184960520628,-0.2632021634134827,0.3176020623661269,0.0359861999750137,2.481238842010498,2.209268093109131,-1.099761724472046,-0.4333462119102478,-0.126720130443573,XArbitraryZVertical,-0.2026548882036745,0.0171874434271945,-0.540574216734704,-0.8163425800869146,-0.2471617013216019,-0.3122894465923309,-0.9172711968421936,0,0,0,-1,-1,2864.560896375,walking,2,2022-05-12T10:32:46.977+02:00,2022-05-11T22:15:20.957+02:00,335,0.8999186,0.7476743,1.72769,251.5268,0,0,2022-05-12T10:32:44.417+02:00,674037166.976727,0,0.2000008,100.905,1,0.96
316,2022-05-12T10:32:47.516+02:00,1652344367.000525,53.22908060553391,10.39837672454023,36.84318,0.05902638,0.9468474,2.927491862470811,27.20368237328598,2.400000095367432,7.999579855010837,-9999,2865.099473,-1.161163330078125,-0.60150146484375,-0.90167236328125,2865.094475,1.233853664964462,-0.2447859526009478,0.3129179449008082,0.1026453897356987,2.543544292449951,2.01909613609314,-1.025294184684753,-0.3437137603759766,-0.0576063394546508,XArbitraryZVertical,-0.1959153054899356,0.0088924737702419,-0.5516726553729794,-0.8106759681946972,-0.230580061674118,-0.3078362047672272,-0.9230762124061584,0,0,0,-1,-1,2864.560896375,walking,2,2022-05-12T10:32:46.977+02:00,2022-05-11T22:15:20.957+02:00,335,0.8999186,0.7476743,1.72769,251.5268,0,0,2022-05-12T10:32:44.417+02:00,674037166.976727,0,0.2000008,100.905,1,0.96
317,2022-05-12T10:32:47.526+02:00,1652344367.000525,53.22908060553391,10.39837672454023,36.84318,0.05902638,0.9468474,2.927491862470811,27.20368237328598,2.400000095367432,7.999579855010837,-9999,2865.109468,-1.081314086914062,-0.554931640625,-0.894866943359375,2865.104471,1.254047071068786,-0.2255197001885697,0.3100203236445643,0.2352888286113739,2.538671016693115,1.857552647590637,-0.9785141348838806,-0.3169157207012177,0.0120288729667663,XArbitraryZVertical,-0.1894563761665598,1.338081186920531e-05,-0.5619530273543404,-0.8051801586679677,-0.2129527181386948,-0.305077999830246,-0.928212583065033,0,0,0,-1,-1,2864.560896375,walking,2,2022-05-12T10:32:46.977+02:00,2022-05-11T22:15:20.957+02:00,335,0.8999186,0.7476743,1.72769,251.5268,0,0,2022-05-12T10:32:44.417+02:00,674037166.976727,0,0.2000008,100.905,1,0.96
318,2022-05-12T10:32:47.536+02:00,1652344367.000525,53.22908060553391,10.39837672454023,36.84318,0.05902638,0.9468474,2.927491862470811,27.20368237328598,2.400000095367432,7.999579855010837,-9999,2865.119463,-1.002288818359375,-0.55035400390625,-0.8595733642578125,2865.114466,1.273043346002076,-0.2062870027278412,0.3092335548548923,0.3816710710525513,2.465153217315674,1.711942195892334,-0.926576852798462,-0.2719192206859589,0.0359169244766235,XArbitraryZVertical,-0.1836548551933697,-0.009242262518977,-0.5714387540685151,-0.7997770089052774,-0.1951114982366562,-0.3043286502361298,-0.9323709607124328,0,0,0,-1,-1,2864.560896375,walking,2,2022-05-12T10:32:46.977+02:00,2022-05-11T22:15:20.957+02:00,335,0.8999186,0.7476743,1.72769,251.5268,0,0,2022-05-12T10:32:44.417+02:00,674037166.976727,0,0.2000008,100.905,1,0.96
319,2022-05-12T10:32:47.546+02:00,1652344367.000525,53.22908060553391,10.39837672454023,36.84318,0.05902638,0.9468474,2.927491862470811,27.20368237328598,2.400000095367432,7.999579855010837,-9999,2865.129459,-0.9305572509765624,-0.5753631591796875,-0.810302734375,2865.124461,1.290795312523294,-0.1876570188334193,0.3102734401380913,0.4757150113582611,2.335557699203491,1.573574781417847,-0.8654103875160217,-0.2394347190856934,0.05107182264328,XArbitraryZVertical,-0.1785729075555223,-0.018587450377553,-0.5801132670658863,-0.7945028784402661,-0.1776494532823563,-0.3053190410137177,-0.9355324506759644,0,0,0,-1,-1,2864.560896375,walking,2,2022-05-12T10:32:46.977+02:00,2022-05-11T22:15:20.957+02:00,335,0.8999186,0.7476743,1.72769,251.5268,0,0,2022-05-12T10:32:44.417+02:00,674037166.976727,0,0.2000008,100.905,1,0.96
320,2022-05-12T10:32:47.556+02:00,1652344367.000525,53.22908060553391,10.39837672454023,36.84318,0.05902638,0.9468474,2.927491862470811,27.20368237328598,2.400000095367432,7.999579855010837,-9999,2865.139454,-0.8884124755859375,-0.5924224853515625,-0.7796173095703125,2865.134456,1.307335555275871,-0.1700357983889758,0.3125858901818537,0.5383182168006897,2.200733423233032,1.448817372322083,-0.7987596988677979,-0.2595723569393158,0.1052688956260681,XArbitraryZVertical,-0.1741315846860783,-0.0277244551198511,-0.5880274700864334,-0.7893879846056895,-0.1610176116228104,-0.3075202405452728,-0.9378190636634828,0,0,0,-1,-1,2864.560896375,walking,2,2022-05-12T10:32:46.977+02:00,2022-05-11T22:15:20.957+02:00,335,0.8999186,0.7476743,1.72769,251.5268,0,0,2022-05-12T10:32:44.417+02:00,674037166.976727,0,0.2000008,100.905,1,0.96
321,2022-05-12T10:32:47.566+02:00,1652344367.000525,53.22908060553391,10.39837672454023,36.84318,0.05902638,0.9468474,2.927491862470811,27.20368237328598,2.400000095367432,7.999579855010837,-9999,2865.149449,-0.820281982421875,-0.63134765625,-0.7337493896484375,2865.144451,1.322709418226218,-0.1534630936259445,0.315685503906829,0.5221757888793945,2.059344053268433,1.345337986946106,-0.7666792273521423,-0.2726461589336395,0.14372718334198,XArbitraryZVertical,-0.170177708453778,-0.0365166563754889,-0.5952576582021224,-0.7844580136908306,-0.1453076004981995,-0.3104681670665741,-0.9394121766090392,0,0,0,-1,-1,2864.560896375,walking,2,2022-05-12T10:32:46.977+02:00,2022-05-11T22:15:20.957+02:00,335,0.8999186,0.7476743,1.72769,251.5268,0,0,2022-05-12T10:32:44.417+02:00,674037166.976727,0,0.2000008,100.905,1,0.96
322,2022-05-12T10:32:47.576+02:00,1652344367.000525,53.22908060553391,10.39837672454023,36.84318,0.05902638,0.9468474,2.927491862470811,27.20368237328598,2.400000095367432,7.999579855010837,-9999,2865.159444,-0.776519775390625,-0.650054931640625,-0.6546173095703125,2865.154446,1.336975084835203,-0.138013003014496,0.3178897328278104,0.2769665420055389,1.940336346626282,1.268962264060974,-0.7240535020828247,-0.2935008406639099,0.1827775239944458,XArbitraryZVertical,-0.166110993064258,-0.0444377344257828,-0.6019661381688648,-0.779787941189069,-0.1306823641061783,-0.3125627338886261,-0.9408648610115052,0,0,0,-1,-1,2864.560896375,walking,2,2022-05-12T10:32:46.977+02:00,2022-05-11T22:15:20.957+02:00,335,0.8999186,0.7476743,1.72769,251.5268,0,0,2022-05-12T10:32:44.417+02:00,674037166.976727,0,0.2000008,100.905,1,0.96
323,2022-05-12T10:32:47.586+02:00,1652344367.000525,53.22908060553391,10.39837672454023,36.84318,0.05902638,0.9468474,2.927491862470811,27.20368237328598,2.400000095367432,7.999579855010837,-9999,2865.169439,-0.7156524658203125,-0.569244384765625,-0.622406005859375,2865.164442,1.349878847496712,-0.1227288427290281,0.3172114375023053,-0.0708627477288246,1.917187094688416,1.16581928730011,-0.6789590120315552,-0.3411117792129517,0.2433468699455261,XArbitraryZVertical,-0.160918498462884,-0.0512251173949443,-0.6082836301597959,-0.7755464423515859,-0.1163132637739182,-0.3119183480739594,-0.9429624676704408,0,0,0,-1,-1,2864.560896375,walking,2,2022-05-12T10:32:46.977+02:00,2022-05-11T22:15:20.957+02:00,335,0.8999186,0.7476743,1.72769,251.5268,0,0,2022-05-12T10:32:44.417+02:00,674037166.976727,0,0.2000008,100.905,1,0.96
