loggingTime(txt),locationTimestamp_since1970(s),locationLatitude(WGS84),locationLongitude(WGS84),locationAltitude(m),locationSpeed(m/s),locationSpeedAccuracy(m/s),locationCourse(°),locationCourseAccuracy(°),locationVerticalAccuracy(m),locationHorizontalAccuracy(m),locationFloor(Z),accelerometerTimestamp_sinceReboot(s),accelerometerAccelerationX(G),accelerometerAccelerationY(G),accelerometerAccelerationZ(G),motionTimestamp_sinceReboot(s),motionYaw(rad),motionRoll(rad),motionPitch(rad),motionRotationRateX(rad/s),motionRotationRateY(rad/s),motionRotationRateZ(rad/s),motionUserAccelerationX(G),motionUserAccelerationY(G),motionUserAccelerationZ(G),motionAttitudeReferenceFrame(txt),motionQuaternionX(R),motionQuaternionY(R),motionQuaternionZ(R),motionQuaternionW(R),motionGravityX(G),motionGravityY(G),motionGravityZ(G),motionMagneticFieldX(µT),motionMagneticFieldY(µT),motionMagneticFieldZ(µT),motionHeading(°),motionMagneticFieldCalibrationAccuracy(Z),activityTimestamp_sinceReboot(s),activity(txt),activityActivityConfidence(Z),activityActivityStartDate(txt),pedometerStartDate(txt),pedometerNumberofSteps(N),pedometerAverageActivePace(s/m),pedometerCurrentPace(s/m),pedometerCurrentCadence(steps/s),pedometerDistance(m),pedometerFloorAscended(N),pedometerFloorDescended(N),pedometerEndDate(txt),altimeterTimestamp_sinceReboot(s),altimeterReset(bool),altimeterRelativeAltitude(m),altimeterPressure(kPa),batteryState(N),batteryLevel(R)
2022-06-02T10:46:04.169+02:00,1654159564.00011,53.22907148528507,10.39851904469576,36.4815,0.351264,0.6655378,142.4449884992067,141.4025124453076,2.400000095367432,7.999579855010836,-9999,2708.423045791667,0.0708770751953125,-0.39532470703125,-0.9136810302734375,2708.413051791667,1.726861406030297,0.06282194733246318,0.3435650594812167,0.1983139216899872,0.0533309318125248,-0.01087002456188202,-0.1814872622489929,-0.05869236588478088,-0.01351416110992432,XArbitraryZVertical,0.08750759330231865,0.1499707323791506,0.7520085251041292,0.6358728397174578,0.05911171808838844,-0.3368459343910217,-0.9397023916244507,0,0,0,-1,-1,2707.078338541667,unknown,2,2022-06-02T10:46:02.800+02:00,2022-06-02T10:17:13.754+02:00,448,1.407446,0,0,345.1212,0,0,2022-06-02T10:46:02.800+02:00,675852362.7997979,0,7.183594,101.2966,1,0.81
2022-06-02T10:46:04.172+02:00,1654159564.00011,53.22907148528507,10.39851904469576,36.4815,0.351264,0.6655378,142.4449884992067,141.4025124453076,2.400000095367432,7.999579855010836,-9999,2708.433040791667,0.0919647216796875,-0.359832763671875,-0.9228668212890625,2708.423045791667,1.727198026708083,0.06328817834433449,0.3443713813444602,-0.02029724977910519,0.06151189282536507,0.05234569311141968,-0.03008322417736053,-0.0573076605796814,0.03332120180130005,XArbitraryZVertical,0.08756661993315965,0.1504340442432084,0.7520916526365522,0.635656915097686,0.05953263491392136,-0.3376050293445587,-0.9394033551216125,0,0,0,-1,-1,2707.078338541667,unknown,2,2022-06-02T10:46:02.800+02:00,2022-06-02T10:17:13.754+02:00,448,1.407446,0,0,345.1212,0,0,2022-06-02T10:46:02.800+02:00,675852362.7997979,0,7.183594,101.2966,1,0.81
2022-06-02T10:46:04.181+02:00,1654159564.00011,53.22907148528507,10.39851904469576,36.4815,0.351264,0.6655378,142.4449884992067,141.4025124453076,2.400000095367432,7.999579855010836,-9999,2708.443035791667,0.0797119140625,-0.2925567626953125,-0.9196624755859375,2708.433040791667,1.727238336443243,0.06393814718680878,0.3438820730979301,-0.06501262634992599,0.05720270052552223,-0.04632741957902908,0.02614990994334221,-0.04980316758155823,0.01641827821731567,XArbitraryZVertical,0.08716161969040334,0.1504601035393069,0.7521597007769417,0.6356258640486403,0.06015375256538391,-0.3371444046497345,-0.9395292401313782,0,0,0,-1,-1,2707.078338541667,unknown,2,2022-06-02T10:46:02.800+02:00,2022-06-02T10:17:13.754+02:00,448,1.407446,0,0,345.1212,0,0,2022-06-02T10:46:02.800+02:00,675852362.7997979,0,7.183594,101.2966,1,0.81
2022-06-02T10:46:04.184+02:00,1654159564.00011,53.22907148528507,10.39851904469576,36.4815,0.351264,0.6655378,142.4449884992067,141.4025124453076,2.400000095367432,7.999579855010836,-9999,2708.453029791667,0.0283966064453125,-0.268768310546875,-0.95428466796875,2708.443035791667,1.726761590393826,0.06446612855985867,0.3434260923992597,-0.01897056214511395,0.01381181925535202,-0.03618423640727997,0.0294434130191803,0.01359501481056213,0.02140724658966064,XArbitraryZVertical,0.08685209843022197,0.1504373248495243,0.7520560709241112,0.6357963035238229,0.06065969541668892,-0.3367151021957397,-0.9396506547927856,0,0,0,-1,-1,2707.078338541667,unknown,2,2022-06-02T10:46:02.800+02:00,2022-06-02T10:17:13.754+02:00,448,1.407446,0,0,345.1212,0,0,2022-06-02T10:46:02.800+02:00,675852362.7997979,0,7.183594,101.2966,1,0.81
2022-06-02T10:46:04.186+02:00,1654159564.00011,53.22907148528507,10.39851904469576,36.4815,0.351264,0.6655378,142.4449884992067,141.4025124453076,2.400000095367432,7.999579855010836,-9999,2708.463024791667,-0.000885009765625,-0.264129638671875,-0.9699554443359375,2708.453029791667,1.726542335635911,0.06470403732151497,0.3435752156927209,0.04694590345025063,0.02470368146896362,-0.009773734956979752,-0.005277026444673538,0.06180062890052795,0.002864301204681396,XArbitraryZVertical,0.08682717489708178,0.1505589735662132,0.7519885601244057,0.6358507778955015,0.06087999790906906,-0.3368555009365082,-0.9395861029624939,0,0,0,-1,-1,2707.078338541667,unknown,2,2022-06-02T10:46:02.800+02:00,2022-06-02T10:17:13.754+02:00,448,1.407446,0,0,345.1212,0,0,2022-06-02T10:46:02.800+02:00,675852362.7997979,0,7.183594,101.2966,1,0.81
2022-06-02T10:46:04.195+02:00,1654159564.00011,53.22907148528507,10.39851904469576,36.4815,0.351264,0.6655378,142.4449884992067,141.4025124453076,2.400000095367432,7.999579855010836,-9999,2708.473018791667,0.0253753662109375,-0.2864990234375,-0.9874420166015625,2708.463024791667,1.726452974136737,0.06512128733130562,0.3441123536257827,0.05277609452605247,0.05337367951869965,0.002713028341531754,-0.05643852055072784,0.07231605052947998,-0.02404475212097168,XArbitraryZVertical,0.08685006337661737,0.1508877533800831,0.7519489538684495,0.6358166074011777,0.06126024946570396,-0.337361216545105,-0.9393799304962158,0,0,0,-1,-1,2707.078338541667,unknown,2,2022-06-02T10:46:02.800+02:00,2022-06-02T10:17:13.754+02:00,448,1.407446,0,0,345.1212,0,0,2022-06-02T10:46:02.800+02:00,675852362.7997979,0,7.183594,101.2966,1,0.81
2022-06-02T10:46:04.205+02:00,1654159564.00011,53.22907148528507,10.39851904469576,36.4815,0.351264,0.6655378,142.4449884992067,141.4025124453076,2.400000095367432,7.999579855010836,-9999,2708.483013791667,0.06390380859375,-0.3154144287109375,-0.988739013671875,2708.473018791667,1.726625643325896,0.0656973459928908,0.3445470278682662,0.02856952697038651,0.07676868140697479,0.03299003839492798,-0.0548185296356678,0.06550782918930054,-0.0401567816734314,XArbitraryZVertical,0.08676044611040104,0.1512402335685389,0.7520051026674323,0.6356785367814861,0.06179174408316612,-0.3377703726291656,-0.9391980171203613,0,0,0,-1,-1,2707.078338541667,unknown,2,2022-06-02T10:46:02.800+02:00,2022-06-02T10:17:13.754+02:00,448,1.407446,0,0,345.1212,0,0,2022-06-02T10:46:02.800+02:00,675852362.7997979,0,7.183594,101.2966,1,0.81
2022-06-02T10:46:04.215+02:00,1654159564.00011,53.22907148528507,10.39851904469576,36.4815,0.351264,0.6655378,142.4449884992067,141.4025124453076,2.400000095367432,7.999579855010836,-9999,2708.493008166667,0.087158203125,-0.321380615234375,-0.981964111328125,2708.483013791667,1.726915793359576,0.06643226759660681,0.3447105906507968,-0.001079445704817772,0.09186827391386032,0.01516070961952209,-0.01697662472724915,0.03430494666099548,-0.04874151945114136,XArbitraryZVertical,0.08651481134556081,0.1515472644467473,0.7521202221788376,0.6355026436006918,0.06247829645872116,-0.3379243016242981,-0.9390972256660461,0,0,0,-1,-1,2707.078338541667,unknown,2,2022-06-02T10:46:02.800+02:00,2022-06-02T10:17:13.754+02:00,448,1.407446,0,0,345.1212,0,0,2022-06-02T10:46:02.800+02:00,675852362.7997979,0,7.183594,101.2966,1,0.81
2022-06-02T10:46:04.225+02:00,1654159564.00011,53.22907148528507,10.39851904469576,36.4815,0.351264,0.6655378,142.4449884992067,141.4025124453076,2.400000095367432,7.999579855010836,-9999,2708.503003166667,0.093902587890625,-0.314208984375,-0.94903564453125,2708.493008166667,1.727165012394965,0.06663790699461059,0.3448086858263105,-0.01431791856884956,0.1019868850708008,-0.01697931624948978,0.01525738835334778,0.01628509163856506,-0.04990136623382568,XArbitraryZVertical,0.08645017701207723,0.1516598996733949,0.7522029522164113,0.6353866773310081,0.06266920268535614,-0.3380166292190552,-0.9390512704849243,0,0,0,-1,-1,2707.078338541667,unknown,2,2022-06-02T10:46:02.800+02:00,2022-06-02T10:17:13.754+02:00,448,1.407446,0,0,345.1212,0,0,2022-06-02T10:46:02.800+02:00,675852362.7997979,0,7.183594,101.2966,1,0.81
2022-06-02T10:46:04.235+02:00,1654159564.00011,53.22907148528507,10.39851904469576,36.4815,0.351264,0.6655378,142.4449884992067,141.4025124453076,2.400000095367432,7.999579855010836,-9999,2708.512997166667,0.0938873291015625,-0.318572998046875,-0.9182586669921875,2708.503003166667,1.727038203097265,0.06754469452644606,0.3450105676011638,0.002803276758641005,0.09180694818496704,-0.01275740750133991,0.02701425552368164,0.01975572109222412,-0.02901530265808105,XArbitraryZVertical,0.0861837879918828,0.1520176453760921,0.7521908222260207,0.6353518994352928,0.06351608783006668,-0.3382066190242767,-0.9389259815216064,0,0,0,-1,-1,2707.078338541667,unknown,2,2022-06-02T10:46:02.800+02:00,2022-06-02T10:17:13.754+02:00,448,1.407446,0,0,345.1212,0,0,2022-06-02T10:46:02.800+02:00,675852362.7997979,0,7.183594,101.2966,1,0.81
2022-06-02T10:46:04.245+02:00,1654159564.00011,53.22907148528507,10.39851904469576,36.4815,0.351264,0.6655378,142.4449884992067,141.4025124453076,2.400000095367432,7.999579855010836,-9999,2708.522992166667,0.08929443359375,-0.33551025390625,-0.9090118408203125,2708.512997166667,1.726917454272751,0.06850036084200337,0.3453675263693216,0.005660282447934151,0.0631219744682312,0.003753193654119968,0.03055029362440109,0.02465403079986572,0.00823289155960083,XArbitraryZVertical,0.085948531334594,0.1524489493529262,0.7521741775684301,0.6352999670043351,0.06440509110689163,-0.3385425209999084,-0.9387443065643311,0,0,0,-1,-1,2707.078338541667,unknown,2,2022-06-02T10:46:02.800+02:00,2022-06-02T10:17:13.754+02:00,448,1.407446,0,0,345.1212,0,0,2022-06-02T10:46:02.800+02:00,675852362.7997979,0,7.183594,101.2966,1,0.81
2022-06-02T10:46:04.255+02:00,1654159564.00011,53.22907148528507,10.39851904469576,36.4815,0.351264,0.6655378,142.4449884992067,141.4025124453076,2.400000095367432,7.999579855010836,-9999,2708.532986166667,0.0881805419921875,-0.34735107421875,-0.9102630615234375,2708.522992166667,1.726986018258517,0.06915209658660167,0.3453443397416013,-0.006207029335200787,0.04445375129580498,0.02238200604915619,0.02659627795219421,0.01097556948661804,0.02820277214050293,XArbitraryZVertical,0.08569071967060968,0.1526502544991087,0.7522251875192491,0.6352261636800812,0.06501743942499161,-0.3385207056999207,-0.9387099742889404,0,0,0,-1,-1,2707.078338541667,unknown,2,2022-06-02T10:46:02.800+02:00,2022-06-02T10:17:13.754+02:00,448,1.407446,0,0,345.1212,0,0,2022-06-02T10:46:02.800+02:00,675852362.7997979,0,7.183594,101.2966,1,0.81
2022-06-02T10:46:04.265+02:00,1654159564.00011,53.22907148528507,10.39851904469576,36.4815,0.351264,0.6655378,142.4449884992067,141.4025124453076,2.400000095367432,7.999579855010836,-9999,2708.542981166667,0.0855255126953125,-0.350677490234375,-0.921234130859375,2708.532986166667,1.727358655824827,0.06931825220517605,0.3447491628213364,-0.04538605734705925,0.02652388624846935,0.04054489731788635,0.02367979288101196,-0.003393739461898804,0.03007125854492188,XArbitraryZVertical,0.08540808086736898,0.1524973980614213,0.7523828509603115,0.6351141166184631,0.06518734991550446,-0.3379606008529663,-0.9388999938964844,0,0,0,-1,-1,2707.078338541667,unknown,2,2022-06-02T10:46:02.800+02:00,2022-06-02T10:17:13.754+02:00,448,1.407446,0,0,345.1212,0,0,2022-06-02T10:46:02.800+02:00,675852362.7997979,0,7.183594,101.2966,1,0.81
2022-06-02T10:46:04.275+02:00,1654159564.00011,53.22907148528507,10.39851904469576,36.4815,0.351264,0.6655378,142.4449884992067,141.4025124453076,2.400000095367432,7.999579855010836,-9999,2708.552975166667,0.084686279296875,-0.3402099609375,-0.9263916015625,2708.542981166667,1.728083340570205,0.06893725782671929,0.3438350746264605,-0.04264486581087112,0.02082685194909573,0.06192155927419662,0.02099502086639404,-0.01408085227012634,0.02489542961120605,XArbitraryZVertical,0.08520190189433489,0.1520669358325521,0.7526460750290457,0.6349330129365786,0.06485088169574738,-0.3371001780033112,-0.9392325878143311,0,0,0,-1,-1,2707.078338541667,unknown,2,2022-06-02T10:46:02.800+02:00,2022-06-02T10:17:13.754+02:00,448,1.407446,0,0,345.1212,0,0,2022-06-02T10:46:02.800+02:00,675852362.7997979,0,7.183594,101.2966,1,0.81
2022-06-02T10:46:04.285+02:00,1654159564.00011,53.22907148528507,10.39851904469576,36.4815,0.351264,0.6655378,142.4449884992067,141.4025124453076,2.400000095367432,7.999579855010836,-9999,2708.562970166667,0.093505859375,-0.345977783203125,-0.930572509765625,2708.552975166667,1.729018251835055,0.0682025489704754,0.3428133568882844,-0.0277828611433506,0.009373062290251255,0.06751425564289093,0.02054776251316071,-0.01023641228675842,0.01397919654846191,XArbitraryZVertical,0.08507865414112366,0.1514928017042119,0.7529667013101005,0.6347068189497079,0.06418424099683762,-0.3361380696296692,-0.9396231174468994,0,0,0,-1,-1,2707.078338541667,unknown,2,2022-06-02T10:46:02.800+02:00,2022-06-02T10:17:13.754+02:00,448,1.407446,0,0,345.1212,0,0,2022-06-02T10:46:02.800+02:00,675852362.7997979,0,7.183594,101.2966,1,0.81
2022-06-02T10:46:04.295+02:00,1654159564.00011,53.22907148528507,10.39851904469576,36.4815,0.351264,0.6655378,142.4449884992067,141.4025124453076,2.400000095367432,7.999579855010836,-9999,2708.572964166667,0.09393310546875,-0.349578857421875,-0.950775146484375,2708.562970166667,1.729840035209116,0.06767611291550499,0.3420834918523347,-0.02502782270312309,-0.007666907738894224,0.06916435062885284,0.02421493828296661,-0.004988223314285278,0.01357072591781616,XArbitraryZVertical,0.08497991952524837,0.1510886195858073,0.7532444279432942,0.6344867558480665,0.06370615214109421,-0.3354505896568298,-0.9399012923240662,0,0,0,-1,-1,2707.078338541667,unknown,2,2022-06-02T10:46:02.800+02:00,2022-06-02T10:17:13.754+02:00,448,1.407446,0,0,345.1212,0,0,2022-06-02T10:46:02.800+02:00,675852362.7997979,0,7.183594,101.2966,1,0.81
2022-06-02T10:46:04.305+02:00,1654159564.00011,53.22907148528507,10.39851904469576,36.4815,0.351264,0.6655378,142.4449884992067,141.4025124453076,2.400000095367432,7.999579855010836,-9999,2708.582959166667,0.084991455078125,-0.3387298583984375,-0.9514007568359375,2708.572964166667,1.730514726196977,0.06760094129000076,0.3411293927603469,-0.03191642090678215,-0.0110122375190258,0.07143217325210571,0.03105416893959045,-0.01760596036911011,-0.0004336237907409668,XArbitraryZVertical,0.084650518611096,0.1507375307812489,0.7535066319655341,0.6343030321896793,0.06365709006786346,-0.3345516324043274,-0.9402249455451965,0,0,0,-1,-1,2707.078338541667,unknown,2,2022-06-02T10:46:02.800+02:00,2022-06-02T10:17:13.754+02:00,448,1.407446,0,0,345.1212,0,0,2022-06-02T10:46:02.800+02:00,675852362.7997979,0,7.183594,101.2966,1,0.81
2022-06-02T10:46:04.315+02:00,1654159564.00011,53.22907148528507,10.39851904469576,36.4815,0.351264,0.6655378,142.4449884992067,141.4025124453076,2.400000095367432,7.999579855010836,-9999,2708.592953166667,0.073883056640625,-0.35064697265625,-0.954559326171875,2708.582959166667,1.730989819815823,0.06807847386257461,0.3398823853903775,-0.06740011274814606,-0.01785309985280037,0.06438038498163223,0.02647223323583603,-0.008390098810195923,-0.01140111684799194,XArbitraryZVertical,0.0840338978190005,0.1504437701843802,0.7537442964516491,0.6341723010145811,0.06413440406322479,-0.3333761990070343,-0.9406099319458008,0,0,0,-1,-1,2707.078338541667,unknown,2,2022-06-02T10:46:02.800+02:00,2022-06-02T10:17:13.754+02:00,448,1.407446,0,0,345.1212,0,0,2022-06-02T10:46:02.800+02:00,675852362.7997979,0,7.183594,101.2966,1,0.81
2022-06-02T10:46:04.325+02:00,1654159564.00011,53.22907148528507,10.39851904469576,36.4815,0.351264,0.6655378,142.4449884992067,141.4025124453076,2.400000095367432,7.999579855010836,-9999,2708.602948166667,0.066925048828125,-0.3543243408203125,-0.9547576904296875,2708.592953166667,1.731231388887445,0.06907126025632161,0.3385652027356726,-0.08577322214841843,-0.01193895097821951,0.05762175098061562,0.01502542197704315,-0.01143279671669006,-0.01267600059509277,XArbitraryZVertical,0.0832180920366202,0.1502771389162954,0.7539325685047186,0.6340954609764204,0.06509844213724136,-0.3321340978145599,-0.9409830570220947,0,0,0,-1,-1,2707.078338541667,unknown,2,2022-06-02T10:46:02.800+02:00,2022-06-02T10:17:13.754+02:00,448,1.407446,0,0,345.1212,0,0,2022-06-02T10:46:02.800+02:00,675852362.7997979,0,7.183594,101.2966,1,0.81
2022-06-02T10:46:04.335+02:00,1654159564.00011,53.22907148528507,10.39851904469576,36.4815,0.351264,0.6655378,142.4449884992067,141.4025124453076,2.400000095367432,7.999579855010836,-9999,2708.612942166667,0.063385009765625,-0.3327789306640625,-0.9446868896484375,2708.602948166667,1.731411196162272,0.07003281332478183,0.3379670141768835,-0.08528853207826614,-0.0009150620899163187,0.04223613813519478,0.003456108272075653,-0.02432617545127869,-0.01363962888717651,XArbitraryZVertical,0.08264976832370229,0.1503661810409788,0.7540611172458187,0.6339958273163984,0.06601710617542267,-0.3315697908401489,-0.941118061542511,0,0,0,-1,-1,2707.078338541667,unknown,2,2022-06-02T10:46:02.800+02:00,2022-06-02T10:17:13.754+02:00,448,1.407446,0,0,345.1212,0,0,2022-06-02T10:46:02.800+02:00,675852362.7997979,0,7.183594,101.2966,1,0.81
2022-06-02T10:46:04.345+02:00,1654159564.00011,53.22907148528507,10.39851904469576,36.4815,0.351264,0.6655378,142.4449884992067,141.4025124453076,2.400000095367432,7.999579855010836,-9999,2708.622937166667,0.0594482421875,-0.3087921142578125,-0.9479827880859375,2708.612942166667,1.731499920904922,0.07100878964536309,0.3381720383121339,-0.03699253872036934,-3.814976662397385e-05,0.04080395400524139,-0.0009060278534889221,-0.01393988728523254,-0.01043069362640381,XArbitraryZVertical,0.08234101504122283,0.1507557059164482,0.754118681592398,0.6338750384489359,0.06693076342344284,-0.3317632079124451,-0.9409853219985962,0,0,0,-1,-1,2707.078338541667,unknown,2,2022-06-02T10:46:02.800+02:00,2022-06-02T10:17:13.754+02:00,448,1.407446,0,0,345.1212,0,0,2022-06-02T10:46:02.800+02:00,675852362.7997979,0,7.183594,101.2966,1,0.81
2022-06-02T10:46:04.355+02:00,1654159564.00011,53.22907148528507,10.39851904469576,36.4815,0.351264,0.6655378,142.4449884992067,141.4025124453076,2.400000095367432,7.999579855010836,-9999,2708.632931166667,0.05462646484375,-0.3258819580078125,-0.9457244873046875,2708.622937166667,1.731640565733698,0.07191299572411489,0.3396362729187997,0.0485370084643364,-0.01069904956966639,0.05639782547950745,-0.006330020725727081,0.01513576507568359,-0.005895912647247314,XArbitraryZVertical,0.08246015218420552,0.1515944153080881,0.7541232369287377,0.6336540715296303,0.067746601998806,-0.3331441581249237,-0.9404389262199402,0,0,0,-1,-1,2707.078338541667,unknown,2,2022-06-02T10:46:02.800+02:00,2022-06-02T10:17:13.754+02:00,448,1.407446,0,0,345.1212,0,0,2022-06-02T10:46:02.800+02:00,675852362.7997979,0,7.183594,101.2966,1,0.81
2022-06-02T10:46:04.365+02:00,1654159564.00011,53.22907148528507,10.39851904469576,36.4815,0.351264,0.6655378,142.4449884992067,141.4025124453076,2.400000095367432,7.999579855010836,-9999,2708.642926166667,0.0602874755859375,-0.363494873046875,-0.9416656494140625,2708.632931166667,1.731840093741004,0.07263547183941027,0.3412794827825003,0.08183767646551132,-0.0134325847029686,0.05955160781741142,-0.0111657977104187,0.02361214160919189,-0.006553411483764648,XArbitraryZVertical,0.08270074184606202,0.1524445844831489,0.7541292862530745,0.633411523796699,0.06838621199131012,-0.334693044424057,-0.9398424625396729,0,0,0,-1,-1,2707.078338541667,unknown,2,2022-06-02T10:46:02.800+02:00,2022-06-02T10:17:13.754+02:00,448,1.407446,0,0,345.1212,0,0,2022-06-02T10:46:02.800+02:00,675852362.7997979,0,7.183594,101.2966,1,0.81
2022-06-02T10:46:04.375+02:00,1654159564.00011,53.22907148528507,10.39851904469576,36.4815,0.351264,0.6655378,142.4449884992067,141.4025124453076,2.400000095367432,7.999579855010836,-9999,2708.652921166667,0.0724334716796875,-0.3870391845703125,-0.9381256103515625,2708.642926166667,1.731956713377592,0.07376021430171638,0.3426546877718808,0.04813883453607559,-0.01254149060696363,0.06323449313640594,-0.01395887136459351,-0.01067578792572021,-0.00382542610168457,XArbitraryZVertical,0.08270970524459556,0.1533185487127942,0.7541397331942973,0.633186965372577,0.06940926611423492,-0.3359886407852173,-0.9393050670623779,0,0,0,-1,-1,2707.078338541667,unknown,2,2022-06-02T10:46:02.800+02:00,2022-06-02T10:17:13.754+02:00,448,1.407446,0,0,345.1212,0,0,2022-06-02T10:46:02.800+02:00,675852362.7997979,0,7.183594,101.2966,1,0.81
2022-06-02T10:46:04.385+02:00,1654159564.00011,53.22907148528507,10.39851904469576,36.4815,0.351264,0.6655378,142.4449884992067,141.4025124453076,2.400000095367432,7.999579855010836,-9999,2708.662915166667,0.078094482421875,-0.3935394287109375,-0.9503173828125,2708.652921166667,1.73201731071228,0.07513230140095425,0.3436593571269602,-0.04465575143694878,-0.008626511320471764,0.05127543956041336,-0.004037551581859589,-0.04038459062576294,0.001600742340087891,XArbitraryZVertical,0.08251054819656144,0.154130090698466,0.754162229440796,0.6329890191971271,0.07067263126373291,-0.3369347155094147,-0.9388718605041504,0,0,0,-1,-1,2707.078338541667,unknown,2,2022-06-02T10:46:02.800+02:00,2022-06-02T10:17:13.754+02:00,448,1.407446,0,0,345.1212,0,0,2022-06-02T10:46:02.800+02:00,675852362.7997979,0,7.183594,101.2966,1,0.81
2022-06-02T10:46:04.395+02:00,1654159564.00011,53.22907148528507,10.39851904469576,36.4815,0.351264,0.6655378,142.4449884992067,141.4025124453076,2.400000095367432,7.999579855010836,-9999,2708.672910166667,0.0740509033203125,-0.3680419921875,-0.9524688720703125,2708.662915166667,1.732073459755448,0.07610849418403327,0.3428986020391192,-0.1104020103812218,-0.004441087134182453,0.01987304165959358,0.005127809941768646,-0.05686327815055847,-0.003965973854064941,XArbitraryZVertical,0.08189358931861188,0.1541576291278389,0.7542604055651311,0.6329455521380848,0.07160858809947968,-0.3362183570861816,-0.9390577077865601,0,0,0,-1,-1,2707.078338541667,unknown,2,2022-06-02T10:46:02.800+02:00,2022-06-02T10:17:13.754+02:00,448,1.407446,0,0,345.1212,0,0,2022-06-02T10:46:02.800+02:00,675852362.7997979,0,7.183594,101.2966,1,0.81
2022-06-02T10:46:04.405+02:00,1654159564.00011,53.22907148528507,10.39851904469576,36.4815,0.351264,0.6655378,142.4449884992067,141.4025124453076,2.400000095367432,7.999579855010836,-9999,2708.682904166667,0.0585174560546875,-0.3352813720703125,-0.967132568359375,2708.672910166667,1.732089201591977,0.07642615000621678,0.3417941281374928,-0.1348793506622314,-0.003756588324904442,-0.008696885779500008,0.00692218542098999,-0.04995384812355042,-0.01225554943084717,XArbitraryZVertical,0.08141756056544451,0.1538469015383739,0.7543365213020706,0.6329918473401743,0.07193519175052643,-0.3351779878139496,-0.9394046068191528,0,0,0,-1,-1,2707.078338541667,unknown,2,2022-06-02T10:46:02.800+02:00,2022-06-02T10:17:13.754+02:00,448,1.407446,0,0,345.1212,0,0,2022-06-02T10:46:02.800+02:00,675852362.7997979,0,7.183594,101.2966,1,0.81
2022-06-02T10:46:04.415+02:00,1654159564.00011,53.22907148528507,10.39851904469576,36.4815,0.351264,0.6655378,142.4449884992067,141.4025124453076,2.400000095367432,7.999579855010836,-9999,2708.692899166667,0.0449066162109375,-0.3111419677734375,-0.9844970703125,2708.682904166667,1.732107668477296,0.07620727393609089,0.3413513508871003,-0.1211241334676743,-0.003821303136646748,-0.01546504348516464,-0.004998974502086639,-0.01713737845420837,-0.02030116319656372,XArbitraryZVertical,0.08135636876516188,0.1536132266304963,0.7543567129834444,0.6330324456951242,0.07174086570739746,-0.3347607851028442,-0.9395682215690613,0,0,0,-1,-1,2707.078338541667,unknown,2,2022-06-02T10:46:02.800+02:00,2022-06-02T10:17:13.754+02:00,448,1.407446,0,0,345.1212,0,0,2022-06-02T10:46:02.800+02:00,675852362.7997979,0,7.183594,101.2966,1,0.81
2022-06-02T10:46:04.425+02:00,1654159564.00011,53.22907148528507,10.39851904469576,36.4815,0.351264,0.6655378,142.4449884992067,141.4025124453076,2.400000095367432,7.999579855010836,-9999,2708.702893166667,0.044525146484375,-0.29083251953125,-0.992218017578125,2708.692899166667,1.732218815817689,0.07591519175797347,0.3407845210664814,-0.05301718041300774,0.01225287094712257,0.005931992083787918,-0.02066909521818161,0.01283073425292969,-0.03357994556427002,XArbitraryZVertical,0.0812758111367375,0.153313861873951,0.7544097525907179,0.6330521571242578,0.07148081064224243,-0.3342266082763672,-0.939778208732605,0,0,0,-1,-1,2707.078338541667,unknown,2,2022-06-02T10:46:02.800+02:00,2022-06-02T10:17:13.754+02:00,448,1.407446,0,0,345.1212,0,0,2022-06-02T10:46:02.800+02:00,675852362.7997979,0,7.183594,101.2966,1,0.81
2022-06-02T10:46:04.435+02:00,1654159564.00011,53.22907148528507,10.39851904469576,36.4815,0.351264,0.6655378,142.4449884992067,141.4025124453076,2.400000095367432,7.999579855010836,-9999,2708.712888166667,0.0539703369140625,-0.28265380859375,-0.9855499267578125,2708.702893166667,1.732486278859122,0.07561467081606855,0.3401406985300892,0.0499371662735939,0.01318604312837124,0.02178232558071613,-0.02771186828613281,0.03318944573402405,-0.04799258708953857,XArbitraryZVertical,0.08116176823503139,0.152989406401891,0.7545159417159264,0.6330187425799912,0.07121462374925613,-0.3336197435855865,-0.9400140047073364,0,0,0,-1,-1,2707.078338541667,unknown,2,2022-06-02T10:46:02.800+02:00,2022-06-02T10:17:13.754+02:00,448,1.407446,0,0,345.1212,0,0,2022-06-02T10:46:02.800+02:00,675852362.7997979,0,7.183594,101.2966,1,0.81
2022-06-02T10:46:04.445+02:00,1654159564.00011,53.22907148528507,10.39851904469576,36.4815,0.351264,0.6655378,142.4449884992067,141.4025124453076,2.400000095367432,7.999579855010836,-9999,2708.722882166667,0.0675811767578125,-0.3030853271484375,-0.9633331298828125,2708.712888166667,1.732796811141778,0.07535515564290207,0.3405810088074781,0.1531460136175156,0.02437751181423664,0.02672508731484413,-0.023504838347435,0.04988566040992737,-0.05271357297897339,XArbitraryZVertical,0.08137740469466358,0.1530841985828828,0.7545805811243448,0.6328910212691951,0.07095961272716522,-0.3340347707271576,-0.9398859143257141,0,0,0,-1,-1,2707.078338541667,unknown,2,2022-06-02T10:46:02.800+02:00,2022-06-02T10:17:13.754+02:00,448,1.407446,0,0,345.1212,0,0,2022-06-02T10:46:02.800+02:00,675852362.7997979,0,7.183594,101.2966,1,0.81
2022-06-02T10:46:04.455+02:00,1654159564.00011,53.22907148528507,10.39851904469576,36.4815,0.351264,0.6655378,142.4449884992067,141.4025124453076,2.400000095367432,7.999579855010836,-9999,2708.732877166667,0.0816802978515625,-0.3390350341796875,-0.94342041015625,2708.722882166667,1.733038563443486,0.07521898791380212,0.342652061809412,0.2078713029623032,0.02098863944411278,0.027496337890625,-0.009820669889450073,0.04696944355964661,-0.03572613000869751,XArbitraryZVertical,0.082075583189225,0.1538237905075018,0.754542332459248,0.6326670654377685,0.07077948749065399,-0.3359861671924591,-0.939203679561615,0,0,0,-1,-1,2707.078338541667,unknown,2,2022-06-02T10:46:02.800+02:00,2022-06-02T10:17:13.754+02:00,448,1.407446,0,0,345.1212,0,0,2022-06-02T10:46:02.800+02:00,675852362.7997979,0,7.183594,101.2966,1,0.81
2022-06-02T10:46:04.465+02:00,1654159564.00011,53.22907148528507,10.39851904469576,36.4815,0.351264,0.6655378,142.4449884992067,141.4025124453076,2.400000095367432,7.999579855010836,-9999,2708.742871166667,0.0725555419921875,-0.38848876953125,-0.932891845703125,2708.732877166667,1.733162428465081,0.07523564070470498,0.3453968750883816,0.1734331101179123,0.006878811866044998,0.01995972543954849,0.004820674657821655,0.01902058720588684,-0.01475411653518677,XArbitraryZVertical,0.08294131686230234,0.1548582034923626,0.7544362151490398,0.6324282644668787,0.07072554528713226,-0.3385701477527618,-0.9382793307304382,0,0,0,-1,-1,2707.078338541667,unknown,2,2022-06-02T10:46:02.800+02:00,2022-06-02T10:17:13.754+02:00,448,1.407446,0,0,345.1212,0,0,2022-06-02T10:46:02.800+02:00,675852362.7997979,0,7.183594,101.2966,1,0.81
2022-06-02T10:46:04.475+02:00,1654159564.00011,53.22907148528507,10.39851904469576,36.4815,0.351264,0.6655378,142.4449884992067,141.4025124453076,2.400000095367432,7.999579855010836,-9999,2708.752866166667,0.061676025390625,-0.416168212890625,-0.9249267578125,2708.742871166667,1.733198208658144,0.07540978319508036,0.3476076941504053,0.07945174723863602,0.01177370175719261,0.01377666555345058,0.007384121417999268,-0.02296736836433411,0.00162053108215332,XArbitraryZVertical,0.08358278829890901,0.1557393445683823,0.7543362065275241,0.6322468471865927,0.07083237171173096,-0.3406495749950409,-0.9375183582305908,0,0,0,-1,-1,2707.078338541667,unknown,2,2022-06-02T10:46:02.800+02:00,2022-06-02T10:17:13.754+02:00,448,1.407446,0,0,345.1212,0,0,2022-06-02T10:46:02.800+02:00,675852362.7997979,0,7.183594,101.2966,1,0.81
2022-06-02T10:46:04.485+02:00,1654159564.00011,53.22907148528507,10.39851904469576,36.4815,0.351264,0.6655378,142.4449884992067,141.4025124453076,2.400000095367432,7.999579855010836,-9999,2708.762860166667,0.056182861328125,-0.4041748046875,-0.9314727783203125,2708.752866166667,1.733255376263848,0.07560069111637374,0.3482919803832319,-0.04952614009380341,0.01327212993055582,0.005826731212437153,-0.004206046462059021,-0.0661778450012207,0.008515417575836182,XArbitraryZVertical,0.08372603199657014,0.1560573040215268,0.7543253783447864,0.63216223627331,0.07099372893571854,-0.3412928283214569,-0.9372721314430237,0,0,0,-1,-1,2707.078338541667,unknown,2,2022-06-02T10:46:02.800+02:00,2022-06-02T10:17:13.754+02:00,448,1.407446,0,0,345.1212,0,0,2022-06-02T10:46:02.800+02:00,675852362.7997979,0,7.183594,101.2966,1,0.81
2022-06-02T10:46:04.495+02:00,1654159564.00011,53.22907148528507,10.39851904469576,36.4815,0.351264,0.6655378,142.4449884992067,141.4025124453076,2.400000095367432,7.999579855010836,-9999,2708.772855166667,0.05242919921875,-0.3642425537109375,-0.9377899169921875,2708.762860166667,1.733417687286933,0.07564621685278013,0.3472960187099228,-0.1536647975444794,0.01990899257361889,0.003760383464396,-0.0128040537238121,-0.07350757718086243,0.01213133335113525,XArbitraryZVertical,0.08337643784785664,0.155707027338115,0.7544322033574828,0.6321673248191183,0.07106205075979233,-0.3403564989566803,-0.9376074075698853,0,0,0,-1,-1,2707.078338541667,unknown,2,2022-06-02T10:46:02.800+02:00,2022-06-02T10:17:13.754+02:00,448,1.407446,0,0,345.1212,0,0,2022-06-02T10:46:02.800+02:00,675852362.7997979,0,7.183594,101.2966,1,0.81
2022-06-02T10:46:04.505+02:00,1654159564.00011,53.22907148528507,10.39851904469576,36.4815,0.351264,0.6655378,142.4449884992067,141.4025124453076,2.400000095367432,7.999579855010836,-9999,2708.782849166667,0.0540771484375,-0.3244171142578125,-0.9494476318359375,2708.772855166667,1.733741640174739,0.07552721438930236,0.3451890256588844,-0.2001687437295914,0.02206808514893055,0.01286033820360899,-0.0178275853395462,-0.04770329594612122,0.001515507698059082,XArbitraryZVertical,0.08271972553021054,0.1548968213603657,0.7546425184274161,0.6322017100893585,0.07100442796945572,-0.3383745551109314,-0.9383288621902466,0,0,0,-1,-1,2707.078338541667,unknown,2,2022-06-02T10:46:02.800+02:00,2022-06-02T10:17:13.754+02:00,448,1.407446,0,0,345.1212,0,0,2022-06-02T10:46:02.800+02:00,675852362.7997979,0,7.183594,101.2966,1,0.81
2022-06-02T10:46:04.515+02:00,1654159564.00011,53.22907148528507,10.39851904469576,36.4815,0.351264,0.6655378,142.4449884992067,141.4025124453076,2.400000095367432,7.999579855010836,-9999,2708.792844166667,0.053192138671875,-0.287872314453125,-0.9755706787109375,2708.782849166667,1.734247008967051,0.0751923794977906,0.3426312362733896,-0.1852105706930161,0.01454305555671453,0.0322691909968853,-0.01737983524799347,-0.007203578948974609,-1.168251037597656e-05,XArbitraryZVertical,0.08198598542475981,0.1538571613194081,0.7549244825275103,0.6322145717799837,0.07075501978397369,-0.335966557264328,-0.9392125606536865,0,0,0,-1,-1,2707.078338541667,unknown,2,2022-06-02T10:46:02.800+02:00,2022-06-02T10:17:13.754+02:00,448,1.407446,0,0,345.1212,0,0,2022-06-02T10:46:02.800+02:00,675852362.7997979,0,7.183594,101.2966,1,0.81
2022-06-02T10:46:04.525+02:00,1654159564.00011,53.22907148528507,10.39851904469576,36.4815,0.351264,0.6655378,142.4449884992067,141.4025124453076,2.400000095367432,7.999579855010836,-9999,2708.802838166667,0.0489654541015625,-0.247650146484375,-0.9934234619140625,2708.792844166667,1.734877499991674,0.07485887031492157,0.3405735112759465,-0.07623341679573059,0.01975632645189762,0.04832738637924194,-0.01524131745100021,0.02802801132202148,-0.02440142631530762,XArbitraryZVertical,0.0814030945279831,0.1530091330121383,0.7552188079574502,0.6321440739724271,0.07049334049224854,-0.3340277075767517,-0.9399234652519226,0,0,0,-1,-1,2707.078338541667,unknown,2,2022-06-02T10:46:02.800+02:00,2022-06-02T10:17:13.754+02:00,448,1.407446,0,0,345.1212,0,0,2022-06-02T10:46:02.800+02:00,675852362.7997979,0,7.183594,101.2966,1,0.81
2022-06-02T10:46:04.535+02:00,1654159564.00011,53.22907148528507,10.39851904469576,36.4815,0.351264,0.6655378,142.4449884992067,141.4025124453076,2.400000095367432,7.999579855010836,-9999,2708.812833166667,0.064239501953125,-0.2281494140625,-0.9698944091796875,2708.802838166667,1.735511339720839,0.07481447408975772,0.3402741295836817,0.1130984276533127,0.03209874778985977,0.06648215651512146,-0.02086806297302246,0.06487041711807251,-0.04384517669677734,XArbitraryZVertical,0.08127532929101444,0.152909039421131,0.7554330675643651,0.6319287047550389,0.07045908272266388,-0.3337455093860626,-0.9400262832641602,0,0,0,-1,-1,2707.078338541667,unknown,2,2022-06-02T10:46:02.800+02:00,2022-06-02T10:17:13.754+02:00,448,1.407446,0,0,345.1212,0,0,2022-06-02T10:46:02.800+02:00,675852362.7997979,0,7.183594,101.2966,1,0.81
2022-06-02T10:46:04.545+02:00,1654159564.00011,53.22907148528507,10.39851904469576,36.4815,0.351264,0.6655378,142.4449884992067,141.4025124453076,2.400000095367432,7.999579855010836,-9999,2708.822827166667,0.08221435546875,-0.27001953125,-0.9601898193359375,2708.812833166667,1.736131081592132,0.07492894893972901,0.3421679317621823,0.2721569240093231,0.02449036203324795,0.08293995261192322,-0.01688465476036072,0.1022690534591675,-0.04431736469268799,XArbitraryZVertical,0.08179196485335349,0.1536780542944214,0.7555334910593496,0.6315553190676858,0.07051924616098404,-0.3355301320552826,-0.939386248588562,0,0,0,-1,-1,2707.078338541667,unknown,2,2022-06-02T10:46:02.800+02:00,2022-06-02T10:17:13.754+02:00,448,1.407446,0,0,345.1212,0,0,2022-06-02T10:46:02.800+02:00,675852362.7997979,0,7.183594,101.2966,1,0.81
2022-06-02T10:46:04.555+02:00,1654159564.00011,53.22907148528507,10.39851904469576,36.4815,0.351264,0.6655378,142.4449884992067,141.4025124453076,2.400000095367432,7.999579855010836,-9999,2708.832822166667,0.0811920166015625,-0.3447418212890625,-0.951385498046875,2708.822827166667,1.736742244991734,0.0748993933511982,0.3455087556461544,0.3409985899925232,0.00759393721818924,0.07940540462732315,0.005093231797218323,0.09856313467025757,-0.02511358261108398,XArbitraryZVertical,0.08282688234620894,0.1549421146468274,0.7555470845495329,0.6310951345561615,0.0704072117805481,-0.3386754095554352,-0.938265323638916,0,0,0,-1,-1,2707.078338541667,unknown,2,2022-06-02T10:46:02.800+02:00,2022-06-02T10:17:13.754+02:00,448,1.407446,0,0,345.1212,0,0,2022-06-02T10:46:02.800+02:00,675852362.7997979,0,7.183594,101.2966,1,0.81
2022-06-02T10:46:04.565+02:00,1654159564.00011,53.22907148528507,10.39851904469576,36.4815,0.351264,0.6655378,142.4449884992067,141.4025124453076,2.400000095367432,7.999579855010836,-9999,2708.842816166667,0.0760498046875,-0.39874267578125,-0.93157958984375,2708.832822166667,1.737243646313785,0.0747892459217092,0.3492384860745086,0.2872810661792755,0.008483566343784332,0.0610441155731678,0.01154755055904388,0.03468728065490723,-0.02031427621841431,XArbitraryZVertical,0.08402438677433242,0.1563216322611052,0.7554992149008969,0.630653943912589,0.07020898908376694,-0.3421823680400848,-0.9370068907737732,0,0,0,-1,-1,2707.078338541667,unknown,2,2022-06-02T10:46:02.800+02:00,2022-06-02T10:17:13.754+02:00,448,1.407446,0,0,345.1212,0,0,2022-06-02T10:46:02.800+02:00,675852362.7997979,0,7.183594,101.2966,1,0.81
2022-06-02T10:46:04.575+02:00,1654159564.00011,53.22907148528507,10.39851904469576,36.4815,0.351264,0.6655378,142.4449884992067,141.4025124453076,2.400000095367432,7.999579855010836,-9999,2708.852811166667,0.0623779296875,-0.4159088134765625,-0.914459228515625,2708.842816166667,1.73760915961873,0.07467964642505585,0.3519065658997798,0.1440384387969971,0.01040903106331825,0.03994415327906609,0.009948596358299255,-0.03200554847717285,-0.00518333911895752,XArbitraryZVertical,0.08489150421442984,0.1572991410958149,0.7554640038728905,0.6303368178640333,0.07003793120384216,-0.3446881473064423,-0.9361008405685425,0,0,0,-1,-1,2707.078338541667,unknown,2,2022-06-02T10:46:02.800+02:00,2022-06-02T10:17:13.754+02:00,448,1.407446,0,0,345.1212,0,0,2022-06-02T10:46:02.800+02:00,675852362.7997979,0,7.183594,101.2966,1,0.81
2022-06-02T10:46:04.585+02:00,1654159564.00011,53.22907148528507,10.39851904469576,36.4815,0.351264,0.6655378,142.4449884992067,141.4025124453076,2.400000095367432,7.999579855010836,-9999,2708.862805166667,0.0572052001953125,-0.4130096435546875,-0.8997039794921875,2708.852811166667,1.73799298700025,0.07454650619792161,0.3528314990057765,-0.01010120287537575,0.005778859835118055,0.03617897629737854,-0.001072444021701813,-0.06568330526351929,0.01176536083221436,XArbitraryZVertical,0.08520765662927487,0.1576190074406884,0.7555283974112281,0.6301369753269104,0.06988952308893204,-0.3455562591552734,-0.9357917904853821,0,0,0,-1,-1,2707.078338541667,unknown,2,2022-06-02T10:46:02.800+02:00,2022-06-02T10:17:13.754+02:00,448,1.407446,0,0,345.1212,0,0,2022-06-02T10:46:02.800+02:00,675852362.7997979,0,7.183594,101.2966,1,0.81
2022-06-02T10:46:04.595+02:00,1654159564.00011,53.22907148528507,10.39851904469576,36.4815,0.351264,0.6655378,142.4449884992067,141.4025124453076,2.400000095367432,7.999579855010836,-9999,2708.872800166667,0.05462646484375,-0.3921966552734375,-0.9107666015625,2708.862805166667,1.738457930735956,0.07430955270825751,0.3519846698222915,-0.1588208973407745,-0.005483116023242474,0.0353936105966568,-0.01047016680240631,-0.07043015956878662,0.0301092267036438,XArbitraryZVertical,0.08498957511333043,0.1572477616851197,0.7557114310673397,0.6300397043466196,0.06968948245048523,-0.344761461019516,-0.9360998272895813,0,0,0,-1,-1,2707.078338541667,unknown,2,2022-06-02T10:46:02.800+02:00,2022-06-02T10:17:13.754+02:00,448,1.407446,0,0,345.1212,0,0,2022-06-02T10:46:02.800+02:00,675852362.7997979,0,7.183594,101.2966,1,0.81
2022-06-02T10:46:04.612+02:00,1654159564.00011,53.22907148528507,10.39851904469576,36.4815,0.351264,0.6655378,142.4449884992067,141.4025124453076,2.400000095367432,7.999579855010836,-9999,2708.882795166667,0.0460662841796875,-0.3171844482421875,-0.9473724365234375,2708.872800166667,1.739079768949969,0.07392740514978145,0.3497625289143503,-0.2270083874464035,-0.00806112214922905,0.050185676664114,-0.01395303010940552,-0.06345319747924805,0.03629910945892334,XArbitraryZVertical,0.08437428558283838,0.1563231617887824,0.7560130242065802,0.6299907051174053,0.06938815861940384,-0.342674732208252,-0.9368880987167358,0,0,0,-1,-1,2707.078338541667,unknown,2,2022-06-02T10:46:02.800+02:00,2022-06-02T10:17:13.754+02:00,448,1.407446,0,0,345.1212,0,0,2022-06-02T10:46:02.800+02:00,675852362.7997979,0,7.183594,101.2966,1,0.81
2022-06-02T10:46:04.635+02:00,1654159564.00011,53.22907148528507,10.39851904469576,36.4815,0.351264,0.6655378,142.4449884992067,141.4025124453076,2.400000095367432,7.999579855010836,-9999,2708.892789166667,0.041229248046875,-0.231689453125,-0.9467010498046875,2708.882795166667,1.739876474052944,0.07352862208914639,0.3475539655907719,-0.1223525479435921,0.006948720198124647,0.0629560574889183,-0.01705279946327209,-0.02248382568359375,0.004242300987243652,XArbitraryZVertical,0.08375656517624916,0.1554050972439222,0.7563676117868661,0.6298746923864782,0.06906996667385101,-0.3405990600585938,-0.9376682043075562,0,0,0,-1,-1,2707.078338541667,unknown,2,2022-06-02T10:46:02.800+02:00,2022-06-02T10:17:13.754+02:00,448,1.407446,0,0,345.1212,0,0,2022-06-02T10:46:02.800+02:00,675852362.7997979,0,7.183594,101.2966,1,0.81
2022-06-02T10:46:04.637+02:00,1654159564.00011,53.22907148528507,10.39851904469576,36.4815,0.351264,0.6655378,142.4449884992067,141.4025124453076,2.400000095367432,7.999579855010836,-9999,2708.902784166667,0.0606842041015625,-0.236114501953125,-0.951751708984375,2708.892789166667,1.740688799432103,0.07320112007869084,0.3467775215563865,0.07705710083246231,-0.006641390733420849,0.08252577483654022,-0.0293382927775383,0.07345050573348999,-0.008304297924041748,XArbitraryZVertical,0.08356915023593704,0.155045434422998,0.7566518745900546,0.6296467445662202,0.06878219544887543,-0.3398689329624176,-0.9379542469978333,0,0,0,-1,-1,2707.078338541667,unknown,2,2022-06-02T10:46:02.800+02:00,2022-06-02T10:17:13.754+02:00,448,1.407446,0,0,345.1212,0,0,2022-06-02T10:46:02.800+02:00,675852362.7997979,0,7.183594,101.2966,1,0.81
2022-06-02T10:46:04.639+02:00,1654159564.00011,53.22907148528507,10.39851904469576,36.4815,0.351264,0.6655378,142.4449884992067,141.4025124453076,2.400000095367432,7.999579855010836,-9999,2708.912778166667,0.077239990234375,-0.314788818359375,-0.9532623291015625,2708.902784166667,1.741542181887979,0.07276455596325493,0.348149215844085,0.2545828819274902,-0.02509842813014984,0.1003601625561714,-0.0183204859495163,0.1208828091621399,-0.01267701387405396,XArbitraryZVertical,0.08410640771741959,0.1554572609402538,0.7568274315712578,0.6292624359604309,0.06833875924348831,-0.3411586582660675,-0.937518298625946,0,0,0,-1,-1,2707.078338541667,unknown,2,2022-06-02T10:46:02.800+02:00,2022-06-02T10:17:13.754+02:00,448,1.407446,0,0,345.1212,0,0,2022-06-02T10:46:02.800+02:00,675852362.7997979,0,7.183594,101.2966,1,0.81
2022-06-02T10:46:04.645+02:00,1654159564.00011,53.22907148528507,10.39851904469576,36.4815,0.351264,0.6655378,142.4449884992067,141.4025124453076,2.400000095367432,7.999579855010836,-9999,2708.922773166667,0.079376220703125,-0.3863372802734375,-0.9522705078125,2708.912778166667,1.742349944977835,0.07225992482133564,0.3507608893645918,0.2702353000640869,-0.02480002120137215,0.09019873291254044,0.002419814467430115,0.07344037294387817,-0.01657098531723022,XArbitraryZVertical,0.08506843165686985,0.1563104556720882,0.756916635199838,0.628814334770373,0.0678010880947113,-0.3436124622821808,-0.9366608262062073,0,0,0,-1,-1,2707.078338541667,unknown,2,2022-06-02T10:46:02.800+02:00,2022-06-02T10:17:13.754+02:00,448,1.407446,0,0,345.1212,0,0,2022-06-02T10:46:02.800+02:00,675852362.7997979,0,7.183594,101.2966,1,0.81
2022-06-02T10:46:04.655+02:00,1654159564.00011,53.22907148528507,10.39851904469576,36.4815,0.351264,0.6655378,142.4449884992067,141.4025124453076,2.400000095367432,7.999579855010836,-9999,2708.932767166667,0.0696868896484375,-0.4073944091796875,-0.9439239501953125,2708.922773166667,1.742916270414311,0.07190840613028854,0.3532781196770011,0.18783999979496,-0.01686992682516575,0.05232485383749008,0.01362991333007812,-0.01042419672012329,-0.01629900932312012,XArbitraryZVertical,0.08596044947036813,0.1571666286559583,0.7569398384290174,0.6284516389653177,0.06740947067737579,-0.3459753394126892,-0.9358189105987549,0,0,0,-1,-1,2707.078338541667,unknown,2,2022-06-02T10:46:02.800+02:00,2022-06-02T10:17:13.754+02:00,448,1.407446,0,0,345.1212,0,0,2022-06-02T10:46:02.800+02:00,675852362.7997979,0,7.183594,101.2966,1,0.81
2022-06-02T10:46:04.665+02:00,1654159564.00011,53.22907148528507,10.39851904469576,36.4815,0.351264,0.6655378,142.4449884992067,141.4025124453076,2.400000095367432,7.999579855010836,-9999,2708.942762166667,0.05657958984375,-0.409149169921875,-0.9288787841796875,2708.932767166667,1.7431948945049,0.07167034181358069,0.3547858612296176,0.05202528461813927,-0.01423879060894251,0.02159124612808228,0.008442744612693787,-0.0548321008682251,-0.01509535312652588,XArbitraryZVertical,0.08650961184208297,0.1576683402232985,0.7569327252642599,0.6282591932899766,0.06714925915002823,-0.3473895788192749,-0.9353135824203491,0,0,0,-1,-1,2707.078338541667,unknown,2,2022-06-02T10:46:02.800+02:00,2022-06-02T10:17:13.754+02:00,448,1.407446,0,0,345.1212,0,0,2022-06-02T10:46:02.800+02:00,675852362.7997979,0,7.183594,101.2966,1,0.81
2022-06-02T10:46:04.675+02:00,1654159564.00011,53.22907148528507,10.39851904469576,36.4815,0.351264,0.6655378,142.4449884992067,141.4025124453076,2.400000095367432,7.999579855010836,-9999,2708.952756166667,0.048370361328125,-0.4069671630859375,-0.9145660400390625,2708.942762166667,1.743407802009396,0.07143586164386705,0.3549811593048214,-0.07232090830802917,-0.01697598770260811,0.01695281639695168,-0.003143399953842163,-0.06107288599014282,-0.0007582902908325195,XArbitraryZVertical,0.08664386423758051,0.1576770167352394,0.7569784849372997,0.6281834365591893,0.06692510098218918,-0.3475727140903473,-0.935261607170105,0,0,0,-1,-1,2707.078338541667,unknown,2,2022-06-02T10:46:02.800+02:00,2022-06-02T10:17:13.754+02:00,448,1.407446,0,0,345.1212,0,0,2022-06-02T10:46:02.800+02:00,675852362.7997979,0,7.183594,101.2966,1,0.81
2022-06-02T10:46:04.685+02:00,1654159564.00011,53.22907148528507,10.39851904469576,36.4815,0.351264,0.6655378,142.4449884992067,141.4025124453076,2.400000095367432,7.999579855010836,-9999,2708.962751166667,0.0423126220703125,-0.3891143798828125,-0.9074554443359375,2708.952756166667,1.743664319916037,0.07111553353990631,0.3539281786290825,-0.1945299357175827,-0.02638500183820724,0.006071741692721844,-0.01355094462633133,-0.06259447336196899,0.01319271326065063,XArbitraryZVertical,0.08640912335181701,0.1571931940149822,0.7571043156050125,0.628185316960596,0.06665147095918655,-0.3465851843357086,-0.9356475472450256,0,0,0,-1,-1,2707.078338541667,unknown,2,2022-06-02T10:46:02.800+02:00,2022-06-02T10:17:13.754+02:00,448,1.407446,0,0,345.1212,0,0,2022-06-02T10:46:02.800+02:00,675852362.7997979,0,7.183594,101.2966,1,0.81
2022-06-02T10:46:04.695+02:00,1654159564.00011,53.22907148528507,10.39851904469576,36.4815,0.351264,0.6655378,142.4449884992067,141.4025124453076,2.400000095367432,7.999579855010836,-9999,2708.972745166667,0.038360595703125,-0.3332977294921875,-0.9443817138671875,2708.962751166667,1.743920979819026,0.07072605981935402,0.3516003544297742,-0.2788283228874207,-0.01968102715909481,0.008344483561813831,-0.02166621387004852,-0.05611199140548706,0.02750957012176514,XArbitraryZVertical,0.08579417164317932,0.1562099140282941,0.757298278492418,0.6282810182409727,0.06634388864040375,-0.3444007039070129,-0.9364756345748901,0,0,0,-1,-1,2707.078338541667,unknown,2,2022-06-02T10:46:02.800+02:00,2022-06-02T10:17:13.754+02:00,448,1.407446,0,0,345.1212,0,0,2022-06-02T10:46:02.800+02:00,675852362.7997979,0,7.183594,101.2966,1,0.81
2022-06-02T10:46:04.705+02:00,1654159564.00011,53.22907148528507,10.39851904469576,36.4815,0.351264,0.6655378,142.4449884992067,141.4025124453076,2.400000095367432,7.999579855010836,-9999,2708.982740166667,0.038909912109375,-0.2298736572265625,-0.9481048583984375,2708.972745166667,1.744380306101109,0.07038384401474328,0.3489432063192251,-0.1568390876054764,0.006105163600295782,0.03688704594969749,-0.02543817460536957,-0.0265338122844696,0.01611268520355225,XArbitraryZVertical,0.08504077882367185,0.1551262148573357,0.7575754169119794,0.6283178535418261,0.06608753651380539,-0.341904878616333,-0.9374078512191772,0,0,0,-1,-1,2707.078338541667,unknown,2,2022-06-02T10:46:02.800+02:00,2022-06-02T10:17:13.754+02:00,448,1.407446,0,0,345.1212,0,0,2022-06-02T10:46:02.800+02:00,675852362.7997979,0,7.183594,101.2966,1,0.81
2022-06-02T10:46:04.716+02:00,1654159564.00011,53.22907148528507,10.39851904469576,36.4815,0.351264,0.6655378,142.4449884992067,141.4025124453076,2.400000095367432,7.999579855010836,-9999,2708.992734166667,0.063201904296875,-0.201263427734375,-0.9325714111328125,2708.982740166667,1.744923670071118,0.07016025219793359,0.3479615747101443,0.08568833768367767,-0.001313071581535041,0.0571153536438942,-0.02975340187549591,0.05704674124717712,-0.01523071527481079,XArbitraryZVertical,0.08477046292915671,0.1547109948333356,0.7577908148856769,0.628197074272269,0.06590143591165543,-0.3409822583198547,-0.9377569556236267,0,0,0,-1,-1,2707.078338541667,unknown,2,2022-06-02T10:46:02.800+02:00,2022-06-02T10:17:13.754+02:00,448,1.407446,0,0,345.1212,0,0,2022-06-02T10:46:02.800+02:00,675852362.7997979,0,7.183594,101.2966,1,0.81
2022-06-02T10:46:04.725+02:00,1654159564.00011,53.22907148528507,10.39851904469576,36.4815,0.351264,0.6655378,142.4449884992067,141.4025124453076,2.400000095367432,7.999579855010836,-9999,2709.002729166667,0.07635498046875,-0.296661376953125,-0.936279296875,2708.992734166667,1.745557355879964,0.06977365075953945,0.3495906700051677,0.2761759459972382,-0.0369531586766243,0.09131946414709091,-0.01651941239833832,0.1466362178325653,-0.001478493213653564,XArbitraryZVertical,0.08538699275817925,0.1552274835753392,0.7578832041862507,0.6278746714738153,0.06550007313489914,-0.3425132632255554,-0.9372269511222839,0,0,0,-1,-1,2707.078338541667,unknown,2,2022-06-02T10:46:02.800+02:00,2022-06-02T10:17:13.754+02:00,448,1.407446,0,0,345.1212,0,0,2022-06-02T10:46:02.800+02:00,675852362.7997979,0,7.183594,101.2966,1,0.81
2022-06-02T10:46:04.735+02:00,1654159564.00011,53.22907148528507,10.39851904469576,36.4815,0.351264,0.6655378,142.4449884992067,141.4025124453076,2.400000095367432,7.999579855010836,-9999,2709.012723166667,0.0742950439453125,-0.3746185302734375,-0.9432525634765625,2709.002729166667,1.74631160811664,0.06912761015542992,0.3528770719333136,0.341526210308075,-0.04621803015470505,0.09187526255846024,0.007235482335090637,0.1047238111495972,0.003432333469390869,XArbitraryZVertical,0.08661967869577758,0.1562897707792784,0.7579083535437419,0.6274115960815894,0.06481647491455078,-0.3455990254878998,-0.9361410737037659,0,0,0,-1,-1,2707.078338541667,unknown,2,2022-06-02T10:46:02.800+02:00,2022-06-02T10:17:13.754+02:00,448,1.407446,0,0,345.1212,0,0,2022-06-02T10:46:02.800+02:00,675852362.7997979,0,7.183594,101.2966,1,0.81
2022-06-02T10:46:04.745+02:00,1654159564.00011,53.22907148528507,10.39851904469576,36.4815,0.351264,0.6655378,142.4449884992067,141.4025124453076,2.400000095367432,7.999579855010836,-9999,2709.022718166667,0.06146240234375,-0.3997039794921875,-0.949981689453125,2709.012723166667,1.746885040002222,0.06855696338156311,0.3560577460185798,0.2367338389158249,-0.03372174501419067,0.0572502426803112,0.01166000962257385,0.004008024930953979,-0.005398929119110107,XArbitraryZVertical,0.0878032434783486,0.157328715032746,0.7578831370594395,0.6270178519921135,0.06420662999153137,-0.3485819697380066,-0.9350765347480774,0,0,0,-1,-1,2707.078338541667,unknown,2,2022-06-02T10:46:02.800+02:00,2022-06-02T10:17:13.754+02:00,448,1.407446,0,0,345.1212,0,0,2022-06-02T10:46:02.800+02:00,675852362.7997979,0,7.183594,101.2966,1,0.81
2022-06-02T10:46:04.755+02:00,1654159564.00011,53.22907148528507,10.39851904469576,36.4815,0.351264,0.6655378,142.4449884992067,141.4025124453076,2.400000095367432,7.999579855010836,-9999,2709.032712166667,0.053070068359375,-0.4040069580078125,-0.9515380859375,2709.022718166667,1.747268489237758,0.06813508261020135,0.3579056404116907,0.08471981436014175,-0.02695172280073166,0.03739450871944427,0.00594918429851532,-0.04121187329292297,-0.01228755712509155,XArbitraryZVertical,0.08852070500058809,0.1579064253072211,0.7578789975556962,0.6267767014774517,0.063768170773983,-0.3503133654594421,-0.9344592690467834,0,0,0,-1,-1,2707.078338541667,unknown,2,2022-06-02T10:46:02.800+02:00,2022-06-02T10:17:13.754+02:00,448,1.407446,0,0,345.1212,0,0,2022-06-02T10:46:02.800+02:00,675852362.7997979,0,7.183594,101.2966,1,0.81
2022-06-02T10:46:04.765+02:00,1654159564.00011,53.22907148528507,10.39851904469576,36.4815,0.351264,0.6655378,142.4449884992067,141.4025124453076,2.400000095367432,7.999579855010836,-9999,2709.042707166667,0.0521392822265625,-0.39617919921875,-0.9415130615234375,2709.032712166667,1.747553370461927,0.06773660869898182,0.3582588648605161,-0.06494124978780746,-0.02893484570086002,0.0158347561955452,-0.007677644491195679,-0.05293551087379456,-0.01717698574066162,XArbitraryZVertical,0.08876153822139662,0.1579266722050984,0.757930294312778,0.6266754791764737,0.063387431204319,-0.3506441712379456,-0.9343611001968384,0,0,0,-1,-1,2707.078338541667,unknown,2,2022-06-02T10:46:02.800+02:00,2022-06-02T10:17:13.754+02:00,448,1.407446,0,0,345.1212,0,0,2022-06-02T10:46:02.800+02:00,675852362.7997979,0,7.183594,101.2966,1,0.81
2022-06-02T10:46:04.775+02:00,1654159564.00011,53.22907148528507,10.39851904469576,36.4815,0.351264,0.6655378,142.4449884992067,141.4025124453076,2.400000095367432,7.999579855010836,-9999,2709.052701166667,0.0468902587890625,-0.3776092529296875,-0.9289093017578125,2709.042707166667,1.747809025902026,0.06730487631175879,0.3571509595699834,-0.1988290101289749,-0.02722989022731781,0.01108474191278219,-0.009619653224945068,-0.05253896117210388,-0.01319211721420288,XArbitraryZVertical,0.08855275014946211,0.1573871263826315,0.7580549650641307,0.6266898199852566,0.06301011890172958,-0.3496063947677612,-0.9347754120826721,0,0,0,-1,-1,2707.078338541667,unknown,2,2022-06-02T10:46:02.800+02:00,2022-06-02T10:17:13.754+02:00,448,1.407446,0,0,345.1212,0,0,2022-06-02T10:46:02.800+02:00,675852362.7997979,0,7.183594,101.2966,1,0.81
2022-06-02T10:46:04.785+02:00,1654159564.00011,53.22907148528507,10.39851904469576,36.4815,0.351264,0.6655378,142.4449884992067,141.4025124453076,2.400000095367432,7.999579855010836,-9999,2709.062696166667,0.03839111328125,-0.3481903076171875,-0.9440155029296875,2709.052701166667,1.748172509577085,0.06681914424496813,0.354823375537143,-0.2750495672225952,-0.0280761756002903,0.01951677724719048,-0.01294292509555817,-0.04060623049736023,0.001701116561889648,XArbitraryZVertical,0.0879684066172562,0.1563774608980746,0.7582807295048749,0.6267518220001709,0.06261022388935089,-0.3474247455596924,-0.9356153011322021,0,0,0,-1,-1,2707.078338541667,unknown,2,2022-06-02T10:46:02.800+02:00,2022-06-02T10:17:13.754+02:00,448,1.407446,0,0,345.1212,0,0,2022-06-02T10:46:02.800+02:00,675852362.7997979,0,7.183594,101.2966,1,0.81
2022-06-02T10:46:04.795+02:00,1654159564.00011,53.22907148528507,10.39851904469576,36.4815,0.351264,0.6655378,142.4449884992067,141.4025124453076,2.400000095367432,7.999579855010836,-9999,2709.072690166667,0.03289794921875,-0.295623779296875,-0.9560546875,2709.062696166667,1.748699681503899,0.06627889689914244,0.3518395578290444,-0.2388574928045273,-0.01755429245531559,0.03778393194079399,-0.01934175193309784,-0.02070063352584839,0.004809677600860596,XArbitraryZVertical,0.0871837464176444,0.1551109325286679,0.7585919302294704,0.6267994770153107,0.06217312812805176,-0.3446252644062042,-0.9366791844367981,0,0,0,-1,-1,2707.078338541667,unknown,2,2022-06-02T10:46:02.800+02:00,2022-06-02T10:17:13.754+02:00,448,1.407446,0,0,345.1212,0,0,2022-06-02T10:46:02.800+02:00,675852362.7997979,0,7.183594,101.2966,1,0.81
2022-06-02T10:46:04.805+02:00,1654159564.00011,53.22907148528507,10.39851904469576,36.4815,0.351264,0.6655378,142.4449884992067,141.4025124453076,2.400000095367432,7.999579855010836,-9999,2709.082685166667,0.0433502197265625,-0.2586212158203125,-0.9335479736328125,2709.072690166667,1.749374485573735,0.06589306271464669,0.3494473885148053,-0.080544114112854,-0.001840510638430715,0.05854986608028412,-0.02698427438735962,0.01780897378921509,-0.02103406190872192,XArbitraryZVertical,0.08651771665472237,0.1541206064560201,0.758921681632573,0.6267369939733269,0.06186582893133163,-0.3423786461353302,-0.9375230669975281,0,0,0,-1,-1,2707.078338541667,unknown,2,2022-06-02T10:46:02.800+02:00,2022-06-02T10:17:13.754+02:00,448,1.407446,0,0,345.1212,0,0,2022-06-02T10:46:02.800+02:00,675852362.7997979,0,7.183594,101.2966,1,0.81
2022-06-02T10:46:04.815+02:00,1654159564.00011,53.22907148528507,10.39851904469576,36.4815,0.351264,0.6655378,142.4449884992067,141.4025124453076,2.400000095367432,7.999579855010836,-9999,2709.092680166667,0.047210693359375,-0.29217529296875,-0.9364166259765625,2709.082685166667,1.750036514746956,0.06559104689254251,0.3489465926465728,0.06418484449386597,-0.0254955068230629,0.07183211296796799,-0.02582736313343048,0.07033216953277588,-0.004624366760253906,XArbitraryZVertical,0.0864222604716474,0.1538663687840066,0.7591442222222816,0.6265431207164658,0.061593908816576,-0.3419080674648285,-0.9377126693725586,0,0,0,-1,-1,2707.078338541667,unknown,2,2022-06-02T10:46:02.800+02:00,2022-06-02T10:17:13.754+02:00,448,1.407446,0,0,345.1212,0,0,2022-06-02T10:46:02.800+02:00,675852362.7997979,0,7.183594,101.2966,1,0.81
2022-06-02T10:46:04.825+02:00,1654159564.00011,53.22907148528507,10.39851904469576,36.4815,0.351264,0.6655378,142.4449884992067,141.4025124453076,2.400000095367432,7.999579855010836,-9999,2709.102674166667,0.0374908447265625,-0.3535614013671875,-0.94244384765625,2709.092680166667,1.750779188092042,0.0650639580430241,0.35003506387915,0.1281528025865555,-0.0375337265431881,0.08044151216745377,-0.01319338381290436,0.07632920145988464,0.005305171012878418,XArbitraryZVertical,0.08691080564866673,0.1541427068977284,0.7592925985642464,0.6262277259041604,0.06107541173696518,-0.3429307341575623,-0.9373731017112732,0,0,0,-1,-1,2707.078338541667,unknown,2,2022-06-02T10:46:02.800+02:00,2022-06-02T10:17:13.754+02:00,448,1.407446,0,0,345.1212,0,0,2022-06-02T10:46:02.800+02:00,675852362.7997979,0,7.183594,101.2966,1,0.81
2022-06-02T10:46:04.835+02:00,1654159564.00011,53.22907148528507,10.39851904469576,36.4815,0.351264,0.6655378,142.4449884992067,141.4025124453076,2.400000095367432,7.999579855010836,-9999,2709.112669166667,0.0314178466796875,-0.39208984375,-0.94708251953125,2709.102674166667,1.751443059977641,0.0645864156574547,0.3513534872113421,0.07274946570396423,-0.01999840885400772,0.0601828433573246,-0.01810285449028015,0.02136927843093872,-0.004272997379302979,XArbitraryZVertical,0.08745933356175971,0.1545179353503914,0.7594048219504493,0.6259228553102336,0.06059853360056877,-0.3441689312458038,-0.936950147151947,0,0,0,-1,-1,2707.078338541667,unknown,2,2022-06-02T10:46:02.800+02:00,2022-06-02T10:17:13.754+02:00,448,1.407446,0,0,345.1212,0,0,2022-06-02T10:46:02.800+02:00,675852362.7997979,0,7.183594,101.2966,1,0.81
2022-06-02T10:46:04.845+02:00,1654159564.00011,53.22907148528507,10.39851904469576,36.4815,0.351264,0.6655378,142.4449884992067,141.4025124453076,2.400000095367432,7.999579855010836,-9999,2709.122663166667,0.0320587158203125,-0.386474609375,-0.9439849853515625,2709.112669166667,1.751910344441648,0.06430466306654013,0.3519522383204352,-0.01038113608956337,0.002955842763185501,0.02772457152605057,-0.02592803537845612,-0.03310707211494446,-0.008154392242431641,XArbitraryZVertical,0.08772014493417724,0.1546754590900862,0.759504569541556,0.625726259336708,0.06032129004597664,-0.3447310328483582,-0.9367613792419434,0,0,0,-1,-1,2707.078338541667,unknown,2,2022-06-02T10:46:02.800+02:00,2022-06-02T10:17:13.754+02:00,448,1.407446,0,0,345.1212,0,0,2022-06-02T10:46:02.800+02:00,675852362.7997979,0,7.183594,101.2966,1,0.81
