,loggingTime(txt),locationTimestamp_since1970(s),locationLatitude(WGS84),locationLongitude(WGS84),locationAltitude(m),locationSpeed(m/s),locationSpeedAccuracy(m/s),locationCourse(°),locationCourseAccuracy(°),locationVerticalAccuracy(m),locationHorizontalAccuracy(m),locationFloor(Z),accelerometerTimestamp_sinceReboot(s),accelerometerAccelerationX(G),accelerometerAccelerationY(G),accelerometerAccelerationZ(G),motionTimestamp_sinceReboot(s),motionYaw(rad),motionRoll(rad),motionPitch(rad),motionRotationRateX(rad/s),motionRotationRateY(rad/s),motionRotationRateZ(rad/s),motionUserAccelerationX(G),motionUserAccelerationY(G),motionUserAccelerationZ(G),motionAttitudeReferenceFrame(txt),motionQuaternionX(R),motionQuaternionY(R),motionQuaternionZ(R),motionQuaternionW(R),motionGravityX(G),motionGravityY(G),motionGravityZ(G),motionMagneticFieldX(µT),motionMagneticFieldY(µT),motionMagneticFieldZ(µT),motionHeading(°),motionMagneticFieldCalibrationAccuracy(Z),activityTimestamp_sinceReboot(s),activity(txt),activityActivityConfidence(Z),activityActivityStartDate(txt),pedometerStartDate(txt),pedometerNumberofSteps(N),pedometerAverageActivePace(s/m),pedometerCurrentPace(s/m),pedometerCurrentCadence(steps/s),pedometerDistance(m),pedometerFloorAscended(N),pedometerFloorDescended(N),pedometerEndDate(txt),altimeterTimestamp_sinceReboot(s),altimeterReset(bool),altimeterRelativeAltitude(m),altimeterPressure(kPa),batteryState(N),batteryLevel(R)
217,2022-06-02T10:47:17.785+02:00,1654159633.999854,53.22910076581099,10.39854009441299,36.92992,0.2498327,0.8066205,47.54172637826515,180.0,2.400000095367432,7.999579855010836,-9999,2782.06256175,0.708465576171875,-0.06683349609375,2.118026733398438,2782.05256775,-1.3025297658582,2.167943459035956,0.2648265097406077,-2.464167833328247,3.888559579849243,1.120110154151917,-0.1523011922836304,0.2410508990287781,1.392817974090576,XArbitraryZVertical,0.5801998450239012,0.6593251858631209,-0.1883035392075533,0.4395454138848125,0.7981141209602356,-0.2617418169975281,0.5426831245422363,0,0,0,-1,-1,2776.148117666667,unknown,2,2022-06-02T10:47:11.870+02:00,2022-06-02T10:17:13.754+02:00,448,1.423373,0,0,345.1212,0,0,2022-06-02T10:47:16.988+02:00,675852436.9875242,0,7.0625,101.2959,1,0.81
218,2022-06-02T10:47:17.795+02:00,1654159633.999854,53.22910076581099,10.39854009441299,36.92992,0.2498327,0.8066205,47.54172637826515,180.0,2.400000095367432,7.999579855010836,-9999,2782.07255575,0.772796630859375,-0.061370849609375,2.307113647460938,2782.06256175,-1.286989706189859,2.202912698706738,0.2877105956227219,-2.636753082275391,3.955131530761719,0.8857041597366333,-0.0828516483306884,0.2339530289173126,1.471808671951294,XArbitraryZVertical,0.5814616082075644,0.6672225093166863,-0.1662865340772361,0.4348162456773172,0.7736168503761292,-0.2837576568126678,0.5665669441223145,0,0,0,-1,-1,2776.148117666667,unknown,2,2022-06-02T10:47:11.870+02:00,2022-06-02T10:17:13.754+02:00,448,1.423373,0,0,345.1212,0,0,2022-06-02T10:47:16.988+02:00,675852436.9875242,0,7.0625,101.2959,1,0.81
219,2022-06-02T10:47:17.805+02:00,1654159633.999854,53.22910076581099,10.39854009441299,36.92992,0.2498327,0.8066205,47.54172637826515,180.0,2.400000095367432,7.999579855010836,-9999,2782.08255075,0.8678436279296875,-0.0732269287109375,2.45111083984375,2782.07255575,-1.268805499338273,2.237632408228718,0.3101929641914002,-2.858175277709961,4.058687210083008,0.5905346870422363,-0.0136769413948059,0.2370203733444214,1.62614893913269,XArbitraryZVertical,0.5811199273202362,0.675863851472168,-0.1438267680245917,0.429908698973721,0.7482807040214539,-0.3052423894405365,0.5889846086502075,0,0,0,-1,-1,2776.148117666667,unknown,2,2022-06-02T10:47:11.870+02:00,2022-06-02T10:17:13.754+02:00,448,1.423373,0,0,345.1212,0,0,2022-06-02T10:47:16.988+02:00,675852436.9875242,0,7.0625,101.2959,1,0.81
220,2022-06-02T10:47:17.815+02:00,1654159633.999854,53.22910076581099,10.39854009441299,36.92992,0.2498327,0.8066205,47.54172637826515,180.0,2.400000095367432,7.999579855010836,-9999,2782.09254475,0.928497314453125,-0.1934356689453125,2.555252075195312,2782.08255075,-1.246978710726793,2.271532320080889,0.3324517287494049,-3.187481164932251,4.084815502166748,0.2323619425296783,0.0962106585502624,0.2670353055000305,1.772543430328369,XArbitraryZVertical,0.5788012546906832,0.685366205539686,-0.1208563730099857,0.4250364308639923,0.7225148677825928,-0.3263614773750305,0.6094754338264465,0,0,0,-1,-1,2776.148117666667,unknown,2,2022-06-02T10:47:11.870+02:00,2022-06-02T10:17:13.754+02:00,448,1.423373,0,0,345.1212,0,0,2022-06-02T10:47:16.988+02:00,675852436.9875242,0,7.0625,101.2959,1,0.81
221,2022-06-02T10:47:17.825+02:00,1654159633.999854,53.22910076581099,10.39854009441299,36.92992,0.2498327,0.8066205,47.54172637826515,180.0,2.400000095367432,7.999579855010836,-9999,2782.10253975,0.916748046875,-0.28448486328125,2.621963500976562,2782.09254475,-1.220250246706552,2.303281296973381,0.3544542512702744,-3.501749038696289,4.064615249633789,-0.245020404458046,0.2130746841430664,0.2249167561531067,1.883501529693604,XArbitraryZVertical,0.5739784687269485,0.6957896627074244,-0.0975563283605241,0.4206045958468829,0.6972951292991638,-0.3470785915851593,0.6271490454673767,0,0,0,-1,-1,2776.148117666667,unknown,2,2022-06-02T10:47:11.870+02:00,2022-06-02T10:17:13.754+02:00,448,1.423373,0,0,345.1212,0,0,2022-06-02T10:47:16.988+02:00,675852436.9875242,0,7.0625,101.2959,1,0.81
222,2022-06-02T10:47:17.835+02:00,1654159633.999854,53.22910076581099,10.39854009441299,36.92992,0.2498327,0.8066205,47.54172637826515,180.0,2.400000095367432,7.999579855010836,-9999,2782.11253375,0.9319915771484376,-0.334686279296875,2.741958618164062,2782.10253975,-1.187649743921462,2.332191122643728,0.375417726332944,-3.840225458145142,4.037294387817383,-0.8311192989349365,0.2503224611282349,0.1143266260623932,1.944239377975464,XArbitraryZVertical,0.5661987618396365,0.7073609824178044,-0.0742747555933505,0.4165845588331803,0.6734598875045776,-0.3666611909866333,0.6418811678886414,0,0,0,-1,-1,2776.148117666667,unknown,2,2022-06-02T10:47:11.870+02:00,2022-06-02T10:17:13.754+02:00,448,1.423373,0,0,345.1212,0,0,2022-06-02T10:47:16.988+02:00,675852436.9875242,0,7.0625,101.2959,1,0.81
223,2022-06-02T10:47:17.845+02:00,1654159633.999854,53.22910076581099,10.39854009441299,36.92992,0.2498327,0.8066205,47.54172637826515,180.0,2.400000095367432,7.999579855010836,-9999,2782.12252775,0.953582763671875,-0.36151123046875,2.908645629882812,2782.11253375,-1.147936639579941,2.35731909928739,0.3952084662364176,-4.146049022674561,3.968353271484375,-1.506325364112854,0.2675216794013977,0.079351782798767,2.022889852523804,XArbitraryZVertical,0.5549940569125802,0.7201725949658789,-0.0511178848757905,0.4131827971428993,0.65186607837677,-0.3850005865097046,0.6533339619636536,0,0,0,-1,-1,2776.148117666667,unknown,2,2022-06-02T10:47:11.870+02:00,2022-06-02T10:17:13.754+02:00,448,1.423373,0,0,345.1212,0,0,2022-06-02T10:47:16.988+02:00,675852436.9875242,0,7.0625,101.2959,1,0.81
224,2022-06-02T10:47:17.855+02:00,1654159633.999854,53.22910076581099,10.39854009441299,36.92992,0.2498327,0.8066205,47.54172637826515,180.0,2.400000095367432,7.999579855010836,-9999,2782.13252275,0.9669647216796876,-0.3664093017578125,3.133529663085938,2782.12252775,-1.101153323981813,2.377645152301351,0.4115357548771907,-4.200334072113037,3.749624729156494,-2.366941452026367,0.3084551692008972,0.0347525179386138,2.151824474334717,XArbitraryZVertical,0.5401379615353452,0.7342757718783406,-0.029326096824252,0.41015837291179,0.6340190172195435,-0.4000173211097717,0.6618198752403259,0,0,0,-1,-1,2776.148117666667,unknown,2,2022-06-02T10:47:11.870+02:00,2022-06-02T10:17:13.754+02:00,448,1.423373,0,0,345.1212,0,0,2022-06-02T10:47:16.988+02:00,675852436.9875242,0,7.0625,101.2959,1,0.81
225,2022-06-02T10:47:17.865+02:00,1654159633.999854,53.22910076581099,10.39854009441299,36.92992,0.2498327,0.8066205,47.54172637826515,180.0,2.400000095367432,7.999579855010836,-9999,2782.14251675,0.81231689453125,-0.639556884765625,3.43408203125,2782.13252275,-1.047145755387251,2.390963886837155,0.4233079994313921,-4.275246143341064,3.249477386474609,-3.238965034484863,0.3499847650527954,0.074032574892044,2.35759162902832,XArbitraryZVertical,0.5214858876179721,0.7492730522976464,-0.0099135363222172,0.4080979136347839,0.621893048286438,-0.4107787013053894,0.6667152643203735,0,0,0,-1,-1,2776.148117666667,unknown,2,2022-06-02T10:47:11.870+02:00,2022-06-02T10:17:13.754+02:00,448,1.423373,0,0,345.1212,0,0,2022-06-02T10:47:16.988+02:00,675852436.9875242,0,7.0625,101.2959,1,0.81
226,2022-06-02T10:47:17.875+02:00,1654159633.999854,53.22910076581099,10.39854009441299,36.92992,0.2498327,0.8066205,47.54172637826515,180.0,2.400000095367432,7.999579855010836,-9999,2782.15251075,0.5871429443359375,-0.766754150390625,4.240615844726562,2782.14251675,-0.9856739059781304,2.394410702218792,0.4266207561098518,-3.793792724609375,2.483278274536133,-4.568941116333008,0.2964366674423218,-0.0758576989173889,2.574593782424927,XArbitraryZVertical,0.4985750393540849,0.7650813439480384,0.0048794015804577,0.4074918526066497,0.6186633110046387,-0.4137968122959137,0.667853057384491,0,0,0,-1,-1,2776.148117666667,unknown,2,2022-06-02T10:47:11.870+02:00,2022-06-02T10:17:13.754+02:00,448,1.423373,0,0,345.1212,0,0,2022-06-02T10:47:16.988+02:00,675852436.9875242,0,7.0625,101.2959,1,0.81
227,2022-06-02T10:47:17.885+02:00,1654159633.999854,53.22910076581099,10.39854009441299,36.92992,0.2498327,0.8066205,47.54172637826515,180.0,2.400000095367432,7.999579855010836,-9999,2782.16250575,0.27911376953125,-1.10491943359375,5.052017211914062,2782.15251075,-0.9161664674927572,2.384255552323097,0.4176958264077882,-3.574774742126465,1.057657599449158,-5.901373386383057,0.0665322542190551,-0.3142084777355194,3.126837253570557,XArbitraryZVertical,0.4707178639771423,0.781358706296278,0.0128510131763227,0.409558447321439,0.6279256939888,-0.4056554436683655,0.6641934514045715,0,0,0,-1,-1,2776.148117666667,unknown,2,2022-06-02T10:47:11.870+02:00,2022-06-02T10:17:13.754+02:00,448,1.423373,0,0,345.1212,0,0,2022-06-02T10:47:16.988+02:00,675852436.9875242,0,7.0625,101.2959,1,0.81
228,2022-06-02T10:47:17.895+02:00,1654159633.999854,53.22910076581099,10.39854009441299,36.92992,0.2498327,0.8066205,47.54172637826515,180.0,2.400000095367432,7.999579855010836,-9999,2782.17249975,-0.1515350341796875,-0.9664459228515624,5.815963745117188,2782.16250575,-0.8394945451844572,2.353111663935475,0.3946681152000528,-2.875202655792236,-1.318476796150208,-7.493192195892334,-0.1944599151611328,-0.5093426704406738,4.012018203735352,XArbitraryZVertical,0.4377344114235327,0.7960869911737473,0.0118053646726499,0.4177254918315766,0.6547564268112183,-0.3845018446445465,0.6507318019866943,0,0,0,-1,-1,2776.148117666667,unknown,2,2022-06-02T10:47:11.870+02:00,2022-06-02T10:17:13.754+02:00,448,1.423373,0,0,345.1212,0,0,2022-06-02T10:47:16.988+02:00,675852436.9875242,0,7.0625,101.2959,1,0.81
229,2022-06-02T10:47:17.905+02:00,1654159633.999854,53.22910076581099,10.39854009441299,36.92992,0.2498327,0.8066205,47.54172637826515,180.0,2.400000095367432,7.999579855010836,-9999,2782.18249475,-0.7296600341796875,0.3443756103515625,6.144912719726562,2782.17249975,-0.7580412031266561,2.294706749703359,0.3521494101109847,-2.533740043640137,-4.539084911346436,-8.960441589355469,-0.6417667865753174,-0.8640528917312622,4.821226119995117,XArbitraryZVertical,0.3989835984494977,0.8072481707533512,-0.0013257791768888,0.4349258691331524,0.703244149684906,-0.3449161052703857,0.6216750144958496,0,0,0,-1,-1,2776.148117666667,unknown,2,2022-06-02T10:47:11.870+02:00,2022-06-02T10:17:13.754+02:00,448,1.423373,0,0,345.1212,0,0,2022-06-02T10:47:16.988+02:00,675852436.9875242,0,7.0625,101.2959,1,0.81
230,2022-06-02T10:47:17.915+02:00,1654159633.999854,53.22910076581099,10.39854009441299,36.92992,0.2498327,0.8066205,47.54172637826515,180.0,2.400000095367432,7.999579855010836,-9999,2782.19248875,-1.621734619140625,1.235260009765625,5.703704833984375,2782.18249475,-0.67439949526263,2.203275587047693,0.2992591615876046,-3.184806823730469,-8.40017032623291,-9.125165939331056,-1.157465934753418,-0.0764339864253997,5.517082214355469,XArbitraryZVertical,0.3554053751072417,0.8100144751057379,-0.0224392605262239,0.4658970439532396,0.7707167863845825,-0.2948123812675476,0.5648728609085083,0,0,0,-1,-1,2776.148117666667,unknown,2,2022-06-02T10:47:11.870+02:00,2022-06-02T10:17:13.754+02:00,448,1.423373,0,0,345.1212,0,0,2022-06-02T10:47:16.988+02:00,675852436.9875242,0,7.0625,101.2959,1,0.81
231,2022-06-02T10:47:17.925+02:00,1654159633.999854,53.22910076581099,10.39854009441299,36.92992,0.2498327,0.8066205,47.54172637826515,180.0,2.400000095367432,7.999579855010836,-9999,2782.20248275,-2.300918579101562,1.262039184570312,4.67852783203125,2782.19248875,-0.5926835016397628,2.079232718436832,0.2413846715561824,-3.76803183555603,-11.99414539337158,-9.191365242004396,-2.026877641677856,1.164477705955505,5.514636993408203,XArbitraryZVertical,0.3082839624343123,0.8008184141207229,-0.0475639342517302,0.5112616441212785,0.8481819033622742,-0.2390473783016205,0.4726982712745667,0,0,0,-1,-1,2776.148117666667,unknown,2,2022-06-02T10:47:11.870+02:00,2022-06-02T10:17:13.754+02:00,448,1.423373,0,0,345.1212,0,0,2022-06-02T10:47:16.988+02:00,675852436.9875242,0,7.0625,101.2959,1,0.81
232,2022-06-02T10:47:17.935+02:00,1654159633.999854,53.22910076581099,10.39854009441299,36.92992,0.2498327,0.8066205,47.54172637826515,180.0,2.400000095367432,7.999579855010836,-9999,2782.21247775,-3.383895874023438,1.266815185546875,3.805450439453125,2782.20248275,-0.518747182506662,1.927801331440376,0.1737628960754403,-3.467425584793091,-15.20293807983398,-9.154919624328612,-2.903627395629883,1.485496640205383,4.895691394805908,XArbitraryZVertical,0.2577124444122958,0.7782594548161702,-0.0768287587280514,0.5674448745371937,0.9228381514549256,-0.1728897988796234,0.3442069590091705,0,0,0,-1,-1,2776.148117666667,unknown,2,2022-06-02T10:47:11.870+02:00,2022-06-02T10:17:13.754+02:00,448,1.423373,0,0,345.1212,0,0,2022-06-02T10:47:16.988+02:00,675852436.9875242,0,7.0625,101.2959,1,0.81
233,2022-06-02T10:47:17.945+02:00,1654159633.999854,53.22910076581099,10.39854009441299,36.92992,0.2498327,0.8066205,47.54172637826515,180.0,2.400000095367432,7.999579855010836,-9999,2782.22247175,-5.273712158203125,2.16845703125,3.860061645507812,2782.21247775,-0.4712649596789168,1.754221285217836,0.0917412696986514,-0.8335186839103699,-18.31319999694824,-9.32057285308838,-3.700083017349243,1.292006254196167,4.023447036743164,XArbitraryZVertical,0.2078239735225538,0.7400167094739786,-0.1148272590827197,0.6292845112991993,0.9790897965431212,-0.0916126370429992,0.1816310733556747,0,0,0,-1,-1,2776.148117666667,unknown,2,2022-06-02T10:47:11.870+02:00,2022-06-02T10:17:13.754+02:00,448,1.423373,0,0,345.1212,0,0,2022-06-02T10:47:16.988+02:00,675852436.9875242,0,7.0625,101.2959,1,0.81
234,2022-06-02T10:47:17.955+02:00,1654159633.999854,53.22910076581099,10.39854009441299,36.92992,0.2498327,0.8066205,47.54172637826515,180.0,2.400000095367432,7.999579855010836,-9999,2782.23246575,-7.809661865234375,2.750457763671875,4.79071044921875,2782.22247175,-0.4793046978490731,1.55241665114592,-0.000518631692323,4.215944290161133,-22.57358741760254,-8.936700820922852,-5.256667137145996,1.576919674873352,3.755515575408936,XArbitraryZVertical,0.1661131055655907,0.6806005571638154,-0.16955415542581,0.6931381869340023,0.9998307824134828,0.0005186316557228,-0.0183786358684301,0,0,0,-1,-1,2776.148117666667,unknown,2,2022-06-02T10:47:11.870+02:00,2022-06-02T10:17:13.754+02:00,448,1.423373,0,0,345.1212,0,0,2022-06-02T10:47:16.988+02:00,675852436.9875242,0,7.0625,101.2959,1,0.81
235,2022-06-02T10:47:17.965+02:00,1654159633.999854,53.22910076581099,10.39854009441299,36.92992,0.2498327,0.8066205,47.54172637826515,180.0,2.400000095367432,7.999579855010836,-9999,2782.24246075,-14.30482482910156,2.530975341796875,5.18865966796875,2782.23246575,-0.563214020730129,1.289905785361202,-0.0789961213599014,11.33862400054932,-29.28465843200684,-9.79112434387207,-7.309604167938232,2.715351819992065,4.686853885650635,XArbitraryZVertical,0.1366193065434908,0.5858000733398312,-0.2447077179747398,0.7604547907682951,0.9578125476837158,0.0789139866828918,-0.276346892118454,0,0,0,-1,-1,2776.148117666667,unknown,2,2022-06-02T10:47:11.870+02:00,2022-06-02T10:17:13.754+02:00,448,1.423373,0,0,345.1212,0,0,2022-06-02T10:47:16.988+02:00,675852436.9875242,0,7.0625,101.2959,1,0.81
236,2022-06-02T10:47:17.975+02:00,1654159633.999854,53.22910076581099,10.39854009441299,36.92992,0.2498327,0.8066205,47.54172637826515,180.0,2.400000095367432,7.999579855010836,-9999,2782.25245475,-25.85867309570312,4.657928466796875,3.290771484375,2782.24246075,-0.751944180390875,0.9617780506358434,-0.0825327402422585,22.64196586608887,-32.05975341796875,-5.385595798492432,-11.05003833770752,2.340763330459595,5.435013771057129,XArbitraryZVertical,0.1356786066937851,0.4433212142675238,-0.3430061831354709,0.8169481021063278,0.8174180388450623,0.0824390724301338,-0.5701152086257935,0,0,0,-1,-1,2776.148117666667,unknown,2,2022-06-02T10:47:11.870+02:00,2022-06-02T10:17:13.754+02:00,448,1.423373,0,0,345.1212,0,0,2022-06-02T10:47:16.988+02:00,675852436.9875242,0,7.0625,101.2959,1,0.81
237,2022-06-02T10:47:17.985+02:00,1654159633.999854,53.22910076581099,10.39854009441299,36.92992,0.2498327,0.8066205,47.54172637826515,180.0,2.400000095367432,7.999579855010836,-9999,2782.26244975,-21.92930603027344,1.263992309570312,-2.538253784179688,2782.25245475,-0.9708153839754756,0.6443217799603728,0.1189272765425733,34.99842834472656,-27.86462020874023,1.315998435020447,-20.76280975341797,3.17583703994751,6.157888889312744,XArbitraryZVertical,0.1973220565390372,0.2532469246257344,-0.4251408623449675,0.8462773174050505,0.5964136123657227,-0.1186471283435822,-0.7938600182533264,0,0,0,-1,-1,2776.148117666667,unknown,2,2022-06-02T10:47:11.870+02:00,2022-06-02T10:17:13.754+02:00,448,1.423373,0,0,345.1212,0,0,2022-06-02T10:47:16.988+02:00,675852436.9875242,0,7.0625,101.2959,1,0.81
238,2022-06-02T10:47:17.995+02:00,1654159633.999854,53.22910076581099,10.39854009441299,36.92992,0.2498327,0.8066205,47.54172637826515,180.0,2.400000095367432,7.999579855010836,-9999,2782.27244375,-11.03858947753906,-10.36685180664062,1.932113647460938,2782.26244975,-1.162688414443001,0.5311996419985819,0.4170291639950305,35.0812873840332,-5.362215518951416,0.5581485033035278,-27.43371963500977,5.399034023284912,0.5183172821998596,XArbitraryZVertical,0.3079571584611139,0.1049250037914902,-0.473003669857093,0.8187922085626635,0.4631532728672028,-0.4050460159778595,-0.7883062362670898,0,0,0,-1,-1,2776.148117666667,unknown,2,2022-06-02T10:47:11.870+02:00,2022-06-02T10:17:13.754+02:00,448,1.423373,0,0,345.1212,0,0,2022-06-02T10:47:16.988+02:00,675852436.9875242,0,7.0625,101.2959,1,0.81
239,2022-06-02T10:47:18.004+02:00,1654159633.999854,53.22910076581099,10.39854009441299,36.92992,0.2498327,0.8066205,47.54172637826515,180.0,2.400000095367432,7.999579855010836,-9999,2782.28243775,-1.942672729492188,-20.46882629394531,2.23089599609375,2782.27244375,-1.349982059406511,0.659290463942344,0.6611258414623721,15.14327239990234,12.87653827667236,-1.081212282180786,-15.75445747375488,-3.561470031738281,0.4699088335037231,XArbitraryZVertical,0.4310864551192459,0.0471364843432326,-0.4772068824604941,0.7643403902947989,0.4834914803504944,-0.6140058636665344,-0.6238852143287659,0,0,0,-1,-1,2776.148117666667,unknown,2,2022-06-02T10:47:11.870+02:00,2022-06-02T10:17:13.754+02:00,448,1.423373,0,0,345.1212,0,0,2022-06-02T10:47:16.988+02:00,675852436.9875242,0,7.0625,101.2959,1,0.81
240,2022-06-02T10:47:18.015+02:00,1654159633.999854,53.22910076581099,10.39854009441299,36.92992,0.2498327,0.8066205,47.54172637826515,180.0,2.400000095367432,7.999579855010836,-9999,2782.29243275,5.031448364257812,-13.20590209960938,2.471099853515625,2782.28243775,-1.319667334245821,0.7507515097957295,0.6524247260306052,-16.52424240112305,5.506387710571289,4.088334560394287,-8.545448303222656,-16.47113227844238,2.348962783813477,XArbitraryZVertical,0.4484440393491513,0.0916319777538526,-0.447401454458928,0.7683316196636456,0.5420765280723572,-0.6071149110794067,-0.5810030698776245,0,0,0,-1,-1,2776.148117666667,unknown,2,2022-06-02T10:47:11.870+02:00,2022-06-02T10:17:13.754+02:00,448,1.423373,0,0,345.1212,0,0,2022-06-02T10:47:16.988+02:00,675852436.9875242,0,7.0625,101.2959,1,0.81
241,2022-06-02T10:47:18.025+02:00,1654159633.999854,53.22910076581099,10.39854009441299,36.92992,0.2498327,0.8066205,47.54172637826515,180.0,2.400000095367432,7.999579855010836,-9999,2782.30242675,0.4245147705078125,2.348373413085938,2.065872192382812,2782.29243275,-1.088593844117015,0.6395824106068889,0.5135790523483809,-28.26481246948242,1.96421492099762,6.763834476470947,3.561682462692261,-18.9910774230957,3.189283847808838,XArbitraryZVertical,0.3637068126708278,0.1352752690452703,-0.4071414264166558,0.8268336237573378,0.5198605060577393,-0.491297721862793,-0.6988359093666077,0,0,0,-1,-1,2776.148117666667,unknown,2,2022-06-02T10:47:11.870+02:00,2022-06-02T10:17:13.754+02:00,448,1.423373,0,0,345.1212,0,0,2022-06-02T10:47:16.988+02:00,675852436.9875242,0,7.0625,101.2959,1,0.81
242,2022-06-02T10:47:18.035+02:00,1654159633.999854,53.22910076581099,10.39854009441299,36.92992,0.2498327,0.8066205,47.54172637826515,180.0,2.400000095367432,7.999579855010836,-9999,2782.31242175,1.546951293945312,5.523574829101562,1.112228393554688,2782.30242675,-0.8386056880129243,0.5855524931189057,0.2949918340294792,-32.49285888671875,5.81000804901123,5.736640453338623,1.802099347114563,-4.212289333343506,2.217451333999634,XArbitraryZVertical,0.2447436225550923,0.2034621175950967,-0.3468262443967363,0.8822784361698255,0.5287874937057495,-0.2907320261001587,-0.7974074482917786,0,0,0,-1,-1,2776.148117666667,unknown,2,2022-06-02T10:47:11.870+02:00,2022-06-02T10:17:13.754+02:00,448,1.423373,0,0,345.1212,0,0,2022-06-02T10:47:16.988+02:00,675852436.9875242,0,7.0625,101.2959,1,0.81
243,2022-06-02T10:47:18.045+02:00,1654159633.999854,53.22910076581099,10.39854009441299,36.92992,0.2498327,0.8066205,47.54172637826515,180.0,2.400000095367432,7.999579855010836,-9999,2782.32241575,0.2005615234375,5.057830810546875,-2.176651000976562,2782.31242175,-0.6640076452216075,0.5790309914088468,0.1352672175963061,-10.75174427032471,-0.8181157112121582,5.628410816192627,-0.0045863986015319,5.031660079956055,3.31114387512207,XArbitraryZVertical,0.1540711018354709,0.2481698506804955,-0.2934188685193179,0.9102632573659364,0.5422145128250122,-0.1348550915718079,-0.8293476700782776,0,0,0,-1,-1,2776.148117666667,unknown,2,2022-06-02T10:47:11.870+02:00,2022-06-02T10:17:13.754+02:00,448,1.423373,0,0,345.1212,0,0,2022-06-02T10:47:16.988+02:00,675852436.9875242,0,7.0625,101.2959,1,0.81
244,2022-06-02T10:47:18.055+02:00,1654159633.999854,53.22910076581099,10.39854009441299,36.92992,0.2498327,0.8066205,47.54172637826515,180.0,2.400000095367432,7.999579855010836,-9999,2782.33240975,-1.995697021484375,-1.826385498046875,-0.791748046875,2782.33240975,-0.6410215133067028,0.4999323814034795,0.2890468580025707,13.75520896911621,-4.855746269226074,1.878368616104126,-1.872215151786804,2.776493787765503,-0.7653136253356934,XArbitraryZVertical,0.2095605720629196,0.1883623617131326,-0.2682650572051805,0.92121535208289,0.4594801664352417,-0.2850387394428253,-0.8412079811096191,0,0,0,-1,-1,2776.148117666667,unknown,2,2022-06-02T10:47:11.870+02:00,2022-06-02T10:17:13.754+02:00,448,1.423373,0,0,345.1212,0,0,2022-06-02T10:47:16.988+02:00,675852436.9875242,0,7.0625,101.2959,1,0.81
245,2022-06-02T10:47:18.065+02:00,1654159633.999854,53.22910076581099,10.39854009441299,36.92992,0.2498327,0.8066205,47.54172637826515,180.0,2.400000095367432,7.999579855010836,-9999,2782.34240475,0.0286407470703125,-5.620651245117188,-1.86700439453125,2782.33240975,-0.6410215133067028,0.4999323814034795,0.2890468580025707,13.75520896911621,-4.855746269226074,1.878368616104126,-1.872215151786804,2.776493787765503,-0.7653136253356934,XArbitraryZVertical,0.2095605720629196,0.1883623617131326,-0.2682650572051805,0.92121535208289,0.4594801664352417,-0.2850387394428253,-0.8412079811096191,0,0,0,-1,-1,2776.148117666667,unknown,2,2022-06-02T10:47:11.870+02:00,2022-06-02T10:17:13.754+02:00,448,1.423373,0,0,345.1212,0,0,2022-06-02T10:47:16.988+02:00,675852436.9875242,0,7.0625,101.2959,1,0.81
246,2022-06-02T10:47:18.075+02:00,1654159633.999854,53.22910076581099,10.39854009441299,36.92992,0.2498327,0.8066205,47.54172637826515,180.0,2.400000095367432,7.999579855010836,-9999,2782.35239875,0.84930419921875,-5.878494262695312,-3.415390014648438,2782.35239875,-0.6649186810227048,0.431220799088465,0.442893961297768,0.9492766261100768,-2.139471530914307,2.676705121994019,0.4430425465106964,-5.180040836334229,-1.862942457199097,XArbitraryZVertical,0.2709268761115176,0.1272660911536744,-0.2666089506888604,0.9161449008902844,0.3776514232158661,-0.4285559952259064,-0.8208039402961731,0,0,0,-1,-1,2776.148117666667,unknown,2,2022-06-02T10:47:11.870+02:00,2022-06-02T10:17:13.754+02:00,448,1.423373,0,0,345.1212,0,0,2022-06-02T10:47:16.988+02:00,675852436.9875242,0,7.0625,101.2959,1,0.81
247,2022-06-02T10:47:18.088+02:00,1654159633.999854,53.22910076581099,10.39854009441299,36.92992,0.2498327,0.8066205,47.54172637826515,180.0,2.400000095367432,7.999579855010836,-9999,2782.36239275,0.094085693359375,-3.943161010742188,-3.688232421875,2782.35239875,-0.6649186810227048,0.431220799088465,0.442893961297768,0.9492766261100768,-2.139471530914307,2.676705121994019,0.4430425465106964,-5.180040836334229,-1.862942457199097,XArbitraryZVertical,0.2709268761115176,0.1272660911536744,-0.2666089506888604,0.9161449008902844,0.3776514232158661,-0.4285559952259064,-0.8208039402961731,0,0,0,-1,-1,2776.148117666667,unknown,2,2022-06-02T10:47:11.870+02:00,2022-06-02T10:17:13.754+02:00,448,1.423373,0,0,345.1212,0,0,2022-06-02T10:47:16.988+02:00,675852436.9875242,0,7.0625,101.2959,1,0.81
248,2022-06-02T10:47:18.096+02:00,1654159633.999854,53.22910076581099,10.39854009441299,36.92992,0.2498327,0.8066205,47.54172637826515,180.0,2.400000095367432,7.999579855010836,-9999,2782.37238775,-0.62518310546875,-2.355331420898438,-2.890289306640625,2782.36239275,-0.6427796878921374,0.4046409137003341,0.4454967001626339,-1.626031875610352,-1.276637554168701,1.271390318870544,0.1487496793270111,-4.884172439575195,-2.935904026031494,XArbitraryZVertical,0.2672312571167166,0.1175846624274448,-0.2596797461248095,0.9205039671074088,0.3552633821964264,-0.4309061467647552,-0.8295226097106934,0,0,0,-1,-1,2776.148117666667,unknown,2,2022-06-02T10:47:11.870+02:00,2022-06-02T10:17:13.754+02:00,448,1.423373,0,0,345.1212,0,0,2022-06-02T10:47:16.988+02:00,675852436.9875242,0,7.0625,101.2959,1,0.81
249,2022-06-02T10:47:18.104+02:00,1654159633.999854,53.22910076581099,10.39854009441299,36.92992,0.2498327,0.8066205,47.54172637826515,180.0,2.400000095367432,7.999579855010836,-9999,2782.38238175,-0.54522705078125,-2.344375610351562,-2.028045654296875,2782.37238775,-0.62900474953952,0.3910476897569237,0.4333953668011267,-1.480619192123413,-0.2931711375713348,0.0740702375769615,-0.6504827737808228,-2.390271663665771,-2.498459100723267,XArbitraryZVertical,0.2592578219234724,0.1151869536376856,-0.2566297229891198,0.9239363621397738,0.3459173440933228,-0.4199546575546265,-0.8390346765518188,0,0,0,-1,-1,2776.148117666667,unknown,2,2022-06-02T10:47:11.870+02:00,2022-06-02T10:17:13.754+02:00,448,1.423373,0,0,345.1212,0,0,2022-06-02T10:47:16.988+02:00,675852436.9875242,0,7.0625,101.2959,1,0.81
250,2022-06-02T10:47:18.114+02:00,1654159633.999854,53.22910076581099,10.39854009441299,36.92992,0.2498327,0.8066205,47.54172637826515,180.0,2.400000095367432,7.999579855010836,-9999,2782.39237675,-0.0679779052734375,-2.069549560546875,-1.756698608398438,2782.38238175,-0.6239407715624821,0.3887759320496059,0.4172600642294737,-1.95539927482605,0.1782120764255524,-0.2241273820400238,-1.064429521560669,-1.895280003547668,-1.552381992340088,XArbitraryZVertical,0.2514133845539804,0.1174806429724049,-0.2565460468731133,0.925836765742186,0.3465340137481689,-0.4052571058273315,-0.8459792137145996,0,0,0,-1,-1,2776.148117666667,unknown,2,2022-06-02T10:47:11.870+02:00,2022-06-02T10:17:13.754+02:00,448,1.423373,0,0,345.1212,0,0,2022-06-02T10:47:16.988+02:00,675852436.9875242,0,7.0625,101.2959,1,0.81
251,2022-06-02T10:47:18.124+02:00,1654159633.999854,53.22910076581099,10.39854009441299,36.92992,0.2498327,0.8066205,47.54172637826515,180.0,2.400000095367432,7.999579855010836,-9999,2782.40237075,-0.030792236328125,-0.9597320556640624,-1.596969604492188,2782.39237675,-0.6131634227471052,0.386720736179591,0.397677407969259,-2.313213586807251,0.2626006007194519,0.5870212912559509,-0.6118053197860718,-1.936131954193115,-0.9963887333869934,XArbitraryZVertical,0.2416616376916216,0.1210837600134751,-0.2541542650780159,0.9286247443485266,0.3477214276790619,-0.3872780501842499,-0.8538767695426941,0,0,0,-1,-1,2776.148117666667,unknown,2,2022-06-02T10:47:11.870+02:00,2022-06-02T10:17:13.754+02:00,448,1.423373,0,0,345.1212,0,0,2022-06-02T10:47:16.988+02:00,675852436.9875242,0,7.0625,101.2959,1,0.81
252,2022-06-02T10:47:18.134+02:00,1654159633.999854,53.22910076581099,10.39854009441299,36.92992,0.2498327,0.8066205,47.54172637826515,180.0,2.400000095367432,7.999579855010836,-9999,2782.41236475,-0.027496337890625,-0.2706756591796875,-1.592437744140625,2782.40237075,-0.5980440755690074,0.3833200698696828,0.3834383464510877,-1.160235643386841,0.1634164899587631,0.8227289319038391,-0.3605759739875793,-1.181476354598999,-0.8119153380393982,XArbitraryZVertical,0.2338443073520785,0.1235960455138118,-0.249206838354488,0.931631190277264,0.3468430638313293,-0.3741113543510437,-0.8600817322731018,0,0,0,-1,-1,2776.148117666667,unknown,2,2022-06-02T10:47:11.870+02:00,2022-06-02T10:17:13.754+02:00,448,1.423373,0,0,345.1212,0,0,2022-06-02T10:47:16.988+02:00,675852436.9875242,0,7.0625,101.2959,1,0.81
253,2022-06-02T10:47:18.145+02:00,1654159633.999854,53.22910076581099,10.39854009441299,36.92992,0.2498327,0.8066205,47.54172637826515,180.0,2.400000095367432,7.999579855010836,-9999,2782.42235975,-0.0310821533203125,-0.71771240234375,-1.703811645507812,2782.41236475,-0.5905632182129043,0.3805253399847696,0.3846805590324009,0.8583944439888,-0.1636025756597519,0.533302366733551,-0.3818628191947937,-0.1091729700565338,-0.7004806399345398,XArbitraryZVertical,0.2336030321369514,0.1229709423849906,-0.2459020936201282,0.9326520306493584,0.3442651331424713,-0.3752630650997162,-0.8606155514717102,0,0,0,-1,-1,2776.148117666667,unknown,2,2022-06-02T10:47:11.870+02:00,2022-06-02T10:17:13.754+02:00,448,1.423373,0,0,345.1212,0,0,2022-06-02T10:47:16.988+02:00,675852436.9875242,0,7.0625,101.2959,1,0.81
254,2022-06-02T10:47:18.154+02:00,1654159633.999854,53.22910076581099,10.39854009441299,36.92992,0.2498327,0.8066205,47.54172637826515,180.0,2.400000095367432,7.999579855010836,-9999,2782.43235375,-0.0351715087890625,-1.566131591796875,-1.624664306640625,2782.42235975,-0.5926816004501675,0.3793309951803392,0.3989126747967512,1.690417885780334,-0.1791642308235168,0.1666103452444077,-0.3628616034984589,0.0239604711532592,-0.8007755875587463,XArbitraryZVertical,0.2400653836870815,0.1199151224868193,-0.2453735394666266,0.931547499028082,0.3412246406078339,-0.3884166181087494,-0.8559779524803162,0,0,0,-1,-1,2776.148117666667,unknown,2,2022-06-02T10:47:11.870+02:00,2022-06-02T10:17:13.754+02:00,448,1.423373,0,0,345.1212,0,0,2022-06-02T10:47:16.988+02:00,675852436.9875242,0,7.0625,101.2959,1,0.81
255,2022-06-02T10:47:18.165+02:00,1654159633.999854,53.22910076581099,10.39854009441299,36.92992,0.2498327,0.8066205,47.54172637826515,180.0,2.400000095367432,7.999579855010836,-9999,2782.44234775,-0.057708740234375,-1.69683837890625,-1.414382934570312,2782.43235375,-0.5972638032872002,0.3807424333361684,0.4115789754416652,0.8175376057624817,0.122224248945713,0.0281042736023664,-0.378189742565155,-0.7819651365280151,-0.840424656867981,XArbitraryZVertical,0.2462650633753498,0.1179990883261918,-0.2458473974565289,0.9300476344390136,0.3405767977237701,-0.400056928396225,-0.8508594632148743,0,0,0,-1,-1,2776.148117666667,unknown,2,2022-06-02T10:47:11.870+02:00,2022-06-02T10:17:13.754+02:00,448,1.423373,0,0,345.1212,0,0,2022-06-02T10:47:16.988+02:00,675852436.9875242,0,7.0625,101.2959,1,0.81
256,2022-06-02T10:47:18.175+02:00,1654159633.999854,53.22910076581099,10.39854009441299,36.92992,0.2498327,0.8066205,47.54172637826515,180.0,2.400000095367432,7.999579855010836,-9999,2782.45234275,-0.1043853759765625,-1.376144409179688,-1.216201782226562,2782.45234275,-0.592486589198687,0.3885297585130588,0.4000999888270436,-1.842644214630127,0.7790586352348328,-0.1268166750669479,-0.4351059794425964,-1.14863657951355,-0.4611773490905762,XArbitraryZVertical,0.2417187205444437,0.1240334826134122,-0.2440348543967488,0.93093207860847,0.3489090800285339,-0.3895104229450226,-0.8523755073547363,0,0,0,-1,-1,2776.148117666667,unknown,2,2022-06-02T10:47:11.870+02:00,2022-06-02T10:17:13.754+02:00,448,1.423373,0,0,345.1212,0,0,2022-06-02T10:47:16.988+02:00,675852436.9875242,0,7.0625,101.2959,1,0.81
257,2022-06-02T10:47:18.185+02:00,1654159633.999854,53.22910076581099,10.39854009441299,36.92992,0.2498327,0.8066205,47.54172637826515,180.0,2.400000095367432,7.999579855010836,-9999,2782.46233675,-0.0582122802734375,-1.130905151367188,-0.9114837646484376,2782.46233675,-0.5856615743350813,0.3944810759832844,0.3793003666747984,-2.397516012191772,0.9052075147628784,-0.2766913771629333,-0.4512203335762024,-0.8789358735084534,-0.2322342991828918,XArbitraryZVertical,0.2325443529739017,0.1308955848523389,-0.2426218331224294,0.9326971433625152,0.357012540102005,-0.3702706396579742,-0.8575789332389832,0,0,0,-1,-1,2776.148117666667,unknown,2,2022-06-02T10:47:11.870+02:00,2022-06-02T10:17:13.754+02:00,448,1.423373,0,0,345.1212,0,0,2022-06-02T10:47:16.988+02:00,675852436.9875242,0,7.0625,101.2959,1,0.81
258,2022-06-02T10:47:18.194+02:00,1654159633.999854,53.22910076581099,10.39854009441299,36.92992,0.2498327,0.8066205,47.54172637826515,180.0,2.400000095367432,7.999579855010836,-9999,2782.47233075,0.095977783203125,-0.8039703369140625,-0.545501708984375,2782.46233675,-0.5856615743350813,0.3944810759832844,0.3793003666747984,-2.397516012191772,0.9052075147628784,-0.2766913771629333,-0.4512203335762024,-0.8789358735084534,-0.2322342991828918,XArbitraryZVertical,0.2325443529739017,0.1308955848523389,-0.2426218331224294,0.9326971433625152,0.357012540102005,-0.3702706396579742,-0.8575789332389832,0,0,0,-1,-1,2776.148117666667,unknown,2,2022-06-02T10:47:11.870+02:00,2022-06-02T10:17:13.754+02:00,448,1.423373,0,0,345.1212,0,0,2022-06-02T10:47:16.988+02:00,675852436.9875242,0,7.0625,101.2959,1,0.81
259,2022-06-02T10:47:18.204+02:00,1654159633.999854,53.22910076581099,10.39854009441299,36.92992,0.2498327,0.8066205,47.54172637826515,180.0,2.400000095367432,7.999579855010836,-9999,2782.48232575,0.2473907470703125,-0.355804443359375,-0.47198486328125,2782.47233075,-0.5789527054756083,0.4005995658054635,0.3570098836831682,-2.075458288192749,0.7560673952102661,-0.2817299664020538,-0.3555698990821838,-0.634839653968811,0.165362536907196,XArbitraryZVertical,0.2226603411315038,0.1379842227784864,-0.2414406168192077,0.9343922942908902,0.3653813004493713,-0.3494742214679718,-0.8627654314041138,0,0,0,-1,-1,2776.148117666667,unknown,2,2022-06-02T10:47:11.870+02:00,2022-06-02T10:17:13.754+02:00,448,1.423373,0,0,345.1212,0,0,2022-06-02T10:47:16.988+02:00,675852436.9875242,0,7.0625,101.2959,1,0.81
260,2022-06-02T10:47:18.214+02:00,1654159633.999854,53.22910076581099,10.39854009441299,36.92992,0.2498327,0.8066205,47.54172637826515,180.0,2.400000095367432,7.999579855010836,-9999,2782.49231975,0.317840576171875,-0.088043212890625,-0.5736541748046875,2782.48232575,-0.5748590680027117,0.405096038030048,0.3415804598388941,-0.9971221089363098,0.4119204580783844,-0.2200215756893158,-0.1923677325248718,-0.2494196891784668,0.3956910371780396,XArbitraryZVertical,0.2158551124452817,0.1429094974050523,-0.2408648916063259,0.9353969371765952,0.3713380396366119,-0.3349766731262207,-0.8659669160842896,0,0,0,-1,-1,2776.148117666667,unknown,2,2022-06-02T10:47:11.870+02:00,2022-06-02T10:17:13.754+02:00,448,1.423373,0,0,345.1212,0,0,2022-06-02T10:47:16.988+02:00,675852436.9875242,0,7.0625,101.2959,1,0.81
261,2022-06-02T10:47:18.224+02:00,1654159633.999854,53.22910076581099,10.39854009441299,36.92992,0.2498327,0.8066205,47.54172637826515,180.0,2.400000095367432,7.999579855010836,-9999,2782.50231475,0.3004608154296875,-0.2802581787109375,-0.6982879638671875,2782.49231975,-0.575441776711858,0.4076517487376463,0.3374624699413368,0.270930141210556,0.0652242079377174,-0.2209096699953079,-0.0788208842277526,0.1599511802196503,0.3513357639312744,XArbitraryZVertical,0.214318996065448,0.1446731712181057,-0.2413519008136318,0.9353534913758008,0.3740937113761902,-0.3310937583446503,-0.8662740588188171,0,0,0,-1,-1,2776.148117666667,unknown,2,2022-06-02T10:47:11.870+02:00,2022-06-02T10:17:13.754+02:00,448,1.423373,0,0,345.1212,0,0,2022-06-02T10:47:16.988+02:00,675852436.9875242,0,7.0625,101.2959,1,0.81
262,2022-06-02T10:47:18.235+02:00,1654159633.999854,53.22910076581099,10.39854009441299,36.92992,0.2498327,0.8066205,47.54172637826515,180.0,2.400000095367432,7.999579855010836,-9999,2782.51230875,0.2311248779296875,-0.639556884765625,-0.7537841796875,2782.50231475,-0.5810403688584764,0.4088340037056297,0.3431031734013564,1.072864651679993,-0.1811906397342682,-0.2923050224781036,-0.0559335350990295,0.2010503113269806,0.2249436378479004,XArbitraryZVertical,0.2174472302372785,0.1437526220902803,-0.2431677496319226,0.9343025794175116,0.374369204044342,-0.3364109992980957,-0.8641037940979004,0,0,0,-1,-1,2776.148117666667,unknown,2,2022-06-02T10:47:11.870+02:00,2022-06-02T10:17:13.754+02:00,448,1.423373,0,0,345.1212,0,0,2022-06-02T10:47:16.988+02:00,675852436.9875242,0,7.0625,101.2959,1,0.81
263,2022-06-02T10:47:18.244+02:00,1654159633.999854,53.22910076581099,10.39854009441299,36.92992,0.2498327,0.8066205,47.54172637826515,180.0,2.400000095367432,7.999579855010836,-9999,2782.52230275,0.1754150390625,-0.843353271484375,-0.6997528076171875,2782.51230875,-0.5883816300566244,0.4093601156037923,0.351680010481735,0.9460268020629884,-0.1823044270277023,-0.2817143797874451,-0.1031995415687561,-0.1197273731231689,0.1177282333374023,XArbitraryZVertical,0.2219526676148283,0.1418556369115918,-0.2455061900703251,0.932920422133886,0.3736615478992462,-0.3444754779338837,-0.8612279891967773,0,0,0,-1,-1,2776.148117666667,unknown,2,2022-06-02T10:47:11.870+02:00,2022-06-02T10:17:13.754+02:00,448,1.423373,0,0,345.1212,0,0,2022-06-02T10:47:16.988+02:00,675852436.9875242,0,7.0625,101.2959,1,0.81
264,2022-06-02T10:47:18.254+02:00,1654159633.999854,53.22910076581099,10.39854009441299,36.92992,0.2498327,0.8066205,47.54172637826515,180.0,2.400000095367432,7.999579855010836,-9999,2782.53229775,0.17230224609375,-0.896820068359375,-0.6189727783203125,2782.52230275,-0.5936114829090746,0.4099058919758299,0.3565558726631155,0.3189306259155273,-0.0647016316652298,-0.2422758936882019,-0.1781604886054993,-0.4213674366474152,0.1267766952514648,XArbitraryZVertical,0.2246117762482196,0.1407584144112385,-0.2472941627812469,0.9319775613719676,0.3734577298164368,-0.3490487933158875,-0.8594732284545898,0,0,0,-1,-1,2776.148117666667,unknown,2,2022-06-02T10:47:11.870+02:00,2022-06-02T10:17:13.754+02:00,448,1.423373,0,0,345.1212,0,0,2022-06-02T10:47:16.988+02:00,675852436.9875242,0,7.0625,101.2959,1,0.81
265,2022-06-02T10:47:18.264+02:00,1654159633.999854,53.22910076581099,10.39854009441299,36.92992,0.2498327,0.8066205,47.54172637826515,180.0,2.400000095367432,7.999579855010836,-9999,2782.54229175,0.2263946533203125,-0.862091064453125,-0.55511474609375,2782.53229775,-0.5963136020814492,0.4107251208160141,0.3556538852045541,-0.2623347043991089,0.017975004389882,-0.3044459223747253,-0.2062117159366608,-0.5285055637359619,0.1987650394439697,XArbitraryZVertical,0.2244929786553962,0.1409796439070661,-0.2485704918096961,0.9316330635304836,0.3742872476577759,-0.3482033908367157,-0.8594552874565125,0,0,0,-1,-1,2776.148117666667,unknown,2,2022-06-02T10:47:11.870+02:00,2022-06-02T10:17:13.754+02:00,448,1.423373,0,0,345.1212,0,0,2022-06-02T10:47:16.988+02:00,675852436.9875242,0,7.0625,101.2959,1,0.81
266,2022-06-02T10:47:18.274+02:00,1654159633.999854,53.22910076581099,10.39854009441299,36.92992,0.2498327,0.8066205,47.54172637826515,180.0,2.400000095367432,7.999579855010836,-9999,2782.55228575,0.275177001953125,-0.7520599365234375,-0.5833587646484375,2782.54229175,-0.597239722153522,0.4111777399021368,0.3500197618894058,-0.6609417200088501,0.0019100190838798,-0.2896464467048645,-0.1804165840148926,-0.5505315065383911,0.2795732617378235,XArbitraryZVertical,0.2220494830105836,0.1419816830537686,-0.2496345303051525,0.9317820223669648,0.3754543960094452,-0.3429163694381714,-0.861070454120636,0,0,0,-1,-1,2776.148117666667,unknown,2,2022-06-02T10:47:11.870+02:00,2022-06-02T10:17:13.754+02:00,448,1.423373,0,0,345.1212,0,0,2022-06-02T10:47:16.988+02:00,675852436.9875242,0,7.0625,101.2959,1,0.81
267,2022-06-02T10:47:18.284+02:00,1654159633.999854,53.22910076581099,10.39854009441299,36.92992,0.2498327,0.8066205,47.54172637826515,180.0,2.400000095367432,7.999579855010836,-9999,2782.562280666667,0.2456207275390625,-0.542724609375,-0.6997833251953125,2782.55228575,-0.5969628239666206,0.4108929407902149,0.342257867457946,-0.7470493316650391,-0.0381139628589153,-0.2911060154438019,-0.1201879978179932,-0.4807456135749817,0.3134206533432007,XArbitraryZVertical,0.2184572978630333,0.1431106194977104,-0.2504749566312092,0.9322327790567534,0.3762609958648682,-0.3356148600578308,-0.8635914921760559,0,0,0,-1,-1,2776.148117666667,unknown,2,2022-06-02T10:47:11.870+02:00,2022-06-02T10:17:13.754+02:00,448,1.423373,0,0,345.1212,0,0,2022-06-02T10:47:16.988+02:00,675852436.9875242,0,7.0625,101.2959,1,0.81
268,2022-06-02T10:47:18.295+02:00,1654159633.999854,53.22910076581099,10.39854009441299,36.92992,0.2498327,0.8066205,47.54172637826515,180.0,2.400000095367432,7.999579855010836,-9999,2782.572274666667,0.210784912109375,-0.353851318359375,-0.76019287109375,2782.562280666667,-0.597455264746558,0.4106327110735684,0.3352764561796888,-0.4493902623653412,-0.0490164123475551,-0.3563435971736908,-0.106759786605835,-0.3299052715301514,0.2232080101966858,XArbitraryZVertical,0.2152759140247038,0.1440415516642209,-0.2515728751264581,0.9325338177564612,0.3769623935222626,-0.3290302455425262,-0.8658166527748108,0,0,0,-1,-1,2776.148117666667,unknown,2,2022-06-02T10:47:11.870+02:00,2022-06-02T10:17:13.754+02:00,448,1.423373,0,0,345.1212,0,0,2022-06-02T10:47:16.988+02:00,675852436.9875242,0,7.0625,101.2959,1,0.81
269,2022-06-02T10:47:18.305+02:00,1654159633.999854,53.22910076581099,10.39854009441299,36.92992,0.2498327,0.8066205,47.54172637826515,180.0,2.400000095367432,7.999579855010836,-9999,2782.582269666667,0.186187744140625,-0.3288726806640625,-0.8277435302734375,2782.572274666667,-0.6006025621318132,0.4108769050386638,0.3319292705045862,0.0656579732894897,-0.1083845272660255,-0.4661469161510468,-0.1538872420787811,-0.1056814789772034,0.1301113367080688,XArbitraryZVertical,0.2140066259509495,0.1443484868755566,-0.2534157984364882,0.9322794752982836,0.3776115775108337,-0.3258675932884216,-0.8667293787002563,0,0,0,-1,-1,2776.148117666667,unknown,2,2022-06-02T10:47:11.870+02:00,2022-06-02T10:17:13.754+02:00,448,1.423373,0,0,345.1212,0,0,2022-06-02T10:47:16.988+02:00,675852436.9875242,0,7.0625,101.2959,1,0.81
270,2022-06-02T10:47:18.314+02:00,1654159633.999854,53.22910076581099,10.39854009441299,36.92992,0.2498327,0.8066205,47.54172637826515,180.0,2.400000095367432,7.999579855010836,-9999,2782.592263666667,0.1522064208984375,-0.378997802734375,-0.81402587890625,2782.582269666667,-0.6066275046299096,0.4116933583583821,0.3320601364657753,0.3610981404781342,-0.1069701239466667,-0.5456348657608032,-0.1778015792369843,0.0042292475700378,0.0734587311744689,XArbitraryZVertical,0.2146047244557947,0.1440624233895361,-0.256119806493011,0.9314468652021506,0.3783020377159119,-0.325991302728653,-0.8663816452026367,0,0,0,-1,-1,2776.148117666667,unknown,2,2022-06-02T10:47:11.870+02:00,2022-06-02T10:17:13.754+02:00,448,1.423373,0,0,345.1212,0,0,2022-06-02T10:47:16.988+02:00,675852436.9875242,0,7.0625,101.2959,1,0.81
271,2022-06-02T10:47:18.324+02:00,1654159633.999854,53.22910076581099,10.39854009441299,36.92992,0.2498327,0.8066205,47.54172637826515,180.0,2.400000095367432,7.999579855010836,-9999,2782.602257666667,0.15191650390625,-0.502349853515625,-0.7340240478515625,2782.592263666667,-0.6128995984167195,0.4129991748134618,0.3328646881800351,0.2199386805295944,-0.0406167991459369,-0.4597855806350708,-0.2109469175338745,-0.0215910673141479,0.030960202217102,XArbitraryZVertical,0.2155906036883959,0.1438661428436766,-0.258801916483496,0.930507803899369,0.379327654838562,-0.3267517983913422,-0.8656464219093323,0,0,0,-1,-1,2776.148117666667,unknown,2,2022-06-02T10:47:11.870+02:00,2022-06-02T10:17:13.754+02:00,448,1.423373,0,0,345.1212,0,0,2022-06-02T10:47:16.988+02:00,675852436.9875242,0,7.0625,101.2959,1,0.81
272,2022-06-02T10:47:18.334+02:00,1654159633.999854,53.22910076581099,10.39854009441299,36.92992,0.2498327,0.8066205,47.54172637826515,180.0,2.400000095367432,7.999579855010836,-9999,2782.612252666667,0.2145843505859375,-0.5624542236328125,-0.606353759765625,2782.602257666667,-0.616971273575625,0.4141775897810168,0.3315678446735789,-0.1731833070516586,0.0041373539716005,-0.3511349856853485,-0.2346894443035126,-0.1069844961166382,0.0809638500213623,XArbitraryZVertical,0.2154470093759201,0.1441858798143569,-0.2607256317082576,0.9299543941738716,0.3805176913738251,-0.3255258798599243,-0.8655860424041748,0,0,0,-1,-1,2776.148117666667,unknown,2,2022-06-02T10:47:11.870+02:00,2022-06-02T10:17:13.754+02:00,448,1.423373,0,0,345.1212,0,0,2022-06-02T10:47:16.988+02:00,675852436.9875242,0,7.0625,101.2959,1,0.81
273,2022-06-02T10:47:18.344+02:00,1654159633.999854,53.22910076581099,10.39854009441299,36.92992,0.2498327,0.8066205,47.54172637826515,180.0,2.400000095367432,7.999579855010836,-9999,2782.622246666667,0.2925872802734375,-0.487945556640625,-0.580291748046875,2782.612252666667,-0.6181690364886689,0.4145583563647719,0.32675554853933,-0.6133491396903992,-0.0216117519885301,-0.2523215413093567,-0.206623375415802,-0.2321743965148926,0.1977212429046631,XArbitraryZVertical,0.2133950058176282,0.1450177002696656,-0.2618241774972443,0.929989477670044,0.3814738094806671,-0.3209719359874725,-0.8668648600578308,0,0,0,-1,-1,2776.148117666667,unknown,2,2022-06-02T10:47:11.870+02:00,2022-06-02T10:17:13.754+02:00,448,1.423373,0,0,345.1212,0,0,2022-06-02T10:47:16.988+02:00,675852436.9875242,0,7.0625,101.2959,1,0.81
274,2022-06-02T10:47:18.354+02:00,1654159633.999854,53.22910076581099,10.39854009441299,36.92992,0.2498327,0.8066205,47.54172637826515,180.0,2.400000095367432,7.999579855010836,-9999,2782.632240666667,0.304931640625,-0.3503265380859375,-0.6065521240234375,2782.622246666667,-0.617281936009796,0.4136217639809089,0.3189792149716508,-0.8246973752975464,-0.1106545403599739,-0.2364277839660645,-0.1234747171401978,-0.220231294631958,0.2989702224731445,XArbitraryZVertical,0.2096688413687907,0.1459399089158132,-0.2624481002543864,0.9305167442546284,0.3816534280776978,-0.3135974407196045,-0.8694810271263123,0,0,0,-1,-1,2776.148117666667,unknown,2,2022-06-02T10:47:11.870+02:00,2022-06-02T10:17:13.754+02:00,448,1.423373,0,0,345.1212,0,0,2022-06-02T10:47:16.988+02:00,675852436.9875242,0,7.0625,101.2959,1,0.81
275,2022-06-02T10:47:18.366+02:00,1654159633.999854,53.22910076581099,10.39854009441299,36.92992,0.2498327,0.8066205,47.54172637826515,180.0,2.400000095367432,7.999579855010836,-9999,2782.642235666667,0.2742462158203125,-0.20965576171875,-0.6424713134765625,2782.632240666667,-0.6165834715173023,0.4118003381583637,0.3109579622261992,-0.666761577129364,-0.1999605745077133,-0.2919763922691345,-0.0745909512042999,-0.122328132390976,0.2667390704154968,XArbitraryZVertical,0.20572355315975,0.146464583388486,-0.2632723762402429,0.9310819005388756,0.38106369972229,-0.3059707880020142,-0.872451901435852,0,0,0,-1,-1,2776.148117666667,unknown,2,2022-06-02T10:47:11.870+02:00,2022-06-02T10:17:13.754+02:00,448,1.423373,0,0,345.1212,0,0,2022-06-02T10:47:16.988+02:00,675852436.9875242,0,7.0625,101.2959,1,0.81
276,2022-06-02T10:47:18.375+02:00,1654159633.999854,53.22910076581099,10.39854009441299,36.92992,0.2498327,0.8066205,47.54172637826515,180.0,2.400000095367432,7.999579855010836,-9999,2782.652229666667,0.2230072021484375,-0.212677001953125,-0.7569580078125,2782.642235666667,-0.6177605216996277,0.4095576156883202,0.3052410398675375,-0.2907018959522247,-0.3202084302902222,-0.3684903383255005,-0.086858183145523,0.0300000309944152,0.2591872215270996,XArbitraryZVertical,0.2029061588997949,0.1462251758153326,-0.2647286700240031,0.9313247964258912,0.3797964155673981,-0.3005230724811554,-0.8748945593833923,0,0,0,-1,-1,2776.148117666667,unknown,2,2022-06-02T10:47:11.870+02:00,2022-06-02T10:17:13.754+02:00,448,1.423373,0,0,345.1212,0,0,2022-06-02T10:47:16.988+02:00,675852436.9875242,0,7.0625,101.2959,1,0.81
