,loggingTime(txt),locationTimestamp_since1970(s),locationLatitude(WGS84),locationLongitude(WGS84),locationAltitude(m),locationSpeed(m/s),locationSpeedAccuracy(m/s),locationCourse(°),locationCourseAccuracy(°),locationVerticalAccuracy(m),locationHorizontalAccuracy(m),locationFloor(Z),accelerometerTimestamp_sinceReboot(s),accelerometerAccelerationX(G),accelerometerAccelerationY(G),accelerometerAccelerationZ(G),motionTimestamp_sinceReboot(s),motionYaw(rad),motionRoll(rad),motionPitch(rad),motionRotationRateX(rad/s),motionRotationRateY(rad/s),motionRotationRateZ(rad/s),motionUserAccelerationX(G),motionUserAccelerationY(G),motionUserAccelerationZ(G),motionAttitudeReferenceFrame(txt),motionQuaternionX(R),motionQuaternionY(R),motionQuaternionZ(R),motionQuaternionW(R),motionGravityX(G),motionGravityY(G),motionGravityZ(G),motionMagneticFieldX(µT),motionMagneticFieldY(µT),motionMagneticFieldZ(µT),motionHeading(°),motionMagneticFieldCalibrationAccuracy(Z),activityTimestamp_sinceReboot(s),activity(txt),activityActivityConfidence(Z),activityActivityStartDate(txt),pedometerStartDate(txt),pedometerNumberofSteps(N),pedometerAverageActivePace(s/m),pedometerCurrentPace(s/m),pedometerCurrentCadence(steps/s),pedometerDistance(m),pedometerFloorAscended(N),pedometerFloorDescended(N),pedometerEndDate(txt),altimeterTimestamp_sinceReboot(s),altimeterReset(bool),altimeterRelativeAltitude(m),altimeterPressure(kPa),batteryState(N),batteryLevel(R)
348,2022-06-02T10:46:42.040+02:00,1654159600.89508,53.22925343788434,10.39845046577852,37.04279,0.04857644,0.6944578,312.687344278748,19.54330591076414,3.0,51.92276910442843,-9999,34169.11993416667,-0.0011444091796875,1.218612670898438,1.816421508789062,34169.11119816667,1.732646586148662,2.393901841190691,-0.5213312188134787,-11.86674022674561,5.638192176818848,-1.243576884269714,-0.4945892691612244,0.8438381552696228,0.5667081475257874,XArbitraryZVertical,0.7463180932873762,-0.5108183966644475,-0.1134817650321293,-0.4113340588288032,0.5896210074424744,0.4980349540710449,0.6358522772789001,0,0,0,-1,-1,34162.295601875,unknown,2,2022-06-02T10:46:35.211+02:00,2022-06-02T10:32:51.428+02:00,75,2.361373,0,0,68.39739,0,0,2022-06-02T10:46:40.317+02:00,675852400.3167841,0,14.48828,101.0204,1,0.89
349,2022-06-02T10:46:42.050+02:00,1654159600.89508,53.22925343788434,10.39845046577852,37.04279,0.04857644,0.6944578,312.687344278748,19.54330591076414,3.0,51.92276910442843,-9999,34169.12990716667,-0.0901336669921875,1.1124267578125,2.222198486328125,34169.12117016667,1.828370103630528,2.495248334308524,-0.4405499715335373,-11.48964500427246,5.767341136932373,-1.422681093215942,-0.5019798278808594,0.8401645421981812,0.8407829403877258,XArbitraryZVertical,0.7752727471992706,-0.5098882545588153,-0.1189887008326461,-0.3532813917568896,0.5447654724121094,0.4264369904994965,0.7220677137374878,0,0,0,-1,-1,34162.295601875,unknown,2,2022-06-02T10:46:35.211+02:00,2022-06-02T10:32:51.428+02:00,75,2.361373,0,0,68.39739,0,0,2022-06-02T10:46:40.317+02:00,675852400.3167841,0,14.48828,101.0204,1,0.89
350,2022-06-02T10:46:42.060+02:00,1654159600.89508,53.22925343788434,10.39845046577852,37.04279,0.04857644,0.6944578,312.687344278748,19.54330591076414,3.0,51.92276910442843,-9999,34169.13987916667,-0.1803131103515625,1.075286865234375,2.60577392578125,34169.13114316667,1.911317005786173,2.585254937591011,-0.3562349060738205,-11.1191349029541,5.792641162872314,-1.664881229400635,-0.5277620553970337,0.8244086503982544,1.174900054931641,XArbitraryZVertical,0.800951521180951,-0.5063756654961307,-0.1223987874742163,-0.295091230664369,0.4949250221252441,0.3487479984760284,0.7958793044090271,0,0,0,-1,-1,34162.295601875,unknown,2,2022-06-02T10:46:35.211+02:00,2022-06-02T10:32:51.428+02:00,75,2.361373,0,0,68.39739,0,0,2022-06-02T10:46:40.317+02:00,675852400.3167841,0,14.48828,101.0204,1,0.89
351,2022-06-02T10:46:42.070+02:00,1654159600.89508,53.22925343788434,10.39845046577852,37.04279,0.04857644,0.6944578,312.687344278748,19.54330591076414,3.0,51.92276910442843,-9999,34169.14985216667,-0.2882843017578125,0.9859466552734376,2.9664306640625,34169.14111516667,1.98435213984599,2.665127488056357,-0.270070562624441,-10.78231716156006,5.665073871612549,-1.936035871505737,-0.5644526481628418,0.8312077522277832,1.511249542236328,XArbitraryZVertical,0.8235396272195881,-0.4999880052088879,-0.1242296543595715,-0.2374057686153963,0.4420161545276642,0.2667994499206543,0.8564110398292542,0,0,0,-1,-1,34162.295601875,unknown,2,2022-06-02T10:46:35.211+02:00,2022-06-02T10:32:51.428+02:00,75,2.361373,0,0,68.39739,0,0,2022-06-02T10:46:40.317+02:00,675852400.3167841,0,14.48828,101.0204,1,0.89
352,2022-06-02T10:46:42.080+02:00,1654159600.89508,53.22925343788434,10.39845046577852,37.04279,0.04857644,0.6944578,312.687344278748,19.54330591076414,3.0,51.92276910442843,-9999,34169.15982416667,-0.47833251953125,0.8517913818359375,3.3394775390625,34169.15108816667,2.050030107742771,2.734936388325941,-0.1833183052198605,-10.39755535125732,5.359027862548828,-2.240398406982422,-0.606030285358429,0.8660313487052917,1.841249227523804,XArbitraryZVertical,0.843194899118921,-0.4904611636521256,-0.1253359289059156,-0.1810009090615826,0.3889130651950836,0.1822932809591293,0.9030596017837524,0,0,0,-1,-1,34162.295601875,unknown,2,2022-06-02T10:46:35.211+02:00,2022-06-02T10:32:51.428+02:00,75,2.361373,0,0,68.39739,0,0,2022-06-02T10:46:40.317+02:00,675852400.3167841,0,14.48828,101.0204,1,0.89
353,2022-06-02T10:46:42.090+02:00,1654159600.89508,53.22925343788434,10.39845046577852,37.04279,0.04857644,0.6944578,312.687344278748,19.54330591076414,3.0,51.92276910442843,-9999,34169.16979716667,-0.6728668212890625,0.689483642578125,3.791168212890625,34169.16106016667,2.110212892414347,2.794391139664259,-0.0988114283773903,-9.729047775268556,4.828723907470703,-2.655048370361328,-0.692825436592102,0.8373081684112549,2.16060209274292,XArbitraryZVertical,0.8600377196484372,-0.4777092753705118,-0.1260959576133179,-0.1273927438086042,0.3386079370975494,0.0986507162451744,0.9357420802116394,0,0,0,-1,-1,34162.295601875,unknown,2,2022-06-02T10:46:35.211+02:00,2022-06-02T10:32:51.428+02:00,75,2.361373,0,0,68.39739,0,0,2022-06-02T10:46:40.317+02:00,675852400.3167841,0,14.48828,101.0204,1,0.89
354,2022-06-02T10:46:42.100+02:00,1654159600.89508,53.22925343788434,10.39845046577852,37.04279,0.04857644,0.6944578,312.687344278748,19.54330591076414,3.0,51.92276910442843,-9999,34169.17976916667,-0.9169158935546876,0.493438720703125,4.243865966796875,34169.17103316667,2.167119926694034,2.842089805715204,-0.0202039049934713,-8.773337364196777,4.026458263397217,-3.164214372634888,-0.8426535129547119,0.7849732637405396,2.547793865203857,XArbitraryZVertical,0.8744017525148655,-0.4615905034873004,-0.1271475588063957,-0.0786724989214379,0.2949850559234619,0.0202025305479764,0.9552884101867676,0,0,0,-1,-1,34162.295601875,unknown,2,2022-06-02T10:46:35.211+02:00,2022-06-02T10:32:51.428+02:00,75,2.361373,0,0,68.39739,0,0,2022-06-02T10:46:40.317+02:00,675852400.3167841,0,14.48828,101.0204,1,0.89
355,2022-06-02T10:46:42.110+02:00,1654159600.89508,53.22925343788434,10.39845046577852,37.04279,0.04857644,0.6944578,312.687344278748,19.54330591076414,3.0,51.92276910442843,-9999,34169.18974216667,-1.16937255859375,0.2568359375,4.624969482421875,34169.18100516667,2.222863111673191,2.876025421481469,0.0480097178212394,-7.43558931350708,2.890391826629639,-3.784690141677856,-1.025704026222229,0.657747745513916,2.99644947052002,XArbitraryZVertical,0.8867791676406167,-0.4421976367232482,-0.1291834417517118,-0.0373587647077959,0.2621542811393738,-0.0479912757873535,0.9638320803642272,0,0,0,-1,-1,34162.295601875,unknown,2,2022-06-02T10:46:35.211+02:00,2022-06-02T10:32:51.428+02:00,75,2.361373,0,0,68.39739,0,0,2022-06-02T10:46:40.317+02:00,675852400.3167841,0,14.48828,101.0204,1,0.89
356,2022-06-02T10:46:42.120+02:00,1654159600.89508,53.22925343788434,10.39845046577852,37.04279,0.04857644,0.6944578,312.687344278748,19.54330591076414,3.0,51.92276910442843,-9999,34169.19971416667,-1.536468505859375,-0.061553955078125,4.836105346679688,34169.19097816667,2.279377952911608,2.893677174678041,0.1019130197022653,-5.841934680938721,1.446313858032227,-4.434089660644531,-1.248047232627869,0.5235048532485962,3.43488073348999,XArbitraryZVertical,0.8977308820046851,-0.4198538518699285,-0.1333030950681427,-0.0056803997083261,0.2441104799509048,-0.1017366945743561,0.9643959999084472,0,0,0,-1,-1,34162.295601875,unknown,2,2022-06-02T10:46:35.211+02:00,2022-06-02T10:32:51.428+02:00,75,2.361373,0,0,68.39739,0,0,2022-06-02T10:46:40.317+02:00,675852400.3167841,0,14.48828,101.0204,1,0.89
357,2022-06-02T10:46:42.130+02:00,1654159600.89508,53.22925343788434,10.39845046577852,37.04279,0.04857644,0.6944578,312.687344278748,19.54330591076414,3.0,51.92276910442843,-9999,34169.20968716667,-1.880706787109375,-0.517120361328125,4.961318969726562,34169.20095016667,2.338025555759468,2.89258640134887,0.1375507933296438,-3.899281024932861,-0.3134306967258453,-5.155120849609375,-1.53535783290863,0.2714557945728302,3.759173393249512,XArbitraryZVertical,0.9077446583829162,-0.3949705004376306,-0.1406884495683564,0.0143112272873005,0.2441133558750153,-0.1371174603700638,0.9600041508674622,0,0,0,-1,-1,34162.295601875,unknown,2,2022-06-02T10:46:35.211+02:00,2022-06-02T10:32:51.428+02:00,75,2.361373,0,0,68.39739,0,0,2022-06-02T10:46:40.317+02:00,675852400.3167841,0,14.48828,101.0204,1,0.89
358,2022-06-02T10:46:42.140+02:00,1654159600.89508,53.22925343788434,10.39845046577852,37.04279,0.04857644,0.6944578,312.687344278748,19.54330591076414,3.0,51.92276910442843,-9999,34169.21965916667,-2.166748046875,-0.8821258544921875,5.148681640625,34169.21092316667,2.399625538310561,2.869112841551746,0.1496931707142658,-1.544622182846069,-2.65248703956604,-6.072768211364746,-1.949765801429749,-0.0575913339853286,3.926097393035889,XArbitraryZVertical,0.9170683108382988,-0.3676325071265806,-0.153082627086971,0.0199431389685379,0.2661109566688538,-0.1491347402334213,0.9523358941078186,0,0,0,-1,-1,34162.295601875,unknown,2,2022-06-02T10:46:35.211+02:00,2022-06-02T10:32:51.428+02:00,75,2.361373,0,0,68.39739,0,0,2022-06-02T10:46:40.317+02:00,675852400.3167841,0,14.48828,101.0204,1,0.89
359,2022-06-02T10:46:42.150+02:00,1654159600.89508,53.22925343788434,10.39845046577852,37.04279,0.04857644,0.6944578,312.687344278748,19.54330591076414,3.0,51.92276910442843,-9999,34169.22963216667,-2.544891357421875,-0.525634765625,5.1513671875,34169.22089516667,2.463443018414969,2.820280103608277,0.1332130671005379,0.9874753952026368,-5.386940479278564,-7.001883983612061,-2.295817613601685,-0.5716179013252258,4.090117454528809,XArbitraryZVertical,0.9253130292132438,-0.3376442069000136,-0.1723764151912661,0.0088703100299335,0.3130142688751221,-0.1328194290399551,0.940415620803833,0,0,0,-1,-1,34162.295601875,unknown,2,2022-06-02T10:46:35.211+02:00,2022-06-02T10:32:51.428+02:00,75,2.361373,0,0,68.39739,0,0,2022-06-02T10:46:40.317+02:00,675852400.3167841,0,14.48828,101.0204,1,0.89
360,2022-06-02T10:46:42.160+02:00,1654159600.89508,53.22925343788434,10.39845046577852,37.04279,0.04857644,0.6944578,312.687344278748,19.54330591076414,3.0,51.92276910442843,-9999,34169.23960416667,-2.939041137695312,0.1119384765625,4.703720092773438,34169.23086816667,2.52535268611217,2.743373839885067,0.0896225765702364,3.204127073287964,-8.838306427001953,-7.694296360015869,-2.691778182983398,-0.7489525675773621,4.286032676696777,XArbitraryZVertical,0.9304541690609645,-0.3054209149509394,-0.201608928260215,-0.0180817717158252,0.3862208425998688,-0.0895026475191116,0.9180538058280944,0,0,0,-1,-1,34162.295601875,unknown,2,2022-06-02T10:46:35.211+02:00,2022-06-02T10:32:51.428+02:00,75,2.361373,0,0,68.39739,0,0,2022-06-02T10:46:40.317+02:00,675852400.3167841,0,14.48828,101.0204,1,0.89
361,2022-06-02T10:46:42.170+02:00,1654159600.89508,53.22925343788434,10.39845046577852,37.04279,0.04857644,0.6944578,312.687344278748,19.54330591076414,3.0,51.92276910442843,-9999,34169.24957716667,-3.351181030273438,1.138137817382812,3.816650390625,34169.24084016667,2.578740123595421,2.633425443067197,0.0159987845095849,5.322007656097412,-12.68599510192871,-8.327178955078125,-3.185595989227295,-0.3575065433979034,4.144326686859131,XArbitraryZVertical,0.929229258047758,-0.2707324641860446,-0.2436127765489016,-0.0623687166506522,0.4865147173404694,-0.0159981027245521,0.8735261559486389,0,0,0,-1,-1,34162.295601875,unknown,2,2022-06-02T10:46:35.211+02:00,2022-06-02T10:32:51.428+02:00,75,2.361373,0,0,68.39739,0,0,2022-06-02T10:46:40.317+02:00,675852400.3167841,0,14.48828,101.0204,1,0.89
362,2022-06-02T10:46:42.180+02:00,1654159600.89508,53.22925343788434,10.39845046577852,37.04279,0.04857644,0.6944578,312.687344278748,19.54330591076414,3.0,51.92276910442843,-9999,34169.25955016667,-4.068695068359375,1.923416137695312,2.489303588867188,34169.25081316667,2.615477681446132,2.488536878395858,-0.0788130953670983,6.452437400817871,-16.47776031494141,-8.14594841003418,-3.68089485168457,0.4184150397777557,3.656095504760742,XArbitraryZVertical,0.9171547775235512,-0.233901181522204,-0.2997785548682352,-0.1193738783887135,0.6057300567626953,0.0787315294146537,0.7917652726173401,0,0,0,-1,-1,34162.295601875,unknown,2,2022-06-02T10:46:35.211+02:00,2022-06-02T10:32:51.428+02:00,75,2.361373,0,0,68.39739,0,0,2022-06-02T10:46:40.317+02:00,675852400.3167841,0,14.48828,101.0204,1,0.89
363,2022-06-02T10:46:42.190+02:00,1654159600.89508,53.22925343788434,10.39845046577852,37.04279,0.04857644,0.6944578,312.687344278748,19.54330591076414,3.0,51.92276910442843,-9999,34169.26952216667,-5.637603759765625,3.33056640625,1.556991577148438,34169.26078616667,2.626618316369428,2.307161946087224,-0.1811266894183221,7.393997192382812,-20.03142166137695,-7.385470390319824,-4.317829132080078,1.298118352890015,2.655579566955566,XArbitraryZVertical,0.8897910602370999,-0.1964141463378004,-0.3691966442723214,-0.1827220163242591,0.7287940979003906,0.1801379472017288,0.6606132984161377,0,0,0,-1,-1,34162.295601875,unknown,2,2022-06-02T10:46:35.211+02:00,2022-06-02T10:32:51.428+02:00,75,2.361373,0,0,68.39739,0,0,2022-06-02T10:46:40.317+02:00,675852400.3167841,0,14.48828,101.0204,1,0.89
364,2022-06-02T10:46:42.200+02:00,1654159600.89508,53.22925343788434,10.39845046577852,37.04279,0.04857644,0.6944578,312.687344278748,19.54330591076414,3.0,51.92276910442843,-9999,34169.27949516667,-7.433380126953125,4.303207397460938,1.48004150390625,34169.27075816667,2.603545518952091,2.089982271004837,-0.2813291384549466,8.150728225708008,-22.32694816589355,-6.265295505523682,-5.335800170898438,2.029725074768066,1.574815630912781,XArbitraryZVertical,0.844277376037258,-0.1597795157546651,-0.4468468327027742,-0.2489861346795135,0.8340911269187927,0.2776327729225159,0.4766675531864166,0,0,0,-1,-1,34162.295601875,unknown,2,2022-06-02T10:46:35.211+02:00,2022-06-02T10:32:51.428+02:00,75,2.361373,0,0,68.39739,0,0,2022-06-02T10:46:40.317+02:00,675852400.3167841,0,14.48828,101.0204,1,0.89
365,2022-06-02T10:46:42.210+02:00,1654159600.89508,53.22925343788434,10.39845046577852,37.04279,0.04857644,0.6944578,312.687344278748,19.54330591076414,3.0,51.92276910442843,-9999,34169.28946716667,-8.587692260742188,4.337738037109375,2.577178955078125,34169.28073116667,2.535474955918831,1.834163316482605,-0.3718200286767498,11.304612159729,-24.79823112487793,-5.714388370513916,-7.320502281188965,3.473663330078125,1.19866418838501,XArbitraryZVertical,0.77814580351274,-0.1255428430691342,-0.5266328176838321,-0.3184118289536257,0.8995428681373596,0.3633117079734802,0.2425437867641449,0,0,0,-1,-1,34162.295601875,unknown,2,2022-06-02T10:46:35.211+02:00,2022-06-02T10:32:51.428+02:00,75,2.361373,0,0,68.39739,0,0,2022-06-02T10:46:40.317+02:00,675852400.3167841,0,14.48828,101.0204,1,0.89
366,2022-06-02T10:46:42.220+02:00,1654159600.89508,53.22925343788434,10.39845046577852,37.04279,0.04857644,0.6944578,312.687344278748,19.54330591076414,3.0,51.92276910442843,-9999,34169.29944016667,-11.08099365234375,2.648391723632812,1.179946899414062,34169.29070316667,2.393572496310859,1.525564537262673,-0.4313210378541684,15.91372966766357,-25.04294776916504,-3.238081455230713,-8.734908103942871,4.054707050323486,1.80166482925415,XArbitraryZVertical,0.6847914490214946,-0.1025820516990434,-0.6033334226100564,-0.39563401234672,0.907485008239746,0.4180712103843689,-0.0410751886665821,0,0,0,-1,-1,34162.295601875,unknown,2,2022-06-02T10:46:35.211+02:00,2022-06-02T10:32:51.428+02:00,75,2.361373,0,0,68.39739,0,0,2022-06-02T10:46:40.317+02:00,675852400.3167841,0,14.48828,101.0204,1,0.89
367,2022-06-02T10:46:42.230+02:00,1654159600.89508,53.22925343788434,10.39845046577852,37.04279,0.04857644,0.6944578,312.687344278748,19.54330591076414,3.0,51.92276910442843,-9999,34169.30941216667,-10.81497192382812,5.854217529296875,0.8012847900390625,34169.30067616667,2.194635306454666,1.196364907831968,-0.4049111727378757,22.63309860229492,-25.71685600280762,0.3318328857421875,-10.23062324523926,3.429747581481934,3.048143625259399,XArbitraryZVertical,0.5667192641319334,-0.1036584443753541,-0.6687964742417254,-0.4698886692425244,0.8554555773735046,0.3939371109008789,-0.3361684083938599,0,0,0,-1,-1,34162.295601875,unknown,2,2022-06-02T10:46:35.211+02:00,2022-06-02T10:32:51.428+02:00,75,2.361373,0,0,68.39739,0,0,2022-06-02T10:46:40.317+02:00,675852400.3167841,0,14.48828,101.0204,1,0.89
368,2022-06-02T10:46:42.240+02:00,1654159600.89508,53.22925343788434,10.39845046577852,37.04279,0.04857644,0.6944578,312.687344278748,19.54330591076414,3.0,51.92276910442843,-9999,34169.31938516667,-10.03237915039062,6.646835327148438,4.028900146484375,34169.31064816667,1.944683914615954,0.8366405797487094,-0.2365801333888245,35.0415153503418,-28.5313663482666,2.917450666427612,-12.36339473724365,2.451945781707764,0.8210378289222717,XArbitraryZVertical,0.3940340797526216,-0.1381579969688611,-0.7226817796371373,-0.550799985479415,0.721717357635498,0.2343793958425522,-0.651298999786377,0,0,0,-1,-1,34162.295601875,unknown,2,2022-06-02T10:46:35.211+02:00,2022-06-02T10:32:51.428+02:00,75,2.361373,0,0,68.39739,0,0,2022-06-02T10:46:40.317+02:00,675852400.3167841,0,14.48828,101.0204,1,0.89
369,2022-06-02T10:46:42.249+02:00,1654159600.89508,53.22925343788434,10.39845046577852,37.04279,0.04857644,0.6944578,312.687344278748,19.54330591076414,3.0,51.92276910442843,-9999,34169.32935716667,-9.809158325195312,-0.512664794921875,4.356674194335938,34169.32062116667,1.734001702236429,0.5785294994127491,0.0546147834647466,36.1760368347168,-18.44509887695312,1.307669401168823,-10.6702766418457,7.943137645721436,3.034520864486694,XArbitraryZVertical,0.2004545264798927,-0.2044709586382432,-0.7354847036615482,-0.6140616833409729,0.5459780097007751,-0.0545876361429691,-0.8360192179679871,0,0,0,-1,-1,34162.295601875,unknown,2,2022-06-02T10:46:35.211+02:00,2022-06-02T10:32:51.428+02:00,75,2.361373,0,0,68.39739,0,0,2022-06-02T10:46:40.317+02:00,675852400.3167841,0,14.48828,101.0204,1,0.89
370,2022-06-02T10:46:42.259+02:00,1654159600.89508,53.22925343788434,10.39845046577852,37.04279,0.04857644,0.6944578,312.687344278748,19.54330591076414,3.0,51.92276910442843,-9999,34169.33933016667,-8.407257080078125,-4.712615966796875,3.269790649414062,34169.33059316667,1.558775322722307,0.4872430943953948,0.3722076320065612,36.14094924926758,-7.206024646759033,1.551503896713257,-10.5951452255249,4.009836673736572,5.287248611450195,XArbitraryZVertical,0.0388773618539465,-0.2948346358994296,-0.7020610671303399,-0.6470481923569306,0.4361329972743988,-0.3636727929115295,-0.8231222033500671,0,0,0,-1,-1,34162.295601875,unknown,2,2022-06-02T10:46:35.211+02:00,2022-06-02T10:32:51.428+02:00,75,2.361373,0,0,68.39739,0,0,2022-06-02T10:46:40.317+02:00,675852400.3167841,0,14.48828,101.0204,1,0.89
371,2022-06-02T10:46:42.269+02:00,1654159600.89508,53.22925343788434,10.39845046577852,37.04279,0.04857644,0.6944578,312.687344278748,19.54330591076414,3.0,51.92276910442843,-9999,34169.34930216667,-5.774032592773438,-13.25547790527344,1.538558959960938,34169.34056616667,1.390729857474756,0.5481589279894449,0.6514746185675266,25.24777603149414,2.321656465530396,-0.4895407259464264,-9.795581817626951,-1.250024557113647,4.561816215515137,XArbitraryZVertical,-0.0722522241057043,-0.394256106652913,-0.6508243286535332,-0.6448018491186537,0.4143871366977692,-0.6063596606254578,-0.6786834597587585,0,0,0,-1,-1,34162.295601875,unknown,2,2022-06-02T10:46:35.211+02:00,2022-06-02T10:32:51.428+02:00,75,2.361373,0,0,68.39739,0,0,2022-06-02T10:46:40.317+02:00,675852400.3167841,0,14.48828,101.0204,1,0.89
372,2022-06-02T10:46:42.279+02:00,1654159600.89508,53.22925343788434,10.39845046577852,37.04279,0.04857644,0.6944578,312.687344278748,19.54330591076414,3.0,51.92276910442843,-9999,34169.35927516667,-1.991668701171875,-11.68116760253906,1.049407958984375,34169.35053816667,1.262345824815311,0.6874521042532022,0.7930162898160266,7.092495441436768,6.249035835266113,2.031173467636108,-8.02552318572998,-7.041433334350586,3.265463829040527,XArbitraryZVertical,-0.1101236731738826,-0.4655246447324943,-0.617544253149131,-0.6243385150038713,0.4452774524688721,-0.7124730348587036,-0.5423191785812378,0,0,0,-1,-1,34162.295601875,unknown,2,2022-06-02T10:46:35.211+02:00,2022-06-02T10:32:51.428+02:00,75,2.361373,0,0,68.39739,0,0,2022-06-02T10:46:40.317+02:00,675852400.3167841,0,14.48828,101.0204,1,0.89
373,2022-06-02T10:46:42.291+02:00,1654159600.89508,53.22925343788434,10.39845046577852,37.04279,0.04857644,0.6944578,312.687344278748,19.54330591076414,3.0,51.92276910442843,-9999,34169.36924716667,-0.2928466796875,-3.806198120117188,0.7546844482421875,34169.36051116667,1.326332744044787,0.7029637027281411,0.8122485878973243,-7.513485908508301,6.827994823455811,6.624671936035156,-4.659797191619873,-13.71293067932129,2.114135265350342,XArbitraryZVertical,-0.0975769019569828,-0.477578559497437,-0.6381491621631382,-0.5959557143713143,0.4446941018104553,-0.7258357405662537,-0.5247949361801147,0,0,0,-1,-1,34162.295601875,unknown,2,2022-06-02T10:46:35.211+02:00,2022-06-02T10:32:51.428+02:00,75,2.361373,0,0,68.39739,0,0,2022-06-02T10:46:40.317+02:00,675852400.3167841,0,14.48828,101.0204,1,0.89
374,2022-06-02T10:46:42.300+02:00,1654159602.000079,53.22912922690823,10.3984625255832,37.26657,0.3244113,0.7260643,302.4685343369518,50.66660906317484,3.0,24.00362482104263,-9999,34169.37922016667,-0.4474029541015625,-0.475189208984375,0.349945068359375,34169.37048316667,1.490801159374642,0.6420084405988332,0.7644363658429502,-13.28284931182861,3.964683055877686,5.449855804443359,-1.731212377548218,-7.61892032623291,1.286819338798523,XArbitraryZVertical,-0.0615080470244671,-0.4551756126390611,-0.6836507740447539,-0.5671450843048267,0.4322011768817902,-0.6921302676200867,-0.5780638456344604,0,0,0,-1,-1,34162.295601875,unknown,2,2022-06-02T10:46:35.211+02:00,2022-06-02T10:32:51.428+02:00,75,2.361373,0,0,68.39739,0,0,2022-06-02T10:46:40.317+02:00,675852400.3167841,0,14.48828,101.0204,1,0.89
375,2022-06-02T10:46:42.309+02:00,1654159602.000079,53.22912922690823,10.3984625255832,37.26657,0.3244113,0.7260643,302.4685343369518,50.66660906317484,3.0,24.00362482104263,-9999,34169.38919216667,-2.357879638671875,-0.5274810791015625,0.440826416015625,34169.38045616667,1.643669903297908,0.5627791728866552,0.6992991414334275,-9.659132957458496,1.096632480621338,6.08107852935791,-0.3513069450855255,-1.43793773651123,1.308887720108032,XArbitraryZVertical,-0.0330002134688534,-0.4186618016569569,-0.7257900175873164,-0.544850567713207,0.4083137810230255,-0.6436814665794373,-0.6472665667533875,0,0,0,-1,-1,34162.295601875,unknown,2,2022-06-02T10:46:35.211+02:00,2022-06-02T10:32:51.428+02:00,75,2.361373,0,0,68.39739,0,0,2022-06-02T10:46:40.317+02:00,675852400.3167841,0,14.48828,101.0204,1,0.89
376,2022-06-02T10:46:42.319+02:00,1654159602.000079,53.22912922690823,10.3984625255832,37.26657,0.3244113,0.7260643,302.4685343369518,50.66660906317484,3.0,24.00362482104263,-9999,34169.39916516667,-2.050918579101562,-1.935348510742188,0.3924407958984375,34169.39042816667,1.765494042597815,0.5028570233215702,0.6591557420494293,-7.619034767150879,2.437947750091553,6.162581920623779,-1.60887622833252,0.4995651245117188,1.004678726196289,XArbitraryZVertical,-0.0172202557066114,-0.3916344787050829,-0.7590608610927597,-0.5197619405378762,0.3809709548950195,-0.6124497056007385,-0.6926518082618713,0,0,0,-1,-1,34162.295601875,unknown,2,2022-06-02T10:46:35.211+02:00,2022-06-02T10:32:51.428+02:00,75,2.361373,0,0,68.39739,0,0,2022-06-02T10:46:40.317+02:00,675852400.3167841,0,14.48828,101.0204,1,0.89
377,2022-06-02T10:46:42.329+02:00,1654159602.000079,53.22912922690823,10.3984625255832,37.26657,0.3244113,0.7260643,302.4685343369518,50.66660906317484,3.0,24.00362482104263,-9999,34169.40913716667,-1.6212158203125,-1.691268920898438,-0.233551025390625,34169.40040116667,1.882258515033893,0.4603597361348546,0.6210554117404834,-7.885334491729736,2.78744101524353,6.939537048339844,-2.869015216827393,-0.6606751680374146,1.229437232017517,XArbitraryZVertical,0.0003872817210714,-0.3683759565017947,-0.7903244123106304,-0.4895777312483023,0.3613094985485077,-0.581893801689148,-0.7285979986190796,0,0,0,-1,-1,34162.295601875,unknown,2,2022-06-02T10:46:35.211+02:00,2022-06-02T10:32:51.428+02:00,75,2.361373,0,0,68.39739,0,0,2022-06-02T10:46:40.317+02:00,675852400.3167841,0,14.48828,101.0204,1,0.89
378,2022-06-02T10:46:42.339+02:00,1654159602.000079,53.22912922690823,10.3984625255832,37.26657,0.3244113,0.7260643,302.4685343369518,50.66660906317484,3.0,24.00362482104263,-9999,34169.41911016667,-1.60528564453125,-1.451889038085938,-0.9484710693359376,34169.41037316667,1.997306428290047,0.4219116391891713,0.5809830997479462,-7.36932897567749,2.596991777420044,6.791645526885986,-2.1033775806427,-1.396008729934692,0.9561010003089904,XArbitraryZVertical,0.0170295317138172,-0.344093387410138,-0.8201335810892498,-0.4568265969329836,0.3423150181770325,-0.5488460063934326,-0.7626194953918457,0,0,0,-1,-1,34162.295601875,unknown,2,2022-06-02T10:46:35.211+02:00,2022-06-02T10:32:51.428+02:00,75,2.361373,0,0,68.39739,0,0,2022-06-02T10:46:40.317+02:00,675852400.3167841,0,14.48828,101.0204,1,0.89
379,2022-06-02T10:46:42.349+02:00,1654159602.000079,53.22912922690823,10.3984625255832,37.26657,0.3244113,0.7260643,302.4685343369518,50.66660906317484,3.0,24.00362482104263,-9999,34169.42908216667,-1.585693359375,-1.553192138671875,-1.364471435546875,34169.42034616667,2.099325493214807,0.3912617045337044,0.5463230177531838,-5.789103507995605,2.152891159057617,6.315744876861572,-1.957101345062256,-1.023831725120544,0.287428081035614,XArbitraryZVertical,0.0305810165408656,-0.3226919236582605,-0.8452789933876412,-0.424780250935236,0.3258453011512756,-0.5195490121841431,-0.7898694276809692,0,0,0,-1,-1,34162.295601875,unknown,2,2022-06-02T10:46:35.211+02:00,2022-06-02T10:32:51.428+02:00,75,2.361373,0,0,68.39739,0,0,2022-06-02T10:46:40.317+02:00,675852400.3167841,0,14.48828,101.0204,1,0.89
380,2022-06-02T10:46:42.359+02:00,1654159602.000079,53.22912922690823,10.3984625255832,37.26657,0.3244113,0.7260643,302.4685343369518,50.66660906317484,3.0,24.00362482104263,-9999,34169.43905516667,-1.528518676757812,-1.718795776367188,-1.180267333984375,34169.43031816667,2.183248093568971,0.3676473756499125,0.5225997014591386,-3.953934192657471,1.690252542495728,5.403749465942383,-1.899810791015625,-0.959926187992096,-0.3549394607543945,XArbitraryZVertical,0.0395997090088702,-0.3067932952070009,-0.8645829623570833,-0.3959875686687252,0.3114471435546875,-0.4991345405578613,-0.808619499206543,0,0,0,-1,-1,34162.295601875,unknown,2,2022-06-02T10:46:35.211+02:00,2022-06-02T10:32:51.428+02:00,75,2.361373,0,0,68.39739,0,0,2022-06-02T10:46:40.317+02:00,675852400.3167841,0,14.48828,101.0204,1,0.89
381,2022-06-02T10:46:42.369+02:00,1654159602.000079,53.22912922690823,10.3984625255832,37.26657,0.3244113,0.7260643,302.4685343369518,50.66660906317484,3.0,24.00362482104263,-9999,34169.44902716667,-1.210922241210938,-2.093536376953125,-0.821319580078125,34169.44029116667,2.249810361432664,0.3504687409934141,0.5120437841103345,-2.136919021606445,1.542027235031128,4.69873046875,-1.884508371353149,-1.113189458847046,-0.5512266159057617,XArbitraryZVertical,0.0446284740534756,-0.2977107528418477,-0.8784916385766172,-0.3709838555625263,0.2993032336235046,-0.4899599254131317,-0.8187532424926758,0,0,0,-1,-1,34162.295601875,unknown,2,2022-06-02T10:46:35.211+02:00,2022-06-02T10:32:51.428+02:00,75,2.361373,0,0,68.39739,0,0,2022-06-02T10:46:40.317+02:00,675852400.3167841,0,14.48828,101.0204,1,0.89
382,2022-06-02T10:46:42.379+02:00,1654159602.000079,53.22912922690823,10.3984625255832,37.26657,0.3244113,0.7260643,302.4685343369518,50.66660906317484,3.0,24.00362482104263,-9999,34169.45900016667,-1.071609497070312,-2.327362060546875,-0.615234375,34169.45026316667,2.301654014452891,0.3401338495837247,0.5123126207660389,-0.9986936450004578,1.427346467971802,3.91667366027832,-1.709742307662964,-1.357263684272766,-0.2104717493057251,XArbitraryZVertical,0.0476839018752514,-0.294765996499344,-0.888048913794673,-0.3495831716861246,0.2907817363739014,-0.4901942610740662,-0.8216785192489624,0,0,0,-1,-1,34162.295601875,unknown,2,2022-06-02T10:46:35.211+02:00,2022-06-02T10:32:51.428+02:00,75,2.361373,0,0,68.39739,0,0,2022-06-02T10:46:40.317+02:00,675852400.3167841,0,14.48828,101.0204,1,0.89
383,2022-06-02T10:46:42.389+02:00,1654159602.000079,53.22912922690823,10.3984625255832,37.26657,0.3244113,0.7260643,302.4685343369518,50.66660906317484,3.0,24.00362482104263,-9999,34169.46897316667,-0.9593048095703124,-2.408004760742188,-0.596710205078125,34169.46023616667,2.344324658906887,0.3333997224087207,0.5177423891011267,-0.5232218503952026,1.480059146881104,3.454136848449707,-1.424243927001953,-1.712233662605286,0.1061250567436218,XArbitraryZVertical,0.0498359802312353,-0.2949083986899544,-0.8950220595942738,-0.3308791098525536,0.2843666672706604,-0.4949196875095367,-0.821090817451477,0,0,0,-1,-1,34162.295601875,unknown,2,2022-06-02T10:46:35.211+02:00,2022-06-02T10:32:51.428+02:00,75,2.361373,0,0,68.39739,0,0,2022-06-02T10:46:40.317+02:00,675852400.3167841,0,14.48828,101.0204,1,0.89
384,2022-06-02T10:46:42.399+02:00,1654159602.000079,53.22912922690823,10.3984625255832,37.26657,0.3244113,0.7260643,302.4685343369518,50.66660906317484,3.0,24.00362482104263,-9999,34169.47894516667,-0.8447723388671875,-2.403076171875,-0.659149169921875,34169.47020916667,2.382040091586415,0.3292895690498719,0.5232927569008193,-0.6036570072174072,1.471212863922119,3.128016471862793,-1.312979459762573,-1.881719589233398,0.2105250954627991,XArbitraryZVertical,0.0524467027269591,-0.2956839785771595,-0.9007228191156588,-0.3138772807881123,0.2800968587398529,-0.4997349679470062,-0.8196406364440918,0,0,0,-1,-1,34162.295601875,unknown,2,2022-06-02T10:46:35.211+02:00,2022-06-02T10:32:51.428+02:00,75,2.361373,0,0,68.39739,0,0,2022-06-02T10:46:40.317+02:00,675852400.3167841,0,14.48828,101.0204,1,0.89
385,2022-06-02T10:46:42.409+02:00,1654159602.000079,53.22912922690823,10.3984625255832,37.26657,0.3244113,0.7260643,302.4685343369518,50.66660906317484,3.0,24.00362482104263,-9999,34169.48891816667,-0.782989501953125,-2.381759643554688,-0.7681884765625,34169.48018116667,2.417160009343152,0.3267768688680141,0.5255141619304913,-0.9890983700752258,1.561113119125366,2.810697078704834,-1.18646240234375,-1.903310418128967,0.216993510723114,XArbitraryZVertical,0.0560733089393135,-0.2953160455141927,-0.9059631431770688,-0.2981191162977564,0.2776794135570526,-0.5016578435897827,-0.819288432598114,0,0,0,-1,-1,34162.295601875,unknown,2,2022-06-02T10:46:35.211+02:00,2022-06-02T10:32:51.428+02:00,75,2.361373,0,0,68.39739,0,0,2022-06-02T10:46:40.317+02:00,675852400.3167841,0,14.48828,101.0204,1,0.89
386,2022-06-02T10:46:42.419+02:00,1654159602.000079,53.22912922690823,10.3984625255832,37.26657,0.3244113,0.7260643,302.4685343369518,50.66660906317484,3.0,24.00362482104263,-9999,34169.49889016667,-0.6920166015625,-2.272308349609375,-0.8107452392578125,34169.49015416667,2.451601276342935,0.3253049196053365,0.5218204750041906,-1.62400233745575,1.58661425113678,2.636044502258301,-1.099649548530579,-1.904418706893921,0.1145372986793518,XArbitraryZVertical,0.0611479929450623,-0.2924682597145913,-0.9113534050662194,-0.2831223914976493,0.2770634889602661,-0.4984591603279114,-0.8214464783668518,0,0,0,-1,-1,34162.295601875,unknown,2,2022-06-02T10:46:35.211+02:00,2022-06-02T10:32:51.428+02:00,75,2.361373,0,0,68.39739,0,0,2022-06-02T10:46:40.317+02:00,675852400.3167841,0,14.48828,101.0204,1,0.89
387,2022-06-02T10:46:42.429+02:00,1654159602.000079,53.22912922690823,10.3984625255832,37.26657,0.3244113,0.7260643,302.4685343369518,50.66660906317484,3.0,24.00362482104263,-9999,34169.50886316667,-0.6055450439453125,-2.10968017578125,-0.823944091796875,34169.50012616667,2.486612209967376,0.3238396354609001,0.5122236278064306,-2.122228860855103,1.581124544143677,2.527122259140015,-1.028955936431885,-1.856273055076599,0.0340055227279663,XArbitraryZVertical,0.067246847493879,-0.2868859310922584,-0.9171237357900028,-0.2684370921858051,0.2773690223693848,-0.490116685628891,-0.8263486623764038,0,0,0,-1,-1,34162.295601875,unknown,2,2022-06-02T10:46:35.211+02:00,2022-06-02T10:32:51.428+02:00,75,2.361373,0,0,68.39739,0,0,2022-06-02T10:46:40.317+02:00,675852400.3167841,0,14.48828,101.0204,1,0.89
388,2022-06-02T10:46:42.439+02:00,1654159602.000079,53.22912922690823,10.3984625255832,37.26657,0.3244113,0.7260643,302.4685343369518,50.66660906317484,3.0,24.00362482104263,-9999,34169.51883516667,-0.5252838134765625,-1.892684936523438,-0.82342529296875,34169.51009916667,2.52099862740758,0.3230035166223781,0.499388632618967,-2.169364213943481,1.594572186470032,2.35198974609375,-0.9361226558685304,-1.752937912940979,0.0119970440864563,XArbitraryZVertical,0.0739022478478337,-0.2798209808520639,-0.922837433376935,-0.2541846084219316,0.2786518931388855,-0.4788889288902283,-0.832477331161499,0,0,0,-1,-1,34162.295601875,unknown,2,2022-06-02T10:46:35.211+02:00,2022-06-02T10:32:51.428+02:00,75,2.361373,0,0,68.39739,0,0,2022-06-02T10:46:40.317+02:00,675852400.3167841,0,14.48828,101.0204,1,0.89
389,2022-06-02T10:46:42.449+02:00,1654159602.000079,53.22912922690823,10.3984625255832,37.26657,0.3244113,0.7260643,302.4685343369518,50.66660906317484,3.0,24.00362482104263,-9999,34169.52880816667,-0.4516143798828125,-1.8287353515625,-0.85992431640625,34169.52007116667,2.552063565650778,0.3243491642460906,0.4867458427331183,-1.951480031013489,1.620310187339783,2.029265880584717,-0.8542802929878235,-1.549047827720642,0.0191397666931152,XArbitraryZVertical,0.0808588469135153,-0.2730841583430682,-0.9277904527438549,-0.2410224718685023,0.2816789746284485,-0.4677521586418152,-0.8377737998962402,0,0,0,-1,-1,34162.295601875,unknown,2,2022-06-02T10:46:35.211+02:00,2022-06-02T10:32:51.428+02:00,75,2.361373,0,0,68.39739,0,0,2022-06-02T10:46:40.317+02:00,675852400.3167841,0,14.48828,101.0204,1,0.89
390,2022-06-02T10:46:42.459+02:00,1654159602.000079,53.22912922690823,10.3984625255832,37.26657,0.3244113,0.7260643,302.4685343369518,50.66660906317484,3.0,24.00362482104263,-9999,34169.53878016667,-0.425018310546875,-1.714935302734375,-0.870819091796875,34169.53004416667,2.578303400157456,0.3279976058217818,0.4763172313472054,-1.514987349510193,1.528465270996094,1.725146651268005,-0.7847636938095093,-1.404863357543945,0.0030865669250488,XArbitraryZVertical,0.0877161504390134,-0.2676741172958846,-0.9316656641307698,-0.2294680853769763,0.2862895727157593,-0.4585094451904297,-0.8413128852844238,0,0,0,-1,-1,34162.295601875,unknown,2,2022-06-02T10:46:35.211+02:00,2022-06-02T10:32:51.428+02:00,75,2.361373,0,0,68.39739,0,0,2022-06-02T10:46:40.317+02:00,675852400.3167841,0,14.48828,101.0204,1,0.89
391,2022-06-02T10:46:42.469+02:00,1654159602.000079,53.22912922690823,10.3984625255832,37.26657,0.3244113,0.7260643,302.4685343369518,50.66660906317484,3.0,24.00362482104263,-9999,34169.54875316667,-0.450927734375,-1.650177001953125,-0.9051361083984376,34169.54001616667,2.599728249222228,0.332616190321591,0.4693301163628184,-1.045728445053101,1.369695782661438,1.441448211669922,-0.7233095169067383,-1.339794874191284,-0.0250679850578308,XArbitraryZVertical,0.0937622391343673,-0.2640341553204538,-0.934485721972485,-0.219615914142224,0.2912111580371857,-0.4522889256477356,-0.8429892063140869,0,0,0,-1,-1,34162.295601875,unknown,2,2022-06-02T10:46:35.211+02:00,2022-06-02T10:32:51.428+02:00,75,2.361373,0,0,68.39739,0,0,2022-06-02T10:46:40.317+02:00,675852400.3167841,0,14.48828,101.0204,1,0.89
392,2022-06-02T10:46:42.479+02:00,1654159602.000079,53.22912922690823,10.3984625255832,37.26657,0.3244113,0.7260643,302.4685343369518,50.66660906317484,3.0,24.00362482104263,-9999,34169.55872516667,-0.4670562744140625,-1.706100463867188,-0.891845703125,34169.54998916667,2.616174434486144,0.3386152830269087,0.4659621772063698,-0.5614446401596069,1.323199868202209,1.10287606716156,-0.7268821001052856,-1.224072456359863,-0.0365676283836364,XArbitraryZVertical,0.0992209844371184,-0.2623464787911214,-0.9362677292797398,-0.211499995309972,0.296767383813858,-0.4492826163768768,-0.842659056186676,0,0,0,-1,-1,34162.295601875,unknown,2,2022-06-02T10:46:35.211+02:00,2022-06-02T10:32:51.428+02:00,75,2.361373,0,0,68.39739,0,0,2022-06-02T10:46:40.317+02:00,675852400.3167841,0,14.48828,101.0204,1,0.89
393,2022-06-02T10:46:42.489+02:00,1654159602.000079,53.22912922690823,10.3984625255832,37.26657,0.3244113,0.7260643,302.4685343369518,50.66660906317484,3.0,24.00362482104263,-9999,34169.56869816667,-0.41729736328125,-1.729446411132812,-0.7999267578125,34169.55996116667,2.627187762316551,0.3467823535450192,0.4659709560839352,-0.1105195581912994,1.303433179855347,0.7818608283996582,-0.7652469873428345,-1.21635901927948,-0.0695102214813232,XArbitraryZVertical,0.1044900208033715,-0.2626405699676377,-0.936998517947082,-0.2052693543139615,0.3036381006240845,-0.4492904543876648,-0.8402035236358643,0,0,0,-1,-1,34162.295601875,unknown,2,2022-06-02T10:46:35.211+02:00,2022-06-02T10:32:51.428+02:00,75,2.361373,0,0,68.39739,0,0,2022-06-02T10:46:40.317+02:00,675852400.3167841,0,14.48828,101.0204,1,0.89
394,2022-06-02T10:46:42.499+02:00,1654159602.000079,53.22912922690823,10.3984625255832,37.26657,0.3244113,0.7260643,302.4685343369518,50.66660906317484,3.0,24.00362482104263,-9999,34169.57867016667,-0.3581390380859375,-1.778656005859375,-0.770904541015625,34169.56993416667,2.634041844595322,0.3563965802922121,0.4685243904348432,0.1331668645143509,1.24274206161499,0.5434077382087708,-0.7674316167831421,-1.267378211021423,-0.0219255685806274,XArbitraryZVertical,0.1095382594902306,-0.2644192719961551,-0.9369527485757244,-0.2005077561525075,0.3113005757331848,-0.4515701830387115,-0.8361676335334778,0,0,0,-1,-1,34162.295601875,unknown,2,2022-06-02T10:46:35.211+02:00,2022-06-02T10:32:51.428+02:00,75,2.361373,0,0,68.39739,0,0,2022-06-02T10:46:40.317+02:00,675852400.3167841,0,14.48828,101.0204,1,0.89
395,2022-06-02T10:46:42.509+02:00,1654159602.000079,53.22912922690823,10.3984625255832,37.26657,0.3244113,0.7260643,302.4685343369518,50.66660906317484,3.0,24.00362482104263,-9999,34169.58864316667,-0.314117431640625,-1.773330688476562,-0.76531982421875,34169.57990616667,2.637783563606477,0.3668156285308165,0.4714458382658608,0.1617957204580307,1.184737801551819,0.2938565909862518,-0.7121602296829224,-1.288378834724426,0.0469606518745422,XArbitraryZVertical,0.1145060625833538,-0.2665829181109562,-0.9364810013331716,-0.1970411000676725,0.3195210993289948,-0.4541748762130737,-0.83164381980896,0,0,0,-1,-1,34162.295601875,unknown,2,2022-06-02T10:46:35.211+02:00,2022-06-02T10:32:51.428+02:00,75,2.361373,0,0,68.39739,0,0,2022-06-02T10:46:40.317+02:00,675852400.3167841,0,14.48828,101.0204,1,0.89
396,2022-06-02T10:46:42.519+02:00,1654159602.000079,53.22912922690823,10.3984625255832,37.26657,0.3244113,0.7260643,302.4685343369518,50.66660906317484,3.0,24.00362482104263,-9999,34169.59861516667,-0.2804412841796875,-1.715667724609375,-0.7691650390625,34169.58987916667,2.639209100978425,0.3775472911995032,0.4727790735806008,-0.0208968631923198,1.083818912506104,0.0279487483203411,-0.6652553081512451,-1.331762433052063,0.064465582370758,XArbitraryZVertical,0.1195335401909246,-0.268160460056827,-0.9358742191751918,-0.1947848908157556,0.3282039165496826,-0.4553622603416443,-0.8276033997535706,0,0,0,-1,-1,34162.295601875,unknown,2,2022-06-02T10:46:35.211+02:00,2022-06-02T10:32:51.428+02:00,75,2.361373,0,0,68.39739,0,0,2022-06-02T10:46:40.317+02:00,675852400.3167841,0,14.48828,101.0204,1,0.89
397,2022-06-02T10:46:42.529+02:00,1654159602.000079,53.22912922690823,10.3984625255832,37.26657,0.3244113,0.7260643,302.4685343369518,50.66660906317484,3.0,24.00362482104263,-9999,34169.60858816667,-0.2464752197265625,-1.630783081054688,-0.8094024658203125,34169.59985116667,2.638978989756851,0.3879387766329823,0.470640091724906,-0.3772656917572021,0.9696402549743652,-0.2256126403808594,-0.6383927464485168,-1.301731109619141,0.0638328194618225,XArbitraryZVertical,0.1246638891789378,-0.2682068454737757,-0.9354059602441184,-0.1937517188866239,0.3371537625789642,-0.4534568786621094,-0.82504802942276,0,0,0,-1,-1,34162.295601875,unknown,2,2022-06-02T10:46:35.211+02:00,2022-06-02T10:32:51.428+02:00,75,2.361373,0,0,68.39739,0,0,2022-06-02T10:46:40.317+02:00,675852400.3167841,0,14.48828,101.0204,1,0.89
398,2022-06-02T10:46:42.539+02:00,1654159602.000079,53.22912922690823,10.3984625255832,37.26657,0.3244113,0.7260643,302.4685343369518,50.66660906317484,3.0,24.00362482104263,-9999,34169.61856016667,-0.2095489501953125,-1.49554443359375,-0.8662109375,34169.60982416667,2.63833508570816,0.3972444118796549,0.4641172278208396,-0.782688319683075,0.8363498449325562,-0.3578455150127411,-0.6141878962516785,-1.242399454116821,0.0441893935203552,XArbitraryZVertical,0.1298469267291889,-0.2661716161016717,-0.935314938620979,-0.1935933056255894,0.3459536135196686,-0.4476335942745209,-0.8245849013328552,0,0,0,-1,-1,34162.295601875,unknown,2,2022-06-02T10:46:35.211+02:00,2022-06-02T10:32:51.428+02:00,75,2.361373,0,0,68.39739,0,0,2022-06-02T10:46:40.317+02:00,675852400.3167841,0,14.48828,101.0204,1,0.89
399,2022-06-02T10:46:42.549+02:00,1654159602.000079,53.22912922690823,10.3984625255832,37.26657,0.3244113,0.7260643,302.4685343369518,50.66660906317484,3.0,24.00362482104263,-9999,34169.62853316667,-0.1707916259765625,-1.307098388671875,-0.942840576171875,34169.61979616667,2.638499150566318,0.4047911985371649,0.4543935997873426,-0.9996745586395264,0.680115282535553,-0.3629082441329956,-0.586606502532959,-1.147843956947327,-0.0035246610641479,XArbitraryZVertical,0.1347669259852738,-0.2624530277405803,-0.9356472321813872,-0.1937024615779304,0.3538641929626465,-0.4389175176620483,-0.825912594795227,0,0,0,-1,-1,34162.295601875,unknown,2,2022-06-02T10:46:35.211+02:00,2022-06-02T10:32:51.428+02:00,75,2.361373,0,0,68.39739,0,0,2022-06-02T10:46:40.317+02:00,675852400.3167841,0,14.48828,101.0204,1,0.89
400,2022-06-02T10:46:42.559+02:00,1654159602.000079,53.22912922690823,10.3984625255832,37.26657,0.3244113,0.7260643,302.4685343369518,50.66660906317484,3.0,24.00362482104263,-9999,34169.63850516667,-0.126800537109375,-1.168533325195312,-1.036331176757812,34169.62976916667,2.639305890402694,0.4107904225002609,0.4435572666363589,-1.020087718963623,0.6114667057991028,-0.377591073513031,-0.5553014278411865,-0.996504008769989,-0.0612258315086364,XArbitraryZVertical,0.1392023583649638,-0.2580295440104808,-0.9361925059832268,-0.1938740307527233,0.3606908619403839,-0.4291552007198334,-0.8280869126319885,0,0,0,-1,-1,34162.295601875,unknown,2,2022-06-02T10:46:35.211+02:00,2022-06-02T10:32:51.428+02:00,75,2.361373,0,0,68.39739,0,0,2022-06-02T10:46:40.317+02:00,675852400.3167841,0,14.48828,101.0204,1,0.89
401,2022-06-02T10:46:42.569+02:00,1654159602.000079,53.22912922690823,10.3984625255832,37.26657,0.3244113,0.7260643,302.4685343369518,50.66660906317484,3.0,24.00362482104263,-9999,34169.64847816667,-0.0796356201171875,-1.062210083007812,-1.083267211914062,34169.63974116667,2.638925380437341,0.4170790439106744,0.4335061803705558,-0.7604024410247803,0.6310949325561523,-0.5198075175285339,-0.52420574426651,-0.8273508548736572,-0.1507644653320312,XArbitraryZVertical,0.1435088101683341,-0.254073024668167,-0.9364967196870472,-0.1944893726313502,0.3676200807094574,-0.4200552403926849,-0.829704225063324,0,0,0,-1,-1,34162.295601875,unknown,2,2022-06-02T10:46:35.211+02:00,2022-06-02T10:32:51.428+02:00,75,2.361373,0,0,68.39739,0,0,2022-06-02T10:46:40.317+02:00,675852400.3167841,0,14.48828,101.0204,1,0.89
402,2022-06-02T10:46:42.579+02:00,1654159602.000079,53.22912922690823,10.3984625255832,37.26657,0.3244113,0.7260643,302.4685343369518,50.66660906317484,3.0,24.00362482104263,-9999,34169.65845016667,-0.0391998291015625,-1.0419921875,-1.095901489257812,34169.64971416667,2.635542924057891,0.4246237054159034,0.4261997404406678,-0.3095958530902863,0.5960178971290588,-0.6383301615715027,-0.483293354511261,-0.7162557244300842,-0.2298735380172729,XArbitraryZVertical,0.1476417903825394,-0.2517163783649747,-0.9361691611397164,-0.1960309701559162,0.3751237988471985,-0.4134134948253632,-0.8296815156936646,0,0,0,-1,-1,34162.295601875,unknown,2,2022-06-02T10:46:35.211+02:00,2022-06-02T10:32:51.428+02:00,75,2.361373,0,0,68.39739,0,0,2022-06-02T10:46:40.317+02:00,675852400.3167841,0,14.48828,101.0204,1,0.89
403,2022-06-02T10:46:42.589+02:00,1654159602.000079,53.22912922690823,10.3984625255832,37.26657,0.3244113,0.7260643,302.4685343369518,50.66660906317484,3.0,24.00362482104263,-9999,34169.66842316667,-0.000946044921875,-1.060867309570312,-1.097183227539062,34169.65968616667,2.628481624552625,0.4331571941683242,0.4228099660742037,0.2265051603317261,0.5373318195343018,-0.8215676546096802,-0.4445589780807495,-0.6311640739440918,-0.2640488743782043,XArbitraryZVertical,0.1512270248317729,-0.2515385718736957,-0.9350835355075354,-0.1986899017084605,0.382776141166687,-0.4103246033191681,-0.8277174830436707,0,0,0,-1,-1,34162.295601875,unknown,2,2022-06-02T10:46:35.211+02:00,2022-06-02T10:32:51.428+02:00,75,2.361373,0,0,68.39739,0,0,2022-06-02T10:46:40.317+02:00,675852400.3167841,0,14.48828,101.0204,1,0.89
404,2022-06-02T10:46:42.599+02:00,1654159602.000079,53.22912922690823,10.3984625255832,37.26657,0.3244113,0.7260643,302.4685343369518,50.66660906317484,3.0,24.00362482104263,-9999,34169.67839616667,0.0238037109375,-1.080734252929688,-1.070205688476562,34169.66965916667,2.617325389275567,0.4427182673520077,0.4231877402617161,0.6921700835227966,0.4590857625007629,-0.9846495389938354,-0.4149284660816193,-0.6367400288581848,-0.2736238241195679,XArbitraryZVertical,0.1542295759077176,-0.2535218566182035,-0.9332069132281486,-0.2026447631433319,0.3906059563159943,-0.4106690585613251,-0.8238798379898071,0,0,0,-1,-1,34162.295601875,unknown,2,2022-06-02T10:46:35.211+02:00,2022-06-02T10:32:51.428+02:00,75,2.361373,0,0,68.39739,0,0,2022-06-02T10:46:40.317+02:00,675852400.3167841,0,14.48828,101.0204,1,0.89
405,2022-06-02T10:46:42.609+02:00,1654159602.000079,53.22912922690823,10.3984625255832,37.26657,0.3244113,0.7260643,302.4685343369518,50.66660906317484,3.0,24.00362482104263,-9999,34169.68836816667,0.0380096435546875,-1.059616088867188,-1.048873901367188,34169.67963216667,2.602748198210451,0.4527847345629959,0.4260275158075674,0.9380465149879456,0.3644138276576996,-1.179136991500854,-0.3855351507663727,-0.6516695022583008,-0.2674648761749268,XArbitraryZVertical,0.1566404647541671,-0.2569760894929084,-0.9307282605200948,-0.2077788361513713,0.3983677923679352,-0.4132566750049591,-0.8188540935516357,0,0,0,-1,-1,34162.295601875,unknown,2,2022-06-02T10:46:35.211+02:00,2022-06-02T10:32:51.428+02:00,75,2.361373,0,0,68.39739,0,0,2022-06-02T10:46:40.317+02:00,675852400.3167841,0,14.48828,101.0204,1,0.89
406,2022-06-02T10:46:42.619+02:00,1654159602.000079,53.22912922690823,10.3984625255832,37.26657,0.3244113,0.7260643,302.4685343369518,50.66660906317484,3.0,24.00362482104263,-9999,34169.69834116667,0.029296875,-0.982452392578125,-1.015670776367188,34169.68960416667,2.585556917112664,0.4631031956242987,0.4290089652209507,0.9621143341064452,0.2721893787384033,-1.352264523506165,-0.3763668239116669,-0.666854977607727,-0.2516982555389404,XArbitraryZVertical,0.1587572777288465,-0.2607663320608281,-0.9278945871001096,-0.2140297308432003,0.4062435328960419,-0.4159697890281677,-0.8135941028594971,0,0,0,-1,-1,34162.295601875,unknown,2,2022-06-02T10:46:35.211+02:00,2022-06-02T10:32:51.428+02:00,75,2.361373,0,0,68.39739,0,0,2022-06-02T10:46:40.317+02:00,675852400.3167841,0,14.48828,101.0204,1,0.89
407,2022-06-02T10:46:42.629+02:00,1654159602.000079,53.22912922690823,10.3984625255832,37.26657,0.3244113,0.7260643,302.4685343369518,50.66660906317484,3.0,24.00362482104263,-9999,34169.70831316667,-0.0063934326171875,-0.8911895751953125,-0.991455078125,34169.69957716667,2.567145971745601,0.4731866701087265,0.4309185396253447,0.8924583196640015,0.2188603729009628,-1.474316239356995,-0.3745283186435699,-0.6155433654785156,-0.2256301045417786,XArbitraryZVertical,0.1607134850810192,-0.2641916078209878,-0.9249570683395104,-0.2209716333178516,0.4140638411045074,-0.4177055358886719,-0.8087479472160339,0,0,0,-1,-1,34162.295601875,unknown,2,2022-06-02T10:46:35.211+02:00,2022-06-02T10:32:51.428+02:00,75,2.361373,0,0,68.39739,0,0,2022-06-02T10:46:40.317+02:00,675852400.3167841,0,14.48828,101.0204,1,0.89
