,loggingTime(txt),locationTimestamp_since1970(s),locationLatitude(WGS84),locationLongitude(WGS84),locationAltitude(m),locationSpeed(m/s),locationSpeedAccuracy(m/s),locationCourse(°),locationCourseAccuracy(°),locationVerticalAccuracy(m),locationHorizontalAccuracy(m),locationFloor(Z),accelerometerTimestamp_sinceReboot(s),accelerometerAccelerationX(G),accelerometerAccelerationY(G),accelerometerAccelerationZ(G),motionTimestamp_sinceReboot(s),motionYaw(rad),motionRoll(rad),motionPitch(rad),motionRotationRateX(rad/s),motionRotationRateY(rad/s),motionRotationRateZ(rad/s),motionUserAccelerationX(G),motionUserAccelerationY(G),motionUserAccelerationZ(G),motionAttitudeReferenceFrame(txt),motionQuaternionX(R),motionQuaternionY(R),motionQuaternionZ(R),motionQuaternionW(R),motionGravityX(G),motionGravityY(G),motionGravityZ(G),motionMagneticFieldX(µT),motionMagneticFieldY(µT),motionMagneticFieldZ(µT),motionHeading(°),motionMagneticFieldCalibrationAccuracy(Z),activityTimestamp_sinceReboot(s),activity(txt),activityActivityConfidence(Z),activityActivityStartDate(txt),pedometerStartDate(txt),pedometerNumberofSteps(N),pedometerAverageActivePace(s/m),pedometerCurrentPace(s/m),pedometerCurrentCadence(steps/s),pedometerDistance(m),pedometerFloorAscended(N),pedometerFloorDescended(N),pedometerEndDate(txt),altimeterTimestamp_sinceReboot(s),altimeterReset(bool),altimeterRelativeAltitude(m),altimeterPressure(kPa),batteryState(N),batteryLevel(R)
369,2022-06-02T10:48:06.767+02:00,1654159686.000092,53.22910423043994,10.39862791118593,36.8297,0.008446159,0.4164561,18.88365622476605,29.98930462134967,3,16.00241654736175,-9999,34239.293730125,-0.1953887939453125,1.646759033203125,2.027389526367188,34239.284993125,0.042590697471044,1.567792798739722,-0.8235230132986894,-4.376954555511475,5.902501106262207,-3.08753490447998,-0.669384241104126,0.6971193552017212,1.607418537139893,XArbitraryZVertical,0.2971393885441744,-0.6408490653732222,0.2686926997614696,-0.6548472632150585,0.679638147354126,0.7335447669029236,-0.0020413184538483,0,0,0,-1,-1,34237.096096625,unknown,2,2022-06-02T10:48:04.565+02:00,2022-06-02T10:32:51.428+02:00,96,2.468083,0,0,83.85019,0,0,2022-06-02T10:47:49.242+02:00,675852484.564442,0,12.98047,101.0358,1,0.89
370,2022-06-02T10:48:06.777+02:00,1654159686.000092,53.22910423043994,10.39862791118593,36.8297,0.008446159,0.4164561,18.88365622476605,29.98930462134967,3,16.00241654736175,-9999,34239.30370212501,-0.403839111328125,1.877410888671875,2.263427734375,34239.294966125,0.1171144112202872,1.682861388206982,-0.852232960162711,-5.292422294616699,6.047354698181152,-3.208719253540039,-0.7452697157859802,0.7987463474273682,1.803609251976013,XArbitraryZVertical,0.3147079830859768,-0.6616405183245699,0.2721425998369621,-0.6238022650819065,0.6541748046875,0.7527522444725037,0.0736185833811759,0,0,0,-1,-1,34237.096096625,unknown,2,2022-06-02T10:48:04.565+02:00,2022-06-02T10:32:51.428+02:00,96,2.468083,0,0,83.85019,0,0,2022-06-02T10:47:49.242+02:00,675852484.564442,0,12.98047,101.0358,1,0.89
371,2022-06-02T10:48:06.787+02:00,1654159686.000092,53.22910423043994,10.39862791118593,36.8297,0.008446159,0.4164561,18.88365622476605,29.98930462134967,3,16.00241654736175,-9999,34239.313675125,-0.611785888671875,2.07891845703125,2.54345703125,34239.304938125,0.2125925825278746,1.816332594814597,-0.8740113807482891,-6.195852756500244,6.162964344024658,-3.297650575637817,-0.8924201726913452,0.95415997505188,1.950220704078674,XArbitraryZVertical,0.3346806218836675,-0.682632216289814,0.2726445199515989,-0.5896331215260823,0.6225074529647827,0.7669094204902649,0.1559957265853882,0,0,0,-1,-1,34237.096096625,unknown,2,2022-06-02T10:48:04.565+02:00,2022-06-02T10:32:51.428+02:00,96,2.468083,0,0,83.85019,0,0,2022-06-02T10:47:49.242+02:00,675852484.564442,0,12.98047,101.0358,1,0.89
372,2022-06-02T10:48:06.797+02:00,1654159686.000092,53.22910423043994,10.39862791118593,36.8297,0.008446159,0.4164561,18.88365622476605,29.98930462134967,3,16.00241654736175,-9999,34239.323648125,-0.8047943115234375,2.168853759765625,2.791763305664062,34239.314911125,0.3286433903596411,1.967237511190531,-0.8846791732864275,-7.227970123291016,6.137233734130859,-3.428797960281372,-1.068135499954224,1.196365833282471,2.131358861923218,XArbitraryZVertical,0.3570306760636678,-0.7034526695072436,0.2696540345863117,-0.5522411610620489,0.5844014883041382,0.7737118005752563,0.2446331232786179,0,0,0,-1,-1,34237.096096625,unknown,2,2022-06-02T10:48:04.565+02:00,2022-06-02T10:32:51.428+02:00,96,2.468083,0,0,83.85019,0,0,2022-06-02T10:47:49.242+02:00,675852484.564442,0,12.98047,101.0358,1,0.89
373,2022-06-02T10:48:06.807+02:00,1654159686.000092,53.22910423043994,10.39862791118593,36.8297,0.008446159,0.4164561,18.88365622476605,29.98930462134967,3,16.00241654736175,-9999,34239.333620125,-1.013702392578125,2.673797607421875,3.285995483398438,34239.324884125,0.462112529768275,2.131227091975288,-0.8802339891594849,-8.318807601928711,6.022650241851807,-3.56255316734314,-1.223490953445435,1.321564912796021,2.265116214752197,XArbitraryZVertical,0.3820145792663376,-0.7234335579958726,0.2626491342636812,-0.5115898319899443,0.5395309329032898,0.7708879709243774,0.3385825157165527,0,0,0,-1,-1,34237.096096625,unknown,2,2022-06-02T10:48:04.565+02:00,2022-06-02T10:32:51.428+02:00,96,2.468083,0,0,83.85019,0,0,2022-06-02T10:47:49.242+02:00,675852484.564442,0,12.98047,101.0358,1,0.89
374,2022-06-02T10:48:06.817+02:00,1654159686.000092,53.22910423043994,10.39862791118593,36.8297,0.008446159,0.4164561,18.88365622476605,29.98930462134967,3,16.00241654736175,-9999,34239.343593125,-1.249313354492188,2.822784423828125,3.798492431640625,34239.334856125,0.6066596236228344,2.300517817045864,-0.8529704774590721,-10.01322746276855,5.772948741912842,-3.345704078674316,-1.369516849517822,1.584912538528442,2.491954326629639,XArbitraryZVertical,0.4094218469516361,-0.7427124563200758,0.2493687142534842,-0.4675117547254311,0.4902596175670624,0.7532375454902649,0.4384960830211639,0,0,0,-1,-1,34237.096096625,unknown,2,2022-06-02T10:48:04.565+02:00,2022-06-02T10:32:51.428+02:00,96,2.468083,0,0,83.85019,0,0,2022-06-02T10:47:49.242+02:00,675852484.564442,0,12.98047,101.0358,1,0.89
375,2022-06-02T10:48:06.827+02:00,1654159686.000092,53.22910423043994,10.39862791118593,36.8297,0.008446159,0.4164561,18.88365622476605,29.98930462134967,3,16.00241654736175,-9999,34239.353565125,-1.4632568359375,2.921920776367188,4.10162353515625,34239.344829125,0.7521823441647651,2.463086567295353,-0.7974044358649456,-11.61123561859131,5.30665397644043,-3.295645713806152,-1.537577986717224,2.074203729629517,2.951016187667847,XArbitraryZVertical,0.4393516564933344,-0.7608488219076037,0.2278677941287669,-0.4197087216003098,0.4384415745735168,0.7155453562736511,0.5438416004180908,0,0,0,-1,-1,34237.096096625,unknown,2,2022-06-02T10:48:04.565+02:00,2022-06-02T10:32:51.428+02:00,96,2.468083,0,0,83.85019,0,0,2022-06-02T10:47:49.242+02:00,675852484.564442,0,12.98047,101.0358,1,0.89
376,2022-06-02T10:48:06.837+02:00,1654159686.000092,53.22910423043994,10.39862791118593,36.8297,0.008446159,0.4164561,18.88365622476605,29.98930462134967,3,16.00241654736175,-9999,34239.363538125,-1.620941162109375,3.0924072265625,4.220993041992188,34239.354801125,0.8845568802725653,2.605042873886507,-0.7159394157486486,-12.71005153656006,4.872862815856934,-3.241459369659424,-1.724307060241699,2.178253173828125,3.296200275421143,XArbitraryZVertical,0.470466249063529,-0.7764596431457714,0.1990752611545653,-0.3689729730922371,0.3856688737869263,0.6563264727592468,0.6484561562538147,0,0,0,-1,-1,34237.096096625,unknown,2,2022-06-02T10:48:04.565+02:00,2022-06-02T10:32:51.428+02:00,96,2.468083,0,0,83.85019,0,0,2022-06-02T10:47:49.242+02:00,675852484.564442,0,12.98047,101.0358,1,0.89
377,2022-06-02T10:48:06.847+02:00,1654159686.000092,53.22910423043994,10.39862791118593,36.8297,0.008446159,0.4164561,18.88365622476605,29.98930462134967,3,16.00241654736175,-9999,34239.373511125,-1.810028076171875,3.181610107421875,4.441436767578125,34239.364774125,0.9960010972243136,2.720556115723209,-0.6170335391863588,-12.82097721099854,4.438145160675049,-3.24621319770813,-1.855786323547363,2.417902946472168,3.410706043243408,XArbitraryZVertical,0.5008139375915799,-0.7882702157724553,0.165771055417322,-0.3167578555113904,0.3333406448364258,0.5786182880401611,0.7443690896034241,0,0,0,-1,-1,34237.096096625,unknown,2,2022-06-02T10:48:04.565+02:00,2022-06-02T10:32:51.428+02:00,96,2.468083,0,0,83.85019,0,0,2022-06-02T10:47:49.242+02:00,675852484.564442,0,12.98047,101.0358,1,0.89
378,2022-06-02T10:48:06.857+02:00,1654159686.000092,53.22910423043994,10.39862791118593,36.8297,0.008446159,0.4164561,18.88365622476605,29.98930462134967,3,16.00241654736175,-9999,34239.383483125,-1.98577880859375,3.414382934570312,4.95440673828125,34239.374747125,1.086647974469783,2.811359358380289,-0.5137455611795989,-11.9813871383667,4.01323413848877,-3.475056886672974,-1.971964478492737,2.636120796203613,3.452561140060425,XArbitraryZVertical,0.5289660401886422,-0.795060302326435,0.1323266421930484,-0.2656384258808588,0.2824045419692993,0.4914427399635315,0.8238518834114075,0,0,0,-1,-1,34237.096096625,unknown,2,2022-06-02T10:48:04.565+02:00,2022-06-02T10:32:51.428+02:00,96,2.468083,0,0,83.85019,0,0,2022-06-02T10:47:49.242+02:00,675852484.564442,0,12.98047,101.0358,1,0.89
379,2022-06-02T10:48:06.867+02:00,1654159686.000092,53.22910423043994,10.39862791118593,36.8297,0.008446159,0.4164561,18.88365622476605,29.98930462134967,3,16.00241654736175,-9999,34239.393456125,-2.12835693359375,3.774948120117188,5.686080932617188,34239.384719125,1.162767945853724,2.883255228081963,-0.4151252388885048,-10.93051052093506,3.54011058807373,-3.863364219665527,-2.113123893737793,2.836639881134033,3.713215351104736,XArbitraryZVertical,0.5550999937771791,-0.7963756599508982,0.1015616954038174,-0.2175662166060554,0.2337750792503357,0.4033045470714569,0.8847004175186157,0,0,0,-1,-1,34237.096096625,unknown,2,2022-06-02T10:48:04.565+02:00,2022-06-02T10:32:51.428+02:00,96,2.468083,0,0,83.85019,0,0,2022-06-02T10:47:49.242+02:00,675852484.564442,0,12.98047,101.0358,1,0.89
380,2022-06-02T10:48:06.877+02:00,1654159686.000092,53.22910423043994,10.39862791118593,36.8297,0.008446159,0.4164561,18.88365622476605,29.98930462134967,3,16.00241654736175,-9999,34239.403429125,-2.230728149414062,4.0142822265625,6.46929931640625,34239.394692125,1.230934354031395,2.940613292054989,-0.3214879233323089,-10.28117847442627,3.020582914352417,-4.301651000976562,-2.232675313949585,3.241333484649658,4.288897514343262,XArbitraryZVertical,0.5801324607218268,-0.7926417581329974,0.0728518369785674,-0.1727948345350531,0.1894013732671738,0.3159785866737366,0.9296692609786988,0,0,0,-1,-1,34237.096096625,unknown,2,2022-06-02T10:48:04.565+02:00,2022-06-02T10:32:51.428+02:00,96,2.468083,0,0,83.85019,0,0,2022-06-02T10:47:49.242+02:00,675852484.564442,0,12.98047,101.0358,1,0.89
381,2022-06-02T10:48:06.887+02:00,1654159686.000092,53.22910423043994,10.39862791118593,36.8297,0.008446159,0.4164561,18.88365622476605,29.98930462134967,3,16.00241654736175,-9999,34239.413401125,-2.349838256835938,4.152908325195312,7.116500854492188,34239.404665125,1.295862204253081,2.985612605405588,-0.230364669124914,-9.949335098266602,2.441340446472168,-4.809530735015869,-2.322967052459717,3.647720336914062,5.017926692962646,XArbitraryZVertical,0.6048559895239528,-0.7842391900216544,0.0446466564065338,-0.1308619422373857,0.1512445360422134,0.2283325791358948,0.9617637395858764,0,0,0,-1,-1,34237.096096625,unknown,2,2022-06-02T10:48:04.565+02:00,2022-06-02T10:32:51.428+02:00,96,2.468083,0,0,83.85019,0,0,2022-06-02T10:47:49.242+02:00,675852484.564442,0,12.98047,101.0358,1,0.89
382,2022-06-02T10:48:06.897+02:00,1654159686.000092,53.22910423043994,10.39862791118593,36.8297,0.008446159,0.4164561,18.88365622476605,29.98930462134967,3,16.00241654736175,-9999,34239.423374125,-2.505584716796875,4.236618041992188,7.66363525390625,34239.414637125,1.361403137226567,3.019167134313077,-0.1399947699729837,-9.7926664352417,1.852087020874023,-5.520349979400635,-2.387572526931763,3.942233800888062,5.760221481323242,XArbitraryZVertical,0.6299464493932847,-0.7710837238960238,0.0158457490817163,-0.0913578745281195,0.1209251955151558,0.1395379304885864,0.9828052520751952,0,0,0,-1,-1,34237.096096625,unknown,2,2022-06-02T10:48:04.565+02:00,2022-06-02T10:32:51.428+02:00,96,2.468083,0,0,83.85019,0,0,2022-06-02T10:47:49.242+02:00,675852484.564442,0,12.98047,101.0358,1,0.89
383,2022-06-02T10:48:06.907+02:00,1654159686.000092,53.22910423043994,10.39862791118593,36.8297,0.008446159,0.4164561,18.88365622476605,29.98930462134967,3,16.00241654736175,-9999,34239.433346125,-2.62261962890625,4.484634399414062,8.144332885742188,34239.424610125,1.432119107091935,3.040371879144914,-0.0500470999258178,-9.722332000732422,1.005647420883179,-6.531164646148682,-2.510848999023438,4.130668163299561,6.326203346252441,XArbitraryZVertical,0.656326269791941,-0.7523654555896039,-0.0143453671786097,-0.0545552806586351,0.1009214967489243,0.050026211887598,0.993635892868042,0,0,0,-1,-1,34237.096096625,unknown,2,2022-06-02T10:48:04.565+02:00,2022-06-02T10:32:51.428+02:00,96,2.468083,0,0,83.85019,0,0,2022-06-02T10:47:49.242+02:00,675852484.564442,0,12.98047,101.0358,1,0.89
384,2022-06-02T10:48:06.917+02:00,1654159686.000092,53.22910423043994,10.39862791118593,36.8297,0.008446159,0.4164561,18.88365622476605,29.98930462134967,3,16.00241654736175,-9999,34239.443319125,-2.9014892578125,4.705001831054688,8.51727294921875,34239.434582125,1.511690602447403,3.044448795086132,0.0399634295632714,-9.823176383972168,-0.3404591977596283,-7.595324516296387,-2.646749019622803,4.33856725692749,6.870057106018066,XArbitraryZVertical,0.6842523873068189,-0.7273540711451806,-0.0478183540304038,-0.0216359902665953,0.0969136953353881,-0.0399527922272682,0.9944905638694764,0,0,0,-1,-1,34237.096096625,unknown,2,2022-06-02T10:48:04.565+02:00,2022-06-02T10:32:51.428+02:00,96,2.468083,0,0,83.85019,0,0,2022-06-02T10:47:49.242+02:00,675852484.564442,0,12.98047,101.0358,1,0.89
385,2022-06-02T10:48:06.927+02:00,1654159686.000092,53.22910423043994,10.39862791118593,36.8297,0.008446159,0.4164561,18.88365622476605,29.98930462134967,3,16.00241654736175,-9999,34239.453292125,-3.585891723632812,4.481277465820312,9.041046142578123,34239.444555125,1.604842096508097,3.022425995645623,0.128905696032654,-9.77382755279541,-2.650575160980225,-9.15309238433838,-2.812844753265381,4.742806911468506,7.291574954986572,XArbitraryZVertical,0.7136089535736831,-0.6950521068140094,-0.0874108204433634,0.0049318644709634,0.1178984791040421,-0.1285489946603775,0.984670341014862,0,0,0,-1,-1,34237.096096625,unknown,2,2022-06-02T10:48:04.565+02:00,2022-06-02T10:32:51.428+02:00,96,2.468083,0,0,83.85019,0,0,2022-06-02T10:47:49.242+02:00,675852484.564442,0,12.98047,101.0358,1,0.89
386,2022-06-02T10:48:06.937+02:00,1654159686.000092,53.22910423043994,10.39862791118593,36.8297,0.008446159,0.4164561,18.88365622476605,29.98930462134967,3,16.00241654736175,-9999,34239.463264125,-5.036941528320312,4.3140869140625,9.37872314453125,34239.454528125,1.722250813331609,2.959171142397721,0.2053673074600491,-8.745064735412598,-6.196460723876953,-11.63303470611572,-3.271181344985962,4.840340614318848,7.737850189208984,XArbitraryZVertical,0.7453605250426883,-0.6525401463851412,-0.1352423689992979,0.018396877160834,0.1775992512702942,-0.203926756978035,0.9627419114112854,0,0,0,-1,-1,34237.096096625,unknown,2,2022-06-02T10:48:04.565+02:00,2022-06-02T10:32:51.428+02:00,96,2.468083,0,0,83.85019,0,0,2022-06-02T10:47:49.242+02:00,675852484.564442,0,12.98047,101.0358,1,0.89
387,2022-06-02T10:48:06.947+02:00,1654159686.000092,53.22910423043994,10.39862791118593,36.8297,0.008446159,0.4164561,18.88365622476605,29.98930462134967,3,16.00241654736175,-9999,34239.473237125,-7.326828002929688,4.009918212890625,8.723800659179688,34239.464500125,1.871032746773478,2.842654152969804,0.2514464102120944,-6.993453502655029,-10.43557548522949,-14.3791036605835,-4.300488471984863,4.709010124206543,8.310516357421875,XArbitraryZVertical,0.7785686508649644,-0.5971848419894282,-0.1924936207761948,0.0121354743442792,0.2852447628974915,-0.2488051503896713,0.9255977869033812,0,0,0,-1,-1,34237.096096625,unknown,2,2022-06-02T10:48:04.565+02:00,2022-06-02T10:32:51.428+02:00,96,2.468083,0,0,83.85019,0,0,2022-06-02T10:47:49.242+02:00,675852484.564442,0,12.98047,101.0358,1,0.89
388,2022-06-02T10:48:06.957+02:00,1654159686.000092,53.22910423043994,10.39862791118593,36.8297,0.008446159,0.4164561,18.88365622476605,29.98930462134967,3,16.00241654736175,-9999,34239.483210125,-9.873519897460938,4.001876831054688,6.773239135742188,34239.474473125,2.036828673141792,2.673057472342694,0.2500867450966433,-4.920543670654297,-15.42371940612793,-15.44818687438965,-6.270539283752441,4.417104721069336,8.450222969055176,XArbitraryZVertical,0.8063681692901593,-0.5310439720053695,-0.2597185847131214,-0.0175825212440141,0.4375317692756653,-0.2474880069494247,0.8644746541976929,0,0,0,-1,-1,34237.096096625,unknown,2,2022-06-02T10:48:04.565+02:00,2022-06-02T10:32:51.428+02:00,96,2.468083,0,0,83.85019,0,0,2022-06-02T10:47:49.242+02:00,675852484.564442,0,12.98047,101.0358,1,0.89
389,2022-06-02T10:48:06.967+02:00,1654159686.000092,53.22910423043994,10.39862791118593,36.8297,0.008446159,0.4164561,18.88365622476605,29.98930462134967,3,16.00241654736175,-9999,34239.493182125,-13.4044189453125,4.96429443359375,3.552047729492188,34239.484446125,2.19162837402285,2.447205268615291,0.196706469671066,-2.260733127593994,-23.07341575622559,-15.90963935852051,-8.92061996459961,4.168737411499023,7.325139045715332,XArbitraryZVertical,0.8169161532905406,-0.4576696171840372,-0.3433585921853672,-0.0727426005042446,0.6275745034217834,-0.1954403817653656,0.7536269426345825,0,0,0,-1,-1,34237.096096625,unknown,2,2022-06-02T10:48:04.565+02:00,2022-06-02T10:32:51.428+02:00,96,2.468083,0,0,83.85019,0,0,2022-06-02T10:47:49.242+02:00,675852484.564442,0,12.98047,101.0358,1,0.89
390,2022-06-02T10:48:06.977+02:00,1654159686.000092,53.22910423043994,10.39862791118593,36.8297,0.008446159,0.4164561,18.88365622476605,29.98930462134967,3,16.00241654736175,-9999,34239.503155125,-19.37525939941406,8.512176513671875,-0.8170928955078125,34239.494418125,2.289025157458702,2.165580489812629,0.0789987416667985,4.810406684875488,-30.46296882629395,-14.24032497406006,-11.68669414520264,4.290372848510742,5.283946990966797,XArbitraryZVertical,0.7959414357959103,-0.3817963740487119,-0.4409956026514695,-0.161961944980737,0.8256863355636597,-0.0789165943861007,0.5585824847221375,0,0,0,-1,-1,34237.096096625,unknown,2,2022-06-02T10:48:04.565+02:00,2022-06-02T10:32:51.428+02:00,96,2.468083,0,0,83.85019,0,0,2022-06-02T10:47:49.242+02:00,675852484.564442,0,12.98047,101.0358,1,0.89
391,2022-06-02T10:48:06.987+02:00,1654159686.000092,53.22910423043994,10.39862791118593,36.8297,0.008446159,0.4164561,18.88365622476605,29.98930462134967,3,16.00241654736175,-9999,34239.513127125,-22.75721740722656,12.72480773925781,0.2826080322265625,34239.504391125,2.233467415909039,1.836013160419446,-0.0498211471038917,16.66021156311035,-34.91358184814453,-4.334506034851074,-16.64354133605957,5.759388446807861,1.535264849662781,XArbitraryZVertical,0.7203131550192043,-0.3347321220351737,-0.53700991173272,-0.2841191160122649,0.9638382196426392,0.0498005375266075,0.2617932558059692,0,0,0,-1,-1,34237.096096625,unknown,2,2022-06-02T10:48:04.565+02:00,2022-06-02T10:32:51.428+02:00,96,2.468083,0,0,83.85019,0,0,2022-06-02T10:47:49.242+02:00,675852484.564442,0,12.98047,101.0358,1,0.89
392,2022-06-02T10:48:06.996+02:00,1654159686.000092,53.22910423043994,10.39862791118593,36.8297,0.008446159,0.4164561,18.88365622476605,29.98930462134967,3,16.00241654736175,-9999,34239.523100125,-28.6412353515625,20.25444030761719,-3.871368408203125,34239.514363125,2.024202921753416,1.473969451683155,-0.062922865232435,26.01156234741211,-34.77812194824219,6.418447971343994,-21.19612121582031,10.55192565917969,-0.6661956906318665,XArbitraryZVertical,0.581935458173007,-0.3363167590351644,-0.6163869739261549,-0.410255023900592,0.9933461546897888,0.0628813505172729,-0.0964843183755874,0,0,0,-1,-1,34237.096096625,unknown,2,2022-06-02T10:48:04.565+02:00,2022-06-02T10:32:51.428+02:00,96,2.468083,0,0,83.85019,0,0,2022-06-02T10:47:49.242+02:00,675852484.564442,0,12.98047,101.0358,1,0.89
393,2022-06-02T10:48:07.006+02:00,1654159686.000092,53.22910423043994,10.39862791118593,36.8297,0.008446159,0.4164561,18.88365622476605,29.98930462134967,3,16.00241654736175,-9999,34239.533073125,-19.53559875488281,17.43730163574219,9.06573486328125,34239.524336125,1.761145217853198,1.172335588539662,0.1176143824707293,35.1536865234375,-32.58083724975586,10.83259773254395,-28.24508094787598,15.04223918914795,-1.368678212165833,XArbitraryZVertical,0.3946413835902655,-0.3893563640849174,-0.6619708246197932,-0.504434806085206,0.915291965007782,-0.1173434108495712,-0.3853195905685425,0,0,0,-1,-1,34237.096096625,unknown,2,2022-06-02T10:48:04.565+02:00,2022-06-02T10:32:51.428+02:00,96,2.468083,0,0,83.85019,0,0,2022-06-02T10:47:49.242+02:00,675852484.564442,0,12.98047,101.0358,1,0.89
394,2022-06-02T10:48:07.017+02:00,1654159686.000092,53.22910423043994,10.39862791118593,36.8297,0.008446159,0.4164561,18.88365622476605,29.98930462134967,3,16.00241654736175,-9999,34239.543045125,-27.99453735351562,-11.9266357421875,5.494064331054688,34239.534309125,1.534066040183075,0.9391746241874264,0.4031142636703081,28.3470401763916,-20.77224349975586,16.38290023803711,-24.23748207092285,23.73020553588867,1.251057386398315,XArbitraryZVertical,0.1791578601259551,-0.4431022141329369,-0.6715751604612837,-0.5661710988288091,0.7423792481422424,-0.3922848701477051,-0.5431257486343384,0,0,0,-1,-1,34237.096096625,unknown,2,2022-06-02T10:48:04.565+02:00,2022-06-02T10:32:51.428+02:00,96,2.468083,0,0,83.85019,0,0,2022-06-02T10:47:49.242+02:00,675852484.564442,0,12.98047,101.0358,1,0.89
395,2022-06-02T10:48:07.026+02:00,1654159686.000092,53.22910423043994,10.39862791118593,36.8297,0.008446159,0.4164561,18.88365622476605,29.98930462134967,3,16.00241654736175,-9999,34239.553018125,-15.20040893554688,-16.37553405761719,1.183807373046875,34239.544281125,1.487839409576334,0.8706172691827992,0.6343338206721418,4.254502773284912,1.455472111701965,14.32229042053223,-23.36533737182617,6.617894172668457,9.977655410766602,XArbitraryZVertical,0.0632333200583168,-0.4863110471490563,-0.6801693408911367,-0.5448604319849022,0.615962028503418,-0.5926410555839539,-0.5190062522888184,0,0,0,-1,-1,34237.096096625,unknown,2,2022-06-02T10:48:04.565+02:00,2022-06-02T10:32:51.428+02:00,96,2.468083,0,0,83.85019,0,0,2022-06-02T10:47:49.242+02:00,675852484.564442,0,12.98047,101.0358,1,0.89
396,2022-06-02T10:48:07.036+02:00,1654159686.000092,53.22910423043994,10.39862791118593,36.8297,0.008446159,0.4164561,18.88365622476605,29.98930462134967,3,16.00241654736175,-9999,34239.562991125,-3.770782470703125,-4.365982055664062,0.5544891357421875,34239.554254125,1.653094464701497,0.8138429750954943,0.6446253769639765,-20.85457229614258,4.444860935211182,4.830562114715576,-26.3489990234375,-17.18772125244141,3.67572021484375,XArbitraryZVertical,0.0790872036189914,-0.4682873395255417,-0.7256718086227614,-0.4978479608610669,0.5810545086860657,-0.6008990406990051,-0.5489043593406677,0,0,0,-1,-1,34237.096096625,unknown,2,2022-06-02T10:48:04.565+02:00,2022-06-02T10:32:51.428+02:00,96,2.468083,0,0,83.85019,0,0,2022-06-02T10:47:49.242+02:00,675852484.564442,0,12.98047,101.0358,1,0.89
397,2022-06-02T10:48:07.046+02:00,1654159686.000092,53.22910423043994,10.39862791118593,36.8297,0.008446159,0.4164561,18.88365622476605,29.98930462134967,3,16.00241654736175,-9999,34239.572963125,-6.28302001953125,1.119491577148438,1.223587036132812,34239.564227125,1.883111294047371,0.6957978987872943,0.483587966266771,-26.17488288879395,-2.578491926193237,2.77914834022522,-9.437796592712402,-10.9639196395874,1.439784169197083,XArbitraryZVertical,0.1351315988042443,-0.3767948373118866,-0.7859733664240233,-0.4711803544572489,0.5674962997436523,-0.4649586975574493,-0.6795302033424377,0,0,0,-1,-1,34237.096096625,unknown,2,2022-06-02T10:48:04.565+02:00,2022-06-02T10:32:51.428+02:00,96,2.468083,0,0,83.85019,0,0,2022-06-02T10:47:49.242+02:00,675852484.564442,0,12.98047,101.0358,1,0.89
398,2022-06-02T10:48:07.056+02:00,1654159686.000092,53.22910423043994,10.39862791118593,36.8297,0.008446159,0.4164561,18.88365622476605,29.98930462134967,3,16.00241654736175,-9999,34239.582936125,-8.7623291015625,0.7005157470703125,2.1141357421875,34239.574199125,2.084624039257826,0.5925790638028293,0.3211919080327977,-21.43517875671387,-1.592104554176331,6.872069835662842,-4.323976993560791,-1.267828941345215,1.465442180633545,XArbitraryZVertical,0.1717800713575109,-0.2773996283027157,-0.8388567967851999,-0.4357297905612914,0.5299403071403503,-0.3156977295875549,-0.7870821356773376,0,0,0,-1,-1,34237.096096625,unknown,2,2022-06-02T10:48:04.565+02:00,2022-06-02T10:32:51.428+02:00,96,2.468083,0,0,83.85019,0,0,2022-06-02T10:47:49.242+02:00,675852484.564442,0,12.98047,101.0358,1,0.89
399,2022-06-02T10:48:07.066+02:00,1654159686.000092,53.22910423043994,10.39862791118593,36.8297,0.008446159,0.4164561,18.88365622476605,29.98930462134967,3,16.00241654736175,-9999,34239.592908125,-7.30853271484375,1.3118896484375,0.9045257568359376,34239.584172125,2.235339471906757,0.528755053785945,0.1703941885260799,-20.59732437133789,-4.839128971099854,0.92848801612854,-8.275076866149902,1.474319338798523,2.332544803619385,XArbitraryZVertical,0.1981277151623736,-0.1878287799956687,-0.8744311164975213,-0.4010438856430498,0.497153252363205,-0.1695708483457565,-0.8509315252304077,0,0,0,-1,-1,34237.096096625,unknown,2,2022-06-02T10:48:04.565+02:00,2022-06-02T10:32:51.428+02:00,96,2.468083,0,0,83.85019,0,0,2022-06-02T10:47:49.242+02:00,675852484.564442,0,12.98047,101.0358,1,0.89
400,2022-06-02T10:48:07.076+02:00,1654159686.000092,53.22910423043994,10.39862791118593,36.8297,0.008446159,0.4164561,18.88365622476605,29.98930462134967,3,16.00241654736175,-9999,34239.602881125,-6.05889892578125,4.271881103515625,-1.358016967773438,34239.594144125,2.323325034615946,0.4517956062365259,-0.0009491660825263,-17.14894104003906,-8.621184349060059,-0.5229203701019287,-8.92187213897705,0.4347808063030243,2.941168069839478,XArbitraryZVertical,0.2056792856294343,-0.0886787661468231,-0.8941136726787293,-0.3878051210361784,0.4365814924240112,0.0009491659584455,-0.8996642231941223,0,0,0,-1,-1,34237.096096625,unknown,2,2022-06-02T10:48:04.565+02:00,2022-06-02T10:32:51.428+02:00,96,2.468083,0,0,83.85019,0,0,2022-06-02T10:47:49.242+02:00,675852484.564442,0,12.98047,101.0358,1,0.89
401,2022-06-02T10:48:07.086+02:00,1654159686.000092,53.22910423043994,10.39862791118593,36.8297,0.008446159,0.4164561,18.88365622476605,29.98930462134967,3,16.00241654736175,-9999,34239.612854125,-6.969650268554688,4.759902954101562,-2.622024536132812,34239.604117125,2.378207951865461,0.3554773242887519,-0.1258972374975522,-10.20224952697754,-11.15172672271729,0.4309330880641937,-6.915534973144531,2.293746471405029,0.9282754063606262,XArbitraryZVertical,0.1868189130209762,-0.0082674059421622,-0.9074632512963074,-0.376219013142359,0.3452832996845245,0.12556491792202,-0.9300606846809388,0,0,0,-1,-1,34237.096096625,unknown,2,2022-06-02T10:48:04.565+02:00,2022-06-02T10:32:51.428+02:00,96,2.468083,0,0,83.85019,0,0,2022-06-02T10:47:49.242+02:00,675852484.564442,0,12.98047,101.0358,1,0.89
402,2022-06-02T10:48:07.096+02:00,1654159686.000092,53.22910423043994,10.39862791118593,36.8297,0.008446159,0.4164561,18.88365622476605,29.98930462134967,3,16.00241654736175,-9999,34239.622826125,-7.717239379882812,2.57940673828125,-3.329910278320312,34239.614090125,2.397937082487118,0.2371223232056186,-0.1907351038066567,-3.834036111831665,-12.90840339660645,-0.6626468300819397,-6.507456302642822,4.687631607055664,-1.009293556213379,XArbitraryZVertical,0.1440533676982848,0.0453137768262013,-0.9168284733151748,-0.3696227272622243,0.2306464612483978,0.1895807236433029,-0.954390585422516,0,0,0,-1,-1,34237.096096625,unknown,2,2022-06-02T10:48:04.565+02:00,2022-06-02T10:32:51.428+02:00,96,2.468083,0,0,83.85019,0,0,2022-06-02T10:47:49.242+02:00,675852484.564442,0,12.98047,101.0358,1,0.89
403,2022-06-02T10:48:07.106+02:00,1654159686.000092,53.22910423043994,10.39862791118593,36.8297,0.008446159,0.4164561,18.88365622476605,29.98930462134967,3,16.00241654736175,-9999,34239.632799125,-7.185470581054688,0.7230682373046875,-3.480300903320312,34239.624062125,2.393329883516211,0.1079741913649149,-0.2170482005557274,-1.719765543937683,-12.67026519775391,-0.9590516090393066,-7.480709075927734,3.94682240486145,-1.944844722747803,XArbitraryZVertical,0.0894588507465029,0.0810671806821139,-0.9218652613332432,-0.3682250946992192,0.1052360758185387,0.215348020195961,-0.9708504676818848,0,0,0,-1,-1,34237.096096625,unknown,2,2022-06-02T10:48:04.565+02:00,2022-06-02T10:32:51.428+02:00,96,2.468083,0,0,83.85019,0,0,2022-06-02T10:47:49.242+02:00,675852484.564442,0,12.98047,101.0358,1,0.89
404,2022-06-02T10:48:07.123+02:00,1654159686.000092,53.22910423043994,10.39862791118593,36.8297,0.008446159,0.4164561,18.88365622476605,29.98930462134967,3,16.00241654736175,-9999,34239.642772125,-6.578109741210938,0.2254791259765625,-2.962127685546875,34239.634035125,2.38630763785055,-0.0172937058372062,-0.2363682866042804,-2.349802494049072,-12.04976081848145,-0.6143770813941956,-7.63167142868042,1.370593428611755,-2.583675622940063,XArbitraryZVertical,0.0354936573025876,0.1127628834356285,-0.923393878643806,-0.365196697698622,-0.0168120134621858,0.234173446893692,-0.9720494747161864,0,0,0,-1,-1,34237.096096625,unknown,2,2022-06-02T10:48:04.565+02:00,2022-06-02T10:32:51.428+02:00,96,2.468083,0,0,83.85019,0,0,2022-06-02T10:47:49.242+02:00,675852484.564442,0,12.98047,101.0358,1,0.89
405,2022-06-02T10:48:07.128+02:00,1654159686.000092,53.22910423043994,10.39862791118593,36.8297,0.008446159,0.4164561,18.88365622476605,29.98930462134967,3,16.00241654736175,-9999,34239.652744125,-6.186080932617188,0.4259490966796875,-2.557769775390625,34239.644008125,2.377096961969434,-0.1340176333696306,-0.2657280845570661,-3.590122222900391,-10.89013671875,-0.7450569868087769,-6.758951187133789,0.2174601256847382,-2.340915679931641,XArbitraryZVertical,-0.0122759767292981,0.1473927515141495,-0.9208959312797896,-0.3606598041359769,-0.128927081823349,0.2626118659973145,-0.9562493562698364,0,0,0,-1,-1,34239.645494125,running,2,2022-06-02T10:48:07.114+02:00,2022-06-02T10:32:51.428+02:00,96,2.468083,0,0,83.85019,0,0,2022-06-02T10:47:49.242+02:00,675852487.1138085,0,12.96875,101.0364,1,0.89
406,2022-06-02T10:48:07.136+02:00,1654159686.000092,53.22910423043994,10.39862791118593,36.8297,0.008446159,0.4164561,18.88365622476605,29.98930462134967,3,16.00241654736175,-9999,34239.662717125,-5.74334716796875,1.157440185546875,-2.53021240234375,34239.653980125,2.361205041896237,-0.2416428206238561,-0.3014063854027818,-3.871682405471802,-9.882919311523438,-0.8645318150520325,-6.22260046005249,-0.1218146681785583,-1.854242086410522,XArbitraryZVertical,-0.0535152555265506,0.1831616671916456,-0.9145702323220436,-0.3565799266257839,-0.2285104691982269,0.2968634963035583,-0.9271758198738098,0,0,0,-1,-1,34239.645494125,running,2,2022-06-02T10:48:07.114+02:00,2022-06-02T10:32:51.428+02:00,96,2.468083,0,0,83.85019,0,0,2022-06-02T10:47:49.242+02:00,675852487.1138085,0,12.96875,101.0364,1,0.89
407,2022-06-02T10:48:07.146+02:00,1654159686.000092,53.22910423043994,10.39862791118593,36.8297,0.008446159,0.4164561,18.88365622476605,29.98930462134967,3,16.00241654736175,-9999,34239.672689125,-5.881637573242188,1.710906982421875,-3.00909423828125,34239.663953125,2.342036560135939,-0.3467363244258174,-0.3340997125090784,-3.45659351348877,-10.15697765350342,-0.7610413432121277,-5.672719478607178,0.4124528765678406,-1.62830114364624,XArbitraryZVertical,-0.0929408898668728,0.2170720227301122,-0.9058718716421966,-0.3516217843022306,-0.3210395872592926,0.3279187977313995,-0.888483464717865,0,0,0,-1,-1,34239.645494125,running,2,2022-06-02T10:48:07.114+02:00,2022-06-02T10:32:51.428+02:00,96,2.468083,0,0,83.85019,0,0,2022-06-02T10:47:49.242+02:00,675852487.1138085,0,12.96875,101.0364,1,0.89
408,2022-06-02T10:48:07.156+02:00,1654159686.000092,53.22910423043994,10.39862791118593,36.8297,0.008446159,0.4164561,18.88365622476605,29.98930462134967,3,16.00241654736175,-9999,34239.682662125,-6.266525268554688,1.764068603515625,-4.51409912109375,34239.673925125,2.325186041676238,-0.4541172965571447,-0.3589881050204117,-2.198040008544922,-10.09080410003662,-0.2187017500400543,-5.29205322265625,1.000052332878113,-1.750159978866577,XArbitraryZVertical,-0.134245817153421,0.2475821557651935,-0.895863648278987,-0.3436706066328212,-0.4107053279876709,0.3513270318508148,-0.8413622975349426,0,0,0,-1,-1,34239.645494125,running,2,2022-06-02T10:48:07.114+02:00,2022-06-02T10:32:51.428+02:00,96,2.468083,0,0,83.85019,0,0,2022-06-02T10:47:49.242+02:00,675852487.1138085,0,12.96875,101.0364,1,0.89
409,2022-06-02T10:48:07.166+02:00,1654159686.000092,53.22910423043994,10.39862791118593,36.8297,0.008446159,0.4164561,18.88365622476605,29.98930462134967,3,16.00241654736175,-9999,34239.692635125,-5.783355712890625,1.149612426757812,-5.101303100585938,34239.683898125,2.31565841371381,-0.5559001126405799,-0.3674872974229266,-0.0958896651864051,-9.645806312561035,-0.6857084035873413,-5.578692436218262,1.503933310508728,-2.714184761047363,XArbitraryZVertical,-0.1765749198675269,0.2691936046988371,-0.88607382626031,-0.3335105098257283,-0.4924746155738831,0.3592716455459595,-0.7927122116088867,0,0,0,-1,-1,34239.645494125,running,2,2022-06-02T10:48:07.114+02:00,2022-06-02T10:32:51.428+02:00,96,2.468083,0,0,83.85019,0,0,2022-06-02T10:47:49.242+02:00,675852487.1138085,0,12.96875,101.0364,1,0.89
410,2022-06-02T10:48:07.176+02:00,1654159686.000092,53.22910423043994,10.39862791118593,36.8297,0.008446159,0.4164561,18.88365622476605,29.98930462134967,3,16.00241654736175,-9999,34239.702607125,-5.024948120117188,0.152923583984375,-4.333251953125,34239.693871125,2.310562082318626,-0.6513392099196155,-0.3565334973370901,1.160770773887634,-9.12027072906494,-1.31692910194397,-5.620670795440674,1.224992513656616,-4.220423221588135,XArbitraryZVertical,-0.220263475272995,0.280809726328091,-0.8759821462359781,-0.3244768088799803,-0.5681262016296387,0.3490278422832489,-0.7452598214149475,0,0,0,-1,-1,34239.645494125,running,2,2022-06-02T10:48:07.114+02:00,2022-06-02T10:32:51.428+02:00,96,2.468083,0,0,83.85019,0,0,2022-06-02T10:47:49.242+02:00,675852487.1138085,0,12.96875,101.0364,1,0.89
411,2022-06-02T10:48:07.186+02:00,1654159686.000092,53.22910423043994,10.39862791118593,36.8297,0.008446159,0.4164561,18.88365622476605,29.98930462134967,3,16.00241654736175,-9999,34239.712580125,-4.408599853515625,-0.511993408203125,-3.8314208984375,34239.703843125,2.30543045989927,-0.7404946938793525,-0.3383359964650824,0.8390200138092041,-8.391273498535156,-1.7628253698349,-4.845695495605469,0.4768131971359253,-4.183182239532471,XArbitraryZVertical,-0.2622353253816497,0.288250311952683,-0.864517118656567,-0.3174186657894389,-0.636405885219574,0.3319178819656372,-0.6962887644767761,0,0,0,-1,-1,34239.645494125,running,2,2022-06-02T10:48:07.114+02:00,2022-06-02T10:32:51.428+02:00,96,2.468083,0,0,83.85019,0,0,2022-06-02T10:47:49.242+02:00,675852487.1138085,0,12.96875,101.0364,1,0.89
412,2022-06-02T10:48:07.196+02:00,1654159686.000092,53.22910423043994,10.39862791118593,36.8297,0.008446159,0.4164561,18.88365622476605,29.98930462134967,3,16.00241654736175,-9999,34239.722552125,-3.833038330078125,-0.1509246826171875,-4.055862426757812,34239.713816125,2.294789707340502,-0.8224861329031181,-0.3224289301076651,-0.0016970259603112,-7.346122264862061,-1.811828017234802,-4.086449146270752,-0.5279461145401001,-3.416794300079346,XArbitraryZVertical,-0.2992720833256605,0.2962542142382203,-0.8512110948305899,-0.3132241555996407,-0.6950753927230835,0.3168712556362152,-0.64533931016922,0,0,0,-1,-1,34239.645494125,running,2,2022-06-02T10:48:07.114+02:00,2022-06-02T10:32:51.428+02:00,96,2.468083,0,0,83.85019,0,0,2022-06-02T10:47:49.242+02:00,675852487.1138085,0,12.96875,101.0364,1,0.89
413,2022-06-02T10:48:07.206+02:00,1654159686.000092,53.22910423043994,10.39862791118593,36.8297,0.008446159,0.4164561,18.88365622476605,29.98930462134967,3,16.00241654736175,-9999,34239.732525125,-3.38641357421875,0.4748077392578125,-4.567718505859375,34239.723788125,2.283699711014112,-0.8945863863629926,-0.3113024676936778,0.0223302785307169,-6.433282375335693,-1.163811445236206,-3.446899175643921,-0.7863097190856934,-3.241733074188232,XArbitraryZVertical,-0.3304532237129948,0.3048283466272839,-0.8379136179650887,-0.3094853822521058,-0.7424623370170593,0.3062987625598907,-0.595760703086853,0,0,0,-1,-1,34239.645494125,running,2,2022-06-02T10:48:07.114+02:00,2022-06-02T10:32:51.428+02:00,96,2.468083,0,0,83.85019,0,0,2022-06-02T10:47:49.242+02:00,675852487.1138085,0,12.96875,101.0364,1,0.89
414,2022-06-02T10:48:07.216+02:00,1654159686.000092,53.22910423043994,10.39862791118593,36.8297,0.008446159,0.4164561,18.88365622476605,29.98930462134967,3,16.00241654736175,-9999,34239.742498125,-2.919509887695312,0.571624755859375,-4.76593017578125,34239.733761125,2.281774337440294,-0.9561282964196616,-0.3020492283988233,0.978707790374756,-5.76691722869873,-0.5865808129310608,-2.861804723739624,-0.1680675148963928,-3.696246147155762,XArbitraryZVertical,-0.3577610395243063,0.3109935525481065,-0.8267546566748494,-0.3029304816943609,-0.7799800634384155,0.2974772751331329,-0.5505800843238831,0,0,0,-1,-1,34239.645494125,running,2,2022-06-02T10:48:07.114+02:00,2022-06-02T10:32:51.428+02:00,96,2.468083,0,0,83.85019,0,0,2022-06-02T10:47:49.242+02:00,675852487.1138085,0,12.96875,101.0364,1,0.89
415,2022-06-02T10:48:07.226+02:00,1654159686.000092,53.22910423043994,10.39862791118593,36.8297,0.008446159,0.4164561,18.88365622476605,29.98930462134967,3,16.00241654736175,-9999,34239.752470125,-2.540725708007812,-0.162384033203125,-4.525726318359375,34239.743734125,2.294483148051284,-1.006215491537548,-0.2888660912386533,2.463620662689209,-5.071478366851807,-0.3384123146533966,-2.412876605987549,0.3021401166915894,-4.203400611877441,XArbitraryZVertical,-0.3831417937546875,0.3110562068441349,-0.8188779166966841,-0.2930620472007802,-0.809810221195221,0.2848654687404633,-0.5128927826881409,0,0,0,-1,-1,34239.645494125,running,2,2022-06-02T10:48:07.114+02:00,2022-06-02T10:32:51.428+02:00,96,2.468083,0,0,83.85019,0,0,2022-06-02T10:47:49.242+02:00,675852487.1138085,0,12.96875,101.0364,1,0.89
416,2022-06-02T10:48:07.236+02:00,1654159686.000092,53.22910423043994,10.39862791118593,36.8297,0.008446159,0.4164561,18.88365622476605,29.98930462134967,3,16.00241654736175,-9999,34239.762443125,-2.328689575195312,-1.225875854492188,-4.213363647460938,34239.753706125,2.31764501828002,-1.047609020368343,-0.2701555187352628,3.134766817092896,-4.461513519287109,-0.6138181686401367,-1.912212133407593,0.1256510019302368,-4.220062732696533,XArbitraryZVertical,-0.4074609652144802,0.3053112229029639,-0.8132161504828008,-0.2818511912696557,-0.834812343120575,0.2668813169002533,-0.4815212488174438,0,0,0,-1,-1,34239.645494125,running,2,2022-06-02T10:48:07.114+02:00,2022-06-02T10:32:51.428+02:00,96,2.468083,0,0,83.85019,0,0,2022-06-02T10:47:49.242+02:00,675852487.1138085,0,12.96875,101.0364,1,0.89
417,2022-06-02T10:48:07.246+02:00,1654159686.000092,53.22910423043994,10.39862791118593,36.8297,0.008446159,0.4164561,18.88365622476605,29.98930462134967,3,16.00241654736175,-9999,34239.772416125,-2.134185791015625,-1.885421752929688,-3.96319580078125,34239.763679125,2.339814308906173,-1.081616029546997,-0.2490447909861178,2.44905424118042,-3.440015554428101,-1.028095126152039,-1.604262351989746,-0.8203003406524658,-3.957985877990723,XArbitraryZVertical,-0.4287890192100513,0.2973842238445908,-0.8081629511811393,-0.2730847582543657,-0.8554850220680237,0.246478334069252,-0.455405205488205,0,0,0,-1,-1,34239.645494125,running,2,2022-06-02T10:48:07.114+02:00,2022-06-02T10:32:51.428+02:00,96,2.468083,0,0,83.85019,0,0,2022-06-02T10:47:49.242+02:00,675852487.1138085,0,12.96875,101.0364,1,0.89
418,2022-06-02T10:48:07.256+02:00,1654159686.000092,53.22910423043994,10.39862791118593,36.8297,0.008446159,0.4164561,18.88365622476605,29.98930462134967,3,16.00241654736175,-9999,34239.782388125,-1.864486694335938,-1.857757568359375,-3.911163330078125,34239.773652125,2.34833165633756,-1.107158484140574,-0.2310501944482272,0.5605989098548889,-2.076633453369141,-1.338964939117432,-1.385607957839966,-1.774425387382507,-3.662243604660034,XArbitraryZVertical,-0.443810014636968,0.2921851333345846,-0.8027915217413464,-0.2705296760435005,-0.8706633448600769,0.2289999425411224,-0.435321033000946,0,0,0,-1,-1,34239.645494125,running,2,2022-06-02T10:48:07.114+02:00,2022-06-02T10:32:51.428+02:00,96,2.468083,0,0,83.85019,0,0,2022-06-02T10:47:49.242+02:00,675852487.1138085,0,12.96875,101.0364,1,0.89
419,2022-06-02T10:48:07.266+02:00,1654159686.000092,53.22910423043994,10.39862791118593,36.8297,0.008446159,0.4164561,18.88365622476605,29.98930462134967,3,16.00241654736175,-9999,34239.792361125,-1.66278076171875,-1.35345458984375,-3.823867797851562,34239.783624125,2.337242146747627,-1.123797041111678,-0.2222795121689642,-1.669940710067749,-0.7981141805648804,-1.192012786865234,-1.156508803367615,-2.154322147369385,-3.49185585975647,XArbitraryZVertical,-0.4505202102966118,0.293629197824864,-0.7970503640009494,-0.2748166320507067,-0.8795629739761353,0.2204536199569702,-0.4216268658638,0,0,0,-1,-1,34239.645494125,running,2,2022-06-02T10:48:07.114+02:00,2022-06-02T10:32:51.428+02:00,96,2.468083,0,0,83.85019,0,0,2022-06-02T10:47:49.242+02:00,675852487.1138085,0,12.96875,101.0364,1,0.89
420,2022-06-02T10:48:07.276+02:00,1654159686.000092,53.22910423043994,10.39862791118593,36.8297,0.008446159,0.4164561,18.88365622476605,29.98930462134967,3,16.00241654736175,-9999,34239.802333125,-1.576370239257812,-0.63006591796875,-3.537628173828125,34239.793597125,2.307938483035102,-1.133968525740263,-0.2215781596659216,-3.298215389251709,-0.005598128773272,-1.39351761341095,-0.887477457523346,-1.935696601867676,-3.500987529754639,XArbitraryZVertical,-0.4503347680604327,0.3013910304202356,-0.7906132520752824,-0.2851190169543648,-0.883945882320404,0.2197694778442383,-0.4127240777015686,0,0,0,-1,-1,34239.645494125,running,2,2022-06-02T10:48:07.114+02:00,2022-06-02T10:32:51.428+02:00,96,2.468083,0,0,83.85019,0,0,2022-06-02T10:47:49.242+02:00,675852487.1138085,0,12.96875,101.0364,1,0.89
421,2022-06-02T10:48:07.286+02:00,1654159686.000092,53.22910423043994,10.39862791118593,36.8297,0.008446159,0.4164561,18.88365622476605,29.98930462134967,3,16.00241654736175,-9999,34239.812306125,-1.484100341796875,-0.1235809326171875,-3.048507690429688,34239.803569125,2.269669541917784,-1.13856544535669,-0.2235192756574678,-3.528183460235596,0.7321187853813171,-1.346561312675476,-0.735984742641449,-1.305372476577759,-3.337098121643066,XArbitraryZVertical,-0.4458931604709233,0.3113533110617185,-0.7841267586147745,-0.2989709554878501,-0.885444700717926,0.2216627150774002,-0.4084767997264862,0,0,0,-1,-1,34239.645494125,running,2,2022-06-02T10:48:07.114+02:00,2022-06-02T10:32:51.428+02:00,96,2.468083,0,0,83.85019,0,0,2022-06-02T10:47:49.242+02:00,675852487.1138085,0,12.96875,101.0364,1,0.89
422,2022-06-02T10:48:07.296+02:00,1654159686.000092,53.22910423043994,10.39862791118593,36.8297,0.008446159,0.4164561,18.88365622476605,29.98930462134967,3,16.00241654736175,-9999,34239.822279125,-1.400558471679688,0.0605621337890625,-2.652908325195312,34239.813542125,2.232565570752816,-1.135772327248865,-0.2264564972380529,-3.266425371170044,1.491588234901428,-1.158226490020752,-0.6520452499389648,-0.613976001739502,-2.916049003601074,XArbitraryZVertical,-0.4383331870707066,0.3201998100405382,-0.7792791150136008,-0.3131455105181005,-0.8837060332298279,0.2245259135961533,-0.4106721878051758,0,0,0,-1,-1,34239.645494125,running,2,2022-06-02T10:48:07.114+02:00,2022-06-02T10:32:51.428+02:00,96,2.468083,0,0,83.85019,0,0,2022-06-02T10:47:49.242+02:00,675852487.1138085,0,12.96875,101.0364,1,0.89
423,2022-06-02T10:48:07.306+02:00,1654159686.000092,53.22910423043994,10.39862791118593,36.8297,0.008446159,0.4164561,18.88365622476605,29.98930462134967,3,16.00241654736175,-9999,34239.832251125,-1.307327270507812,0.0420989990234375,-2.185379028320312,34239.823515125,2.198510233417275,-1.125167636216076,-0.2303452967649773,-3.135808706283569,2.185723543167114,-0.947597324848175,-0.5837428569793701,-0.2632411122322083,-2.492666959762573,XArbitraryZVertical,-0.4278609057279691,0.3272837121852439,-0.7764193857539261,-0.327098269581352,-0.8785068988800049,0.2283137142658234,-0.419640839099884,0,0,0,-1,-1,34239.645494125,running,2,2022-06-02T10:48:07.114+02:00,2022-06-02T10:32:51.428+02:00,96,2.468083,0,0,83.85019,0,0,2022-06-02T10:47:49.242+02:00,675852487.1138085,0,12.96875,101.0364,1,0.89
424,2022-06-02T10:48:07.317+02:00,1654159686.000092,53.22910423043994,10.39862791118593,36.8297,0.008446159,0.4164561,18.88365622476605,29.98930462134967,3,16.00241654736175,-9999,34239.842224125,-1.276962280273438,-0.004547119140625,-1.77032470703125,34239.833487125,2.165376872539573,-1.107905148256516,-0.236794204712598,-3.263925313949585,2.808070182800293,-0.7258747220039368,-0.4902800321578979,-0.158949688076973,-2.046499252319336,XArbitraryZVertical,-0.4142591612473741,0.333693247537316,-0.7750189902940522,-0.3411508234212136,-0.869796872138977,0.2345875054597855,-0.434076339006424,0,0,0,-1,-1,34239.645494125,running,2,2022-06-02T10:48:07.114+02:00,2022-06-02T10:32:51.428+02:00,96,2.468083,0,0,83.85019,0,0,2022-06-02T10:47:49.242+02:00,675852487.1138085,0,12.96875,101.0364,1,0.89
425,2022-06-02T10:48:07.326+02:00,1654159687.000096,53.22910255887269,10.39863658010481,36.81863,0.06704149,0.4514352,205.8847553971474,108.0542681235801,3,12.00181241052132,-9999,34239.852196125,-1.311492919921875,0.0067596435546875,-1.435989379882812,34239.843460125,2.131215567554718,-1.085396086424296,-0.2468270486424819,-3.603151559829712,3.322794675827026,-0.5200166702270508,-0.4315028786659241,-0.2279252111911774,-1.569565773010254,XArbitraryZVertical,-0.3974807911191312,0.3402910123111014,-0.7744190604085874,-0.3556489914860348,-0.8576816916465759,0.2443284094333649,-0.4524220824241638,0,0,0,-1,-1,34239.645494125,running,2,2022-06-02T10:48:07.114+02:00,2022-06-02T10:32:51.428+02:00,96,2.468083,0,0,83.85019,0,0,2022-06-02T10:47:49.242+02:00,675852487.1138085,0,12.96875,101.0364,1,0.89
426,2022-06-02T10:48:07.336+02:00,1654159687.000096,53.22910255887269,10.39863658010481,36.81863,0.06704149,0.4514352,205.8847553971474,108.0542681235801,3,12.00181241052132,-9999,34239.862169125,-1.377975463867188,0.0610504150390625,-1.170242309570312,34239.853432125,2.094548755281346,-1.059235601701975,-0.2614784298515406,-4.055801391601562,3.767339468002319,-0.2968468368053436,-0.4398084282875061,-0.2627814710140228,-1.160768270492554,XArbitraryZVertical,-0.3775585374371699,0.3478507756801261,-0.7739612585392831,-0.3707200477475561,-0.8423418998718262,0.2585090100765228,-0.4728987812995911,0,0,0,-1,-1,34239.645494125,running,2,2022-06-02T10:48:07.114+02:00,2022-06-02T10:32:51.428+02:00,96,2.468083,0,0,83.85019,0,0,2022-06-02T10:47:49.242+02:00,675852487.1138085,0,12.96875,101.0364,1,0.89
427,2022-06-02T10:48:07.346+02:00,1654159687.000096,53.22910255887269,10.39863658010481,36.81863,0.06704149,0.4514352,205.8847553971474,108.0542681235801,3,12.00181241052132,-9999,34239.872142125,-1.40960693359375,0.1141815185546875,-0.9634857177734376,34239.863405125,2.055203759012446,-1.030284906434311,-0.2813862043767739,-4.521725654602051,4.148211479187012,-0.0726225152611732,-0.5138771533966064,-0.2555929124355316,-0.8387012481689453,XArbitraryZVertical,-0.3545047326859565,0.3565919810727164,-0.7733117704508925,-0.3862091606988047,-0.823723554611206,0.2776876091957092,-0.4943371117115021,0,0,0,-1,-1,34239.645494125,running,2,2022-06-02T10:48:07.114+02:00,2022-06-02T10:32:51.428+02:00,96,2.468083,0,0,83.85019,0,0,2022-06-02T10:47:49.242+02:00,675852487.1138085,0,12.96875,101.0364,1,0.89
428,2022-06-02T10:48:07.356+02:00,1654159687.000096,53.22910255887269,10.39863658010481,36.81863,0.06704149,0.4514352,205.8847553971474,108.0542681235801,3,12.00181241052132,-9999,34239.882114125,-1.440887451171875,0.175689697265625,-0.81195068359375,34239.873378125,2.013350759576505,-0.9994262994223116,-0.3069806374827553,-4.976135730743408,4.457694053649902,0.2080297470092773,-0.5952121019363403,-0.2192960977554321,-0.578277051448822,XArbitraryZVertical,-0.3284200103232127,0.3665904620276743,-0.7721752790404034,-0.4018670701158451,-0.8018369078636169,0.3021818101406097,-0.515503466129303,0,0,0,-1,-1,34239.645494125,running,2,2022-06-02T10:48:07.114+02:00,2022-06-02T10:32:51.428+02:00,96,2.468083,0,0,83.85019,0,0,2022-06-02T10:47:49.242+02:00,675852487.1138085,0,12.96875,101.0364,1,0.89
