,loggingTime(txt),locationTimestamp_since1970(s),locationLatitude(WGS84),locationLongitude(WGS84),locationAltitude(m),locationSpeed(m/s),locationSpeedAccuracy(m/s),locationCourse(°),locationCourseAccuracy(°),locationVerticalAccuracy(m),locationHorizontalAccuracy(m),locationFloor(Z),accelerometerTimestamp_sinceReboot(s),accelerometerAccelerationX(G),accelerometerAccelerationY(G),accelerometerAccelerationZ(G),motionTimestamp_sinceReboot(s),motionYaw(rad),motionRoll(rad),motionPitch(rad),motionRotationRateX(rad/s),motionRotationRateY(rad/s),motionRotationRateZ(rad/s),motionUserAccelerationX(G),motionUserAccelerationY(G),motionUserAccelerationZ(G),motionAttitudeReferenceFrame(txt),motionQuaternionX(R),motionQuaternionY(R),motionQuaternionZ(R),motionQuaternionW(R),motionGravityX(G),motionGravityY(G),motionGravityZ(G),motionMagneticFieldX(µT),motionMagneticFieldY(µT),motionMagneticFieldZ(µT),motionHeading(°),motionMagneticFieldCalibrationAccuracy(Z),activityTimestamp_sinceReboot(s),activity(txt),activityActivityConfidence(Z),activityActivityStartDate(txt),pedometerStartDate(txt),pedometerNumberofSteps(N),pedometerAverageActivePace(s/m),pedometerCurrentPace(s/m),pedometerCurrentCadence(steps/s),pedometerDistance(m),pedometerFloorAscended(N),pedometerFloorDescended(N),pedometerEndDate(txt),altimeterTimestamp_sinceReboot(s),altimeterReset(bool),altimeterRelativeAltitude(m),altimeterPressure(kPa),batteryState(N),batteryLevel(R)
421,2022-06-02T10:49:04.194+02:00,1654159743.258049,53.22921267688637,10.39899083621746,36.03563,0.1024947,0.3151001,-1,-1,3,16.00241654736175,-9999,34296.72086766667,2.1519775390625,0.4298095703125,0.076141357421875,34296.71711766667,0.3899985261841817,0.7627434699069282,-0.3451789046824851,-2.569679021835327,9.64362907409668,-2.69840407371521,1.924308657646179,-0.1503004431724548,0.7331416606903076,XArbitraryZVertical,0.2274217847536292,-0.3288299138440093,-0.1144658817928576,-0.9094217758949144,0.6501542329788208,0.3383650481700897,-0.6803004145622253,0,0,0,-1,-1,34295.81391804167,walking,2,2022-06-02T10:49:03.282+02:00,2022-06-02T10:32:51.428+02:00,110,2.414618,0,0,95.08166,0,0,2022-06-02T10:49:03.282+02:00,675852543.2822315,0,14.71875,101.0167,1,0.88
422,2022-06-02T10:49:04.204+02:00,1654159743.258049,53.22921267688637,10.39899083621746,36.03563,0.1024947,0.3151001,-1,-1,3,16.00241654736175,-9999,34296.73084066667,1.719268798828125,1.141143798828125,0.26153564453125,34296.72709066667,0.3949590271460393,0.865203241634626,-0.3863260470680126,-3.74616551399231,10.52047538757324,-2.699227809906006,1.509734630584717,-0.009173035621643,0.6880484223365784,XArbitraryZVertical,0.2516160134693361,-0.369247155958633,-0.0958978001941207,-0.8894659730454699,0.7051243782043457,0.3767877817153931,-0.6006918549537659,0,0,0,-1,-1,34295.81391804167,walking,2,2022-06-02T10:49:03.282+02:00,2022-06-02T10:32:51.428+02:00,110,2.414618,0,0,95.08166,0,0,2022-06-02T10:49:03.282+02:00,675852543.2822315,0,14.71875,101.0167,1,0.88
423,2022-06-02T10:49:04.214+02:00,1654159743.258049,53.22921267688637,10.39899083621746,36.03563,0.1024947,0.3151001,-1,-1,3,16.00241654736175,-9999,34296.74081366667,1.426239013671875,1.817276000976562,0.452362060546875,34296.73706266667,0.4147113007167444,0.9811127742877384,-0.4343415030153293,-4.981712341308594,11.13374042510986,-2.824058294296265,1.004950523376465,0.6203246116638184,0.7209393382072449,XArbitraryZVertical,0.2806984695935737,-0.4110680404324134,-0.0779930714642764,-0.863798897204947,0.7539452910423279,0.4208131432533264,-0.5044628977775574,0,0,0,-1,-1,34295.81391804167,walking,2,2022-06-02T10:49:03.282+02:00,2022-06-02T10:32:51.428+02:00,110,2.414618,0,0,95.08166,0,0,2022-06-02T10:49:03.282+02:00,675852543.2822315,0,14.71875,101.0167,1,0.88
424,2022-06-02T10:49:04.224+02:00,1654159743.258049,53.22921267688637,10.39899083621746,36.03563,0.1024947,0.3151001,-1,-1,3,16.00241654736175,-9999,34296.75078566667,0.995574951171875,2.220352172851562,0.4775238037109375,34296.74703566667,0.4524131927018927,1.112948508374576,-0.4865154861332386,-6.093986988067627,11.96350860595703,-2.843721866607666,0.6760091185569763,1.283870577812195,0.8342115879058838,XArbitraryZVertical,0.3142913177169923,-0.453713504185584,-0.060853209489563,-0.8316621436088285,0.7929239869117737,0.4675485491752625,-0.3907300531864166,0,0,0,-1,-1,34295.81391804167,walking,2,2022-06-02T10:49:03.282+02:00,2022-06-02T10:32:51.428+02:00,110,2.414618,0,0,95.08166,0,0,2022-06-02T10:49:03.282+02:00,675852543.2822315,0,14.71875,101.0167,1,0.88
425,2022-06-02T10:49:04.234+02:00,1654159743.258049,53.22921267688637,10.39899083621746,36.03563,0.1024947,0.3151001,-1,-1,3,16.00241654736175,-9999,34296.76075866667,0.509857177734375,2.551361083984375,0.9174041748046876,34296.75700766667,0.509013450753282,1.264629199003684,-0.5376316850401311,-6.866360187530518,12.85097885131836,-3.054978609085083,0.2368362545967102,1.667675852775574,0.7231336832046509,XArbitraryZVertical,0.3507944118154723,-0.4974944845886756,-0.0438868784690203,-0.792159408228183,0.8189803957939148,0.5121031999588013,-0.2588850259780884,0,0,0,-1,-1,34295.81391804167,walking,2,2022-06-02T10:49:03.282+02:00,2022-06-02T10:32:51.428+02:00,110,2.414618,0,0,95.08166,0,0,2022-06-02T10:49:03.282+02:00,675852543.2822315,0,14.71875,101.0167,1,0.88
426,2022-06-02T10:49:04.244+02:00,1654159743.258049,53.22921267688637,10.39899083621746,36.03563,0.1024947,0.3151001,-1,-1,3,16.00241654736175,-9999,34296.77073066667,0.0791778564453125,3.10736083984375,1.389862060546875,34296.76698066667,0.5859346241339498,1.438369042193186,-0.5851940414691478,-8.074399948120117,13.70964622497559,-3.425517559051514,-0.259198009967804,1.940009593963623,0.955345630645752,XArbitraryZVertical,0.3899228413908949,-0.541225773822136,-0.0261184482468782,-0.7445487154679056,0.8263062834739685,0.5523611307144165,-0.110069677233696,0,0,0,-1,-1,34295.81391804167,walking,2,2022-06-02T10:49:03.282+02:00,2022-06-02T10:32:51.428+02:00,110,2.414618,0,0,95.08166,0,0,2022-06-02T10:49:03.282+02:00,675852543.2822315,0,14.71875,101.0167,1,0.88
427,2022-06-02T10:49:04.254+02:00,1654159743.258049,53.22921267688637,10.39899083621746,36.03563,0.1024947,0.3151001,-1,-1,3,16.00241654736175,-9999,34296.78070366667,-0.53497314453125,3.511215209960938,1.475616455078125,34296.77695366667,0.6909581059436161,1.637798841946066,-0.6239239468081498,-9.443330764770508,14.21303462982178,-3.796432495117188,-0.6734950542449951,2.461567401885986,1.30044412612915,XArbitraryZVertical,0.4326594007611523,-0.5830736401779338,-0.0092089919199871,-0.6875654784710922,0.8097712993621826,0.584224283695221,0.054338052868843,0,0,0,-1,-1,34295.81391804167,walking,2,2022-06-02T10:49:03.282+02:00,2022-06-02T10:32:51.428+02:00,110,2.414618,0,0,95.08166,0,0,2022-06-02T10:49:03.282+02:00,675852543.2822315,0,14.71875,101.0167,1,0.88
428,2022-06-02T10:49:04.264+02:00,1654159743.258049,53.22921267688637,10.39899083621746,36.03563,0.1024947,0.3151001,-1,-1,3,16.00241654736175,-9999,34296.79067666667,-1.576950073242188,4.077194213867188,1.485366821289062,34296.78692566667,0.821129747471877,1.859021999527908,-0.6459738917385167,-10.46832847595215,14.68369674682617,-4.283674240112305,-1.206218481063843,2.856611251831055,1.241511821746826,XArbitraryZVertical,0.477391203918535,-0.6209565901258199,0.0067827481883776,-0.6216629052849679,0.7655752897262573,0.6019763946533203,0.2269788980484009,0,0,0,-1,-1,34295.81391804167,walking,2,2022-06-02T10:49:03.282+02:00,2022-06-02T10:32:51.428+02:00,110,2.414618,0,0,95.08166,0,0,2022-06-02T10:49:03.282+02:00,675852543.2822315,0,14.71875,101.0167,1,0.88
429,2022-06-02T10:49:04.274+02:00,1654159743.258049,53.22921267688637,10.39899083621746,36.03563,0.1024947,0.3151001,-1,-1,3,16.00241654736175,-9999,34296.80064866667,-3.261505126953125,4.59417724609375,2.236312866210938,34296.79689866667,0.9681709812143728,2.10096239780175,-0.6460858012874753,-11.04573249816895,16.20170974731445,-5.200440406799316,-2.096156358718872,3.407974720001221,1.075080275535583,XArbitraryZVertical,0.5226112785424816,-0.6547941549983014,0.0243876974371855,-0.5454607730837057,0.6888384819030762,0.6020657420158386,0.4037558734416962,0,0,0,-1,-1,34295.81391804167,walking,2,2022-06-02T10:49:03.282+02:00,2022-06-02T10:32:51.428+02:00,110,2.414618,0,0,95.08166,0,0,2022-06-02T10:49:03.282+02:00,675852543.2822315,0,14.71875,101.0167,1,0.88
430,2022-06-02T10:49:04.283+02:00,1654159743.258049,53.22921267688637,10.39899083621746,36.03563,0.1024947,0.3151001,-1,-1,3,16.00241654736175,-9999,34296.81062166667,-3.951858520507812,5.649169921875,4.315597534179688,34296.80687166667,1.125308590896247,2.363271501151064,-0.6197812019471722,-12.47769737243652,17.40765380859375,-6.186980724334717,-3.634153604507446,3.91715931892395,1.463198781013489,XArbitraryZVertical,0.5679048442958387,-0.6835993699040586,0.0459059442051561,-0.4561455389456574,0.5715011954307556,0.5808570981025696,0.5796480178833008,0,0,0,-1,-1,34295.81391804167,walking,2,2022-06-02T10:49:03.282+02:00,2022-06-02T10:32:51.428+02:00,110,2.414618,0,0,95.08166,0,0,2022-06-02T10:49:03.282+02:00,675852543.2822315,0,14.71875,101.0167,1,0.88
431,2022-06-02T10:49:04.293+02:00,1654159743.258049,53.22921267688637,10.39899083621746,36.03563,0.1024947,0.3151001,-1,-1,3,16.00241654736175,-9999,34296.82059366667,-4.0458984375,6.401138305664062,6.470123291015625,34296.81684366667,1.281208476860604,2.623152478153342,-0.5487387407623937,-14.79535579681396,17.15326309204102,-5.962480068206787,-4.366591453552246,4.98095178604126,3.301457166671753,XArbitraryZVertical,0.6117828361632048,-0.7044546137023553,0.0624935434755233,-0.3543445511739279,0.4227743446826935,0.5216115713119507,0.7410690784454346,0,0,0,-1,-1,34295.81391804167,walking,2,2022-06-02T10:49:03.282+02:00,2022-06-02T10:32:51.428+02:00,110,2.414618,0,0,95.08166,0,0,2022-06-02T10:49:03.282+02:00,675852543.2822315,0,14.71875,101.0167,1,0.88
432,2022-06-02T10:49:04.303+02:00,1654159743.258049,53.22921267688637,10.39899083621746,36.03563,0.1024947,0.3151001,-1,-1,3,16.00241654736175,-9999,34296.83056666667,-4.562530517578125,5.6826171875,8.355682373046875,34296.82681666667,1.412644461800256,2.851680702364172,-0.4254557743804591,-16.88460922241211,16.13468360900879,-5.872916698455811,-4.265098094940186,5.997694969177246,5.348916053771973,XArbitraryZVertical,0.6509572673560977,-0.7160130666120749,0.0672914665448825,-0.2430058348277576,0.2603829801082611,0.4127359688282013,0.872840166091919,0,0,0,-1,-1,34295.81391804167,walking,2,2022-06-02T10:49:03.282+02:00,2022-06-02T10:32:51.428+02:00,110,2.414618,0,0,95.08166,0,0,2022-06-02T10:49:03.282+02:00,675852543.2822315,0,14.71875,101.0167,1,0.88
433,2022-06-02T10:49:04.313+02:00,1654159743.258049,53.22921267688637,10.39899083621746,36.03563,0.1024947,0.3151001,-1,-1,3,16.00241654736175,-9999,34296.84053966667,-5.14898681640625,4.963272094726562,10.34719848632812,34296.83678866667,1.508959183883831,3.037531159673212,-0.2693090491130679,-17.06118583679199,14.30612850189209,-5.943318367004395,-4.593141078948975,5.51622200012207,7.1593017578125,XArbitraryZVertical,0.6828783117686276,-0.7162732964122015,0.0623866283863602,-0.1293742235899392,0.1001296490430832,0.2660654485225677,0.9587404727935792,0,0,0,-1,-1,34295.81391804167,walking,2,2022-06-02T10:49:03.282+02:00,2022-06-02T10:32:51.428+02:00,110,2.414618,0,0,95.08166,0,0,2022-06-02T10:49:03.282+02:00,675852543.2822315,0,14.71875,101.0167,1,0.88
434,2022-06-02T10:49:04.323+02:00,1654159743.258049,53.22921267688637,10.39899083621746,36.03563,0.1024947,0.3151001,-1,-1,3,16.00241654736175,-9999,34296.85051166667,-5.321853637695312,4.19879150390625,12.61663818359375,34296.84676166667,1.580133174742639,-3.107443768677843,-0.1116969515473012,-14.64985275268555,10.30513000488281,-7.230456352233887,-5.043539524078369,4.945740222930908,9.088323593139648,XArbitraryZVertical,0.7085184011333373,-0.7032753116251432,0.0513900761760578,-0.0276507240798855,-0.0339294858276844,0.111464835703373,0.993188977241516,0,0,0,-1,-1,34295.81391804167,walking,2,2022-06-02T10:49:03.282+02:00,2022-06-02T10:32:51.428+02:00,110,2.414618,0,0,95.08166,0,0,2022-06-02T10:49:03.282+02:00,675852543.2822315,0,14.71875,101.0167,1,0.88
435,2022-06-02T10:49:04.333+02:00,1654159743.258049,53.22921267688637,10.39899083621746,36.03563,0.1024947,0.3151001,-1,-1,3,16.00241654736175,-9999,34296.86048466667,-4.9010009765625,3.943206787109375,14.27276611328125,34296.85673466667,1.654403990625198,-3.029320296551307,0.0189178000436539,-10.27664947509766,4.728588581085205,-9.686564445495604,-5.23774528503418,4.301234722137451,11.34196853637695,XArbitraryZVertical,0.7352071288280908,-0.6754506699429709,0.0349020319665558,0.0449301093719288,-0.1120165884494781,-0.0189166720956563,0.9935262799263,0,0,0,-1,-1,34295.81391804167,walking,2,2022-06-02T10:49:03.282+02:00,2022-06-02T10:32:51.428+02:00,110,2.414618,0,0,95.08166,0,0,2022-06-02T10:49:03.282+02:00,675852543.2822315,0,14.71875,101.0167,1,0.88
436,2022-06-02T10:49:04.343+02:00,1654159743.258049,53.22921267688637,10.39899083621746,36.03563,0.1024947,0.3151001,-1,-1,3,16.00241654736175,-9999,34296.87045666667,-5.270614624023438,4.110687255859375,14.542724609375,34296.86670666667,1.753069731206851,-3.018996383657197,0.1223768116395478,-8.406709671020508,-1.42474377155304,-12.36774921417236,-4.814858913421631,4.058000087738037,13.16025257110596,XArbitraryZVertical,0.7680442894182443,-0.6345422991995109,0.0079400971513128,0.0860290499343218,-0.1213748380541801,-0.1220715865492821,0.985071897506714,0,0,0,-1,-1,34295.81391804167,walking,2,2022-06-02T10:49:03.282+02:00,2022-06-02T10:32:51.428+02:00,110,2.414618,0,0,95.08166,0,0,2022-06-02T10:49:03.282+02:00,675852543.2822315,0,14.71875,101.0167,1,0.88
437,2022-06-02T10:49:04.353+02:00,1654159743.258049,53.22921267688637,10.39899083621746,36.03563,0.1024947,0.3151001,-1,-1,3,16.00241654736175,-9999,34296.88042966667,-6.850128173828125,4.291854858398438,13.27484130859375,34296.87667966667,1.879634302843776,-3.093906240907468,0.2237716879121271,-9.932153701782228,-9.305038452148438,-14.31524753570557,-5.10354471206665,4.310577392578125,13.60360145568848,XArbitraryZVertical,0.8037438067641822,-0.5839311178051364,-0.0467190868916313,0.1041049299980435,-0.0464798621833324,-0.221908837556839,0.9739593267440796,0,0,0,-1,-1,34295.81391804167,walking,2,2022-06-02T10:49:03.282+02:00,2022-06-02T10:32:51.428+02:00,110,2.414618,0,0,95.08166,0,0,2022-06-02T10:49:03.282+02:00,675852543.2822315,0,14.71875,101.0167,1,0.88
438,2022-06-02T10:49:04.363+02:00,1654159743.258049,53.22921267688637,10.39899083621746,36.03563,0.1024947,0.3151001,-1,-1,3,16.00241654736175,-9999,34296.89040266667,-9.304885864257812,5.423233032226562,10.89994812011719,34296.88665166667,2.042620826812922,3.019137140997755,0.3274803610246866,-11.66520118713379,-15.56205272674561,-16.44626426696777,-6.727718830108643,4.563570976257324,12.58547210693359,XArbitraryZVertical,0.8346008348250533,-0.5228042851990914,-0.136456046917423,0.1072241349050993,0.1156581863760948,-0.3216583132743835,0.9397657513618468,0,0,0,-1,-1,34295.81391804167,walking,2,2022-06-02T10:49:03.282+02:00,2022-06-02T10:32:51.428+02:00,110,2.414618,0,0,95.08166,0,0,2022-06-02T10:49:03.282+02:00,675852543.2822315,0,14.71875,101.0167,1,0.88
439,2022-06-02T10:49:04.373+02:00,1654159743.258049,53.22921267688637,10.39899083621746,36.03563,0.1024947,0.3151001,-1,-1,3,16.00241654736175,-9999,34296.90037466667,-13.11764526367188,6.428085327148438,7.644302368164062,34296.89662466667,2.253168601292423,2.759857378865608,0.3929339716077027,-10.34513568878174,-21.7745246887207,-18.73585891723633,-9.274332046508787,5.631099700927734,10.40019702911377,XArbitraryZVertical,0.853582236538103,-0.4472637686229483,-0.2503694220502435,0.0931006307732994,0.3441407084465027,-0.3829004466533661,0.857295036315918,0,0,0,-1,-1,34295.81391804167,walking,2,2022-06-02T10:49:03.282+02:00,2022-06-02T10:32:51.428+02:00,110,2.414618,0,0,95.08166,0,0,2022-06-02T10:49:03.282+02:00,675852543.2822315,0,14.71875,101.0167,1,0.88
440,2022-06-02T10:49:04.383+02:00,1654159743.258049,53.22921267688637,10.39899083621746,36.03563,0.1024947,0.3151001,-1,-1,3,16.00241654736175,-9999,34296.91034766667,-18.48683166503906,7.242233276367188,3.338119506835938,34296.90659766667,2.467202699531692,2.419318930551285,0.3484754078557208,-1.23813784122467,-30.43194580078125,-20.3642692565918,-13.19096755981445,6.699863433837891,7.38198184967041,XArbitraryZVertical,0.849182627729075,-0.3626189046344356,-0.3820459288524483,0.0379135739801537,0.6213572025299072,-0.3414652347564697,0.7052072286605835,0,0,0,-1,-1,34295.81391804167,walking,2,2022-06-02T10:49:03.282+02:00,2022-06-02T10:32:51.428+02:00,110,2.414618,0,0,95.08166,0,0,2022-06-02T10:49:03.282+02:00,675852543.2822315,0,14.71875,101.0167,1,0.88
441,2022-06-02T10:49:04.393+02:00,1654159743.258049,53.22921267688637,10.39899083621746,36.03563,0.1024947,0.3151001,-1,-1,3,16.00241654736175,-9999,34296.92032066667,-27.58647155761719,16.46649169921875,-0.7458343505859375,34296.91656966667,2.52146428962167,2.064333497321536,0.1731080729044804,15.45993995666504,-34.9726448059082,-13.60094165802002,-18.45766448974609,6.962207317352295,3.574153900146484,XArbitraryZVertical,0.800887976091541,-0.3031669572885675,-0.5093122870817726,-0.0852606859893351,0.8675006031990051,-0.1722448021173477,0.4666635096073151,0,0,0,-1,-1,34295.81391804167,walking,2,2022-06-02T10:49:03.282+02:00,2022-06-02T10:32:51.428+02:00,110,2.414618,0,0,95.08166,0,0,2022-06-02T10:49:03.282+02:00,675852543.2822315,0,14.71875,101.0167,1,0.88
442,2022-06-02T10:49:04.403+02:00,1654159743.258049,53.22921267688637,10.39899083621746,36.03563,0.1024947,0.3151001,-1,-1,3,16.00241654736175,-9999,34296.93029266667,-32.48075866699219,25.0211181640625,-2.716384887695312,34296.92654266667,2.318078050867317,1.72928089489623,-0.0035536758409133,35.99564743041992,-34.76665115356445,-6.563869953155518,-27.47012710571289,15.00345039367676,-0.6831657886505127,XArbitraryZVertical,0.6977286911109355,-0.3034553576710843,-0.5941348432191331,-0.2609470383748252,0.9874613881111144,0.0035536682698875,0.1578209549188614,0,0,0,-1,-1,34295.81391804167,walking,2,2022-06-02T10:49:03.282+02:00,2022-06-02T10:32:51.428+02:00,110,2.414618,0,0,95.08166,0,0,2022-06-02T10:49:03.282+02:00,675852543.2822315,0,14.71875,101.0167,1,0.88
443,2022-06-02T10:49:04.413+02:00,1654159743.258049,53.22921267688637,10.39899083621746,36.03563,0.1024947,0.3151001,-1,-1,3,16.00241654736175,-9999,34296.94026566667,-23.77700805664062,32.0208740234375,4.107894897460938,34296.93651466667,1.964437897893526,1.383012931966169,0.0513567180886715,36.31657791137695,-34.64448928833008,15.55466461181641,-33.30442810058594,24.03427505493164,-1.563899993896484,XArbitraryZVertical,0.5192387469057526,-0.3703691745425476,-0.6495500745005777,-0.4138871636540907,0.9811252355575562,-0.0513341464102268,-0.1864355951547623,0,0,0,-1,-1,34295.81391804167,walking,2,2022-06-02T10:49:03.282+02:00,2022-06-02T10:32:51.428+02:00,110,2.414618,0,0,95.08166,0,0,2022-06-02T10:49:03.282+02:00,675852543.2822315,0,14.71875,101.0167,1,0.88
444,2022-06-02T10:49:04.423+02:00,1654159743.258049,53.22921267688637,10.39899083621746,36.03563,0.1024947,0.3151001,-1,-1,3,16.00241654736175,-9999,34296.95023766667,-30.25523376464844,11.47113037109375,29.87034606933594,34296.94648766667,1.687344983492046,1.090475771747117,0.3668712369039039,36.34068298339844,-34.62369918823242,19.29975128173828,-26.34643173217773,32.11693572998047,-0.0022480487823486,XArbitraryZVertical,0.2772857615459448,-0.4554723266669153,-0.6909312308071787,-0.488130861170266,0.827830970287323,-0.3586966395378113,-0.4313151240348816,0,0,0,-1,-1,34295.81391804167,walking,2,2022-06-02T10:49:03.282+02:00,2022-06-02T10:32:51.428+02:00,110,2.414618,0,0,95.08166,0,0,2022-06-02T10:49:03.282+02:00,675852543.2822315,0,14.71875,101.0167,1,0.88
445,2022-06-02T10:49:04.433+02:00,1654159743.258049,53.22921267688637,10.39899083621746,36.03563,0.1024947,0.3151001,-1,-1,3,16.00241654736175,-9999,34296.96021066667,-31.96466064453125,-29.52618408203125,12.43606567382812,34296.95646066667,1.479523201641796,1.070806387313205,0.6736340751990338,14.7965259552002,7.42202091217041,16.81366729736328,-29.64288711547852,17.9798641204834,30.32768058776855,XArbitraryZVertical,0.1146527694813526,-0.547273512331928,-0.6717414184496552,-0.4859116107281486,0.6858871579170227,-0.6238303184509277,-0.3746928870677948,0,0,0,-1,-1,34295.81391804167,walking,2,2022-06-02T10:49:03.282+02:00,2022-06-02T10:32:51.428+02:00,110,2.414618,0,0,95.08166,0,0,2022-06-02T10:49:03.282+02:00,675852543.2822315,0,14.71875,101.0167,1,0.88
446,2022-06-02T10:49:04.443+02:00,1654159743.258049,53.22921267688637,10.39899083621746,36.03563,0.1024947,0.3151001,-1,-1,3,16.00241654736175,-9999,34296.97018366667,-12.93443298339844,-25.16392517089844,6.038818359375,34296.96643266667,1.632179336484496,1.143843215153953,0.7881330680711623,-19.37858200073242,21.49750137329102,11.21771430969238,-33.06417083740234,-26.02829742431641,15.34962749481201,XArbitraryZVertical,0.142891250464981,-0.5775610801076906,-0.7079627401234048,-0.3805182102681455,0.6418683528900146,-0.7090380191802979,-0.2920105755329132,0,0,0,-1,-1,34295.81391804167,walking,2,2022-06-02T10:49:03.282+02:00,2022-06-02T10:32:51.428+02:00,110,2.414618,0,0,95.08166,0,0,2022-06-02T10:49:03.282+02:00,675852543.2822315,0,14.71875,101.0167,1,0.88
447,2022-06-02T10:49:04.453+02:00,1654159743.258049,53.22921267688637,10.39899083621746,36.03563,0.1024947,0.3151001,-1,-1,3,16.00241654736175,-9999,34296.98015566667,-4.926773071289062,-0.4642486572265625,6.198822021484375,34296.97640566667,1.966786527369054,1.030902130443898,0.7339250920743544,-29.68588256835938,5.054771900177002,3.422048568725586,-16.37226867675781,-27.3709831237793,5.912832736968994,XArbitraryZVertical,0.2099842278270738,-0.5148341309343053,-0.7740256869709415,-0.3028806411638457,0.6369329690933228,-0.6697893738746643,-0.3817048966884613,0,0,0,-1,-1,34295.81391804167,walking,2,2022-06-02T10:49:03.282+02:00,2022-06-02T10:32:51.428+02:00,110,2.414618,0,0,95.08166,0,0,2022-06-02T10:49:03.282+02:00,675852543.2822315,0,14.71875,101.0167,1,0.88
448,2022-06-02T10:49:04.463+02:00,1654159743.258049,53.22921267688637,10.39899083621746,36.03563,0.1024947,0.3151001,-1,-1,3,16.00241654736175,-9999,34296.99012866667,-7.976058959960938,2.560577392578125,4.582183837890625,34296.98637866667,2.304472635112333,0.8648688418953692,0.6097846540480927,-24.86932945251465,3.15372109413147,7.1782546043396,-5.304396629333496,-1.872713088989258,7.082401275634766,XArbitraryZVertical,0.2544656156450769,-0.4115070110234222,-0.8424420828449235,-0.2370668188346357,0.623854398727417,-0.5726909637451172,-0.5318184494972229,0,0,0,-1,-1,34295.81391804167,walking,2,2022-06-02T10:49:03.282+02:00,2022-06-02T10:32:51.428+02:00,110,2.414618,0,0,95.08166,0,0,2022-06-02T10:49:03.282+02:00,675852543.2822315,0,14.71875,101.0167,1,0.88
449,2022-06-02T10:49:04.473+02:00,1654159743.258049,53.22921267688637,10.39899083621746,36.03563,0.1024947,0.3151001,-1,-1,3,16.00241654736175,-9999,34297.00010066667,-7.647674560546875,1.110870361328125,3.430633544921875,34296.99635066667,2.53327372278865,0.7594684583151977,0.5195943974388989,-15.78664684295654,-0.0821147412061691,5.193246364593506,-8.356254577636719,3.084708690643311,5.253269672393799,XArbitraryZVertical,0.2703371860714344,-0.3349218033208176,-0.8849129573301958,-0.1779725183215052,0.5976635217666626,-0.4965281188488007,-0.6294903755187988,0,0,0,-1,-1,34295.81391804167,walking,2,2022-06-02T10:49:03.282+02:00,2022-06-02T10:32:51.428+02:00,110,2.414618,0,0,95.08166,0,0,2022-06-02T10:49:03.282+02:00,675852543.2822315,0,14.71875,101.0167,1,0.88
450,2022-06-02T10:49:04.483+02:00,1654159743.258049,53.22921267688637,10.39899083621746,36.03563,0.1024947,0.3151001,-1,-1,3,16.00241654736175,-9999,34297.01007366667,-5.202804565429688,0.806884765625,1.102890014648438,34297.00632366667,2.661811081948281,0.6769036136862892,0.4457740238303941,-10.93005084991455,-4.649575233459473,3.237257719039917,-8.389266967773438,1.75918984413147,4.394806861877441,XArbitraryZVertical,0.2650007740369161,-0.2794724124516085,-0.911031181434144,-0.1472821561040003,0.5651705265045166,-0.4311563968658447,-0.7033395171165466,0,0,0,-1,-1,34295.81391804167,walking,2,2022-06-02T10:49:03.282+02:00,2022-06-02T10:32:51.428+02:00,110,2.414618,0,0,95.08166,0,0,2022-06-02T10:49:03.282+02:00,675852543.2822315,0,14.71875,101.0167,1,0.88
451,2022-06-02T10:49:04.493+02:00,1654159743.258049,53.22921267688637,10.39899083621746,36.03563,0.1024947,0.3151001,-1,-1,3,16.00241654736175,-9999,34297.02004666667,-4.676315307617188,1.794967651367188,0.0748443603515625,34297.01629566667,2.76174115446355,0.5568341880059903,0.3960741984686529,-7.956414699554443,-11.31720161437988,5.536874771118164,-6.007285118103027,1.094493865966797,2.12340521812439,XArbitraryZVertical,0.2289044814390178,-0.2366379685705928,-0.9359557318034648,-0.1248684115630059,0.4875861406326294,-0.3857994377613068,-0.7832103967666626,0,0,0,-1,-1,34295.81391804167,walking,2,2022-06-02T10:49:03.282+02:00,2022-06-02T10:32:51.428+02:00,110,2.414618,0,0,95.08166,0,0,2022-06-02T10:49:03.282+02:00,675852543.2822315,0,14.71875,101.0167,1,0.88
452,2022-06-02T10:49:04.503+02:00,1654159743.258049,53.22921267688637,10.39899083621746,36.03563,0.1024947,0.3151001,-1,-1,3,16.00241654736175,-9999,34297.03001866667,-8.055038452148438,2.43243408203125,-1.480758666992188,34297.02626866667,2.845128820257134,0.3978318423471642,0.3566820250520967,-6.288908958435059,-13.47063827514648,4.438164710998535,-4.807585716247559,2.031768798828125,1.033526182174683,XArbitraryZVertical,0.1666568435367904,-0.2007136903033422,-0.9593311684075292,-0.1078106954143592,0.3630363643169403,-0.3491670191287994,-0.8638790249824524,0,0,0,-1,-1,34295.81391804167,walking,2,2022-06-02T10:49:03.282+02:00,2022-06-02T10:32:51.428+02:00,110,2.414618,0,0,95.08166,0,0,2022-06-02T10:49:03.282+02:00,675852543.2822315,0,14.71875,101.0167,1,0.88
453,2022-06-02T10:49:04.513+02:00,1654159743.258049,53.22921267688637,10.39899083621746,36.03563,0.1024947,0.3151001,-1,-1,3,16.00241654736175,-9999,34297.03999166667,-8.581207275390625,1.938140869140625,-3.832183837890625,34297.03624166667,2.90553693817428,0.2536175780132722,0.3207092545983131,-4.171718597412109,-11.37656879425049,4.259359836578369,-7.899445533752441,2.705162763595581,-0.2923290729522705,XArbitraryZVertical,0.1053274969369116,-0.171985518444492,-0.9748092793491726,-0.0952573076621885,0.2381141930818558,-0.3152397274971008,-0.918654203414917,0,0,0,-1,-1,34295.81391804167,walking,2,2022-06-02T10:49:03.282+02:00,2022-06-02T10:32:51.428+02:00,110,2.414618,0,0,95.08166,0,0,2022-06-02T10:49:03.282+02:00,675852543.2822315,0,14.71875,101.0167,1,0.88
454,2022-06-02T10:49:04.523+02:00,1654159743.258049,53.22921267688637,10.39899083621746,36.03563,0.1024947,0.3151001,-1,-1,3,16.00241654736175,-9999,34297.04996466667,-7.350311279296875,0.0023193359375,-4.502182006835938,34297.04621366667,2.955354486208889,0.1356180591244607,0.2948144525311957,-3.091868162155151,-9.321812629699709,3.986264705657959,-8.854284286499023,2.390904188156128,-2.624515771865845,XArbitraryZVertical,0.0531062672117119,-0.1521336081063438,-0.9835317354828904,-0.0818561609058421,0.1293695420026779,-0.2905623018741608,-0.9480701684951782,0,0,0,-1,-1,34295.81391804167,walking,2,2022-06-02T10:49:03.282+02:00,2022-06-02T10:32:51.428+02:00,110,2.414618,0,0,95.08166,0,0,2022-06-02T10:49:03.282+02:00,675852543.2822315,0,14.71875,101.0167,1,0.88
455,2022-06-02T10:49:04.533+02:00,1654159743.258049,53.22921267688637,10.39899083621746,36.03563,0.1024947,0.3151001,-1,-1,3,16.00241654736175,-9999,34297.05993666667,-6.575164794921875,-1.302200317382812,-3.787979125976562,34297.05618666667,2.998601412602285,0.0426483525873579,0.2635000767949964,-4.134382724761963,-6.902596473693848,3.834108829498291,-7.496333599090576,0.5194335579872131,-3.581917762756348,XArbitraryZVertical,0.0117015759933772,-0.1325137782902083,-0.9887762525046384,-0.0680055733257492,0.041163831949234,-0.2604614198207855,-0.9646063446998596,0,0,0,-1,-1,34295.81391804167,walking,2,2022-06-02T10:49:03.282+02:00,2022-06-02T10:32:51.428+02:00,110,2.414618,0,0,95.08166,0,0,2022-06-02T10:49:03.282+02:00,675852543.2822315,0,14.71875,101.0167,1,0.88
456,2022-06-02T10:49:04.543+02:00,1654159743.258049,53.22921267688637,10.39899083621746,36.03563,0.1024947,0.3151001,-1,-1,3,16.00241654736175,-9999,34297.06990966667,-5.532867431640625,-1.355697631835938,-3.387008666992188,34297.06615866667,3.035446364657014,-0.0267764914049536,0.2136435439606047,-5.927443981170654,-5.404781818389893,3.205760955810547,-6.664356708526611,-0.9988086819648744,-2.897886991500854,XArbitraryZVertical,-0.0189482191393886,-0.1057529033134643,-0.9927353379048964,-0.0541665281168599,-0.026164598762989,-0.2120220065116882,-0.9769145846366882,0,0,0,-1,-1,34295.81391804167,walking,2,2022-06-02T10:49:03.282+02:00,2022-06-02T10:32:51.428+02:00,110,2.414618,0,0,95.08166,0,0,2022-06-02T10:49:03.282+02:00,675852543.2822315,0,14.71875,101.0167,1,0.88
457,2022-06-02T10:49:04.553+02:00,1654159743.258049,53.22921267688637,10.39899083621746,36.03563,0.1024947,0.3151001,-1,-1,3,16.00241654736175,-9999,34297.07988166667,-4.278182983398438,-0.6704559326171875,-3.391983032226562,34297.07613166667,3.059351543609266,-0.0826102931500086,0.146445040910216,-7.160457611083984,-5.089844226837158,2.246968507766724,-5.593553066253662,-1.256238460540771,-2.414910793304443,XArbitraryZVertical,-0.0441527888150646,-0.0713399392928744,-0.9955032418737874,-0.0439821955682048,-0.0816331133246421,-0.1459221541881561,-0.9859222769737244,0,0,0,-1,-1,34295.81391804167,walking,2,2022-06-02T10:49:03.282+02:00,2022-06-02T10:32:51.428+02:00,110,2.414618,0,0,95.08166,0,0,2022-06-02T10:49:03.282+02:00,675852543.2822315,0,14.71875,101.0167,1,0.88
458,2022-06-02T10:49:04.563+02:00,1654159744.25805,53.22919168437902,10.39896508540529,36.13031,0.1206135,0.3549638,-1,-1,3,16.00241654736175,-9999,34297.08985466667,-3.654861450195312,0.6050872802734375,-3.152481079101562,34297.08610466667,3.068565012886399,-0.1382518934237275,0.0716616624784093,-7.366025447845459,-5.927993774414062,1.329826712608337,-4.286964893341064,-0.7008301019668579,-2.400465726852417,XArbitraryZVertical,-0.0702851943095245,-0.0331939270467519,-0.99621651886629,-0.0388678315215585,-0.1374581903219223,-0.0716003403067588,-0.9879162907600404,0,0,0,-1,-1,34295.81391804167,walking,2,2022-06-02T10:49:03.282+02:00,2022-06-02T10:32:51.428+02:00,110,2.414618,0,0,95.08166,0,0,2022-06-02T10:49:03.282+02:00,675852543.2822315,0,14.71875,101.0167,1,0.88
459,2022-06-02T10:49:04.573+02:00,1654159744.25805,53.22919168437902,10.39896508540529,36.13031,0.1206135,0.3549638,-1,-1,3,16.00241654736175,-9999,34297.09982766667,-3.86529541015625,2.340316772460938,-2.762222290039062,34297.09607666667,3.069594691595816,-0.2018567534749201,0.003488012446312,-5.835724353790283,-6.796942234039307,1.197108864784241,-3.477979183197021,0.3950590491294861,-2.225983142852783,XArbitraryZVertical,-0.1007541332492265,0.0018923582219989,-0.9942585736670242,-0.0359835964697494,-0.2004875093698502,-0.0034880053717643,-0.9796900749206544,0,0,0,-1,-1,34295.81391804167,walking,2,2022-06-02T10:49:03.282+02:00,2022-06-02T10:32:51.428+02:00,110,2.414618,0,0,95.08166,0,0,2022-06-02T10:49:03.282+02:00,675852543.2822315,0,14.71875,101.0167,1,0.88
460,2022-06-02T10:49:04.583+02:00,1654159744.25805,53.22919168437902,10.39896508540529,36.13031,0.1206135,0.3549638,-1,-1,3,16.00241654736175,-9999,34297.10979966667,-4.291259765625,3.355392456054688,-2.645492553710938,34297.10604966667,3.071049558613471,-0.2743233794567643,-0.0410740056439379,-2.63565468788147,-7.762946605682373,1.203845500946045,-3.543206214904785,2.105925559997559,-1.83881664276123,XArbitraryZVertical,-0.1359007812543052,0.0251507705350405,-0.9898822333458333,-0.0321195517197221,-0.2706671953201294,0.0410624556243419,-0.9617968201637268,0,0,0,-1,-1,34295.81391804167,walking,2,2022-06-02T10:49:03.282+02:00,2022-06-02T10:32:51.428+02:00,110,2.414618,0,0,95.08166,0,0,2022-06-02T10:49:03.282+02:00,675852543.2822315,0,14.71875,101.0167,1,0.88
461,2022-06-02T10:49:04.593+02:00,1654159744.25805,53.22919168437902,10.39896508540529,36.13031,0.1206135,0.3549638,-1,-1,3,16.00241654736175,-9999,34297.11977266667,-4.604034423828125,3.070419311523438,-3.11468505859375,34297.11602166667,3.081399975727572,-0.3556961666345989,-0.053472372134809,0.7567910552024841,-8.580381393432617,1.47259795665741,-3.890352725982666,3.228153944015503,-1.700516939163208,XArbitraryZVertical,-0.1759769446343921,0.0316211150030992,-0.9835716535549328,-0.0248793135740726,-0.3477452993392944,0.0534468926489353,-0.9360644221305848,0,0,0,-1,-1,34295.81391804167,walking,2,2022-06-02T10:49:03.282+02:00,2022-06-02T10:32:51.428+02:00,110,2.414618,0,0,95.08166,0,0,2022-06-02T10:49:03.282+02:00,675852543.2822315,0,14.71875,101.0167,1,0.88
462,2022-06-02T10:49:04.603+02:00,1654159744.25805,53.22919168437902,10.39896508540529,36.13031,0.1206135,0.3549638,-1,-1,3,16.00241654736175,-9999,34297.12974466667,-4.598892211914062,1.098098754882812,-3.989273071289062,34297.12599466667,3.101942853383573,-0.4435348677076545,-0.041519494971532,2.989879369735718,-9.18393898010254,1.349637150764465,-4.155829429626465,3.167995691299438,-2.116794586181641,XArbitraryZVertical,-0.2194620630853833,0.0246052539231451,-0.9751989788608278,-0.0147689991034374,-0.4287651479244232,0.0415075682103633,-0.9024619460105896,0,0,0,-1,-1,34295.81391804167,walking,2,2022-06-02T10:49:03.282+02:00,2022-06-02T10:32:51.428+02:00,110,2.414618,0,0,95.08166,0,0,2022-06-02T10:49:03.282+02:00,675852543.2822315,0,14.71875,101.0167,1,0.88
463,2022-06-02T10:49:04.613+02:00,1654159744.25805,53.22919168437902,10.39896508540529,36.13031,0.1206135,0.3549638,-1,-1,3,16.00241654736175,-9999,34297.13971766667,-4.518280029296875,-1.0826416015625,-4.2637939453125,34297.13596766667,3.130110925365548,-0.5297369235270697,-0.0179029517939204,3.472937345504761,-7.945374965667725,1.42094898223877,-4.109307289123535,1.368084311485291,-3.047812223434448,XArbitraryZVertical,-0.2617179133748849,0.0101418408874538,-0.9650858645950808,-0.0031971428605803,-0.5052253603935242,0.0179019961506128,-0.862801730632782,0,0,0,-1,-1,34295.81391804167,walking,2,2022-06-02T10:49:03.282+02:00,2022-06-02T10:32:51.428+02:00,110,2.414618,0,0,95.08166,0,0,2022-06-02T10:49:03.282+02:00,675852543.2822315,0,14.71875,101.0167,1,0.88
464,2022-06-02T10:49:04.623+02:00,1654159744.25805,53.22919168437902,10.39896508540529,36.13031,0.1206135,0.3549638,-1,-1,3,16.00241654736175,-9999,34297.14969066667,-4.047836303710938,-2.368026733398438,-3.950973510742188,34297.14593966667,-3.128524260299966,-0.5973878026213926,-0.0023949999195317,1.581293106079102,-5.737436294555664,1.068554997444153,-3.970827102661133,-0.8314355611801147,-3.438621282577515,XArbitraryZVertical,-0.2942731701333486,-0.0007783654497844,-0.9556982909954502,0.0065972081117707,-0.562483012676239,0.0023949975147843,-0.8268054127693176,0,0,0,-1,-1,34295.81391804167,walking,2,2022-06-02T10:49:03.282+02:00,2022-06-02T10:32:51.428+02:00,110,2.414618,0,0,95.08166,0,0,2022-06-02T10:49:03.282+02:00,675852543.2822315,0,14.71875,101.0167,1,0.88
465,2022-06-02T10:49:04.633+02:00,1654159744.25805,53.22919168437902,10.39896508540529,36.13031,0.1206135,0.3549638,-1,-1,3,16.00241654736175,-9999,34297.15966266667,-3.181137084960938,-1.94927978515625,-3.442779541015625,34297.15591266667,-3.119997609197585,-0.6468144253639884,-0.0079704355031867,-1.4907386302948,-4.330885410308838,1.025593519210815,-3.538515567779541,-2.313161373138428,-3.214606285095215,XArbitraryZVertical,-0.3178187366990359,0.000347039037837,-0.9480815898701191,0.0115038976983583,-0.602628231048584,0.0079703507944941,-0.7979822754859924,0,0,0,-1,-1,34295.81391804167,walking,2,2022-06-02T10:49:03.282+02:00,2022-06-02T10:32:51.428+02:00,110,2.414618,0,0,95.08166,0,0,2022-06-02T10:49:03.282+02:00,675852543.2822315,0,14.71875,101.0167,1,0.88
466,2022-06-02T10:49:04.644+02:00,1654159744.25805,53.22919168437902,10.39896508540529,36.13031,0.1206135,0.3549638,-1,-1,3,16.00241654736175,-9999,34297.16963475,-2.502410888671875,-0.4022369384765625,-3.1422119140625,34297.16588566667,-3.125345408988976,-0.687063895103669,-0.0351079451347173,-3.169472694396973,-3.850932359695435,1.57205605506897,-2.655320644378662,-2.120458364486694,-2.726830720901489,XArbitraryZVertical,-0.3368860121835321,0.0137912111373011,-0.941346818618893,0.0135596427826011,-0.6338791251182556,0.035100731998682,-0.7726352214813232,0,0,0,-1,-1,34295.81391804167,walking,2,2022-06-02T10:49:03.282+02:00,2022-06-02T10:32:51.428+02:00,110,2.414618,0,0,95.08166,0,0,2022-06-02T10:49:03.282+02:00,675852543.2822315,0,14.71875,101.0167,1,0.88
467,2022-06-02T10:49:04.655+02:00,1654159744.25805,53.22919168437902,10.39896508540529,36.13031,0.1206135,0.3549638,-1,-1,3,16.00241654736175,-9999,34297.17960675,-2.2247314453125,0.47137451171875,-3.453155517578125,34297.17585675,-3.132422498541532,-0.7263748162856912,-0.0700697839812115,-2.728897094726562,-4.00933837890625,1.809019565582275,-1.906466126441956,-0.6675313711166382,-2.407903432846069,XArbitraryZVertical,-0.3551838993310729,0.0311146252134566,-0.934128789945864,0.0167270051785555,-0.6625341176986694,0.0700124576687812,-0.7457525730133057,0,0,0,-1,-1,34295.81391804167,walking,2,2022-06-02T10:49:03.282+02:00,2022-06-02T10:32:51.428+02:00,110,2.414618,0,0,95.08166,0,0,2022-06-02T10:49:03.282+02:00,675852543.2822315,0,14.71875,101.0167,1,0.88
468,2022-06-02T10:49:04.663+02:00,1654159744.25805,53.22919168437902,10.39896508540529,36.13031,0.1206135,0.3549638,-1,-1,3,16.00241654736175,-9999,34297.18957975,-2.257736206054688,0.147216796875,-4.053131103515625,34297.18582975,-3.131776506773869,-0.7642665460089136,-0.0953335473237352,-0.838758111000061,-3.612623453140259,1.647529721260071,-1.545631647109985,0.3268994092941284,-2.662964344024658,XArbitraryZVertical,-0.3726896598678474,0.0423832102426054,-0.9267190016081972,0.0223168978162878,-0.6888654828071594,0.0951892063021659,-0.7186121344566345,0,0,0,-1,-1,34295.81391804167,walking,2,2022-06-02T10:49:03.282+02:00,2022-06-02T10:32:51.428+02:00,110,2.414618,0,0,95.08166,0,0,2022-06-02T10:49:03.282+02:00,675852543.2822315,0,14.71875,101.0167,1,0.88
469,2022-06-02T10:49:04.673+02:00,1654159744.25805,53.22919168437902,10.39896508540529,36.13031,0.1206135,0.3549638,-1,-1,3,16.00241654736175,-9999,34297.19955275,-2.011016845703125,-1.04632568359375,-4.080474853515625,34297.19580175,-3.122955602417553,-0.7948157650703727,-0.1055863434343734,0.5067513585090637,-2.780565977096558,1.101535201072693,-1.549929618835449,0.1616080105304718,-3.282335758209229,XArbitraryZVertical,-0.3869269245301718,0.045052667592639,-0.920552407770778,0.0290023519729762,-0.7097597718238831,0.105390265583992,-0.6965156197547913,0,0,0,-1,-1,34295.81391804167,walking,2,2022-06-02T10:49:03.282+02:00,2022-06-02T10:32:51.428+02:00,110,2.414618,0,0,95.08166,0,0,2022-06-02T10:49:03.282+02:00,675852543.2822315,0,14.71875,101.0167,1,0.88
470,2022-06-02T10:49:04.682+02:00,1654159744.25805,53.22919168437902,10.39896508540529,36.13031,0.1206135,0.3549638,-1,-1,3,16.00241654736175,-9999,34297.20952475,-1.909378051757812,-1.856307983398438,-3.644607543945312,34297.20577475,-3.113663728031238,-0.8174537352040634,-0.1082526981287824,0.2739218175411224,-1.899576663970947,0.5441494584083557,-1.317511558532715,-1.010095238685608,-3.439140558242798,XArbitraryZVertical,-0.3975138531980383,0.0440969903958886,-0.9158942344655376,0.0342944454009551,-0.7251367568969727,0.1080413907766342,-0.6800763607025146,0,0,0,-1,-1,34295.81391804167,walking,2,2022-06-02T10:49:03.282+02:00,2022-06-02T10:32:51.428+02:00,110,2.414618,0,0,95.08166,0,0,2022-06-02T10:49:03.282+02:00,675852543.2822315,0,14.71875,101.0167,1,0.88
471,2022-06-02T10:49:04.692+02:00,1654159744.25805,53.22919168437902,10.39896508540529,36.13031,0.1206135,0.3549638,-1,-1,3,16.00241654736175,-9999,34297.21949775,-1.724273681640625,-1.826797485351562,-3.322067260742188,34297.21574775,-3.112888693408651,-0.8305338975339405,-0.11205296343872,-0.6987189054489136,-0.7482526302337646,0.1558260768651962,-1.182537317276001,-1.914583563804626,-3.028036117553711,XArbitraryZVertical,-0.4034950365773967,0.0454518260861552,-0.9131546707504864,0.0356999794453304,-0.7336614727973938,0.1118186265230179,-0.6702517867088318,0,0,0,-1,-1,34295.81391804167,walking,2,2022-06-02T10:49:03.282+02:00,2022-06-02T10:32:51.428+02:00,110,2.414618,0,0,95.08166,0,0,2022-06-02T10:49:03.282+02:00,675852543.2822315,0,14.71875,101.0167,1,0.88
472,2022-06-02T10:49:04.702+02:00,1654159744.25805,53.22919168437902,10.39896508540529,36.13031,0.1206135,0.3549638,-1,-1,3,16.00241654736175,-9999,34297.22947075,-1.376953125,-1.327117919921875,-3.130584716796875,34297.22571975,-3.121282298388475,-0.8345429136231386,-0.1197209247986924,-1.516217350959778,0.0830871760845184,-0.142842635512352,-1.027116537094116,-1.985310435295105,-2.684532165527344,XArbitraryZVertical,-0.4050761732811823,0.0505807015669528,-0.9122675402912178,0.0335108206088096,-0.7356857061386108,0.1194351315498352,-0.6667097806930542,0,0,0,-1,-1,34295.81391804167,walking,2,2022-06-02T10:49:03.282+02:00,2022-06-02T10:32:51.428+02:00,110,2.414618,0,0,95.08166,0,0,2022-06-02T10:49:03.282+02:00,675852543.2822315,0,14.71875,101.0167,1,0.88
473,2022-06-02T10:49:04.712+02:00,1654159744.25805,53.22919168437902,10.39896508540529,36.13031,0.1206135,0.3549638,-1,-1,3,16.00241654736175,-9999,34297.23944275,-1.169906616210938,-0.7191314697265625,-2.930328369140625,34297.23569275,-3.135444147950952,-0.8326530739567131,-0.1293630167702864,-1.807324767112732,0.6307199597358704,-0.2946466207504272,-0.6844456791877747,-1.531392097473145,-2.486805438995361,XArbitraryZVertical,-0.403737679594245,0.0578743003251476,-0.9125835140568186,0.0289448378466908,-0.7335383892059326,0.1290025115013123,-0.6672928929328918,0,0,0,-1,-1,34295.81391804167,walking,2,2022-06-02T10:49:03.282+02:00,2022-06-02T10:32:51.428+02:00,110,2.414618,0,0,95.08166,0,0,2022-06-02T10:49:03.282+02:00,675852543.2822315,0,14.71875,101.0167,1,0.88
474,2022-06-02T10:49:04.722+02:00,1654159744.25805,53.22919168437902,10.39896508540529,36.13031,0.1206135,0.3549638,-1,-1,3,16.00241654736175,-9999,34297.24941575,-1.100189208984375,-0.3224029541015625,-2.670928955078125,34297.24566475,3.132676186130911,-0.8261462561116432,-0.1389412573139421,-1.655113101005554,1.065904974937439,-0.2896547913551331,-0.4567281603813171,-0.9285642504692078,-2.28612232208252,XArbitraryZVertical,-0.4001701572429329,0.0653610862646097,-0.9137974817240222,0.0237912051657429,-0.7282389402389526,0.1384946554899216,-0.6711835265159607,0,0,0,-1,-1,34295.81391804167,walking,2,2022-06-02T10:49:03.282+02:00,2022-06-02T10:32:51.428+02:00,110,2.414618,0,0,95.08166,0,0,2022-06-02T10:49:03.282+02:00,675852543.2822315,0,14.71875,101.0167,1,0.88
475,2022-06-02T10:49:04.732+02:00,1654159744.25805,53.22919168437902,10.39896508540529,36.13031,0.1206135,0.3549638,-1,-1,3,16.00241654736175,-9999,34297.25938775,-1.127166748046875,-0.2601470947265625,-2.3902587890625,34297.25563775,3.120033328875556,-0.8153402892516642,-0.1471749834465559,-1.299378871917725,1.475748419761658,-0.2088544368743896,-0.3842503428459167,-0.4985576868057251,-2.026991367340088,XArbitraryZVertical,-0.3946479444643238,0.0717540793524664,-0.9158235859494162,0.0192780539087089,-0.7200892567634583,0.1466442495584488,-0.6782087087631226,0,0,0,-1,-1,34295.81391804167,walking,2,2022-06-02T10:49:03.282+02:00,2022-06-02T10:32:51.428+02:00,110,2.414618,0,0,95.08166,0,0,2022-06-02T10:49:03.282+02:00,675852543.2822315,0,14.71875,101.0167,1,0.88
476,2022-06-02T10:49:04.742+02:00,1654159744.25805,53.22919168437902,10.39896508540529,36.13031,0.1206135,0.3549638,-1,-1,3,16.00241654736175,-9999,34297.26936075,-1.2430419921875,-0.309326171875,-2.116989135742188,34297.26561075,3.110215488340398,-0.7988643893697308,-0.1539722806408858,-1.096711754798889,2.153800964355469,-0.1556016057729721,-0.4089018702507019,-0.4105972945690155,-1.736512184143066,XArbitraryZVertical,-0.3865840864840118,0.0769300745129956,-0.9189093961721662,0.015496088880105,-0.7080872654914856,0.1533646136522293,-0.6892690062522888,0,0,0,-1,-1,34295.81391804167,walking,2,2022-06-02T10:49:03.282+02:00,2022-06-02T10:32:51.428+02:00,110,2.414618,0,0,95.08166,0,0,2022-06-02T10:49:03.282+02:00,675852543.2822315,0,14.71875,101.0167,1,0.88
477,2022-06-02T10:49:04.752+02:00,1654159744.25805,53.22919168437902,10.39896508540529,36.13031,0.1206135,0.3549638,-1,-1,3,16.00241654736175,-9999,34297.27933375,-1.291091918945312,-0.246246337890625,-1.857498168945312,34297.27558275,3.101643581861079,-0.7747320218124952,-0.1613281077541056,-1.158292174339294,2.937971591949463,0.0262722633779048,-0.5400581359863281,-0.4658355116844177,-1.445503950119019,XArbitraryZVertical,-0.3749573529329262,0.0821119436688615,-0.9233205139791608,0.0119985990352118,-0.6904411911964417,0.1606292128562927,-0.7053292393684387,0,0,0,-1,-1,34295.81391804167,walking,2,2022-06-02T10:49:03.282+02:00,2022-06-02T10:32:51.428+02:00,110,2.414618,0,0,95.08166,0,0,2022-06-02T10:49:03.282+02:00,675852543.2822315,0,14.71875,101.0167,1,0.88
478,2022-06-02T10:49:04.762+02:00,1654159744.25805,53.22919168437902,10.39896508540529,36.13031,0.1206135,0.3549638,-1,-1,3,16.00241654736175,-9999,34297.28930575,-1.293380737304688,-0.041290283203125,-1.601211547851562,34297.28555575,3.094368469570191,-0.7434909278202685,-0.1714086922113498,-1.31162691116333,3.528937339782715,0.3187619149684906,-0.6219215393066406,-0.4347765147686005,-1.164127230644226,XArbitraryZVertical,-0.3599251613270636,0.0882749748802747,-0.9287504097515732,0.0091681950251166,-0.6669426560401917,0.1705705672502518,-0.7253228425979614,0,0,0,-1,-1,34295.81391804167,walking,2,2022-06-02T10:49:03.282+02:00,2022-06-02T10:32:51.428+02:00,110,2.414618,0,0,95.08166,0,0,2022-06-02T10:49:03.282+02:00,675852543.2822315,0,14.71875,101.0167,1,0.88
479,2022-06-02T10:49:04.773+02:00,1654159744.25805,53.22919168437902,10.39896508540529,36.13031,0.1206135,0.3549638,-1,-1,3,16.00241654736175,-9999,34297.29927875,-1.304702758789062,0.059478759765625,-1.37103271484375,34297.29552775,3.088700812162312,-0.7073835959488557,-0.1845523911205031,-1.397424340248108,3.929573535919189,0.5845587253570557,-0.6543551683425903,-0.2487989068031311,-0.8849223852157593,XArbitraryZVertical,-0.3424834830360962,0.0955311778436341,-0.9346267105812714,0.007204089181384,-0.6388120055198669,0.1835065484046936,-0.7471576929092407,0,0,0,-1,-1,34295.81391804167,walking,2,2022-06-02T10:49:03.282+02:00,2022-06-02T10:32:51.428+02:00,110,2.414618,0,0,95.08166,0,0,2022-06-02T10:49:03.282+02:00,675852543.2822315,0,14.71875,101.0167,1,0.88
480,2022-06-02T10:49:04.782+02:00,1654159744.25805,53.22919168437902,10.39896508540529,36.13031,0.1206135,0.3549638,-1,-1,3,16.00241654736175,-9999,34297.30925075,-1.339553833007812,0.0213165283203125,-1.143753051757812,34297.30550075,3.084852604887833,-0.667698639795693,-0.2002597533277722,-1.527322173118591,4.154125213623047,0.8273111581802368,-0.6944634318351746,-0.1434124410152435,-0.6310182213783264,XArbitraryZVertical,-0.3232307238795065,0.1036540469061726,-0.9406066649257988,0.0060769670420516,-0.6068061590194702,0.1989239007234573,-0.7695554494857788,0,0,0,-1,-1,34295.81391804167,walking,2,2022-06-02T10:49:03.282+02:00,2022-06-02T10:32:51.428+02:00,110,2.414618,0,0,95.08166,0,0,2022-06-02T10:49:03.282+02:00,675852543.2822315,0,14.71875,101.0167,1,0.88
