,loggingTime(txt),locationTimestamp_since1970(s),locationLatitude(WGS84),locationLongitude(WGS84),locationAltitude(m),locationSpeed(m/s),locationSpeedAccuracy(m/s),locationCourse(°),locationCourseAccuracy(°),locationVerticalAccuracy(m),locationHorizontalAccuracy(m),locationFloor(Z),accelerometerTimestamp_sinceReboot(s),accelerometerAccelerationX(G),accelerometerAccelerationY(G),accelerometerAccelerationZ(G),motionTimestamp_sinceReboot(s),motionYaw(rad),motionRoll(rad),motionPitch(rad),motionRotationRateX(rad/s),motionRotationRateY(rad/s),motionRotationRateZ(rad/s),motionUserAccelerationX(G),motionUserAccelerationY(G),motionUserAccelerationZ(G),motionAttitudeReferenceFrame(txt),motionQuaternionX(R),motionQuaternionY(R),motionQuaternionZ(R),motionQuaternionW(R),motionGravityX(G),motionGravityY(G),motionGravityZ(G),motionMagneticFieldX(µT),motionMagneticFieldY(µT),motionMagneticFieldZ(µT),motionHeading(°),motionMagneticFieldCalibrationAccuracy(Z),activityTimestamp_sinceReboot(s),activity(txt),activityActivityConfidence(Z),activityActivityStartDate(txt),pedometerStartDate(txt),pedometerNumberofSteps(N),pedometerAverageActivePace(s/m),pedometerCurrentPace(s/m),pedometerCurrentCadence(steps/s),pedometerDistance(m),pedometerFloorAscended(N),pedometerFloorDescended(N),pedometerEndDate(txt),altimeterTimestamp_sinceReboot(s),altimeterReset(bool),altimeterRelativeAltitude(m),altimeterPressure(kPa),batteryState(N),batteryLevel(R)
357,2022-06-02T10:52:17.556+02:00,1654159936.489555,53.22905674620566,10.39868589310881,29.15646,0.04745011,0.8005239,-1.0,-1.0,3.0,48.00000000000001,-9999,34468.294281625,1.951553344726562,1.566864013671875,-0.402069091796875,34468.290531625,1.255775751104789,0.5404723814324867,-0.5955232018070148,-1.474121451377869,6.271298408508301,2.068893194198608,1.588408231735229,0.8355728983879089,0.1993746757507324,XArbitraryZVertical,0.3787286008841614,-0.040447030417781,-0.4778231698794223,-0.7915893092392007,0.4259654879570007,0.5609419941902161,-0.7098573446273804,0,0,0,-1,-1,34468.056042625,unknown,2,2022-06-02T10:52:17.312+02:00,2022-06-02T10:32:51.428+02:00,137,2.325748,0,0,117.0835,0,0,2022-06-02T10:51:39.018+02:00,675852737.3122,0,15.0,101.0132,1,0.88
358,2022-06-02T10:52:17.566+02:00,1654159936.489555,53.22905674620566,10.39868589310881,29.15646,0.04745011,0.8005239,-1.0,-1.0,3.0,48.00000000000001,-9999,34468.304253625,1.71630859375,2.046051025390625,-0.385345458984375,34468.300503625,1.286824881269104,0.6271349598850043,-0.6020572214403445,-2.518572330474854,7.618655204772949,1.50471568107605,1.368724465370178,1.22194516658783,0.2920829057693481,XArbitraryZVertical,0.4023802433190247,-0.0664755236209785,-0.4718430484772258,-0.781687487600837,0.4836468100547791,0.5663391947746277,-0.6673423051834106,0,0,0,-1,-1,34468.056042625,unknown,2,2022-06-02T10:52:17.312+02:00,2022-06-02T10:32:51.428+02:00,137,2.325748,0,0,117.0835,0,0,2022-06-02T10:51:39.018+02:00,675852737.3122,0,15.0,101.0132,1,0.88
359,2022-06-02T10:52:17.576+02:00,1654159936.489555,53.22905674620566,10.39868589310881,29.15646,0.04745011,0.8005239,-1.0,-1.0,3.0,48.00000000000001,-9999,34468.314226625,1.381301879882812,2.601104736328125,-0.2889556884765625,34468.310476625,1.324873930960952,0.7323752362643947,-0.6203783147061337,-4.388604164123535,9.082989692687988,1.027640223503113,1.01554274559021,1.733232259750366,0.2450417280197144,XArbitraryZVertical,0.4344327289187179,-0.0935665065915643,-0.4606790391328895,-0.7683022403772486,0.5440428256988525,0.5813429951667786,-0.6050270199775696,0,0,0,-1,-1,34468.056042625,unknown,2,2022-06-02T10:52:17.312+02:00,2022-06-02T10:32:51.428+02:00,137,2.325748,0,0,117.0835,0,0,2022-06-02T10:51:39.018+02:00,675852737.3122,0,15.0,101.0132,1,0.88
360,2022-06-02T10:52:17.586+02:00,1654159936.489555,53.22905674620566,10.39868589310881,29.15646,0.04745011,0.8005239,-1.0,-1.0,3.0,48.00000000000001,-9999,34468.324198625,0.9329986572265624,3.281936645507812,-0.040313720703125,34468.320448625,1.384573574894681,0.8653354274306511,-0.6554641977748713,-7.601429462432861,10.45095729827881,0.6465173959732056,0.5723916292190552,2.318420648574829,0.3324220180511475,XArbitraryZVertical,0.4783485606388745,-0.1190556604987838,-0.4447393726840684,-0.7478069834087329,0.6035422086715698,0.6095272898674011,-0.5140168070793152,0,0,0,-1,-1,34468.056042625,unknown,2,2022-06-02T10:52:17.312+02:00,2022-06-02T10:32:51.428+02:00,137,2.325748,0,0,117.0835,0,0,2022-06-02T10:51:39.018+02:00,675852737.3122,0,15.0,101.0132,1,0.88
361,2022-06-02T10:52:17.596+02:00,1654159936.489555,53.22905674620566,10.39868589310881,29.15646,0.04745011,0.8005239,-1.0,-1.0,3.0,48.00000000000001,-9999,34468.334171625,0.3889312744140625,3.9091796875,0.27239990234375,34468.330421625,1.489913056557668,1.043309372458001,-0.7065323325483103,-11.72794151306152,11.90849018096924,0.4527010321617126,0.0046194791793823,2.972992420196533,0.4848874807357788,XArbitraryZVertical,0.5374642825294621,-0.1403515575792497,-0.4247411553966442,-0.7148626437860583,0.6572305560112,0.6492000818252563,-0.382867157459259,0,0,0,-1,-1,34468.056042625,unknown,2,2022-06-02T10:52:17.312+02:00,2022-06-02T10:32:51.428+02:00,137,2.325748,0,0,117.0835,0,0,2022-06-02T10:51:39.018+02:00,675852737.3122,0,15.0,101.0132,1,0.88
362,2022-06-02T10:52:17.606+02:00,1654159936.489555,53.22905674620566,10.39868589310881,29.15646,0.04745011,0.8005239,-1.0,-1.0,3.0,48.00000000000001,-9999,34468.34414437501,-0.149261474609375,4.484848022460938,0.7201385498046875,34468.340394375,1.657798117547608,1.280688676334444,-0.7569825905439476,-15.06229209899902,13.07658672332764,0.2128626257181168,-0.5721922516822815,3.482397079467773,0.6731926798820496,XArbitraryZVertical,0.6094907477049298,-0.1566925581443179,-0.4001280452773445,-0.6662327215174708,0.696536123752594,0.6867311596870422,-0.2079369425773621,0,0,0,-1,-1,34468.056042625,unknown,2,2022-06-02T10:52:17.312+02:00,2022-06-02T10:32:51.428+02:00,137,2.325748,0,0,117.0835,0,0,2022-06-02T10:51:39.018+02:00,675852737.3122,0,15.0,101.0132,1,0.88
363,2022-06-02T10:52:17.615+02:00,1654159936.489555,53.22905674620566,10.39868589310881,29.15646,0.04745011,0.8005239,-1.0,-1.0,3.0,48.00000000000001,-9999,34468.35411737501,-0.755157470703125,5.086227416992188,1.30694580078125,34468.350367375,1.877740932221845,1.568784387767574,-0.7778226543581085,-16.74772071838379,13.97033309936523,0.3461109697818756,-1.157235383987427,4.143424034118652,1.024962544441223,XArbitraryZVertical,0.6859577385701926,-0.1695443461490919,-0.3702612894254296,-0.6030118320621024,0.7124416828155518,0.7017298340797424,-0.00143339112401,0,0,0,-1,-1,34468.056042625,unknown,2,2022-06-02T10:52:17.312+02:00,2022-06-02T10:32:51.428+02:00,137,2.325748,0,0,117.0835,0,0,2022-06-02T10:51:39.018+02:00,675852737.3122,0,15.0,101.0132,1,0.88
364,2022-06-02T10:52:17.626+02:00,1654159936.489555,53.22905674620566,10.39868589310881,29.15646,0.04745011,0.8005239,-1.0,-1.0,3.0,48.00000000000001,-9999,34468.36408937501,-1.359237670898438,4.9700927734375,1.779541015625,34468.360339375,2.105668861966153,1.871461465239563,-0.7479284405420402,-16.5573902130127,14.99223709106445,0.629682183265686,-1.762300252914429,4.430047035217285,1.331289529800415,XArbitraryZVertical,0.7583925862206842,-0.1827468368314422,-0.3341893812351049,-0.5289250453896666,0.7002122402191162,0.6801215410232544,0.2171114385128021,0,0,0,-1,-1,34468.056042625,unknown,2,2022-06-02T10:52:17.312+02:00,2022-06-02T10:32:51.428+02:00,137,2.325748,0,0,117.0835,0,0,2022-06-02T10:51:39.018+02:00,675852737.3122,0,15.0,101.0132,1,0.88
365,2022-06-02T10:52:17.636+02:00,1654159936.489555,53.22905674620566,10.39868589310881,29.15646,0.04745011,0.8005239,-1.0,-1.0,3.0,48.00000000000001,-9999,34468.37406237501,-2.01068115234375,4.64031982421875,2.49505615234375,34468.370312375,2.288168372126486,2.14552596753104,-0.6766951856884544,-14.35107803344727,15.92197418212891,0.5221834182739258,-2.318404674530029,4.148957252502441,1.633902072906494,XArbitraryZVertical,0.8200312794110246,-0.1986448175836051,-0.2895189122385629,-0.4519600307348352,0.6543881893157959,0.6262198686599731,0.4238221347332001,0,0,0,-1,-1,34468.056042625,unknown,2,2022-06-02T10:52:17.312+02:00,2022-06-02T10:32:51.428+02:00,137,2.325748,0,0,117.0835,0,0,2022-06-02T10:51:39.018+02:00,675852737.3122,0,15.0,101.0132,1,0.88
366,2022-06-02T10:52:17.646+02:00,1654159936.489555,53.22905674620566,10.39868589310881,29.15646,0.04745011,0.8005239,-1.0,-1.0,3.0,48.00000000000001,-9999,34468.38403437501,-2.88397216796875,5.054946899414062,4.355804443359375,34468.380284375,2.408296351488544,2.379574031920227,-0.5953171150990826,-10.95155239105225,16.62644386291504,-0.3749575912952423,-2.988243103027344,4.132633686065674,2.626626014709473,XArbitraryZVertical,0.8675791750197818,-0.2163367389499092,-0.2342776404012412,-0.3816003687249301,0.5716171860694885,0.5607713460922241,0.5989904403686523,0,0,0,-1,-1,34468.056042625,unknown,2,2022-06-02T10:52:17.312+02:00,2022-06-02T10:32:51.428+02:00,137,2.325748,0,0,117.0835,0,0,2022-06-02T10:51:39.018+02:00,675852737.3122,0,15.0,101.0132,1,0.88
367,2022-06-02T10:52:17.656+02:00,1654159936.489555,53.22905674620566,10.39868589310881,29.15646,0.04745011,0.8005239,-1.0,-1.0,3.0,48.00000000000001,-9999,34468.39400737501,-4.031570434570312,6.635009765625,7.440139770507812,34468.390256375,2.489829001134675,2.591020120843057,-0.5254176623680611,-9.109582901000977,17.00016593933105,-2.037410974502563,-3.864059686660767,5.282101631164551,5.059404373168945,XArbitraryZVertical,0.9030170779100326,-0.2306432421706925,-0.1686705293225868,-0.320802243861088,0.4526064693927765,0.5015743970870972,0.737272322177887,0,0,0,-1,-1,34468.056042625,unknown,2,2022-06-02T10:52:17.312+02:00,2022-06-02T10:32:51.428+02:00,137,2.325748,0,0,117.0835,0,0,2022-06-02T10:51:39.018+02:00,675852737.3122,0,15.0,101.0132,1,0.88
368,2022-06-02T10:52:17.665+02:00,1654159936.489555,53.22905674620566,10.39868589310881,29.15646,0.04745011,0.8005239,-1.0,-1.0,3.0,48.00000000000001,-9999,34468.40397937501,-5.403717041015625,6.311172485351562,10.39401245117188,34468.400229375,2.572638760145674,2.794421881527028,-0.4445771085464733,-12.14330959320068,15.63929271697998,-4.43031120300293,-5.036870956420898,6.435966968536377,8.125601768493652,XArbitraryZVertical,0.932810315873039,-0.2330893798858152,-0.1007504196215642,-0.2557024901167967,0.3071651458740234,0.4300761222839355,0.8489314913749695,0,0,0,-1,-1,34468.056042625,unknown,2,2022-06-02T10:52:17.312+02:00,2022-06-02T10:32:51.428+02:00,137,2.325748,0,0,117.0835,0,0,2022-06-02T10:51:39.018+02:00,675852737.3122,0,15.0,101.0132,1,0.88
369,2022-06-02T10:52:17.675+02:00,1654159936.489555,53.22905674620566,10.39868589310881,29.15646,0.04745011,0.8005239,-1.0,-1.0,3.0,48.00000000000001,-9999,34468.41395237501,-5.867355346679688,4.896316528320312,12.87907409667969,34468.410201375,2.672805684619786,2.968826196914416,-0.3212180532737635,-16.45841026306152,11.44328594207764,-7.467732429504395,-6.022109031677246,5.242978096008301,10.79537677764893,XArbitraryZVertical,0.9597618049198418,-0.2149893014037045,-0.0458333790145269,-0.1747464406460204,0.1631154865026474,0.3157225549221039,0.9347262382507324,0,0,0,-1,-1,34468.056042625,unknown,2,2022-06-02T10:52:17.312+02:00,2022-06-02T10:32:51.428+02:00,137,2.325748,0,0,117.0835,0,0,2022-06-02T10:51:39.018+02:00,675852737.3122,0,15.0,101.0132,1,0.88
370,2022-06-02T10:52:17.685+02:00,1654159936.489555,53.22905674620566,10.39868589310881,29.15646,0.04745011,0.8005239,-1.0,-1.0,3.0,48.00000000000001,-9999,34468.42392437501,-5.049972534179688,4.292587280273438,14.23855590820312,34468.420174375,2.786033723096554,3.085504512001441,-0.1613130791821718,-16.94341278076172,6.690258502960205,-10.86885738372803,-5.511339664459229,4.314376354217529,12.71689701080322,XArbitraryZVertical,0.9810528507943128,-0.1739766685837453,-0.0132661230281269,-0.0842107375430236,0.0553309433162212,0.1606143712997437,0.985465168952942,0,0,0,-1,-1,34468.056042625,unknown,2,2022-06-02T10:52:17.312+02:00,2022-06-02T10:32:51.428+02:00,137,2.325748,0,0,117.0835,0,0,2022-06-02T10:51:39.018+02:00,675852737.3122,0,15.0,101.0132,1,0.88
371,2022-06-02T10:52:17.695+02:00,1654159936.489555,53.22905674620566,10.39868589310881,29.15646,0.04745011,0.8005239,-1.0,-1.0,3.0,48.00000000000001,-9999,34468.43389737501,-5.901153564453125,4.340621948242188,14.85919189453125,34468.430147375,2.916104399761142,3.141340533995689,-0.0162272676431997,-12.50306415557861,2.080270290374756,-14.45869731903076,-5.179756641387939,4.185860633850098,13.55234718322754,XArbitraryZVertical,0.9936185024861348,-0.1125007024110122,0.0007875624663135,-0.0080762147539661,0.0002520863781683,0.0162265561521053,0.9998682737350464,0,0,0,-1,-1,34468.056042625,unknown,2,2022-06-02T10:52:17.312+02:00,2022-06-02T10:32:51.428+02:00,137,2.325748,0,0,117.0835,0,0,2022-06-02T10:51:39.018+02:00,675852737.3122,0,15.0,101.0132,1,0.88
372,2022-06-02T10:52:17.705+02:00,1654159936.489555,53.22905674620566,10.39868589310881,29.15646,0.04745011,0.8005239,-1.0,-1.0,3.0,48.00000000000001,-9999,34468.44386937501,-8.040191650390625,5.700836181640625,14.64424133300781,34468.440119375,3.080218584554151,3.11886407408458,0.0955246725799074,-10.86038970947266,-5.431638717651367,-18.19880294799805,-6.926568984985352,4.993969440460205,14.08817481994629,XArbitraryZVertical,0.9983082329234576,-0.0311875632931964,-0.0128105449849587,0.0473703410655641,0.0226230137050151,-0.095379464328289,0.9951840043067932,0,0,0,-1,-1,34468.056042625,unknown,2,2022-06-02T10:52:17.312+02:00,2022-06-02T10:32:51.428+02:00,137,2.325748,0,0,117.0835,0,0,2022-06-02T10:51:39.018+02:00,675852737.3122,0,15.0,101.0132,1,0.88
373,2022-06-02T10:52:17.715+02:00,1654159936.489555,53.22905674620566,10.39868589310881,29.15646,0.04745011,0.8005239,-1.0,-1.0,3.0,48.00000000000001,-9999,34468.45384237501,-10.55839538574219,6.900558471679688,12.30262756347656,34468.450092375,-2.996331670921513,2.992438438235608,0.1979611289325908,-12.88356304168701,-13.70033931732178,-20.92205619812012,-9.378823280334473,6.599502563476562,12.65294456481934,XArbitraryZVertical,0.9902575212293412,0.0646673595055483,-0.0667968094985918,0.1036648710270213,0.1456995457410812,-0.1966706961393356,0.9695836305618286,0,0,0,-1,-1,34468.056042625,unknown,2,2022-06-02T10:52:17.312+02:00,2022-06-02T10:32:51.428+02:00,137,2.325748,0,0,117.0835,0,0,2022-06-02T10:51:39.018+02:00,675852737.3122,0,15.0,101.0132,1,0.88
374,2022-06-02T10:52:17.726+02:00,1654159936.489555,53.22905674620566,10.39868589310881,29.15646,0.04745011,0.8005239,-1.0,-1.0,3.0,48.00000000000001,-9999,34468.46381437501,-15.12345886230469,7.7880859375,9.728729248046877,34468.460064375,-2.745068667336815,2.754232422341089,0.2661480107082288,-12.46414947509766,-22.60534477233887,-23.01225090026855,-12.77992725372314,7.49252462387085,10.03419589996338,XArbitraryZVertical,0.9586032404822726,0.1665369136125544,-0.1613876324189819,0.1652253063947443,0.3644456267356873,-0.2630170285701752,0.8933094143867493,0,0,0,-1,-1,34468.056042625,unknown,2,2022-06-02T10:52:17.312+02:00,2022-06-02T10:32:51.428+02:00,137,2.325748,0,0,117.0835,0,0,2022-06-02T10:51:39.018+02:00,675852737.3122,0,15.0,101.0132,1,0.88
375,2022-06-02T10:52:17.735+02:00,1654159937.489555,53.22906142761575,10.39873619490228,29.13099,0.07549167,0.8786646,-1.0,-1.0,3.0,48.00000000000001,-9999,34468.47378737501,-25.10929870605469,12.08126831054688,5.2235107421875,34468.470037375,-2.4974331985823,2.406029469264334,0.2236689472067782,-3.709348440170288,-34.74565505981445,-22.29682540893555,-19.70197486877441,9.615775108337402,7.411355018615723,XArbitraryZVertical,0.8923170539417418,0.2554643558836234,-0.3059635355259111,0.2118833299445305,0.6542902588844299,-0.2218086570501328,0.7229835391044617,0,0,0,-1,-1,34468.056042625,unknown,2,2022-06-02T10:52:17.312+02:00,2022-06-02T10:32:51.428+02:00,137,2.325748,0,0,117.0835,0,0,2022-06-02T10:51:39.018+02:00,675852737.3122,0,15.0,101.0132,1,0.88
376,2022-06-02T10:52:17.745+02:00,1654159937.489555,53.22906142761575,10.39873619490228,29.13099,0.07549167,0.8786646,-1.0,-1.0,3.0,48.00000000000001,-9999,34468.48375937501,-32.76872253417969,25.69264221191406,-2.816925048828125,34468.480009375,-2.433187001847502,2.045031250819069,0.0229697088214863,18.89833450317383,-34.96900177001953,-18.07075881958008,-31.94095230102539,17.84669876098633,0.0963036715984344,XArbitraryZVertical,0.8024676996312465,0.2903692926470717,-0.4854333177734196,0.1899625040368494,0.8894076943397522,-0.0229676887392997,0.4565374553203583,0,0,0,-1,-1,34468.056042625,unknown,2,2022-06-02T10:52:17.312+02:00,2022-06-02T10:32:51.428+02:00,137,2.325748,0,0,117.0835,0,0,2022-06-02T10:51:39.018+02:00,675852737.3122,0,15.0,101.0132,1,0.88
377,2022-06-02T10:52:17.755+02:00,1654159937.489555,53.22906142761575,10.39873619490228,29.13099,0.07549167,0.8786646,-1.0,-1.0,3.0,48.00000000000001,-9999,34468.49373237501,-30.22164916992188,32.33680725097656,2.951522827148438,34468.489982375,-2.697545013504262,1.667801006411066,-0.1902911323017078,36.19113922119141,-34.75494384765625,-4.805375099182129,-32.87549591064453,31.08389663696289,-1.183086514472961,XArbitraryZVertical,0.705054956710447,0.2246100786876244,-0.6680251210571959,0.0786786681193638,0.977332890033722,0.1891447752714157,0.0951043590903282,0,0,0,-1,-1,34468.056042625,unknown,2,2022-06-02T10:52:17.312+02:00,2022-06-02T10:32:51.428+02:00,137,2.325748,0,0,117.0835,0,0,2022-06-02T10:51:39.018+02:00,675852737.3122,0,15.0,101.0132,1,0.88
378,2022-06-02T10:52:17.765+02:00,1654159937.489555,53.22906142761575,10.39873619490228,29.13099,0.07549167,0.8786646,-1.0,-1.0,3.0,48.00000000000001,-9999,34468.50370437501,-29.50253295898438,31.71231079101562,26.16984558105469,34468.499954375,-3.038962603180746,1.272058277502406,-0.035709275400574,36.38310241699219,-34.58624267578125,26.20989990234375,-30.38908958435059,31.99997329711914,10.95849418640137,XArbitraryZVertical,0.5923925767001627,0.0448068745538032,-0.8038177939754356,0.0306650022213629,0.9550994038581848,0.0357016883790493,-0.2941267490386963,0,0,0,-1,-1,34468.056042625,unknown,2,2022-06-02T10:52:17.312+02:00,2022-06-02T10:32:51.428+02:00,137,2.325748,0,0,117.0835,0,0,2022-06-02T10:51:39.018+02:00,675852737.3122,0,15.0,101.0132,1,0.88
379,2022-06-02T10:52:17.775+02:00,1654159937.489555,53.22906142761575,10.39873619490228,29.13099,0.07549167,0.8786646,-1.0,-1.0,3.0,48.00000000000001,-9999,34468.51367737501,-32.22433471679688,-6.61212158203125,31.88778686523438,34468.509927375,3.00028691979108,1.007416127103439,0.3016178163007642,36.23743438720703,-15.0206127166748,13.03118228912354,-32.38860321044922,20.43691253662109,32.7625617980957,XArbitraryZVertical,0.4667187351268047,-0.1649372660289818,-0.8688173825987215,0.0112108748577761,0.8072885274887085,-0.2970653772354126,-0.509938657283783,0,0,0,-1,-1,34468.056042625,unknown,2,2022-06-02T10:52:17.312+02:00,2022-06-02T10:32:51.428+02:00,137,2.325748,0,0,117.0835,0,0,2022-06-02T10:51:39.018+02:00,675852737.3122,0,15.0,101.0132,1,0.88
380,2022-06-02T10:52:17.785+02:00,1654159937.489555,53.22906142761575,10.39873619490228,29.13099,0.07549167,0.8786646,-1.0,-1.0,3.0,48.00000000000001,-9999,34468.52364937501,-26.61862182617188,-33.67359924316406,12.38209533691406,34468.519899375,2.827036708434166,1.158833883387863,0.5665149604661767,5.478432178497314,27.34388542175293,16.42255592346191,-32.80920791625977,-27.92755317687988,24.72036170959473,XArbitraryZVertical,0.4825972794250026,-0.3133245225793054,-0.8174887607045952,0.0252966284326471,0.7731835842132568,-0.5366947054862976,-0.3378552198410034,0,0,0,-1,-1,34468.056042625,unknown,2,2022-06-02T10:52:17.312+02:00,2022-06-02T10:32:51.428+02:00,137,2.325748,0,0,117.0835,0,0,2022-06-02T10:51:39.018+02:00,675852737.3122,0,15.0,101.0132,1,0.88
381,2022-06-02T10:52:17.795+02:00,1654159937.489555,53.22906142761575,10.39873619490228,29.13099,0.07549167,0.8786646,-1.0,-1.0,3.0,48.00000000000001,-9999,34468.53362237501,-5.423904418945312,-12.83921813964844,3.680252075195312,34468.529872375,2.973981414312468,1.32774141102306,0.6553495421579196,-18.55951309204102,19.13126373291016,6.021181583404541,-15.29464721679688,-26.13780212402344,5.797515392303467,XArbitraryZVertical,0.5601193839747427,-0.3014314323768685,-0.7596897988891425,0.135192287256006,0.7695315480232239,-0.6094363927841187,-0.1908107399940491,0,0,0,-1,-1,34468.056042625,unknown,2,2022-06-02T10:52:17.312+02:00,2022-06-02T10:32:51.428+02:00,137,2.325748,0,0,117.0835,0,0,2022-06-02T10:51:39.018+02:00,675852737.3122,0,15.0,101.0132,1,0.88
382,2022-06-02T10:52:17.805+02:00,1654159937.489555,53.22906142761575,10.39873619490228,29.13099,0.07549167,0.8786646,-1.0,-1.0,3.0,48.00000000000001,-9999,34468.54359437501,-7.16424560546875,1.7598876953125,3.233871459960938,34468.539844375,-2.99101119663937,1.245127881627091,0.6265139238197178,-31.62689399719238,4.074916839599609,4.2479567527771,-4.153208255767822,-0.7739814519882202,4.376273632049561,XArbitraryZVertical,0.5720015937034296,-0.2079071015457185,-0.7571453510639712,0.2373179992462683,0.7674965262413025,-0.5863243341445923,-0.2591776251792908,0,0,0,-1,-1,34468.056042625,unknown,2,2022-06-02T10:52:17.312+02:00,2022-06-02T10:32:51.428+02:00,137,2.325748,0,0,117.0835,0,0,2022-06-02T10:51:39.018+02:00,675852737.3122,0,15.0,101.0132,1,0.88
383,2022-06-02T10:52:17.815+02:00,1654159937.489555,53.22906142761575,10.39873619490228,29.13099,0.07549167,0.8786646,-1.0,-1.0,3.0,48.00000000000001,-9999,34468.55356737501,-14.16854858398438,1.778335571289062,5.574966430664062,34468.549817375,-2.66587496882243,1.101325046890646,0.6075715247558998,-17.89777755737305,7.391443729400635,12.35410594940186,-12.72927761077881,1.932096600532532,3.77977442741394,XArbitraryZVertical,0.5452988666347518,-0.1300943536949864,-0.7533825704318495,0.3437139371291177,0.7322068214416504,-0.5708752870559692,-0.371449202299118,0,0,0,-1,-1,34468.056042625,unknown,2,2022-06-02T10:52:17.312+02:00,2022-06-02T10:32:51.428+02:00,137,2.325748,0,0,117.0835,0,0,2022-06-02T10:51:39.018+02:00,675852737.3122,0,15.0,101.0132,1,0.88
384,2022-06-02T10:52:17.825+02:00,1654159937.489555,53.22906142761575,10.39873619490228,29.13099,0.07549167,0.8786646,-1.0,-1.0,3.0,48.00000000000001,-9999,34468.56353937501,-8.903579711914062,-0.78094482421875,4.600067138671875,34468.559789375,-2.459495638972899,1.042132781505235,0.6105378369196511,-11.65526008605957,3.083272218704224,3.554007053375244,-12.91180038452148,1.315510988235474,6.852238655090332,XArbitraryZVertical,0.5346295734472661,-0.0868448356795222,-0.7295055707444833,0.4176729585600872,0.707485020160675,-0.5733082294464111,-0.4132583737373352,0,0,0,-1,-1,34468.056042625,unknown,2,2022-06-02T10:52:17.312+02:00,2022-06-02T10:32:51.428+02:00,137,2.325748,0,0,117.0835,0,0,2022-06-02T10:51:39.018+02:00,675852737.3122,0,15.0,101.0132,1,0.88
385,2022-06-02T10:52:17.835+02:00,1654159937.489555,53.22906142761575,10.39873619490228,29.13099,0.07549167,0.8786646,-1.0,-1.0,3.0,48.00000000000001,-9999,34468.57351237501,-5.736419677734375,-0.3151702880859375,0.7873687744140625,34468.569762375,-2.326939616030104,0.9664750719561848,0.5815418342638715,-9.956806182861328,-2.940281391143799,4.895438194274902,-7.366101264953613,-0.477847695350647,2.569542407989502,XArbitraryZVertical,0.5092932014156889,-0.0567466483470163,-0.7261456486389216,0.4583806605089691,0.6876189708709717,-0.549312949180603,-0.4748004972934723,0,0,0,-1,-1,34468.056042625,unknown,2,2022-06-02T10:52:17.312+02:00,2022-06-02T10:32:51.428+02:00,137,2.325748,0,0,117.0835,0,0,2022-06-02T10:51:39.018+02:00,675852737.3122,0,15.0,101.0132,1,0.88
386,2022-06-02T10:52:17.845+02:00,1654159937.489555,53.22906142761575,10.39873619490228,29.13099,0.07549167,0.8786646,-1.0,-1.0,3.0,48.00000000000001,-9999,34468.58348437501,-5.741348266601562,1.855865478515625,0.2754058837890625,34468.579734375,-2.191633374532233,0.838631247520556,0.582623628312505,-7.929791927337646,-7.709276676177979,8.276376724243164,-6.072964668273926,1.336151123046875,1.091155767440796,XArbitraryZVertical,0.4667794734517421,-0.054941643897398,-0.724561819791026,0.504091768191682,0.6210299134254456,-0.5502166152000427,-0.5581966638565063,0,0,0,-1,-1,34468.056042625,unknown,2,2022-06-02T10:52:17.312+02:00,2022-06-02T10:32:51.428+02:00,137,2.325748,0,0,117.0835,0,0,2022-06-02T10:51:39.018+02:00,675852737.3122,0,15.0,101.0132,1,0.88
387,2022-06-02T10:52:17.855+02:00,1654159937.489555,53.22906142761575,10.39873619490228,29.13099,0.07549167,0.8786646,-1.0,-1.0,3.0,48.00000000000001,-9999,34468.59345737501,-7.77545166015625,3.313629150390625,-1.005279541015625,34468.589707375,-2.067600978791875,0.6753002553831897,0.5881416301708128,-5.122015476226807,-10.86314964294434,7.651771068572998,-7.101346015930176,3.296209812164307,0.3379850387573242,XArbitraryZVertical,0.4123278800003372,-0.0728022104778993,-0.7268100209890924,0.544456411431066,0.520092785358429,-0.5548158884048462,-0.6493710875511169,0,0,0,-1,-1,34468.056042625,unknown,2,2022-06-02T10:52:17.312+02:00,2022-06-02T10:32:51.428+02:00,137,2.325748,0,0,117.0835,0,0,2022-06-02T10:51:39.018+02:00,675852737.3122,0,15.0,101.0132,1,0.88
388,2022-06-02T10:52:17.865+02:00,1654159937.489555,53.22906142761575,10.39873619490228,29.13099,0.07549167,0.8786646,-1.0,-1.0,3.0,48.00000000000001,-9999,34468.60342937501,-9.226959228515623,2.003372192382812,-2.229080200195312,34468.599679375,-1.968587667653272,0.5130348810475535,0.606530694899333,-1.179333329200745,-10.08924770355225,7.773236274719238,-9.176484107971191,3.656629323959351,-0.9498727321624756,XArbitraryZVertical,0.3615438647397545,-0.1065812653879297,-0.726931162066783,0.5740187616145642,0.4032756984233856,-0.5700204372406006,-0.7158529162406921,0,0,0,-1,-1,34468.056042625,unknown,2,2022-06-02T10:52:17.312+02:00,2022-06-02T10:32:51.428+02:00,137,2.325748,0,0,117.0835,0,0,2022-06-02T10:51:39.018+02:00,675852737.3122,0,15.0,101.0132,1,0.88
389,2022-06-02T10:52:17.875+02:00,1654159937.489555,53.22906142761575,10.39873619490228,29.13099,0.07549167,0.8786646,-1.0,-1.0,3.0,48.00000000000001,-9999,34468.61340237501,-8.8759765625,-1.087509155273438,-2.949676513671875,34468.609652375,-1.881843364882548,0.3733539140482202,0.6340402344283109,-0.3561803996562958,-7.656572818756104,7.502670288085938,-9.492794036865234,1.019574403762817,-1.946668386459351,XArbitraryZVertical,0.3229417125103754,-0.1436625159209162,-0.7204124221423499,0.5967207457460898,0.2938496470451355,-0.5924045443534851,-0.7501394748687744,0,0,0,-1,-1,34468.056042625,unknown,2,2022-06-02T10:52:17.312+02:00,2022-06-02T10:32:51.428+02:00,137,2.325748,0,0,117.0835,0,0,2022-06-02T10:51:39.018+02:00,675852737.3122,0,15.0,101.0132,1,0.88
390,2022-06-02T10:52:17.885+02:00,1654159937.489555,53.22906142761575,10.39873619490228,29.13099,0.07549167,0.8786646,-1.0,-1.0,3.0,48.00000000000001,-9999,34468.62337437501,-7.43841552734375,-2.705169677734375,-2.886627197265625,34468.619624375,-1.785450748767347,0.2526258540058057,0.6442346452417873,-2.715025901794434,-5.042576313018799,7.882716655731201,-8.484302520751953,-1.538771867752075,-2.154377222061157,XArbitraryZVertical,0.2900663759900505,-0.1696198804416921,-0.7078266149322591,0.6213469845593481,0.1998478025197983,-0.6005866527557373,-0.7741811871528625,0,0,0,-1,-1,34468.056042625,unknown,2,2022-06-02T10:52:17.312+02:00,2022-06-02T10:32:51.428+02:00,137,2.325748,0,0,117.0835,0,0,2022-06-02T10:51:39.018+02:00,675852737.3122,0,15.0,101.0132,1,0.88
391,2022-06-02T10:52:17.895+02:00,1654159937.489555,53.22906142761575,10.39873619490228,29.13099,0.07549167,0.8786646,-1.0,-1.0,3.0,48.00000000000001,-9999,34468.63334737501,-5.386383056640625,-3.292449951171875,-3.22747802734375,34468.629597375,-1.683509644319828,0.1513163291257231,0.6169639410444434,-5.798009872436523,-3.370811939239502,7.020328044891357,-6.567315578460693,-2.521368265151978,-2.211534023284912,XArbitraryZVertical,0.2553864850343771,-0.1778153736762495,-0.6932872067662925,0.650009447349851,0.12294901907444,-0.5785614848136902,-0.8063188791275024,0,0,0,-1,-1,34468.056042625,unknown,2,2022-06-02T10:52:17.312+02:00,2022-06-02T10:32:51.428+02:00,137,2.325748,0,0,117.0835,0,0,2022-06-02T10:51:39.018+02:00,675852737.3122,0,15.0,101.0132,1,0.88
392,2022-06-02T10:52:17.905+02:00,1654159937.489555,53.22906142761575,10.39873619490228,29.13099,0.07549167,0.8786646,-1.0,-1.0,3.0,48.00000000000001,-9999,34468.64331937501,-3.636276245117188,-2.784896850585938,-3.62713623046875,34468.639569375,-1.599150823802445,0.0691472581540069,0.5555848254562722,-7.900960922241211,-3.91553783416748,5.646621704101562,-4.433135509490967,-2.660654783248901,-2.622378349304199,XArbitraryZVertical,0.2148657046856897,-0.1733545658283193,-0.682551092988863,0.6766867638064206,0.0587001629173755,-0.5274402499198914,-0.8475618362426758,0,0,0,-1,-1,34468.056042625,unknown,2,2022-06-02T10:52:17.312+02:00,2022-06-02T10:32:51.428+02:00,137,2.325748,0,0,117.0835,0,0,2022-06-02T10:51:39.018+02:00,675852737.3122,0,15.0,101.0132,1,0.88
393,2022-06-02T10:52:17.915+02:00,1654159937.489555,53.22906142761575,10.39873619490228,29.13099,0.07549167,0.8786646,-1.0,-1.0,3.0,48.00000000000001,-9999,34468.65329237501,-3.277206420898438,-1.188095092773438,-3.553909301757812,34468.649542375,-1.538918868617743,-0.0043656123754911,0.4701662939156016,-9.469803810119627,-4.81552267074585,4.327196598052979,-3.275923728942871,-1.640929102897644,-2.742441892623901,XArbitraryZVertical,0.1658288337910905,-0.1635804433625788,-0.6769741049674309,0.6981750029028975,-0.0038919004146009,-0.4530345499515533,-0.8914844989776611,0,0,0,-1,-1,34468.056042625,unknown,2,2022-06-02T10:52:17.312+02:00,2022-06-02T10:32:51.428+02:00,137,2.325748,0,0,117.0835,0,0,2022-06-02T10:51:39.018+02:00,675852737.3122,0,15.0,101.0132,1,0.88
394,2022-06-02T10:52:17.925+02:00,1654159937.489555,53.22906142761575,10.39873619490228,29.13099,0.07549167,0.8786646,-1.0,-1.0,3.0,48.00000000000001,-9999,34468.66326437501,-3.8089599609375,0.9347686767578124,-3.307769775390625,34468.659514375,-1.500721067125081,-0.0702301402729559,0.375201989032659,-8.888265609741211,-5.112082004547119,3.503700494766235,-3.436250448226929,0.2032524645328522,-2.512518644332886,XArbitraryZVertical,0.1128117854810937,-0.1523269863664851,-0.6743144587895923,0.7137015628246378,-0.0652907788753509,-0.3664604723453522,-0.9281399846076964,0,0,0,-1,-1,34468.056042625,unknown,2,2022-06-02T10:52:17.312+02:00,2022-06-02T10:32:51.428+02:00,137,2.325748,0,0,117.0835,0,0,2022-06-02T10:51:39.018+02:00,675852737.3122,0,15.0,101.0132,1,0.88
395,2022-06-02T10:52:17.935+02:00,1654159937.489555,53.22906142761575,10.39873619490228,29.13099,0.07549167,0.8786646,-1.0,-1.0,3.0,48.00000000000001,-9999,34468.67323737501,-4.1839599609375,2.686904907226562,-3.102401733398438,34468.669487375,-1.472921134706613,-0.1297651332927165,0.2965262533975834,-6.128409862518311,-4.999289512634277,3.27366828918457,-3.959009885787964,2.229562520980835,-2.21916389465332,XArbitraryZVertical,0.0661372351419971,-0.1465182586493524,-0.6699990506958072,0.7247479035843543,-0.1237538307905197,-0.2921998202800751,-0.9483165144920348,0,0,0,-1,-1,34468.056042625,unknown,2,2022-06-02T10:52:17.312+02:00,2022-06-02T10:32:51.428+02:00,137,2.325748,0,0,117.0835,0,0,2022-06-02T10:51:39.018+02:00,675852737.3122,0,15.0,101.0132,1,0.88
396,2022-06-02T10:52:17.945+02:00,1654159937.489555,53.22906142761575,10.39873619490228,29.13099,0.07549167,0.8786646,-1.0,-1.0,3.0,48.00000000000001,-9999,34468.68320937501,-3.508987426757812,2.913681030273438,-3.417999267578125,34468.679459375,-1.447331743816714,-0.1879200993835797,0.2498446609067446,-2.18622875213623,-5.450209617614746,3.087044477462769,-3.786986827850342,3.271011352539062,-2.255489826202393,XArbitraryZVertical,0.0313208193073937,-0.1518973840064917,-0.6628388207233928,0.7325236302270559,-0.1810155361890793,-0.2472534477710724,-0.9518923759460448,0,0,0,-1,-1,34468.056042625,unknown,2,2022-06-02T10:52:17.312+02:00,2022-06-02T10:32:51.428+02:00,137,2.325748,0,0,117.0835,0,0,2022-06-02T10:51:39.018+02:00,675852737.3122,0,15.0,101.0132,1,0.88
397,2022-06-02T10:52:17.955+02:00,1654159937.489555,53.22906142761575,10.39873619490228,29.13099,0.07549167,0.8786646,-1.0,-1.0,3.0,48.00000000000001,-9999,34468.69318237501,-3.043869018554688,1.606903076171875,-3.862823486328125,34468.689432375,-1.415458833876229,-0.2581153940718793,0.2420138892175393,1.78029453754425,-7.125616073608398,3.275336742401123,-2.872053146362305,2.679965972900391,-2.678446292877197,XArbitraryZVertical,0.0079017079205323,-0.1748994779007766,-0.6517938183647712,0.7379109176990388,-0.2478199005126953,-0.239658311009407,-0.93869549036026,0,0,0,-1,-1,34468.056042625,unknown,2,2022-06-02T10:52:17.312+02:00,2022-06-02T10:32:51.428+02:00,137,2.325748,0,0,117.0835,0,0,2022-06-02T10:51:39.018+02:00,675852737.3122,0,15.0,101.0132,1,0.88
398,2022-06-02T10:52:17.965+02:00,1654159937.489555,53.22906142761575,10.39873619490228,29.13099,0.07549167,0.8786646,-1.0,-1.0,3.0,48.00000000000001,-9999,34468.70315437501,-3.598159790039062,-0.5496063232421875,-4.174118041992188,34468.699404375,-1.375002493607965,-0.3439568834390478,0.258660925763933,3.411794185638428,-7.788102149963379,3.247593641281128,-2.928931713104248,0.7819093465805054,-3.172623634338379,XArbitraryZVertical,-0.0094924676155572,-0.2117902213340069,-0.6370817758252413,0.7410679351502096,-0.3259968459606171,-0.2557862401008606,-0.9101095795631408,0,0,0,-1,-1,34468.056042625,unknown,2,2022-06-02T10:52:17.312+02:00,2022-06-02T10:32:51.428+02:00,137,2.325748,0,0,117.0835,0,0,2022-06-02T10:51:39.018+02:00,675852737.3122,0,15.0,101.0132,1,0.88
399,2022-06-02T10:52:17.975+02:00,1654159937.489555,53.22906142761575,10.39873619490228,29.13099,0.07549167,0.8786646,-1.0,-1.0,3.0,48.00000000000001,-9999,34468.71312737501,-4.159942626953125,-2.248199462890625,-4.191848754882812,34468.709377375,-1.332795335968827,-0.4269992111092896,0.27463888820884,2.464415550231934,-6.484549522399902,3.056681156158447,-3.542343139648438,-1.264017939567566,-3.337751150131226,XArbitraryZVertical,-0.0245847903048564,-0.2476796634218723,-0.6212351688225053,0.7430459730372463,-0.3986206352710724,-0.2711993753910065,-0.8761007189750671,0,0,0,-1,-1,34468.056042625,unknown,2,2022-06-02T10:52:17.312+02:00,2022-06-02T10:32:51.428+02:00,137,2.325748,0,0,117.0835,0,0,2022-06-02T10:51:39.018+02:00,675852737.3122,0,15.0,101.0132,1,0.88
400,2022-06-02T10:52:17.985+02:00,1654159937.489555,53.22906142761575,10.39873619490228,29.13099,0.07549167,0.8786646,-1.0,-1.0,3.0,48.00000000000001,-9999,34468.72309937501,-4.116943359375,-2.504669189453125,-4.038543701171875,34468.719349375,-1.300704066347839,-0.4913531255768648,0.2741011596036574,0.0632192566990852,-4.668966770172119,2.572883605957031,-3.762606382369995,-2.280145168304443,-3.27141284942627,XArbitraryZVertical,-0.0404078546926177,-0.2719869756597131,-0.6082247701539479,0.7446160064117846,-0.4542058408260345,-0.270681768655777,-0.8487805724143982,0,0,0,-1,-1,34468.056042625,unknown,2,2022-06-02T10:52:17.312+02:00,2022-06-02T10:32:51.428+02:00,137,2.325748,0,0,117.0835,0,0,2022-06-02T10:51:39.018+02:00,675852737.3122,0,15.0,101.0132,1,0.88
401,2022-06-02T10:52:17.995+02:00,1654159937.489555,53.22906142761575,10.39873619490228,29.13099,0.07549167,0.8786646,-1.0,-1.0,3.0,48.00000000000001,-9999,34468.73307237501,-3.549758911132812,-1.638381958007812,-3.85870361328125,34468.729322375,-1.284013053497578,-0.5338179296573653,0.2537057802998868,-1.823395967483521,-3.066644668579102,2.28787088394165,-3.391100645065308,-1.951155662536621,-3.128631114959717,XArbitraryZVertical,-0.0589301997834814,-0.2826138098410034,-0.5996836725197432,0.746348614769147,-0.492535799741745,-0.2509928345680237,-0.8333133459091187,0,0,0,-1,-1,34468.056042625,unknown,2,2022-06-02T10:52:17.312+02:00,2022-06-02T10:32:51.428+02:00,137,2.325748,0,0,117.0835,0,0,2022-06-02T10:51:39.018+02:00,675852737.3122,0,15.0,101.0132,1,0.88
402,2022-06-02T10:52:18.005+02:00,1654159937.489555,53.22906142761575,10.39873619490228,29.13099,0.07549167,0.8786646,-1.0,-1.0,3.0,48.00000000000001,-9999,34468.74304437501,-2.815643310546875,-0.16180419921875,-3.690826416015625,34468.739294375,-1.273694500167907,-0.562478171791204,0.2268838201977349,-1.397761702537537,-2.262395143508911,2.255616664886475,-2.665853261947632,-0.6680325269699097,-2.925514459609985,XArbitraryZVertical,-0.0765524071454846,-0.2863763877482703,-0.5928877468132323,0.7487406655389468,-0.5196172595024109,-0.2249422967433929,-0.8242565989494324,0,0,0,-1,-1,34468.056042625,unknown,2,2022-06-02T10:52:17.312+02:00,2022-06-02T10:32:51.428+02:00,137,2.325748,0,0,117.0835,0,0,2022-06-02T10:51:39.018+02:00,675852737.3122,0,15.0,101.0132,1,0.88
403,2022-06-02T10:52:18.014+02:00,1654159937.489555,53.22906142761575,10.39873619490228,29.13099,0.07549167,0.8786646,-1.0,-1.0,3.0,48.00000000000001,-9999,34468.75301737501,-2.0850830078125,0.3821258544921875,-3.92181396484375,34468.749267375,-1.255795623804265,-0.5875999692566432,0.211438194752352,0.874656617641449,-2.09588885307312,2.366777420043945,-1.892947673797607,0.5268523693084717,-2.931180000305176,XArbitraryZVertical,-0.0874329806172405,-0.2923799141576159,-0.5838635980434881,0.7523116204088046,-0.5420194864273071,-0.2098662853240967,-0.8137389421463013,0,0,0,-1,-1,34468.056042625,unknown,2,2022-06-02T10:52:17.312+02:00,2022-06-02T10:32:51.428+02:00,137,2.325748,0,0,117.0835,0,0,2022-06-02T10:51:39.018+02:00,675852737.3122,0,15.0,101.0132,1,0.88
404,2022-06-02T10:52:18.024+02:00,1654159937.489555,53.22906142761575,10.39873619490228,29.13099,0.07549167,0.8786646,-1.0,-1.0,3.0,48.00000000000001,-9999,34468.76298937501,-1.828903198242188,-0.2788543701171875,-4.157852172851562,34468.759239375,-1.221554767236726,-0.6169374951173979,0.2172575788013649,3.85711932182312,-2.274194002151489,2.51830267906189,-1.283738851547241,0.3337623476982117,-3.318388223648071,XArbitraryZVertical,-0.0884676700780047,-0.3064857766634932,-0.5701779048591269,0.7570582109346414,-0.5649397969245911,-0.2155524790287018,-0.7964798808097839,0,0,0,-1,-1,34468.056042625,unknown,2,2022-06-02T10:52:17.312+02:00,2022-06-02T10:32:51.428+02:00,137,2.325748,0,0,117.0835,0,0,2022-06-02T10:51:39.018+02:00,675852737.3122,0,15.0,101.0132,1,0.88
405,2022-06-02T10:52:18.034+02:00,1654159937.489555,53.22906142761575,10.39873619490228,29.13099,0.07549167,0.8786646,-1.0,-1.0,3.0,48.00000000000001,-9999,34468.77296237501,-2.363937377929688,-1.0609130859375,-3.724990844726562,34468.769212375,-1.17132103608248,-0.6502218471461845,0.2420949666296322,5.747475624084473,-1.964004158973694,2.376177310943604,-1.443174481391907,-0.4509520530700684,-3.248059749603271,XArbitraryZVertical,-0.0799070801541637,-0.3274841889149429,-0.5521036574567698,0.762594583144672,-0.5877093076705933,-0.2397370189428329,-0.7727379202842712,0,0,0,-1,-1,34468.056042625,unknown,2,2022-06-02T10:52:17.312+02:00,2022-06-02T10:32:51.428+02:00,137,2.325748,0,0,117.0835,0,0,2022-06-02T10:51:39.018+02:00,675852737.3122,0,15.0,101.0132,1,0.88
406,2022-06-02T10:52:18.044+02:00,1654159937.489555,53.22906142761575,10.39873619490228,29.13099,0.07549167,0.8786646,-1.0,-1.0,3.0,48.00000000000001,-9999,34468.78293437501,-2.790252685546875,-1.649307250976562,-2.947433471679688,34468.779184375,-1.114617489732644,-0.679075564732229,0.2764634091868822,6.360577583312988,-0.8215009570121765,2.02222466468811,-2.048501253128052,-1.112817645072937,-2.59586238861084,XArbitraryZVertical,-0.0642067970193512,-0.3486762839365273,-0.5328987013134234,0.768323719573991,-0.6042239665985107,-0.272955060005188,-0.7486046552658081,0,0,0,-1,-1,34468.056042625,unknown,2,2022-06-02T10:52:17.312+02:00,2022-06-02T10:32:51.428+02:00,137,2.325748,0,0,117.0835,0,0,2022-06-02T10:51:39.018+02:00,675852737.3122,0,15.0,101.0132,1,0.88
407,2022-06-02T10:52:18.054+02:00,1654159937.489555,53.22906142761575,10.39873619490228,29.13099,0.07549167,0.8786646,-1.0,-1.0,3.0,48.00000000000001,-9999,34468.79290737501,-2.6607666015625,-1.92303466796875,-2.211166381835938,34468.789157375,-1.057576633808417,-0.6968823882421817,0.313639484090212,6.263493061065674,0.5440497994422913,1.664591670036316,-2.160018682479858,-1.522715210914612,-1.83162784576416,XArbitraryZVertical,-0.0433916673798375,-0.3652372503755391,-0.514393484907935,0.7746730748865912,-0.6105197072029114,-0.3085226118564606,-0.7294378280639648,0,0,0,-1,-1,34468.056042625,unknown,2,2022-06-02T10:52:17.312+02:00,2022-06-02T10:32:51.428+02:00,137,2.325748,0,0,117.0835,0,0,2022-06-02T10:51:39.018+02:00,675852737.3122,0,15.0,101.0132,1,0.88
408,2022-06-02T10:52:18.064+02:00,1654159937.489555,53.22906142761575,10.39873619490228,29.13099,0.07549167,0.8786646,-1.0,-1.0,3.0,48.00000000000001,-9999,34468.80287937501,-2.44219970703125,-1.942962646484375,-1.689804077148438,34468.799129375,-1.005981597978741,-0.7032282324466231,0.3498208423865026,5.531288623809814,1.505995988845825,1.106063842773438,-1.929501295089722,-1.607328414916992,-1.207159876823425,XArbitraryZVertical,-0.0203522771138718,-0.3759056659439497,-0.4981619392437657,0.7810989571575523,-0.6075165271759033,-0.3427295088768005,-0.7165614366531372,0,0,0,-1,-1,34468.056042625,unknown,2,2022-06-02T10:52:17.312+02:00,2022-06-02T10:32:51.428+02:00,137,2.325748,0,0,117.0835,0,0,2022-06-02T10:51:39.018+02:00,675852737.3122,0,15.0,101.0132,1,0.88
409,2022-06-02T10:52:18.074+02:00,1654159937.489555,53.22906142761575,10.39873619490228,29.13099,0.07549167,0.8786646,-1.0,-1.0,3.0,48.00000000000001,-9999,34468.81285237501,-2.355377197265625,-1.879043579101562,-1.375045776367188,34468.809102375,-0.9645870653240244,-0.6987814760392523,0.3832177799453653,4.581057548522949,2.36832332611084,0.4877254664897919,-1.791756629943848,-1.540766000747681,-0.8006950616836548,XArbitraryZVertical,0.0026533319504086,-0.3807184227199356,-0.485569852996242,0.7869360854285435,-0.5966253876686096,-0.3739067912101746,-0.7100929021835327,0,0,0,-1,-1,34468.056042625,unknown,2,2022-06-02T10:52:17.312+02:00,2022-06-02T10:32:51.428+02:00,137,2.325748,0,0,117.0835,0,0,2022-06-02T10:51:39.018+02:00,675852737.3122,0,15.0,101.0132,1,0.88
410,2022-06-02T10:52:18.084+02:00,1654159937.489555,53.22906142761575,10.39873619490228,29.13099,0.07549167,0.8786646,-1.0,-1.0,3.0,48.00000000000001,-9999,34468.82282437501,-2.207077026367188,-1.770858764648438,-1.15380859375,34468.819074375,-0.935235484375118,-0.6824464164889694,0.4129428548962755,3.43272590637207,3.169275045394897,-0.0810741633176803,-1.718295097351074,-1.431319832801819,-0.5456678867340088,XArbitraryZVertical,0.0248094431530919,-0.3794516906881802,-0.4769896310537071,0.7923899663137054,-0.5776797533035278,-0.401306539773941,-0.7108018398284912,0,0,0,-1,-1,34468.056042625,unknown,2,2022-06-02T10:52:17.312+02:00,2022-06-02T10:32:51.428+02:00,137,2.325748,0,0,117.0835,0,0,2022-06-02T10:51:39.018+02:00,675852737.3122,0,15.0,101.0132,1,0.88
411,2022-06-02T10:52:18.094+02:00,1654159937.489555,53.22906142761575,10.39873619490228,29.13099,0.07549167,0.8786646,-1.0,-1.0,3.0,48.00000000000001,-9999,34468.83279737501,-2.011367797851562,-1.569442749023438,-0.9831390380859376,34468.829047375,-0.9188532510950352,-0.6543413934177609,0.4366349907130779,2.162223339080811,3.80231761932373,-0.5110670924186707,-1.558008432388306,-1.272862434387207,-0.3486805558204651,XArbitraryZVertical,0.0447095617462096,-0.3721522992398589,-0.4723312921947053,0.7977511518210034,-0.5515344142913818,-0.4228925704956055,-0.7190074324607849,0,0,0,-1,-1,34468.056042625,unknown,2,2022-06-02T10:52:17.312+02:00,2022-06-02T10:32:51.428+02:00,137,2.325748,0,0,117.0835,0,0,2022-06-02T10:51:39.018+02:00,675852737.3122,0,15.0,101.0132,1,0.88
412,2022-06-02T10:52:18.104+02:00,1654159937.489555,53.22906142761575,10.39873619490228,29.13099,0.07549167,0.8786646,-1.0,-1.0,3.0,48.00000000000001,-9999,34468.84276937501,-1.847030639648438,-1.197219848632812,-0.8057708740234375,34468.839019375,-0.9145731464492076,-0.6158143834816323,0.452910564804898,0.9466601014137268,4.265130996704102,-0.801967442035675,-1.400993704795837,-0.954490065574646,-0.1615369319915771,XArbitraryZVertical,0.0615897923052583,-0.3594523379791401,-0.4710622958343071,0.8031818815277385,-0.5193859338760376,-0.4375844895839691,-0.7340014576911926,0,0,0,-1,-1,34468.056042625,unknown,2,2022-06-02T10:52:17.312+02:00,2022-06-02T10:32:51.428+02:00,137,2.325748,0,0,117.0835,0,0,2022-06-02T10:51:39.018+02:00,675852737.3122,0,15.0,101.0132,1,0.88
413,2022-06-02T10:52:18.114+02:00,1654159937.489555,53.22906142761575,10.39873619490228,29.13099,0.07549167,0.8786646,-1.0,-1.0,3.0,48.00000000000001,-9999,34468.85274237501,-1.798934936523438,-0.8139801025390625,-0.65545654296875,34468.848992375,-0.920357461826034,-0.5689939807153274,0.4618653950496958,0.013438650406897,4.611387252807617,-1.074745416641235,-1.327649831771851,-0.5537403225898743,0.0277951955795288,XArbitraryZVertical,0.0754909933856578,-0.3423650344898215,-0.4725001635561494,0.8085981547382184,-0.4823324680328369,-0.4456188380718231,-0.7541745901107788,0,0,0,-1,-1,34468.056042625,unknown,2,2022-06-02T10:52:17.312+02:00,2022-06-02T10:32:51.428+02:00,137,2.325748,0,0,117.0835,0,0,2022-06-02T10:51:39.018+02:00,675852737.3122,0,15.0,101.0132,1,0.88
414,2022-06-02T10:52:18.124+02:00,1654159937.489555,53.22906142761575,10.39873619490228,29.13099,0.07549167,0.8786646,-1.0,-1.0,3.0,48.00000000000001,-9999,34468.86271437501,-1.784530639648438,-0.5054779052734375,-0.4861602783203125,34468.858964375,-0.9333835490007248,-0.5156170201447656,0.4653759734812317,-0.5763762593269348,4.925643444061279,-1.276761293411255,-1.353859663009644,-0.2020590305328369,0.1976034045219421,XArbitraryZVertical,0.0875040528482731,-0.3218836546083453,-0.4758449879694314,0.8138215934256585,-0.4406349956989288,-0.4487588107585907,-0.7774679064750671,0,0,0,-1,-1,34468.056042625,unknown,2,2022-06-02T10:52:17.312+02:00,2022-06-02T10:32:51.428+02:00,137,2.325748,0,0,117.0835,0,0,2022-06-02T10:51:39.018+02:00,675852737.3122,0,15.0,101.0132,1,0.88
415,2022-06-02T10:52:18.134+02:00,1654159937.489555,53.22906142761575,10.39873619490228,29.13099,0.07549167,0.8786646,-1.0,-1.0,3.0,48.00000000000001,-9999,34468.87268737501,-1.746551513671875,-0.2849578857421875,-0.25787353515625,34468.868937375,-0.9503755925147064,-0.4577209860092415,0.4648150141718303,-0.9410722255706788,5.144004821777344,-1.363248467445374,-1.371931791305542,0.0693054497241973,0.4327776432037354,XArbitraryZVertical,0.0984600749920047,-0.2989343772022229,-0.4800600102987935,0.8188322478321112,-0.3950207233428955,-0.4482574462890625,-0.8018876910209656,0,0,0,-1,-1,34468.056042625,unknown,2,2022-06-02T10:52:17.312+02:00,2022-06-02T10:32:51.428+02:00,137,2.325748,0,0,117.0835,0,0,2022-06-02T10:51:39.018+02:00,675852737.3122,0,15.0,101.0132,1,0.88
416,2022-06-02T10:52:18.144+02:00,1654159937.489555,53.22906142761575,10.39873619490228,29.13099,0.07549167,0.8786646,-1.0,-1.0,3.0,48.00000000000001,-9999,34468.88265937501,-1.685958862304688,-0.151947021484375,-0.109039306640625,34468.878909375,-0.9691405672627548,-0.3972705622478603,0.461269487847966,-1.063191413879395,5.293505191802979,-1.39369809627533,-1.373030662536621,0.2282426357269287,0.6520876884460449,XArbitraryZVertical,0.1088123968976807,-0.2743827122491092,-0.4844925239135827,0.8234931691670836,-0.346466988325119,-0.4450852870941162,-0.8257479667663574,0,0,0,-1,-1,34468.056042625,unknown,2,2022-06-02T10:52:17.312+02:00,2022-06-02T10:32:51.428+02:00,137,2.325748,0,0,117.0835,0,0,2022-06-02T10:51:39.018+02:00,675852737.3122,0,15.0,101.0132,1,0.88
