,loggingTime(txt),locationTimestamp_since1970(s),locationLatitude(WGS84),locationLongitude(WGS84),locationAltitude(m),locationSpeed(m/s),locationSpeedAccuracy(m/s),locationCourse(°),locationCourseAccuracy(°),locationVerticalAccuracy(m),locationHorizontalAccuracy(m),locationFloor(Z),accelerometerTimestamp_sinceReboot(s),accelerometerAccelerationX(G),accelerometerAccelerationY(G),accelerometerAccelerationZ(G),motionTimestamp_sinceReboot(s),motionYaw(rad),motionRoll(rad),motionPitch(rad),motionRotationRateX(rad/s),motionRotationRateY(rad/s),motionRotationRateZ(rad/s),motionUserAccelerationX(G),motionUserAccelerationY(G),motionUserAccelerationZ(G),motionAttitudeReferenceFrame(txt),motionQuaternionX(R),motionQuaternionY(R),motionQuaternionZ(R),motionQuaternionW(R),motionGravityX(G),motionGravityY(G),motionGravityZ(G),motionMagneticFieldX(µT),motionMagneticFieldY(µT),motionMagneticFieldZ(µT),motionHeading(°),motionMagneticFieldCalibrationAccuracy(Z),activityTimestamp_sinceReboot(s),activity(txt),activityActivityConfidence(Z),activityActivityStartDate(txt),pedometerStartDate(txt),pedometerNumberofSteps(N),pedometerAverageActivePace(s/m),pedometerCurrentPace(s/m),pedometerCurrentCadence(steps/s),pedometerDistance(m),pedometerFloorAscended(N),pedometerFloorDescended(N),pedometerEndDate(txt),altimeterTimestamp_sinceReboot(s),altimeterReset(bool),altimeterRelativeAltitude(m),altimeterPressure(kPa),batteryState(N),batteryLevel(R)
387,2022-06-02T10:53:35.571+02:00,1654160015.000051,53.2290987820848,10.39878174484842,36.6998,0.3803752,0.3956704,-1.0,-1.0,3,24.00362482104263,-9999,34546.25093029167,-0.269287109375,0.3038787841796875,0.7132568359375,34546.24718029167,-2.953491603171525,-1.467741270622914,0.3115396752277629,-3.415289640426636,-5.774567127227783,7.862225532531738,0.6704760193824768,0.470144510269165,0.6481984853744507,XArbitraryZVertical,0.6478965780944579,0.1768322717808135,0.7401125874484494,0.0345525657751163,-0.9468128085136414,-0.3065245449542999,-0.0979207456111908,0,0,0,-1,-1,34544.585804875,unknown,2,2022-06-02T10:53:33.901+02:00,2022-06-02T10:32:51.428+02:00,137,2.325748,0,0,117.0835,0,0,2022-06-02T10:51:39.018+02:00,675852813.9008638,0,-24.26953,101.4845,1,0.87
388,2022-06-02T10:53:35.581+02:00,1654160015.000051,53.2290987820848,10.39878174484842,36.6998,0.3803752,0.3956704,-1.0,-1.0,3,24.00362482104263,-9999,34546.26090329167,-0.3268280029296875,0.572021484375,0.8582611083984375,34546.25715229167,-2.991604082125808,-1.52025676925125,0.2264092772970588,-5.237832546234131,-6.793956756591797,8.624576568603516,0.6672652363777161,0.6705553531646729,0.8784371614456177,XArbitraryZVertical,0.6765459926510841,0.1329328393208962,0.7239161143620713,0.0236609533224847,-0.973234474658966,-0.2244798988103867,-0.049228761345148,0,0,0,-1,-1,34544.585804875,unknown,2,2022-06-02T10:53:33.901+02:00,2022-06-02T10:32:51.428+02:00,137,2.325748,0,0,117.0835,0,0,2022-06-02T10:51:39.018+02:00,675852813.9008638,0,-24.26953,101.4845,1,0.87
389,2022-06-02T10:53:35.591+02:00,1654160015.000051,53.2290987820848,10.39878174484842,36.6998,0.3803752,0.3956704,-1.0,-1.0,3,24.00362482104263,-9999,34546.27087529167,-0.3324432373046875,0.73126220703125,0.8413543701171875,34546.26712529167,-3.051324894514901,-1.582449901601359,0.1351614286758287,-6.898922920227051,-7.820589542388916,9.404576301574709,0.665861189365387,0.8010863065719604,0.8426858186721802,XArbitraryZVertical,0.7067269595635619,0.0794387695517367,0.7028225868776075,0.0163341342797888,-0.9908122420310974,-0.1347502619028091,0.0115470271557569,0,0,0,-1,-1,34544.585804875,unknown,2,2022-06-02T10:53:33.901+02:00,2022-06-02T10:32:51.428+02:00,137,2.325748,0,0,117.0835,0,0,2022-06-02T10:51:39.018+02:00,675852813.9008638,0,-24.26953,101.4845,1,0.87
390,2022-06-02T10:53:35.601+02:00,1654160015.000051,53.2290987820848,10.39878174484842,36.6998,0.3803752,0.3956704,-1.0,-1.0,3,24.00362482104263,-9999,34546.28084829167,-0.287689208984375,0.8970794677734375,0.95233154296875,34546.27709829167,-3.132651388267208,-1.659176598034245,0.0425823814830219,-8.402677536010742,-9.020946502685549,9.928708076477053,0.6729131937026978,0.8438390493392944,0.78730309009552,XArbitraryZVertical,0.7374146380362182,0.0176711648277248,0.675089870265735,0.0126863938730697,-0.9951939582824708,-0.0425695143640041,0.0881852358579635,0,0,0,-1,-1,34544.585804875,unknown,2,2022-06-02T10:53:33.901+02:00,2022-06-02T10:32:51.428+02:00,137,2.325748,0,0,117.0835,0,0,2022-06-02T10:51:39.018+02:00,675852813.9008638,0,-24.26953,101.4845,1,0.87
391,2022-06-02T10:53:35.611+02:00,1654160015.000051,53.2290987820848,10.39878174484842,36.6998,0.3803752,0.3956704,-1.0,-1.0,3,24.00362482104263,-9999,34546.29082129167,-0.242889404296875,1.092056274414062,1.187408447265625,34546.28707029167,3.04845750557218,-1.755844593702061,-0.0457108604315067,-9.4215726852417,-10.31375217437744,10.34010887145996,0.7289252281188965,0.9506582021713256,0.8851528167724609,XArbitraryZVertical,0.7676990413614617,-0.0503892500488177,0.6387105901511404,0.0121618960342134,-0.981900691986084,0.0456949435174465,0.1838017851114273,0,0,0,-1,-1,34544.585804875,unknown,2,2022-06-02T10:53:33.901+02:00,2022-06-02T10:32:51.428+02:00,137,2.325748,0,0,117.0835,0,0,2022-06-02T10:51:39.018+02:00,675852813.9008638,0,-24.26953,101.4845,1,0.87
392,2022-06-02T10:53:35.621+02:00,1654160015.000051,53.2290987820848,10.39878174484842,36.6998,0.3803752,0.3956704,-1.0,-1.0,3,24.00362482104263,-9999,34546.30079329167,-0.217315673828125,1.292221069335938,1.449005126953125,34546.29704329167,2.929486024451965,-1.875823615525281,-0.1235836830813322,-9.798816680908203,-11.72663974761963,10.54204368591309,0.6939396262168884,1.071997404098511,1.017400979995728,XArbitraryZVertical,0.7963979362386557,-0.1215100470604879,0.5922982103248041,0.0129778239079875,-0.9465640187263488,0.1232693418860435,0.2980287373065948,0,0,0,-1,-1,34544.585804875,unknown,2,2022-06-02T10:53:33.901+02:00,2022-06-02T10:32:51.428+02:00,137,2.325748,0,0,117.0835,0,0,2022-06-02T10:51:39.018+02:00,675852813.9008638,0,-24.26953,101.4845,1,0.87
393,2022-06-02T10:53:35.631+02:00,1654160015.000051,53.2290987820848,10.39878174484842,36.6998,0.3803752,0.3956704,-1.0,-1.0,3,24.00362482104263,-9999,34546.31076629167,0.21026611328125,1.366302490234375,1.797744750976562,34546.30701629167,2.799193361425582,-2.020978061210244,-0.1862241221228792,-9.5645751953125,-13.3112211227417,10.5954008102417,0.8117114305496216,1.165009021759033,1.169363737106323,XArbitraryZVertical,0.8226743400319426,-0.192379553173661,0.5348269000408118,0.012538309321594,-0.8848009705543518,0.1851496249437332,0.427605926990509,0,0,0,-1,-1,34544.585804875,unknown,2,2022-06-02T10:53:33.901+02:00,2022-06-02T10:32:51.428+02:00,137,2.325748,0,0,117.0835,0,0,2022-06-02T10:51:39.018+02:00,675852813.9008638,0,-24.26953,101.4845,1,0.87
394,2022-06-02T10:53:35.641+02:00,1654160015.000051,53.2290987820848,10.39878174484842,36.6998,0.3803752,0.3956704,-1.0,-1.0,3,24.00362482104263,-9999,34546.32073829167,1.182418823242188,1.338165283203125,2.408370971679688,34546.31698829167,2.660503092222763,-2.190702946138192,-0.2288523682497886,-9.653281211853027,-14.93393993377686,10.63853645324707,1.430666089057922,1.132042050361633,1.501784443855286,XArbitraryZVertical,0.8453934324517896,-0.261181995494478,0.4658316599637406,0.0097432279538241,-0.7927115559577942,0.2268599569797516,0.5658121705055237,0,0,0,-1,-1,34544.585804875,unknown,2,2022-06-02T10:53:33.901+02:00,2022-06-02T10:32:51.428+02:00,137,2.325748,0,0,117.0835,0,0,2022-06-02T10:51:39.018+02:00,675852813.9008638,0,-24.26953,101.4845,1,0.87
395,2022-06-02T10:53:35.651+02:00,1654160015.000051,53.2290987820848,10.39878174484842,36.6998,0.3803752,0.3956704,-1.0,-1.0,3,24.00362482104263,-9999,34546.33071129167,2.4713134765625,1.174896240234375,3.236679077148438,34546.32696129167,2.511953358287075,-2.381963138923004,-0.2439216724995793,-10.26868629455566,-16.34333229064941,10.53829669952393,2.466744661331177,1.02925705909729,2.115967988967896,XArbitraryZVertical,0.8625620964281357,-0.3283294423475387,0.3848946957122182,0.0065122635485585,-0.6682674884796143,0.2415100634098053,0.7036271691322327,0,0,0,-1,-1,34544.585804875,unknown,2,2022-06-02T10:53:33.901+02:00,2022-06-02T10:32:51.428+02:00,137,2.325748,0,0,117.0835,0,0,2022-06-02T10:51:39.018+02:00,675852813.9008638,0,-24.26953,101.4845,1,0.87
396,2022-06-02T10:53:35.661+02:00,1654160015.000051,53.2290987820848,10.39878174484842,36.6998,0.3803752,0.3956704,-1.0,-1.0,3,24.00362482104263,-9999,34546.34068429167,4.096145629882812,1.358139038085938,4.272476196289062,34546.33693329167,2.361613412047086,-2.586774665511248,-0.2236661871107969,-11.01233673095703,-17.74823570251465,10.2845458984375,3.75225305557251,0.9946552515029908,2.902957439422607,XArbitraryZVertical,0.8723755923625891,-0.3916282605547247,0.292524562295515,0.0041930333409019,-0.5136668086051941,0.2218059748411179,0.8288237452507019,0,0,0,-1,-1,34544.585804875,unknown,2,2022-06-02T10:53:33.901+02:00,2022-06-02T10:32:51.428+02:00,137,2.325748,0,0,117.0835,0,0,2022-06-02T10:51:39.018+02:00,675852813.9008638,0,-24.26953,101.4845,1,0.87
397,2022-06-02T10:53:35.671+02:00,1654160015.000051,53.2290987820848,10.39878174484842,36.6998,0.3803752,0.3956704,-1.0,-1.0,3,24.00362482104263,-9999,34546.35065629167,5.861801147460938,1.372207641601562,5.328079223632812,34546.34690629167,2.215231585458706,-2.800890101991723,-0.1668043635224648,-11.62073135375977,-19.36959266662598,10.67174625396729,5.290494918823242,1.265669703483582,3.876775026321411,XArbitraryZVertical,0.8723116917793163,-0.4514325403727363,0.1878209268481377,0.0020319780046705,-0.3295113742351532,0.1660319268703461,0.929438054561615,0,0,0,-1,-1,34544.585804875,unknown,2,2022-06-02T10:53:33.901+02:00,2022-06-02T10:32:51.428+02:00,137,2.325748,0,0,117.0835,0,0,2022-06-02T10:51:39.018+02:00,675852813.9008638,0,-24.26953,101.4845,1,0.87
398,2022-06-02T10:53:35.681+02:00,1654160015.000051,53.2290987820848,10.39878174484842,36.6998,0.3803752,0.3956704,-1.0,-1.0,3,24.00362482104263,-9999,34546.36062929167,7.672134399414062,1.38433837890625,6.685394287109375,34546.35687929167,2.0841639267189,-3.01702515581263,-0.0814304165513287,-10.93858623504639,-20.49506950378418,10.78973293304443,6.915963172912598,1.241093039512634,5.006062030792236,XArbitraryZVertical,0.8597898910931263,-0.5052160800104484,0.0741922314632192,-0.0037068571970516,-0.1238339319825172,0.081340454518795,0.9889639019966124,0,0,0,-1,-1,34544.585804875,unknown,2,2022-06-02T10:53:33.901+02:00,2022-06-02T10:32:51.428+02:00,137,2.325748,0,0,117.0835,0,0,2022-06-02T10:51:39.018+02:00,675852813.9008638,0,-24.26953,101.4845,1,0.87
399,2022-06-02T10:53:35.691+02:00,1654160015.000051,53.2290987820848,10.39878174484842,36.6998,0.3803752,0.3956704,-1.0,-1.0,3,24.00362482104263,-9999,34546.37060229167,9.069473266601562,1.281631469726562,7.828125,34546.36685129167,1.970640327999006,3.051990526012272,0.0193178710416693,-9.12912368774414,-20.47638511657715,11.69406127929688,8.313122749328613,1.445769309997559,6.267823219299316,XArbitraryZVertical,0.8323349035157357,-0.5523766590001069,-0.0426572304200879,-0.0167054434275083,0.0894655957818031,-0.0193166695535183,0.9958027005195618,0,0,0,-1,-1,34544.585804875,unknown,2,2022-06-02T10:53:33.901+02:00,2022-06-02T10:32:51.428+02:00,137,2.325748,0,0,117.0835,0,0,2022-06-02T10:51:39.018+02:00,675852813.9008638,0,-24.26953,101.4845,1,0.87
400,2022-06-02T10:53:35.701+02:00,1654160015.000051,53.2290987820848,10.39878174484842,36.6998,0.3803752,0.3956704,-1.0,-1.0,3,24.00362482104263,-9999,34546.38057429167,10.36521911621094,0.2308502197265625,9.603958129882812,34546.37682429167,1.864220531786564,2.86327985900146,0.1172396166238929,-6.074788093566895,-18.55650901794434,12.76854705810547,9.433267593383787,0.9731265902519226,7.608877182006836,XArbitraryZVertical,0.78890842141238,-0.5958889020736516,-0.145762402146562,-0.0359643602402678,0.2728478908538818,-0.1169712245464325,0.9549201726913452,0,0,0,-1,-1,34544.585804875,unknown,2,2022-06-02T10:53:33.901+02:00,2022-06-02T10:32:51.428+02:00,137,2.325748,0,0,117.0835,0,0,2022-06-02T10:51:39.018+02:00,675852813.9008638,0,-24.26953,101.4845,1,0.87
401,2022-06-02T10:53:35.711+02:00,1654160015.000051,53.2290987820848,10.39878174484842,36.6998,0.3803752,0.3956704,-1.0,-1.0,3,24.00362482104263,-9999,34546.39054729167,11.14895629882812,-0.8687286376953125,12.12202453613281,34546.38679729167,1.753210704737491,2.711519127100589,0.2054798087888388,-3.060432195663452,-15.26025867462158,14.06711673736572,10.44985008239746,-0.19591124355793,10.00238227844238,XArbitraryZVertical,0.7329099350173436,-0.6385531145840635,-0.227238110169992,-0.0587864233828212,0.4081666469573975,-0.2040368914604187,0.8898140788078308,0,0,0,-1,-1,34544.585804875,unknown,2,2022-06-02T10:53:33.901+02:00,2022-06-02T10:32:51.428+02:00,137,2.325748,0,0,117.0835,0,0,2022-06-02T10:51:39.018+02:00,675852813.9008638,0,-24.26953,101.4845,1,0.87
402,2022-06-02T10:53:35.721+02:00,1654160015.000051,53.2290987820848,10.39878174484842,36.6998,0.3803752,0.3956704,-1.0,-1.0,3,24.00362482104263,-9999,34546.40051929167,11.71726989746094,-0.91912841796875,13.89521789550781,34546.39676929167,1.625304158969669,2.615065620359102,0.2954172768263236,-1.354948163032532,-10.17437648773193,16.36401176452637,10.90003395080566,-0.7925859689712524,12.27932453155518,XArbitraryZVertical,0.6671278364397567,-0.6844657343305955,-0.2846064671837014,-0.0737997034242545,0.4807645380496979,-0.2911390662193298,0.8271057605743408,0,0,0,-1,-1,34544.585804875,unknown,2,2022-06-02T10:53:33.901+02:00,2022-06-02T10:32:51.428+02:00,137,2.325748,0,0,117.0835,0,0,2022-06-02T10:51:39.018+02:00,675852813.9008638,0,-24.26953,101.4845,1,0.87
403,2022-06-02T10:53:35.731+02:00,1654160015.000051,53.2290987820848,10.39878174484842,36.6998,0.3803752,0.3956704,-1.0,-1.0,3,24.00362482104263,-9999,34546.41049229167,12.4188232421875,0.466156005859375,14.64839172363281,34546.40674229167,1.466134239543755,2.601076746543853,0.3895286204069245,0.6410202980041504,-3.158670663833618,19.23214912414551,11.60949516296387,0.0584022104740142,13.6612720489502,XArbitraryZVertical,0.594273614021372,-0.7371867245737243,-0.3138731806761579,-0.0698448428345086,0.4760304689407349,-0.3797523975372314,0.7932108044624329,0,0,0,-1,-1,34544.585804875,unknown,2,2022-06-02T10:53:33.901+02:00,2022-06-02T10:32:51.428+02:00,137,2.325748,0,0,117.0835,0,0,2022-06-02T10:51:39.018+02:00,675852813.9008638,0,-24.26953,101.4845,1,0.87
404,2022-06-02T10:53:35.740+02:00,1654160015.000051,53.2290987820848,10.39878174484842,36.6998,0.3803752,0.3956704,-1.0,-1.0,3,24.00362482104263,-9999,34546.420465125,13.30284118652344,1.52880859375,13.32011413574219,34546.416714125,1.255365150669334,2.70079409658679,0.473579029238927,3.063979148864746,5.608772277832031,22.34969329833984,12.40285778045654,1.544178605079651,13.43673419952393,XArbitraryZVertical,0.5155648867911655,-0.7978906563273236,-0.3100824733844403,-0.0375796436800027,0.3797041773796082,-0.4560743272304535,0.8048732876777649,0,0,0,-1,-1,34544.585804875,unknown,2,2022-06-02T10:53:33.901+02:00,2022-06-02T10:32:51.428+02:00,137,2.325748,0,0,117.0835,0,0,2022-06-02T10:51:39.018+02:00,675852813.9008638,0,-24.26953,101.4845,1,0.87
405,2022-06-02T10:53:35.751+02:00,1654160015.000051,53.2290987820848,10.39878174484842,36.6998,0.3803752,0.3956704,-1.0,-1.0,3,24.00362482104263,-9999,34546.430437125,15.33079528808594,2.869033813476562,11.1231689453125,34546.426687125,0.9940371583666764,2.930342656053587,0.5027523504417566,6.710211277008057,15.53554821014404,23.03141403198242,13.94587230682373,2.553265571594238,11.37544345855713,XArbitraryZVertical,0.4361964708630112,-0.8591407284733128,-0.2661126330194206,0.0281785081324137,0.1837361752986908,-0.481839120388031,0.8567802906036377,0,0,0,-1,-1,34544.585804875,unknown,2,2022-06-02T10:53:33.901+02:00,2022-06-02T10:32:51.428+02:00,137,2.325748,0,0,117.0835,0,0,2022-06-02T10:51:39.018+02:00,675852813.9008638,0,-24.26953,101.4845,1,0.87
406,2022-06-02T10:53:35.760+02:00,1654160015.000051,53.2290987820848,10.39878174484842,36.6998,0.3803752,0.3956704,-1.0,-1.0,3,24.00362482104263,-9999,34546.440410125,17.82528686523438,4.814987182617188,7.521347045898438,34546.436660125,0.7395173961335237,-3.03088818075301,0.4224231188146221,12.10766506195068,26.11449241638184,21.72647666931152,16.72280693054199,4.268599033355713,8.681192398071289,XArbitraryZVertical,0.3636328065707489,-0.9061062912576588,-0.1756271301776209,0.1260860956521026,-0.1007672399282455,-0.4099717736244202,0.9065148830413818,0,0,0,-1,-1,34544.585804875,unknown,2,2022-06-02T10:53:33.901+02:00,2022-06-02T10:32:51.428+02:00,137,2.325748,0,0,117.0835,0,0,2022-06-02T10:51:39.018+02:00,675852813.9008638,0,-24.26953,101.4845,1,0.87
407,2022-06-02T10:53:35.770+02:00,1654160015.000051,53.2290987820848,10.39878174484842,36.6998,0.3803752,0.3956704,-1.0,-1.0,3,24.00362482104263,-9999,34546.450383125,22.35995483398438,7.06915283203125,3.4197998046875,34546.446632125,0.5871669168578092,-2.66671996034708,0.2123198983926075,21.10269165039062,35.30095672607422,17.82534790039062,19.71833610534668,5.890614032745361,4.447178363800049,XArbitraryZVertical,0.3035386580969297,-0.9179076315987024,-0.0308979549714737,0.2536832257665769,-0.4469580948352814,-0.2107282727956772,0.8693802952766418,0,0,0,-1,-1,34544.585804875,unknown,2,2022-06-02T10:53:33.901+02:00,2022-06-02T10:32:51.428+02:00,137,2.325748,0,0,117.0835,0,0,2022-06-02T10:51:39.018+02:00,675852813.9008638,0,-24.26953,101.4845,1,0.87
408,2022-06-02T10:53:35.780+02:00,1654160015.000051,53.2290987820848,10.39878174484842,36.6998,0.3803752,0.3956704,-1.0,-1.0,3,24.00362482104263,-9999,34546.460355125,32.12075805664062,13.90040588378906,-2.126693725585938,34546.456605125,0.6619444518346526,-2.313129936275971,-0.0845537756709389,36.03195571899414,35.36087417602539,6.15660572052002,29.15779876708984,9.94694995880127,0.7805377244949341,XArbitraryZVertical,0.2811258649428865,-0.8704971950040765,0.1672661925351357,0.3677293119805367,-0.7342603802680969,0.08445306122303,0.6735942363739014,0,0,0,-1,-1,34544.585804875,unknown,2,2022-06-02T10:53:33.901+02:00,2022-06-02T10:32:51.428+02:00,137,2.325748,0,0,117.0835,0,0,2022-06-02T10:51:39.018+02:00,675852813.9008638,0,-24.26953,101.4845,1,0.87
409,2022-06-02T10:53:35.790+02:00,1654160015.000051,53.2290987820848,10.39878174484842,36.6998,0.3803752,0.3956704,-1.0,-1.0,3,24.00362482104263,-9999,34546.470328125,32.27519226074219,21.08401489257812,-2.442947387695312,34546.466577125,0.9770936453109168,-1.90034748033133,-0.2562803081507189,35.9575309753418,35.29534530639648,-5.929276943206787,33.46136474609375,19.41976356506348,-5.380446910858154,XArbitraryZVertical,0.3130666325459526,-0.7473377540769967,0.3625024172964103,0.4605079974079061,-0.9152848720550536,0.2534841001033783,0.3130488693714142,0,0,0,-1,-1,34544.585804875,unknown,2,2022-06-02T10:53:33.901+02:00,2022-06-02T10:32:51.428+02:00,137,2.325748,0,0,117.0835,0,0,2022-06-02T10:51:39.018+02:00,675852813.9008638,0,-24.26953,101.4845,1,0.87
410,2022-06-02T10:53:35.800+02:00,1654160015.000051,53.2290987820848,10.39878174484842,36.6998,0.3803752,0.3956704,-1.0,-1.0,3,24.00362482104263,-9999,34546.480300125,31.07473754882812,18.77508544921875,-1.001663208007812,34546.476550125,1.351610913156215,-1.475822357302175,-0.1338467850960394,35.82943344116211,31.18814468383789,-28.61546897888184,32.91279983520508,14.35985374450684,-3.433803081512451,XArbitraryZVertical,0.381273795671197,-0.5546519182200907,0.496875601097475,0.5478195927608327,-0.9865896701812744,0.1334474980831146,-0.0939830839633941,0,0,0,-1,-1,34544.585804875,unknown,2,2022-06-02T10:53:33.901+02:00,2022-06-02T10:32:51.428+02:00,137,2.325748,0,0,117.0835,0,0,2022-06-02T10:51:39.018+02:00,675852813.9008638,0,-24.26953,101.4845,1,0.87
411,2022-06-02T10:53:35.810+02:00,1654160015.000051,53.2290987820848,10.39878174484842,36.6998,0.3803752,0.3956704,-1.0,-1.0,3,24.00362482104263,-9999,34546.490273125,32.3572998046875,5.065170288085938,27.71269226074219,34546.486523125,1.651410416715534,-1.25153105835159,0.1342509781842804,32.58973693847656,8.832035064697266,-7.93002462387085,32.79872512817383,22.26833915710449,13.57912635803223,XArbitraryZVertical,0.466410262205594,-0.3562851014989443,0.5677698216200122,0.5771999109853563,-0.9409227967262268,-0.1338480710983276,-0.3110447824001312,0,0,0,-1,-1,34544.585804875,unknown,2,2022-06-02T10:53:33.901+02:00,2022-06-02T10:32:51.428+02:00,137,2.325748,0,0,117.0835,0,0,2022-06-02T10:51:39.018+02:00,675852813.9008638,0,-24.26953,101.4845,1,0.87
412,2022-06-02T10:53:35.820+02:00,1654160015.000051,53.2290987820848,10.39878174484842,36.6998,0.3803752,0.3956704,-1.0,-1.0,3,24.00362482104263,-9999,34546.500246125,26.18594360351562,-25.93260192871094,14.19367980957031,34546.496495125,1.866715853604161,-1.396491605685183,0.3221628999616743,19.70928573608398,-22.4189567565918,-21.83399963378906,33.16144561767578,-17.29043579101562,27.54079818725586,XArbitraryZVertical,0.583054331638714,-0.2789211426190674,0.5462196497019122,0.5328177053052813,-0.9341797232627868,-0.3166189193725586,-0.164501279592514,0,0,0,-1,-1,34544.585804875,unknown,2,2022-06-02T10:53:33.901+02:00,2022-06-02T10:32:51.428+02:00,137,2.325748,0,0,117.0835,0,0,2022-06-02T10:51:39.018+02:00,675852813.9008638,0,-24.26953,101.4845,1,0.87
413,2022-06-02T10:53:35.830+02:00,1654160015.000051,53.2290987820848,10.39878174484842,36.6998,0.3803752,0.3956704,-1.0,-1.0,3,24.00362482104263,-9999,34546.510218125,14.1754150390625,-8.640182495117188,-2.54583740234375,34546.506468125,1.996654225292541,-1.628171252306978,0.6061441349659314,6.254137992858887,-11.06750297546387,-30.90140533447266,19.2089729309082,-19.04896545410156,1.26035213470459,XArbitraryZVertical,0.6943145463446903,-0.2036938609040964,0.4332221999732213,0.5373588715718298,-0.8204983472824097,-0.5697027444839478,0.0471277572214603,0,0,0,-1,-1,34544.585804875,unknown,2,2022-06-02T10:53:33.901+02:00,2022-06-02T10:32:51.428+02:00,137,2.325748,0,0,117.0835,0,0,2022-06-02T10:51:39.018+02:00,675852813.9008638,0,-24.26953,101.4845,1,0.87
414,2022-06-02T10:53:35.840+02:00,1654160015.000051,53.2290987820848,10.39878174484842,36.6998,0.3803752,0.3956704,-1.0,-1.0,3,24.00362482104263,-9999,34546.520191125,13.48991394042969,-2.610809326171875,-3.091598510742188,34546.516441125,2.068398197844686,-1.745103012120428,0.8610675516555365,-0.0018616978777572,-2.733584403991699,-21.70438957214355,13.89189147949219,-1.701483368873596,-3.272005558013916,XArbitraryZVertical,0.7354035062977402,-0.1252441875000722,0.3386725891301078,0.5734077828731664,-0.6417540311813354,-0.7585386633872986,0.1130088493227959,0,0,0,-1,-1,34544.585804875,unknown,2,2022-06-02T10:53:33.901+02:00,2022-06-02T10:32:51.428+02:00,137,2.325748,0,0,117.0835,0,0,2022-06-02T10:51:39.018+02:00,675852813.9008638,0,-24.26953,101.4845,1,0.87
415,2022-06-02T10:53:35.850+02:00,1654160015.000051,53.2290987820848,10.39878174484842,36.6998,0.3803752,0.3956704,-1.0,-1.0,3,24.00362482104263,-9999,34546.530164125,14.47483825683594,-7.040969848632812,0.976654052734375,34546.526413125,2.114243208082002,-1.79566708942427,1.042254655561135,-1.952325105667114,-1.490796685218811,-15.34370517730713,14.66616916656494,-4.424984931945801,-1.277161955833435,XArbitraryZVertical,0.7431392594787075,-0.0629739433262942,0.2795023615023579,0.604695625263915,-0.4915784895420074,-0.8635433912277222,0.1124433502554893,0,0,0,-1,-1,34544.585804875,unknown,2,2022-06-02T10:53:33.901+02:00,2022-06-02T10:32:51.428+02:00,137,2.325748,0,0,117.0835,0,0,2022-06-02T10:51:39.018+02:00,675852813.9008638,0,-24.26953,101.4845,1,0.87
416,2022-06-02T10:53:35.860+02:00,1654160015.000051,53.2290987820848,10.39878174484842,36.6998,0.3803752,0.3956704,-1.0,-1.0,3,24.00362482104263,-9999,34546.540136125,11.93913269042969,-5.921157836914062,-0.1188201904296875,34546.536386125,2.10703918755279,-1.82370460032542,1.187929371195086,-5.647194862365723,-5.180875301361084,-13.25405025482178,13.96321487426758,-6.086013793945312,1.010236144065857,XArbitraryZVertical,0.7389541854588355,-0.0261854496588073,0.2222161931547471,0.635516442244153,-0.3616977334022522,-0.9275974035263062,0.0934779345989227,0,0,0,-1,-1,34544.585804875,unknown,2,2022-06-02T10:53:33.901+02:00,2022-06-02T10:32:51.428+02:00,137,2.325748,0,0,117.0835,0,0,2022-06-02T10:51:39.018+02:00,675852813.9008638,0,-24.26953,101.4845,1,0.87
417,2022-06-02T10:53:35.870+02:00,1654160015.000051,53.2290987820848,10.39878174484842,36.6998,0.3803752,0.3956704,-1.0,-1.0,3,24.00362482104263,-9999,34546.550109125,8.733596801757812,-4.138137817382812,-1.4381103515625,34546.546359125,1.964858059387216,-1.747752743772185,1.328679528386095,-9.051187515258787,-6.536804676055908,-12.48947048187256,10.28700923919678,-3.850730895996094,-1.249297857284546,XArbitraryZVertical,0.7218504979669056,-0.0058883790734588,0.1579823595067471,0.6737497260605656,-0.2360138744115829,-0.9708326458930968,0.0422056280076503,0,0,0,-1,-1,34544.585804875,unknown,2,2022-06-02T10:53:33.901+02:00,2022-06-02T10:32:51.428+02:00,137,2.325748,0,0,117.0835,0,0,2022-06-02T10:51:39.018+02:00,675852813.9008638,0,-24.26953,101.4845,1,0.87
418,2022-06-02T10:53:35.880+02:00,1654160015.000051,53.2290987820848,10.39878174484842,36.6998,0.3803752,0.3956704,-1.0,-1.0,3,24.00362482104263,-9999,34546.560081125,8.144989013671875,-2.458465576171875,-1.02166748046875,34546.556331125,1.2805585870495,-1.138747822799856,1.43945820473064,-12.71334838867188,-6.462199211120605,-11.43594360351562,8.326018333435059,-2.498251676559448,-1.163592219352722,XArbitraryZVertical,0.6874140448321601,0.0065794100542287,0.0933960011961255,0.7202053594879052,-0.1189263910055161,-0.9913875460624696,-0.0548372864723205,0,0,0,-1,-1,34544.585804875,unknown,2,2022-06-02T10:53:33.901+02:00,2022-06-02T10:32:51.428+02:00,137,2.325748,0,0,117.0835,0,0,2022-06-02T10:51:39.018+02:00,675852813.9008638,0,-24.26953,101.4845,1,0.87
419,2022-06-02T10:53:35.890+02:00,1654160015.000051,53.2290987820848,10.39878174484842,36.6998,0.3803752,0.3956704,-1.0,-1.0,3,24.00362482104263,-9999,34546.570054125,8.1610107421875,-0.7738494873046875,-0.62994384765625,34546.566304125,0.1541722761420271,-0.0856436718854999,1.391842579958836,-12.6605806350708,-6.100335121154785,-11.19940662384033,8.231901168823242,-0.3844846487045288,-0.6133468747138977,XArbitraryZVertical,0.6411328475450243,0.0165685537818789,0.03168516419842,0.7665965903956107,-0.0152260055765509,-0.9840304851531982,-0.1773483157157898,0,0,0,-1,-1,34544.585804875,unknown,2,2022-06-02T10:53:33.901+02:00,2022-06-02T10:32:51.428+02:00,137,2.325748,0,0,117.0835,0,0,2022-06-02T10:51:39.018+02:00,675852813.9008638,0,-24.26953,101.4845,1,0.87
420,2022-06-02T10:53:35.900+02:00,1654160015.000051,53.2290987820848,10.39878174484842,36.6998,0.3803752,0.3956704,-1.0,-1.0,3,24.00362482104263,-9999,34546.580027125,7.071975708007812,-0.8736419677734375,-0.452545166015625,34546.576276125,-0.2679140514217691,0.2662756888681153,1.257371591354073,-11.97442626953125,-5.597711086273193,-11.45375442504883,7.624404907226562,0.16734778881073,-0.2537257373332977,XArbitraryZVertical,0.5919953464852653,0.0285550247188887,-0.0296993256395918,0.8048875532147852,0.0811308920383453,-0.9512832164764404,-0.2974522411823273,0,0,0,-1,-1,34544.585804875,unknown,2,2022-06-02T10:53:33.901+02:00,2022-06-02T10:32:51.428+02:00,137,2.325748,0,0,117.0835,0,0,2022-06-02T10:51:39.018+02:00,675852813.9008638,0,-24.26953,101.4845,1,0.87
421,2022-06-02T10:53:35.910+02:00,1654160015.000051,53.2290987820848,10.39878174484842,36.6998,0.3803752,0.3956704,-1.0,-1.0,3,24.00362482104263,-9999,34546.589999125,5.98602294921875,-0.44012451171875,-0.6143341064453125,34546.586249125,-0.4524663459779403,0.3863853325771958,1.106942726066699,-11.7664041519165,-4.596516132354736,-11.50280284881592,6.310527324676514,0.1343710422515869,-0.0531756877899169,XArbitraryZVertical,0.5393555064992478,0.0434549270015765,-0.0889218920019548,0.8362417992444445,0.1685986816883087,-0.8943350315093994,-0.4144146144390106,0,0,0,-1,-1,34544.585804875,unknown,2,2022-06-02T10:53:33.901+02:00,2022-06-02T10:32:51.428+02:00,137,2.325748,0,0,117.0835,0,0,2022-06-02T10:51:39.018+02:00,675852813.9008638,0,-24.26953,101.4845,1,0.87
422,2022-06-02T10:53:35.920+02:00,1654160015.000051,53.2290987820848,10.39878174484842,36.6998,0.3803752,0.3956704,-1.0,-1.0,3,24.00362482104263,-9999,34546.599972125,5.765457153320312,0.1959381103515625,-1.0245361328125,34546.596222125,-0.5696473586560327,0.4459225682964854,0.9590424823745493,-10.43267631530762,-3.627846002578735,-11.4029426574707,5.498828887939453,0.7566455602645874,-0.3107278943061829,XArbitraryZVertical,0.4869314300690611,0.0618497640832715,-0.1452223489827315,0.8590593271887118,0.247691884636879,-0.8186420202255249,-0.5181447863578796,0,0,0,-1,-1,34544.585804875,unknown,2,2022-06-02T10:53:33.901+02:00,2022-06-02T10:32:51.428+02:00,137,2.325748,0,0,117.0835,0,0,2022-06-02T10:51:39.018+02:00,675852813.9008638,0,-24.26953,101.4845,1,0.87
423,2022-06-02T10:53:35.930+02:00,1654160015.000051,53.2290987820848,10.39878174484842,36.6998,0.3803752,0.3956704,-1.0,-1.0,3,24.00362482104263,-9999,34546.609945125,5.82513427734375,0.374298095703125,-1.268539428710938,34546.606194125,-0.6576533803333067,0.4825441772228011,0.8216880338271424,-9.226847648620604,-2.831650257110596,-10.82867622375488,5.530205726623535,1.023693561553955,-0.5626643896102905,XArbitraryZVertical,0.4377765504878809,0.0820798836569115,-0.1971692103260302,0.8733492586656101,0.3160009384155273,-0.7322964072227478,-0.6032291650772095,0,0,0,-1,-1,34544.585804875,unknown,2,2022-06-02T10:53:33.901+02:00,2022-06-02T10:32:51.428+02:00,137,2.325748,0,0,117.0835,0,0,2022-06-02T10:51:39.018+02:00,675852813.9008638,0,-24.26953,101.4845,1,0.87
424,2022-06-02T10:53:35.940+02:00,1654160015.000051,53.2290987820848,10.39878174484842,36.6998,0.3803752,0.3956704,-1.0,-1.0,3,24.00362482104263,-9999,34546.619917125,5.345550537109375,0.3361358642578125,-1.678512573242188,34546.616167125,-0.7270473267479286,0.5055888419949136,0.6948322950594186,-8.408211708068848,-2.100917339324951,-10.05521869659424,5.258577346801758,1.090757131576538,-0.7612630724906921,XArbitraryZVertical,0.3917244003895012,0.1025865084787086,-0.2441106082237324,0.8811571775974063,0.3720378279685974,-0.6402566432952881,-0.6720560193061829,0,0,0,-1,-1,34544.585804875,unknown,2,2022-06-02T10:53:33.901+02:00,2022-06-02T10:32:51.428+02:00,137,2.325748,0,0,117.0835,0,0,2022-06-02T10:51:39.018+02:00,675852813.9008638,0,-24.26953,101.4845,1,0.87
425,2022-06-02T10:53:35.950+02:00,1654160015.000051,53.2290987820848,10.39878174484842,36.6998,0.3803752,0.3956704,-1.0,-1.0,3,24.00362482104263,-9999,34546.629890125,4.761306762695312,-0.257904052734375,-1.945632934570312,34546.626140125,-0.7826784101596019,0.5213575116452839,0.5794793688033162,-7.352849960327148,-1.406120300292969,-9.169957160949709,4.635817527770996,0.5780754089355469,-1.149709224700928,XArbitraryZVertical,0.3493906551034836,0.1230276079681396,-0.28510985806529,0.8840264223683595,0.4167487621307373,-0.5475883483886719,-0.7255807518959045,0,0,0,-1,-1,34544.585804875,unknown,2,2022-06-02T10:53:33.901+02:00,2022-06-02T10:32:51.428+02:00,137,2.325748,0,0,117.0835,0,0,2022-06-02T10:51:39.018+02:00,675852813.9008638,0,-24.26953,101.4845,1,0.87
426,2022-06-02T10:53:35.960+02:00,1654160015.000051,53.2290987820848,10.39878174484842,36.6998,0.3803752,0.3956704,-1.0,-1.0,3,24.00362482104263,-9999,34546.639862125,4.206939697265625,-0.4028167724609375,-2.017929077148438,34546.636112125,-0.8286627388798316,0.5335146709572852,0.4740565052818295,-7.046889305114746,-0.769129753112793,-8.304306983947754,4.012516021728516,0.0590840578079223,-1.222527265548706,XArbitraryZVertical,0.3104981675570424,0.1433655361555259,-0.3208202642679145,0.8832392530179644,0.4524803459644318,-0.4564991891384125,-0.7660744190216064,0,0,0,-1,-1,34544.585804875,unknown,2,2022-06-02T10:53:33.901+02:00,2022-06-02T10:32:51.428+02:00,137,2.325748,0,0,117.0835,0,0,2022-06-02T10:51:39.018+02:00,675852813.9008638,0,-24.26953,101.4845,1,0.87
427,2022-06-02T10:53:35.970+02:00,1654160015.000051,53.2290987820848,10.39878174484842,36.6998,0.3803752,0.3956704,-1.0,-1.0,3,24.00362482104263,-9999,34546.649835125,3.744461059570312,-0.3187103271484375,-2.3492431640625,34546.646085125,-0.8602254505551891,0.543954596740158,0.3716969317264214,-7.633330345153809,0.3418050110340118,-7.131774425506592,3.505899429321289,0.0112378001213073,-1.31601357460022,XArbitraryZVertical,0.2718621896430243,0.1657478636130262,-0.3496119528560904,0.8811300232595859,0.4821833670139313,-0.36319699883461,-0.7972372174263,0,0,0,-1,-1,34544.585804875,unknown,2,2022-06-02T10:53:33.901+02:00,2022-06-02T10:32:51.428+02:00,137,2.325748,0,0,117.0835,0,0,2022-06-02T10:51:39.018+02:00,675852813.9008638,0,-24.26953,101.4845,1,0.87
428,2022-06-02T10:53:35.980+02:00,1654160015.000051,53.2290987820848,10.39878174484842,36.6998,0.3803752,0.3956704,-1.0,-1.0,3,24.00362482104263,-9999,34546.659808125,3.169448852539062,-0.19573974609375,-2.679428100585938,34546.656057125,-0.8787509812632661,0.5605802864793623,0.2743921454681614,-6.937427997589111,1.784114241600037,-6.206822872161865,2.938621282577515,-0.0166205167770385,-1.738906145095825,XArbitraryZVertical,0.2355128420231221,0.1921000679602203,-0.3706924863860246,0.8776208813302605,0.5117877721786499,-0.2709618806838989,-0.8152625560760498,0,0,0,-1,-1,34544.585804875,unknown,2,2022-06-02T10:53:33.901+02:00,2022-06-02T10:32:51.428+02:00,137,2.325748,0,0,117.0835,0,0,2022-06-02T10:51:39.018+02:00,675852813.9008638,0,-24.26953,101.4845,1,0.87
429,2022-06-02T10:53:35.990+02:00,1654160015.000051,53.2290987820848,10.39878174484842,36.6998,0.3803752,0.3956704,-1.0,-1.0,3,24.00362482104263,-9999,34546.669780125,2.8739013671875,0.1031494140625,-2.671417236328125,34546.666030125,-0.8961916898273264,0.587493974334938,0.1901409045842159,-5.37752103805542,2.715569496154785,-5.832076072692871,2.418099641799927,0.1418476104736328,-1.889913082122803,XArbitraryZVertical,0.2067678396305631,0.2204114214165756,-0.3880477142043149,0.870680757639713,0.5442875623703003,-0.1889972686767578,-0.8173317313194275,0,0,0,-1,-1,34544.585804875,unknown,2,2022-06-02T10:53:33.901+02:00,2022-06-02T10:32:51.428+02:00,137,2.325748,0,0,117.0835,0,0,2022-06-02T10:51:39.018+02:00,675852813.9008638,0,-24.26953,101.4845,1,0.87
430,2022-06-02T10:53:36.000+02:00,1654160015.000051,53.2290987820848,10.39878174484842,36.6998,0.3803752,0.3956704,-1.0,-1.0,3,24.00362482104263,-9999,34546.679753125,2.953475952148438,0.2472076416015625,-2.591842651367188,34546.676003125,-0.91681451477347,0.6198406644104401,0.1212778424926881,-3.646677494049072,3.121776580810547,-5.328479766845703,2.314489841461182,0.3250975906848907,-1.818716764450073,XArbitraryZVertical,0.1864690783458734,0.2474533261842676,-0.40408883425693,0.8606440739037903,0.5766386389732361,-0.1209807619452477,-0.8079922795295715,0,0,0,-1,-1,34544.585804875,unknown,2,2022-06-02T10:53:33.901+02:00,2022-06-02T10:32:51.428+02:00,137,2.325748,0,0,117.0835,0,0,2022-06-02T10:51:39.018+02:00,675852813.9008638,0,-24.26953,101.4845,1,0.87
431,2022-06-02T10:53:36.010+02:00,1654160015.000051,53.2290987820848,10.39878174484842,36.6998,0.3803752,0.3956704,-1.0,-1.0,3,24.00362482104263,-9999,34546.68972612501,3.169647216796875,0.2063446044921875,-2.5443115234375,34546.685975125,-0.9416398244580142,0.6545620686506544,0.0686618330323433,-1.897927403450012,3.316586494445801,-5.022273540496826,2.432158231735229,0.3168226480484009,-1.771649718284607,XArbitraryZVertical,0.1747040691021438,0.2715802232021423,-0.4194523718342489,0.8483999095446004,0.6073773503303528,-0.0686078965663909,-0.7914453148841858,0,0,0,-1,-1,34544.585804875,unknown,2,2022-06-02T10:53:33.901+02:00,2022-06-02T10:32:51.428+02:00,137,2.325748,0,0,117.0835,0,0,2022-06-02T10:51:39.018+02:00,675852813.9008638,0,-24.26953,101.4845,1,0.87
432,2022-06-02T10:53:36.020+02:00,1654160015.000051,53.2290987820848,10.39878174484842,36.6998,0.3803752,0.3956704,-1.0,-1.0,3,24.00362482104263,-9999,34546.699698125,3.572860717773438,-0.0080413818359375,-2.665573120117188,34546.695948125,-0.9750066683777702,0.6863634229856594,0.0284846614936482,-0.3437521457672119,2.646028995513916,-5.20982837677002,2.727689027786255,0.1517565697431564,-1.803219795227051,XArbitraryZVertical,0.1694498470125837,0.2909738539247111,-0.4368286838127436,0.8341472888291438,0.6334711909294128,-0.0284808091819286,-0.7732419371604919,0,0,0,-1,-1,34544.585804875,unknown,2,2022-06-02T10:53:33.901+02:00,2022-06-02T10:32:51.428+02:00,137,2.325748,0,0,117.0835,0,0,2022-06-02T10:51:39.018+02:00,675852813.9008638,0,-24.26953,101.4845,1,0.87
433,2022-06-02T10:53:36.040+02:00,1654160015.000051,53.2290987820848,10.39878174484842,36.6998,0.3803752,0.3956704,-1.0,-1.0,3,24.00362482104263,-9999,34546.70967112501,3.821823120117188,-0.4945831298828125,-2.64727783203125,34546.705921125,-1.013199519266855,0.7076723288397656,-0.0044671128795404,-0.0202035102993249,1.493314266204834,-4.825191020965576,3.082681894302368,-0.2248802930116653,-1.920397758483887,XArbitraryZVertical,0.1662911911818544,0.3039942357533979,-0.4558240977866145,0.8198531038497715,0.6500602960586548,0.0044670980423688,-0.7598695158958435,0,0,0,-1,-1,34544.585804875,unknown,2,2022-06-02T10:53:33.901+02:00,2022-06-02T10:32:51.428+02:00,137,2.325748,0,0,117.0835,0,0,2022-06-02T10:51:39.018+02:00,675852813.9008638,0,-24.26953,101.4845,1,0.87
434,2022-06-02T10:53:36.046+02:00,1654160015.000051,53.2290987820848,10.39878174484842,36.6998,0.3803752,0.3956704,-1.0,-1.0,3,24.00362482104263,-9999,34546.719643125,3.605239868164062,-1.095870971679688,-2.936782836914062,34546.715893125,-1.044080404942048,0.7162671826156318,-0.0365628232546572,-0.8266094326972961,0.4368537664413452,-4.068061828613281,3.142174482345581,-0.8387855291366577,-1.969310522079468,XArbitraryZVertical,0.1599207117093894,0.3123243354716789,-0.4724878830126948,0.8084764257193383,0.6561349034309387,0.0365546755492687,-0.7537577748298645,0,0,0,-1,-1,34544.585804875,unknown,2,2022-06-02T10:53:33.901+02:00,2022-06-02T10:32:51.428+02:00,137,2.325748,0,0,117.0835,0,0,2022-06-02T10:51:39.018+02:00,675852813.9008638,0,-24.26953,101.4845,1,0.87
435,2022-06-02T10:53:36.050+02:00,1654160015.000051,53.2290987820848,10.39878174484842,36.6998,0.3803752,0.3956704,-1.0,-1.0,3,24.00362482104263,-9999,34546.72961612501,2.988677978515625,-1.385360717773438,-3.19915771484375,34546.725866125,-1.065445218928717,0.7170363460996941,-0.0695782293810889,-1.25676155090332,0.0311979670077562,-3.530513048171997,2.638122320175171,-1.377932786941528,-2.377537965774536,XArbitraryZVertical,0.1500436731980587,0.3186227908617039,-0.4858139903111134,0.7999694699627262,0.6555636525154114,0.0695221051573753,-0.7519327998161316,0,0,0,-1,-1,34544.585804875,unknown,2,2022-06-02T10:53:33.901+02:00,2022-06-02T10:32:51.428+02:00,137,2.325748,0,0,117.0835,0,0,2022-06-02T10:51:39.018+02:00,675852813.9008638,0,-24.26953,101.4845,1,0.87
436,2022-06-02T10:53:36.087+02:00,1654160015.000051,53.2290987820848,10.39878174484842,36.6998,0.3803752,0.3956704,-1.0,-1.0,3,24.00362482104263,-9999,34546.73958912501,2.496841430664062,-1.303192138671875,-3.006256103515625,34546.735838125,-1.082093146643815,0.7157114199922016,-0.1002830985414669,-1.138213872909546,-0.0008041727123782,-2.988457441329956,2.07402515411377,-1.454698801040649,-2.399463653564453,XArbitraryZVertical,0.1399320494461981,0.3240391638382918,-0.4968478210524749,0.792817688960909,0.6528578400611877,0.1001150980591774,-0.7508352994918823,0,0,0,-1,-1,34544.585804875,unknown,2,2022-06-02T10:53:33.901+02:00,2022-06-02T10:32:51.428+02:00,137,2.325748,0,0,117.0835,0,0,2022-06-02T10:51:39.018+02:00,675852813.9008638,0,-24.26953,101.4845,1,0.87
437,2022-06-02T10:53:36.092+02:00,1654160015.000051,53.2290987820848,10.39878174484842,36.6998,0.3803752,0.3956704,-1.0,-1.0,3,24.00362482104263,-9999,34546.74956112501,2.088226318359375,-1.3187255859375,-2.607345581054688,34546.745811125,-1.095119378353334,0.7141539313724691,-0.124489277599729,-0.8352810740470886,-0.0159966200590133,-2.131953001022339,1.643730521202087,-1.413978099822998,-2.066240310668945,XArbitraryZVertical,0.1318584736263695,0.3281972078865865,-0.5053861103976921,0.7870735774225889,0.6499095559120178,0.1241679787635803,-0.7497998476028442,0,0,0,-1,-1,34544.585804875,unknown,2,2022-06-02T10:53:33.901+02:00,2022-06-02T10:32:51.428+02:00,137,2.325748,0,0,117.0835,0,0,2022-06-02T10:51:39.018+02:00,675852813.9008638,0,-24.26953,101.4845,1,0.87
438,2022-06-02T10:53:36.096+02:00,1654160015.000051,53.2290987820848,10.39878174484842,36.6998,0.3803752,0.3956704,-1.0,-1.0,3,24.00362482104263,-9999,34546.75953412501,1.72607421875,-1.443862915039062,-2.381546020507812,34546.755784125,-1.103411362438194,0.7130490991448594,-0.1413684316711503,-0.6877187490463257,0.0334617421030998,-1.351385712623596,1.237590789794922,-1.520094156265259,-1.691329717636108,XArbitraryZVertical,0.1261139459648696,0.3311836037799131,-0.5109461548306825,0.7831645809671018,0.6476173996925354,0.1408980190753937,-0.7488253712654114,0,0,0,-1,-1,34544.585804875,unknown,2,2022-06-02T10:53:33.901+02:00,2022-06-02T10:32:51.428+02:00,137,2.325748,0,0,117.0835,0,0,2022-06-02T10:51:39.018+02:00,675852813.9008638,0,-24.26953,101.4845,1,0.87
439,2022-06-02T10:53:36.102+02:00,1654160015.000051,53.2290987820848,10.39878174484842,36.6998,0.3803752,0.3956704,-1.0,-1.0,3,24.00362482104263,-9999,34546.76950712501,1.52886962890625,-1.334213256835938,-2.27899169921875,34546.765756125,-1.1085327224439,0.7135319076307766,-0.151300571935167,-0.0163158271461725,0.2141197621822357,-0.750124990940094,0.9738034009933472,-1.588651180267334,-1.601566076278687,XArbitraryZVertical,0.123072592636942,0.3333831150246881,-0.5142109864886598,0.7805740626542472,0.6470310091972351,0.1507239788770676,-0.747417688369751,0,0,0,-1,-1,34544.585804875,unknown,2,2022-06-02T10:53:33.901+02:00,2022-06-02T10:32:51.428+02:00,137,2.325748,0,0,117.0835,0,0,2022-06-02T10:51:39.018+02:00,675852813.9008638,0,-24.26953,101.4845,1,0.87
440,2022-06-02T10:53:36.105+02:00,1654160015.000051,53.2290987820848,10.39878174484842,36.6998,0.3803752,0.3956704,-1.0,-1.0,3,24.00362482104263,-9999,34546.77947912501,1.400222778320312,-1.306503295898438,-2.081268310546875,34546.775729125,-1.114919661986981,0.7145918257025947,-0.1511105677342533,0.7807953953742981,0.1955609917640686,-0.1247191578149796,0.8066719770431519,-1.407784104347229,-1.43796980381012,XArbitraryZVertical,0.124487045276373,0.3333563124266618,-0.5166106739606767,0.7787746937243942,0.6478415727615356,0.1505361348390579,-0.7467530965805054,0,0,0,-1,-1,34544.585804875,unknown,2,2022-06-02T10:53:33.901+02:00,2022-06-02T10:32:51.428+02:00,137,2.325748,0,0,117.0835,0,0,2022-06-02T10:51:39.018+02:00,675852813.9008638,0,-24.26953,101.4845,1,0.87
441,2022-06-02T10:53:36.110+02:00,1654160015.000051,53.2290987820848,10.39878174484842,36.6998,0.3803752,0.3956704,-1.0,-1.0,3,24.00362482104263,-9999,34546.78945212501,1.531326293945312,-1.524551391601562,-1.925201416015625,34546.785701125,-1.11786131756591,0.7154654112555981,-0.1433039185385981,0.6903440356254578,0.0603351704776287,0.6940259337425232,0.7636885643005371,-1.575797319412231,-1.247501492500305,XArbitraryZVertical,0.1283480995332856,0.3316643011361934,-0.5166878724421043,0.7788191056310517,0.6492447853088379,0.1428139358758926,-0.7470511198043823,0,0,0,-1,-1,34544.585804875,unknown,2,2022-06-02T10:53:33.901+02:00,2022-06-02T10:32:51.428+02:00,137,2.325748,0,0,117.0835,0,0,2022-06-02T10:51:39.018+02:00,675852813.9008638,0,-24.26953,101.4845,1,0.87
442,2022-06-02T10:53:36.119+02:00,1654160015.000051,53.2290987820848,10.39878174484842,36.6998,0.3803752,0.3956704,-1.0,-1.0,3,24.00362482104263,-9999,34546.79942412501,1.866439819335938,-1.356399536132812,-1.933364868164062,34546.795674125,-1.11384327478652,0.7149129156228017,-0.1327877051102108,0.4024084210395813,-0.2896452248096466,1.23016893863678,1.057952642440796,-1.638272404670715,-1.138109445571899,XArbitraryZVertical,0.1317777160459107,0.3292163278277098,-0.5137789487032136,0.7812057543084917,0.6497806310653687,0.1323978155851364,-0.7485024929046631,0,0,0,-1,-1,34544.585804875,unknown,2,2022-06-02T10:53:33.901+02:00,2022-06-02T10:32:51.428+02:00,137,2.325748,0,0,117.0835,0,0,2022-06-02T10:51:39.018+02:00,675852813.9008638,0,-24.26953,101.4845,1,0.87
443,2022-06-02T10:53:36.132+02:00,1654160015.000051,53.2290987820848,10.39878174484842,36.6998,0.3803752,0.3956704,-1.0,-1.0,3,24.00362482104263,-9999,34546.80939712501,1.938827514648438,-0.922119140625,-2.1495361328125,34546.805647125,-1.105045088940999,0.7114552018231963,-0.1204508996547829,0.3562279939651489,-0.5988523364067078,1.764389634132385,1.297244071960449,-1.245083570480347,-1.298002004623413,XArbitraryZVertical,0.1344290183486728,0.3255249259269055,-0.5089289888026026,0.7854639317559995,0.6482058167457581,0.120159849524498,-0.7519246935844421,0,0,0,-1,-1,34544.585804875,unknown,2,2022-06-02T10:53:33.901+02:00,2022-06-02T10:32:51.428+02:00,137,2.325748,0,0,117.0835,0,0,2022-06-02T10:51:39.018+02:00,675852813.9008638,0,-24.26953,101.4845,1,0.87
444,2022-06-02T10:53:36.140+02:00,1654160015.000051,53.2290987820848,10.39878174484842,36.6998,0.3803752,0.3956704,-1.0,-1.0,3,24.00362482104263,-9999,34546.81937012501,1.887939453125,-0.6826934814453125,-2.163192749023438,34546.815619125,-1.092015054143312,0.7060276116104899,-0.1031567278651665,0.6050109267234802,-0.7675817012786865,2.461612701416016,1.256076335906982,-0.8899306058883667,-1.435864210128784,XArbitraryZVertical,0.1379476652491518,0.320188044133881,-0.5018426318117184,0.7915833504775885,0.6453670859336853,0.1029738709330559,-0.7569001317024231,0,0,0,-1,-1,34544.585804875,unknown,2,2022-06-02T10:53:33.901+02:00,2022-06-02T10:32:51.428+02:00,137,2.325748,0,0,117.0835,0,0,2022-06-02T10:51:39.018+02:00,675852813.9008638,0,-24.26953,101.4845,1,0.87
445,2022-06-02T10:53:36.150+02:00,1654160015.000051,53.2290987820848,10.39878174484842,36.6998,0.3803752,0.3956704,-1.0,-1.0,3,24.00362482104263,-9999,34546.82934212501,1.968521118164062,-0.4454345703125,-2.020599365234375,34546.825592125,-1.075616863404045,0.699176557426875,-0.079417438038416,0.8982270956039429,-0.9044921398162842,3.102789402008057,1.279659748077393,-0.6515995860099792,-1.328699469566345,XArbitraryZVertical,0.1432826617252817,0.3130336232712034,-0.4925689256980315,0.7992847376022751,0.6415591835975647,0.079333983361721,-0.7629600763320923,0,0,0,-1,-1,34544.585804875,unknown,2,2022-06-02T10:53:33.901+02:00,2022-06-02T10:32:51.428+02:00,137,2.325748,0,0,117.0835,0,0,2022-06-02T10:51:39.018+02:00,675852813.9008638,0,-24.26953,101.4845,1,0.87
446,2022-06-02T10:53:36.161+02:00,1654160015.000051,53.2290987820848,10.39878174484842,36.6998,0.3803752,0.3956704,-1.0,-1.0,3,24.00362482104263,-9999,34546.83931512501,2.006317138671875,-0.1619415283203125,-1.941482543945312,34546.835565125,-1.055812870020419,0.6910674779090775,-0.0499325807207304,1.085826754570007,-0.9542633891105652,3.740113735198975,1.358108997344971,-0.3550418317317963,-1.205339431762695,XArbitraryZVertical,0.15026761933075,0.3043300817746823,-0.4811094876153476,0.8082923864921503,0.6365657448768616,0.0499118342995643,-0.7696056962013245,0,0,0,-1,-1,34544.585804875,unknown,2,2022-06-02T10:53:33.901+02:00,2022-06-02T10:32:51.428+02:00,137,2.325748,0,0,117.0835,0,0,2022-06-02T10:51:39.018+02:00,675852813.9008638,0,-24.26953,101.4845,1,0.87
