,loggingTime(txt),locationTimestamp_since1970(s),locationLatitude(WGS84),locationLongitude(WGS84),locationAltitude(m),locationSpeed(m/s),locationSpeedAccuracy(m/s),locationCourse(°),locationCourseAccuracy(°),locationVerticalAccuracy(m),locationHorizontalAccuracy(m),locationFloor(Z),accelerometerTimestamp_sinceReboot(s),accelerometerAccelerationX(G),accelerometerAccelerationY(G),accelerometerAccelerationZ(G),motionTimestamp_sinceReboot(s),motionYaw(rad),motionRoll(rad),motionPitch(rad),motionRotationRateX(rad/s),motionRotationRateY(rad/s),motionRotationRateZ(rad/s),motionUserAccelerationX(G),motionUserAccelerationY(G),motionUserAccelerationZ(G),motionAttitudeReferenceFrame(txt),motionQuaternionX(R),motionQuaternionY(R),motionQuaternionZ(R),motionQuaternionW(R),motionGravityX(G),motionGravityY(G),motionGravityZ(G),motionMagneticFieldX(µT),motionMagneticFieldY(µT),motionMagneticFieldZ(µT),motionHeading(°),motionMagneticFieldCalibrationAccuracy(Z),activityTimestamp_sinceReboot(s),activity(txt),activityActivityConfidence(Z),activityActivityStartDate(txt),pedometerStartDate(txt),pedometerNumberofSteps(N),pedometerAverageActivePace(s/m),pedometerCurrentPace(s/m),pedometerCurrentCadence(steps/s),pedometerDistance(m),pedometerFloorAscended(N),pedometerFloorDescended(N),pedometerEndDate(txt),altimeterTimestamp_sinceReboot(s),altimeterReset(bool),altimeterRelativeAltitude(m),altimeterPressure(kPa),batteryState(N),batteryLevel(R)
387,2022-06-02T10:54:48.260+02:00,1654160083.915406,53.22872973328403,10.39855971667389,42.63859,-1.0,-1.0,-1.0,-1.0,57.66228103637695,45.752,-9999,34615.136647,-0.269073486328125,0.225250244140625,0.675872802734375,34615.132897,3.043353233009719,-1.354806635251869,0.3598863053068543,-3.230408191680908,-5.759308815002441,7.495376110076904,0.6122645139694214,0.4966075122356415,0.6963579654693604,XArbitraryZVertical,0.6227554105352584,0.1090109882314398,0.7601893647717982,0.1496814267277555,-0.9141902327537536,-0.3521678149700165,-0.2005846053361893,0,0,0,-1,-1,34614.81932900001,unknown,2,2022-06-02T10:54:47.938+02:00,2022-06-02T10:32:51.428+02:00,153,2.336344,0,0,129.7851,0,0,2022-06-02T10:54:47.938+02:00,675852887.9380348,0,-25.03906,101.493,1,0.86
388,2022-06-02T10:54:48.270+02:00,1654160083.915406,53.22872973328403,10.39855971667389,42.63859,-1.0,-1.0,-1.0,-1.0,57.66228103637695,45.752,-9999,34615.14662,-0.28851318359375,0.396697998046875,0.9010162353515624,34615.142869,3.014467646309479,-1.407200376633458,0.274751013621589,-5.421404838562012,-6.572175025939941,8.210538864135742,0.6795610189437866,0.5732024908065796,0.9665729403495787,XArbitraryZVertical,0.6462105605320476,0.0635032492980715,0.7481810670822485,0.1363978329182577,-0.9496415853500366,-0.2713072896003723,-0.1567585021257401,0,0,0,-1,-1,34614.81932900001,unknown,2,2022-06-02T10:54:47.938+02:00,2022-06-02T10:32:51.428+02:00,153,2.336344,0,0,129.7851,0,0,2022-06-02T10:54:47.938+02:00,675852887.9380348,0,-25.03906,101.493,1,0.86
389,2022-06-02T10:54:48.280+02:00,1654160083.915406,53.22872973328403,10.39855971667389,42.63859,-1.0,-1.0,-1.0,-1.0,57.66228103637695,45.752,-9999,34615.156592,-0.2817535400390625,0.6993865966796875,1.008132934570312,34615.152842,2.960811292922104,-1.465299082578616,0.1823918250548743,-7.421364784240723,-7.532342433929443,8.737444877624512,0.6822299361228943,0.7128152847290039,1.071938753128052,XArbitraryZVertical,0.6694544001914055,0.0073012872205116,0.7317951328939015,0.1274890030790637,-0.9779452681541444,-0.1813822388648987,-0.1035549938678741,0,0,0,-1,-1,34614.81932900001,unknown,2,2022-06-02T10:54:47.938+02:00,2022-06-02T10:32:51.428+02:00,153,2.336344,0,0,129.7851,0,0,2022-06-02T10:54:47.938+02:00,675852887.9380348,0,-25.03906,101.493,1,0.86
390,2022-06-02T10:54:48.290+02:00,1654160083.915406,53.22872973328403,10.39855971667389,42.63859,-1.0,-1.0,-1.0,-1.0,57.66228103637695,45.752,-9999,34615.166565,-0.27105712890625,1.018753051757812,1.03619384765625,34615.162815,2.883387456246298,-1.535546341127817,0.0874391576457196,-9.257853507995604,-8.640654563903809,9.169913291931152,0.7267619371414185,0.9566057324409484,1.065030574798584,XArbitraryZVertical,0.6921449601817607,-0.0581492000492331,0.7088818645235935,0.1226402096424276,-0.995560884475708,-0.0873277783393859,-0.0351080484688282,0,0,0,-1,-1,34614.81932900001,unknown,2,2022-06-02T10:54:47.938+02:00,2022-06-02T10:32:51.428+02:00,153,2.336344,0,0,129.7851,0,0,2022-06-02T10:54:47.938+02:00,675852887.9380348,0,-25.03906,101.493,1,0.86
391,2022-06-02T10:54:48.300+02:00,1654160083.915406,53.22872973328403,10.39855971667389,42.63859,-1.0,-1.0,-1.0,-1.0,57.66228103637695,45.752,-9999,34615.176538,-0.38836669921875,1.276290893554688,1.1373291015625,34615.172787,2.782807148340045,-1.623671864488513,-0.0052072749844892,-10.67939281463623,-9.866660118103027,9.586346626281738,0.6874163746833801,1.142497777938843,1.013479828834534,XArbitraryZVertical,0.7135862103415934,-0.1312243040457009,0.6774588574180118,0.1209320473237357,-0.998589038848877,0.005207251291722,0.0528501942753791,0,0,0,-1,-1,34614.81932900001,unknown,2,2022-06-02T10:54:47.938+02:00,2022-06-02T10:32:51.428+02:00,153,2.336344,0,0,129.7851,0,0,2022-06-02T10:54:47.938+02:00,675852887.9380348,0,-25.03906,101.493,1,0.86
392,2022-06-02T10:54:48.310+02:00,1654160083.915406,53.22872973328403,10.39855971667389,42.63859,-1.0,-1.0,-1.0,-1.0,57.66228103637695,45.752,-9999,34615.18651,-0.530242919921875,1.497711181640625,1.357513427734375,34615.18276,2.662267450918414,-1.735031229872144,-0.0901888693082132,-11.45266723632812,-11.30656051635742,9.906282424926758,0.5060784816741943,1.307974100112915,1.0683833360672,XArbitraryZVertical,0.733250904443293,-0.2091881066410334,0.6357619548283872,0.1199596384036761,-0.9825342893600464,0.0900666490197181,0.162833109498024,0,0,0,-1,-1,34614.81932900001,unknown,2,2022-06-02T10:54:47.938+02:00,2022-06-02T10:32:51.428+02:00,153,2.336344,0,0,129.7851,0,0,2022-06-02T10:54:47.938+02:00,675852887.9380348,0,-25.03906,101.493,1,0.86
393,2022-06-02T10:54:48.320+02:00,1654160083.915406,53.22872973328403,10.39855971667389,42.63859,-1.0,-1.0,-1.0,-1.0,57.66228103637695,45.752,-9999,34615.196483,-0.3713836669921875,1.55712890625,1.7821044921875,34615.192733,2.526145238694891,-1.872895975454769,-0.1589459818512207,-11.69413280487061,-12.89611434936523,9.64836883544922,0.4337988495826721,1.392518997192383,1.248491883277893,XArbitraryZVertical,0.7509481590378203,-0.2880353929228269,0.582398759946996,0.1180010539673086,-0.942679524421692,0.1582775563001633,0.2937750518321991,0,0,0,-1,-1,34614.81932900001,unknown,2,2022-06-02T10:54:47.938+02:00,2022-06-02T10:32:51.428+02:00,153,2.336344,0,0,129.7851,0,0,2022-06-02T10:54:47.938+02:00,675852887.9380348,0,-25.03906,101.493,1,0.86
394,2022-06-02T10:54:48.330+02:00,1654160083.915406,53.22872973328403,10.39855971667389,42.63859,-1.0,-1.0,-1.0,-1.0,57.66228103637695,45.752,-9999,34615.206455,0.2088775634765625,1.486602783203125,2.312759399414062,34615.202705,2.38117082254143,-2.035276214885045,-0.2019698483744511,-11.7041015625,-14.36491203308105,9.025343894958496,0.7614712119102478,1.331215023994446,1.618108749389648,XArbitraryZVertical,0.766424341620751,-0.3633454244951321,0.5172065132088358,0.1143294282401878,-0.8758814930915833,0.2005995213985443,0.4388523399829865,0,0,0,-1,-1,34614.81932900001,unknown,2,2022-06-02T10:54:47.938+02:00,2022-06-02T10:32:51.428+02:00,153,2.336344,0,0,129.7851,0,0,2022-06-02T10:54:47.938+02:00,675852887.9380348,0,-25.03906,101.493,1,0.86
395,2022-06-02T10:54:48.340+02:00,1654160083.915406,53.22872973328403,10.39855971667389,42.63859,-1.0,-1.0,-1.0,-1.0,57.66228103637695,45.752,-9999,34615.216428,0.8701934814453125,1.3109130859375,2.847152709960938,34615.212678,2.230695589422107,-2.215964807198095,-0.2130456739900989,-12.37330055236816,-15.55916690826416,8.373933792114258,1.307866096496582,1.197238445281982,1.997680902481079,XArbitraryZVertical,0.7781523604157997,-0.4339906272230493,0.4405311122448302,0.1098339248292787,-0.7809344530105591,0.2114376872777939,0.5877379179000854,0,0,0,-1,-1,34614.81932900001,unknown,2,2022-06-02T10:54:47.938+02:00,2022-06-02T10:32:51.428+02:00,153,2.336344,0,0,129.7851,0,0,2022-06-02T10:54:47.938+02:00,675852887.9380348,0,-25.03906,101.493,1,0.86
396,2022-06-02T10:54:48.350+02:00,1654160083.915406,53.22872973328403,10.39855971667389,42.63859,-1.0,-1.0,-1.0,-1.0,57.66228103637695,45.752,-9999,34615.226401,2.188522338867188,1.309600830078125,3.734039306640625,34615.22265,2.078577800113146,-2.406916890037852,-0.1827837930421545,-13.96048164367676,-16.89276695251465,7.300970077514648,2.080963134765625,1.112971067428589,2.437885284423828,XArbitraryZVertical,0.7845646279487956,-0.4993012445522888,0.3514658778333977,0.1078349704994337,-0.6591796875,0.1817676872014999,0.7296867966651917,0,0,0,-1,-1,34614.81932900001,unknown,2,2022-06-02T10:54:47.938+02:00,2022-06-02T10:32:51.428+02:00,153,2.336344,0,0,129.7851,0,0,2022-06-02T10:54:47.938+02:00,675852887.9380348,0,-25.03906,101.493,1,0.86
397,2022-06-02T10:54:48.360+02:00,1654160083.915406,53.22872973328403,10.39855971667389,42.63859,-1.0,-1.0,-1.0,-1.0,57.66228103637695,45.752,-9999,34615.236373,4.476593017578125,1.459243774414062,5.374664306640625,34615.232623,1.937712030813917,-2.610344058733435,-0.1078005641400755,-14.41324520111084,-19.95050239562988,6.500088214874268,3.70885443687439,1.236676931381226,3.663657903671265,XArbitraryZVertical,0.7861682641865879,-0.5572473707478072,0.2454940190389689,0.1055816588270373,-0.5036694407463074,0.1075918972492218,0.8571703433990479,0,0,0,-1,-1,34614.81932900001,unknown,2,2022-06-02T10:54:47.938+02:00,2022-06-02T10:32:51.428+02:00,153,2.336344,0,0,129.7851,0,0,2022-06-02T10:54:47.938+02:00,675852887.9380348,0,-25.03906,101.493,1,0.86
398,2022-06-02T10:54:48.370+02:00,1654160083.915406,53.22872973328403,10.39855971667389,42.63859,-1.0,-1.0,-1.0,-1.0,57.66228103637695,45.752,-9999,34615.246346,6.179183959960938,1.935272216796875,6.640151977539062,34615.242596,1.819723477205881,-2.83373569233216,-0.0172663090519994,-11.64559364318848,-23.07699394226074,7.805888652801514,5.882866859436035,1.663551211357117,5.137427806854248,XArbitraryZVertical,0.7792435141389359,-0.6076193111936191,0.1262670471445778,0.0873790662419147,-0.3029719591140747,0.0172654520720243,0.9528433680534364,0,0,0,-1,-1,34614.81932900001,unknown,2,2022-06-02T10:54:47.938+02:00,2022-06-02T10:32:51.428+02:00,153,2.336344,0,0,129.7851,0,0,2022-06-02T10:54:47.938+02:00,675852887.9380348,0,-25.03906,101.493,1,0.86
399,2022-06-02T10:54:48.380+02:00,1654160083.915406,53.22872973328403,10.39855971667389,42.63859,-1.0,-1.0,-1.0,-1.0,57.66228103637695,45.752,-9999,34615.256319,7.064163208007812,2.041900634765625,7.087020874023438,34615.252568,1.717126609420881,-3.066643476365312,0.0667636471520389,-8.807250022888184,-23.6985034942627,9.071700096130373,6.593495845794678,2.145968198776245,5.89650821685791,XArbitraryZVertical,0.7567688268102197,-0.6517565522936896,0.0065457387575854,0.0497156550632764,-0.0747122317552566,-0.0667140632867813,0.9949713349342346,0,0,0,-1,-1,34614.81932900001,unknown,2,2022-06-02T10:54:47.938+02:00,2022-06-02T10:32:51.428+02:00,153,2.336344,0,0,129.7851,0,0,2022-06-02T10:54:47.938+02:00,675852887.9380348,0,-25.03906,101.493,1,0.86
400,2022-06-02T10:54:48.390+02:00,1654160083.915406,53.22872973328403,10.39855971667389,42.63859,-1.0,-1.0,-1.0,-1.0,57.66228103637695,45.752,-9999,34615.266291,9.0054931640625,1.452011108398438,8.582977294921875,34615.262541,1.618560957350757,2.997081725944099,0.1372268204387125,-4.543056011199951,-21.6606559753418,11.22261524200439,7.824538707733154,1.95309591293335,6.600399494171143,XArbitraryZVertical,0.716788431734068,-0.6901820652557853,-0.0993134152406615,-0.0002037848557502,0.1426547169685364,-0.1367965340614319,0.9802739024162292,0,0,0,-1,-1,34614.81932900001,unknown,2,2022-06-02T10:54:47.938+02:00,2022-06-02T10:32:51.428+02:00,153,2.336344,0,0,129.7851,0,0,2022-06-02T10:54:47.938+02:00,675852887.9380348,0,-25.03906,101.493,1,0.86
401,2022-06-02T10:54:48.400+02:00,1654160083.915406,53.22872973328403,10.39855971667389,42.63859,-1.0,-1.0,-1.0,-1.0,57.66228103637695,45.752,-9999,34615.276264,10.04011535644531,0.4651947021484375,11.71160888671875,34615.272514,1.503883568876045,2.818483773074599,0.1950109868108803,-1.870102643966675,-17.8489818572998,13.41753005981445,9.439860343933104,1.14967930316925,9.105655670166016,XArbitraryZVertical,0.6595246602026872,-0.7281257091482657,-0.1795256852338402,-0.0512924112539681,0.3114978671073914,-0.1937773078680038,0.9302796721458436,0,0,0,-1,-1,34614.81932900001,unknown,2,2022-06-02T10:54:47.938+02:00,2022-06-02T10:32:51.428+02:00,153,2.336344,0,0,129.7851,0,0,2022-06-02T10:54:47.938+02:00,675852887.9380348,0,-25.03906,101.493,1,0.86
402,2022-06-02T10:54:48.410+02:00,1654160083.915406,53.22872973328403,10.39855971667389,42.63859,-1.0,-1.0,-1.0,-1.0,57.66228103637695,45.752,-9999,34615.286236,10.08726501464844,-0.0193634033203125,14.07398986816406,34615.282486,1.375456280743597,2.689286319905562,0.2682096836820613,-2.315402746200562,-13.7676305770874,15.41652774810791,9.638505935668944,0.3592591285705566,12.28806591033936,XArbitraryZVertical,0.5898995479798145,-0.7652844804175931,-0.241740162340571,-0.0889934854546564,0.4214154779911041,-0.2650055587291718,0.8672836422920227,0,0,0,-1,-1,34614.81932900001,unknown,2,2022-06-02T10:54:47.938+02:00,2022-06-02T10:32:51.428+02:00,153,2.336344,0,0,129.7851,0,0,2022-06-02T10:54:47.938+02:00,675852887.9380348,0,-25.03906,101.493,1,0.86
403,2022-06-02T10:54:48.420+02:00,1654160083.915406,53.22872973328403,10.39855971667389,42.63859,-1.0,-1.0,-1.0,-1.0,57.66228103637695,45.752,-9999,34615.296209,10.6663818359375,0.861785888671875,15.13946533203125,34615.292459,1.234452715365332,2.624148279489496,0.3691629710192713,-2.621817588806152,-7.889207363128662,17.8982982635498,9.812804222106934,0.5838115215301514,13.85760116577148,XArbitraryZVertical,0.511715638404547,-0.8021315278624385,-0.2902508713024669,-0.1024043643438594,0.4613353610038757,-0.360834926366806,0.8105357885360718,0,0,0,-1,-1,34614.81932900001,unknown,2,2022-06-02T10:54:47.938+02:00,2022-06-02T10:32:51.428+02:00,153,2.336344,0,0,129.7851,0,0,2022-06-02T10:54:47.938+02:00,675852887.9380348,0,-25.03906,101.493,1,0.86
404,2022-06-02T10:54:48.430+02:00,1654160083.915406,53.22872973328403,10.39855971667389,42.63859,-1.0,-1.0,-1.0,-1.0,57.66228103637695,45.752,-9999,34615.306182,11.63485717773438,2.53875732421875,15.14680480957031,34615.302431,1.057399255903978,2.655698028361988,0.4793190019988571,-0.7353367805480957,-0.2173002660274506,21.13909149169922,10.73467445373535,2.183724403381348,14.56734943389893,XArbitraryZVertical,0.426298162756747,-0.8429559676588475,-0.3168181151600208,-0.0855650121262448,0.4143730401992798,-0.4611750245094299,0.7846097946166992,0,0,0,-1,-1,34614.81932900001,unknown,2,2022-06-02T10:54:47.938+02:00,2022-06-02T10:32:51.428+02:00,153,2.336344,0,0,129.7851,0,0,2022-06-02T10:54:47.938+02:00,675852887.9380348,0,-25.03906,101.493,1,0.86
405,2022-06-02T10:54:48.440+02:00,1654160083.915406,53.22872973328403,10.39855971667389,42.63859,-1.0,-1.0,-1.0,-1.0,57.66228103637695,45.752,-9999,34615.316154,13.0477294921875,3.969131469726562,13.06048583984375,34615.312404,0.8188682375774686,2.820051065172784,0.563278823347142,1.974465608596802,9.422369956970217,23.33397102355957,11.91878318786621,3.77241039276123,13.5475549697876,XArbitraryZVertical,0.3366609077444889,-0.8875514797709827,-0.3128861056254052,-0.0318476456935851,0.2672058939933777,-0.5339613556861877,0.8021764159202576,0,0,0,-1,-1,34614.81932900001,unknown,2,2022-06-02T10:54:47.938+02:00,2022-06-02T10:32:51.428+02:00,153,2.336344,0,0,129.7851,0,0,2022-06-02T10:54:47.938+02:00,675852887.9380348,0,-25.03906,101.493,1,0.86
406,2022-06-02T10:54:48.450+02:00,1654160083.915406,53.22872973328403,10.39855971667389,42.63859,-1.0,-1.0,-1.0,-1.0,57.66228103637695,45.752,-9999,34615.326127,15.34989929199219,5.98016357421875,10.0054931640625,34615.322377,0.5368128781642146,3.123521634485786,0.566481877312809,6.061402797698975,20.84728240966797,23.66810035705566,14.1585807800293,5.413070678710938,10.74675178527832,XArbitraryZVertical,0.2521833922728513,-0.9264080560269558,-0.2717521061533843,0.065746049528584,0.0152473961934447,-0.5366668105125427,0.8436567187309265,0,0,0,-1,-1,34614.81932900001,unknown,2,2022-06-02T10:54:47.938+02:00,2022-06-02T10:32:51.428+02:00,153,2.336344,0,0,129.7851,0,0,2022-06-02T10:54:47.938+02:00,675852887.9380348,0,-25.03906,101.493,1,0.86
407,2022-06-02T10:54:48.460+02:00,1654160083.915406,53.22872973328403,10.39855971667389,42.63859,-1.0,-1.0,-1.0,-1.0,57.66228103637695,45.752,-9999,34615.3361,18.09095764160156,8.672225952148438,6.216384887695312,34615.332349,0.2990492812006123,-2.773625887480619,0.4399927100313236,12.24663066864014,32.85227584838867,21.66005516052246,16.84826850891113,7.641844749450684,7.353532314300537,XArbitraryZVertical,0.1824024960487616,-0.9427750901538872,-0.1855527003564466,0.2085057591793326,-0.3254575133323669,-0.4259328842163086,0.8441910743713379,0,0,0,-1,-1,34614.81932900001,unknown,2,2022-06-02T10:54:47.938+02:00,2022-06-02T10:32:51.428+02:00,153,2.336344,0,0,129.7851,0,0,2022-06-02T10:54:47.938+02:00,675852887.9380348,0,-25.03906,101.493,1,0.86
408,2022-06-02T10:54:48.470+02:00,1654160083.915406,53.22872973328403,10.39855971667389,42.63859,-1.0,-1.0,-1.0,-1.0,57.66228103637695,45.752,-9999,34615.346072,26.491943359375,13.41493225097656,1.7037353515625,34615.342322,0.2221592321376971,-2.399927466322451,0.2046384900145423,21.02115631103516,35.29022216796875,15.78105068206787,21.7313060760498,10.86201190948486,3.423670291900635,XArbitraryZVertical,0.1395628041984286,-0.9173342223176092,-0.054649687048566,0.3688273195077236,-0.6614217162132263,-0.2032131999731064,0.7219597101211548,0,0,0,-1,-1,34614.81932900001,unknown,2,2022-06-02T10:54:47.938+02:00,2022-06-02T10:32:51.428+02:00,153,2.336344,0,0,129.7851,0,0,2022-06-02T10:54:47.938+02:00,675852887.9380348,0,-25.03906,101.493,1,0.86
409,2022-06-02T10:54:48.480+02:00,1654160083.915406,53.22872973328403,10.39855971667389,42.63859,-1.0,-1.0,-1.0,-1.0,57.66228103637695,45.752,-9999,34615.356045,32.58840942382812,16.58245849609375,-1.65478515625,34615.352294,0.379558679657666,-2.054764183494016,-0.0432588304648705,36.01263046264648,35.34360885620117,2.899357080459595,32.31714248657227,16.13932609558105,0.2617942690849304,XArbitraryZVertical,0.1504481048592272,-0.8424934776338056,0.1156966357658443,0.5041671423751583,-0.8843277096748352,0.0432453416287899,0.4648597836494446,0,0,0,-1,-1,34614.81932900001,unknown,2,2022-06-02T10:54:47.938+02:00,2022-06-02T10:32:51.428+02:00,153,2.336344,0,0,129.7851,0,0,2022-06-02T10:54:47.938+02:00,675852887.9380348,0,-25.03906,101.493,1,0.86
410,2022-06-02T10:54:48.490+02:00,1654160083.915406,53.22872973328403,10.39855971667389,42.63859,-1.0,-1.0,-1.0,-1.0,57.66228103637695,45.752,-9999,34615.366017,25.97561645507812,19.47093200683594,-11.7152099609375,34615.362267,0.7332570878603982,-1.669959870128101,-0.0928062880756088,35.88348770141602,35.22980499267578,-17.89309120178223,33.11693572998047,13.54680728912354,-9.685230255126951,XArbitraryZVertical,0.2363766360071732,-0.7024340650563813,0.2724437589751264,0.6135852452086659,-0.9908050298690796,0.092673122882843,0.0985750630497932,0,0,0,-1,-1,34614.81932900001,unknown,2,2022-06-02T10:54:47.938+02:00,2022-06-02T10:32:51.428+02:00,153,2.336344,0,0,129.7851,0,0,2022-06-02T10:54:47.938+02:00,675852887.9380348,0,-25.03906,101.493,1,0.86
411,2022-06-02T10:54:48.500+02:00,1654160083.915406,53.22872973328403,10.39855971667389,42.63859,-1.0,-1.0,-1.0,-1.0,57.66228103637695,45.752,-9999,34615.37599,30.503173828125,32.42597961425781,17.2293701171875,34615.37224,1.069625235512377,-1.323550665909447,0.1580521371862634,35.85019302368164,35.20141983032227,-23.25680732727051,26.81683349609375,30.17198181152344,0.5290831327438354,XArbitraryZVertical,0.365812762749481,-0.4953171629067623,0.3590944305245087,0.7013508598026508,-0.9575048685073853,-0.1573949158191681,-0.2416838556528091,0,0,0,-1,-1,34614.81932900001,unknown,2,2022-06-02T10:54:47.938+02:00,2022-06-02T10:32:51.428+02:00,153,2.336344,0,0,129.7851,0,0,2022-06-02T10:54:47.938+02:00,675852887.9380348,0,-25.03906,101.493,1,0.86
412,2022-06-02T10:54:48.510+02:00,1654160083.915406,53.22872973328403,10.39855971667389,42.63859,-1.0,-1.0,-1.0,-1.0,57.66228103637695,45.752,-9999,34615.385963,32.65054321289062,-11.97987365722656,32.1075439453125,34615.382212,1.362357061937524,-1.218829841920809,0.3967992945813753,29.3397331237793,-7.412056922912598,-6.539194583892822,33.38603973388672,17.9804630279541,30.4137077331543,XArbitraryZVertical,0.478917938619611,-0.3341530574605316,0.4185810407439384,0.6955352087748754,-0.8657623529434204,-0.3864683210849762,-0.3179586827754974,0,0,0,-1,-1,34614.81932900001,unknown,2,2022-06-02T10:54:47.938+02:00,2022-06-02T10:32:51.428+02:00,153,2.336344,0,0,129.7851,0,0,2022-06-02T10:54:47.938+02:00,675852887.9380348,0,-25.03906,101.493,1,0.86
413,2022-06-02T10:54:48.520+02:00,1654160083.915406,53.22872973328403,10.39855971667389,42.63859,-1.0,-1.0,-1.0,-1.0,57.66228103637695,45.752,-9999,34615.395935,20.73109436035156,-27.3824462890625,3.364242553710938,34615.392185,1.61727059928392,-1.535901253058332,0.6000799032993778,20.03680038452148,-22.0168342590332,-27.06898880004883,30.41412734985352,-29.78059768676758,20.6680908203125,XArbitraryZVertical,0.6268338427511437,-0.3044387761888532,0.3553165065626132,0.623014114903591,-0.8247881531715393,-0.564708411693573,-0.028792729601264,0,0,0,-1,-1,34614.81932900001,unknown,2,2022-06-02T10:54:47.938+02:00,2022-06-02T10:32:51.428+02:00,153,2.336344,0,0,129.7851,0,0,2022-06-02T10:54:47.938+02:00,675852887.9380348,0,-25.03906,101.493,1,0.86
414,2022-06-02T10:54:48.530+02:00,1654160083.915406,53.22872973328403,10.39855971667389,42.63859,-1.0,-1.0,-1.0,-1.0,57.66228103637695,45.752,-9999,34615.405908,12.32972717285156,-4.230926513671875,-3.248992919921875,34615.402158,1.821831291536,-1.834045426433071,0.8837179685936611,4.483622550964355,-11.91416263580322,-28.85963821411133,15.80717849731445,-13.92225551605225,-3.037274837493896,XArbitraryZVertical,0.7263475682159897,-0.2344040776730932,0.2262720851958885,0.6052065785417877,-0.6124301552772522,-0.7731024622917175,0.1650521159172058,0,0,0,-1,-1,34614.81932900001,unknown,2,2022-06-02T10:54:47.938+02:00,2022-06-02T10:32:51.428+02:00,153,2.336344,0,0,129.7851,0,0,2022-06-02T10:54:47.938+02:00,675852887.9380348,0,-25.03906,101.493,1,0.86
415,2022-06-02T10:54:48.540+02:00,1654160083.915406,53.22872973328403,10.39855971667389,42.63859,-1.0,-1.0,-1.0,-1.0,57.66228103637695,45.752,-9999,34615.415881,11.2142333984375,-1.102340698242188,-4.15313720703125,34615.41213,2.017238121020574,-2.085824243015313,1.099164663096726,0.522776186466217,-5.237762928009033,-19.35727500915527,11.53547859191895,0.5142412781715393,-3.966312646865845,XArbitraryZVertical,0.7635289688156857,-0.1700537506736083,0.122907500692864,0.6107364256220783,-0.3954029083251953,-0.8908281326293945,0.2237895280122757,0,0,0,-1,-1,34614.81932900001,unknown,2,2022-06-02T10:54:47.938+02:00,2022-06-02T10:32:51.428+02:00,153,2.336344,0,0,129.7851,0,0,2022-06-02T10:54:47.938+02:00,675852887.9380348,0,-25.03906,101.493,1,0.86
416,2022-06-02T10:54:48.550+02:00,1654160083.915406,53.22872973328403,10.39855971667389,42.63859,-1.0,-1.0,-1.0,-1.0,57.66228103637695,45.752,-9999,34615.425853,11.49278259277344,-4.944061279296875,-1.000823974609375,34615.422103,2.258366079008227,-2.342417242679665,1.227474379051354,-1.338570833206177,-2.999064207077026,-12.51052570343018,11.72374820709229,-2.35457706451416,-3.159603357315063,XArbitraryZVertical,0.7766118093288503,-0.1193113771747013,0.0607689984367836,0.6155858650167445,-0.2412806451320648,-0.941641628742218,0.2347222119569778,0,0,0,-1,-1,34614.81932900001,unknown,2,2022-06-02T10:54:47.938+02:00,2022-06-02T10:32:51.428+02:00,153,2.336344,0,0,129.7851,0,0,2022-06-02T10:54:47.938+02:00,675852887.9380348,0,-25.03906,101.493,1,0.86
417,2022-06-02T10:54:48.559+02:00,1654160083.915406,53.22872973328403,10.39855971667389,42.63859,-1.0,-1.0,-1.0,-1.0,57.66228103637695,45.752,-9999,34615.435826,10.03788757324219,-4.487213134765625,-1.088302612304688,34615.432075,2.444498594569707,-2.562863582255438,1.333834614619582,-7.93735933303833,-5.421581745147705,-9.694869995117188,11.22953414916992,-4.346639156341553,-0.6608633995056152,XArbitraryZVertical,0.7680656386207225,-0.0913057954335579,0.0082443917350606,0.6337747530762924,-0.1283990889787674,-0.9720556735992432,0.1965231448411942,0,0,0,-1,-1,34614.81932900001,unknown,2,2022-06-02T10:54:47.938+02:00,2022-06-02T10:32:51.428+02:00,153,2.336344,0,0,129.7851,0,0,2022-06-02T10:54:47.938+02:00,675852887.9380348,0,-25.03906,101.493,1,0.86
418,2022-06-02T10:54:48.570+02:00,1654160083.915406,53.22872973328403,10.39855971667389,42.63859,-1.0,-1.0,-1.0,-1.0,57.66228103637695,45.752,-9999,34615.445798,8.187637329101562,-1.478469848632812,-2.475845336914062,34615.442048,2.763916599640122,-2.939631948017042,1.457909543304711,-9.859042167663574,-6.737469673156738,-9.964920043945312,8.906843185424805,-1.996339917182922,-2.132452726364136,XArbitraryZVertical,0.7414845400815632,-0.0733458786819169,-0.0505462645571487,0.6650309459943492,-0.0225960109382867,-0.9936350584030152,0.1103578805923462,0,0,0,-1,-1,34614.81932900001,unknown,2,2022-06-02T10:54:47.938+02:00,2022-06-02T10:32:51.428+02:00,153,2.336344,0,0,129.7851,0,0,2022-06-02T10:54:47.938+02:00,675852887.9380348,0,-25.03906,101.493,1,0.86
419,2022-06-02T10:54:48.580+02:00,1654160088.319057,53.22910666804312,10.39861054569569,36.27478,0.04824361,0.6887171,-1.0,-1.0,81.50042724609375,64.0,-9999,34615.455771,7.812835693359375,-0.44708251953125,-2.620376586914062,34615.452021,-1.930031707407424,1.687885797478521,1.4950331584603,-10.26369953155518,-7.320133209228516,-8.575494766235352,7.830970287322998,0.4728240966796875,-2.543205261230469,XArbitraryZVertical,0.7077447820642488,-0.0593171063806538,-0.1113653751187506,0.6951090457125827,0.0751728117465972,-0.99713134765625,0.008842390961945,0,0,0,-1,-1,34614.81932900001,unknown,2,2022-06-02T10:54:47.938+02:00,2022-06-02T10:32:51.428+02:00,153,2.336344,0,0,129.7851,0,0,2022-06-02T10:54:47.938+02:00,675852887.9380348,0,-25.03906,101.493,1,0.86
420,2022-06-02T10:54:48.589+02:00,1654160088.319057,53.22910666804312,10.39861054569569,36.27478,0.04824361,0.6887171,-1.0,-1.0,81.50042724609375,64.0,-9999,34615.465744,7.607925415039062,-0.8173065185546875,-2.075592041015625,34615.461993,-1.256687740703932,0.9478544530326928,1.38377518268429,-11.9176778793335,-6.910816669464111,-7.759750366210938,7.613564014434814,0.1811403632164001,-2.363445520401001,XArbitraryZVertical,0.6658254196256557,-0.0493701090155812,-0.1671908948442997,0.7254559280011205,0.1510082185268402,-0.9825624823570251,-0.1084782034158707,0,0,0,-1,-1,34614.81932900001,unknown,2,2022-06-02T10:54:47.938+02:00,2022-06-02T10:32:51.428+02:00,153,2.336344,0,0,129.7851,0,0,2022-06-02T10:54:47.938+02:00,675852887.9380348,0,-25.03906,101.493,1,0.86
421,2022-06-02T10:54:48.599+02:00,1654160088.319057,53.22910666804312,10.39861054569569,36.27478,0.04824361,0.6887171,-1.0,-1.0,81.50042724609375,64.0,-9999,34615.475716,6.997848510742188,-0.056915283203125,-1.375961303710938,34615.471966,-1.104207270924905,0.733697552462951,1.241851678287088,-12.54119491577148,-6.329071998596191,-8.125670433044434,7.125250816345215,0.5562471151351929,-1.448886036872864,XArbitraryZVertical,0.6153927092767889,-0.0364513497646933,-0.2205272098759161,0.7558643066286106,0.2163171321153641,-0.946383774280548,-0.2399262189865112,0,0,0,-1,-1,34614.81932900001,unknown,2,2022-06-02T10:54:47.938+02:00,2022-06-02T10:32:51.428+02:00,153,2.336344,0,0,129.7851,0,0,2022-06-02T10:54:47.938+02:00,675852887.9380348,0,-25.03906,101.493,1,0.86
422,2022-06-02T10:54:48.609+02:00,1654160088.319057,53.22910666804312,10.39861054569569,36.27478,0.04824361,0.6887171,-1.0,-1.0,81.50042724609375,64.0,-9999,34615.485688875,6.394561767578125,0.0328369140625,-1.096755981445312,34615.481939,-1.072503524359953,0.6445121178896593,1.094181809939196,-11.86527347564697,-5.617667198181152,-8.815729141235352,6.404128551483154,0.9166293740272522,-0.7913405299186707,XArbitraryZVertical,0.562357652468333,-0.0195865649438152,-0.2722568326824175,0.7805424414034124,0.2756351232528687,-0.8885532021522522,-0.3667404651641846,0,0,0,-1,-1,34614.81932900001,unknown,2,2022-06-02T10:54:47.938+02:00,2022-06-02T10:32:51.428+02:00,153,2.336344,0,0,129.7851,0,0,2022-06-02T10:54:47.938+02:00,675852887.9380348,0,-25.03906,101.493,1,0.86
423,2022-06-02T10:54:48.619+02:00,1654160088.319057,53.22910666804312,10.39861054569569,36.27478,0.04824361,0.6887171,-1.0,-1.0,81.50042724609375,64.0,-9999,34615.495661875,5.718521118164062,0.274139404296875,-1.162673950195312,34615.491910875,-1.084104085122656,0.6030261546444414,0.9477655860594554,-11.28035831451416,-4.63767671585083,-9.225570678710938,5.735283374786377,0.9364727735519408,-0.6598279476165771,XArbitraryZVertical,0.509613389815598,0.0015569361015062,-0.3222444254131242,0.7977784716266069,0.3309243321418762,-0.8121137619018555,-0.4805835485458374,0,0,0,-1,-1,34614.81932900001,unknown,2,2022-06-02T10:54:47.938+02:00,2022-06-02T10:32:51.428+02:00,153,2.336344,0,0,129.7851,0,0,2022-06-02T10:54:47.938+02:00,675852887.9380348,0,-25.03906,101.493,1,0.86
424,2022-06-02T10:54:48.629+02:00,1654160088.319057,53.22910666804312,10.39861054569569,36.27478,0.04824361,0.6887171,-1.0,-1.0,81.50042724609375,64.0,-9999,34615.505633875,5.348648071289062,0.4319610595703125,-1.09466552734375,34615.501883875,-1.106540882360001,0.5783519509904436,0.8069575414965996,-10.58603286743164,-3.769335269927979,-8.793254852294922,5.093108654022217,1.117358088493347,-0.545856773853302,XArbitraryZVertical,0.4579880898319777,0.0253922694319631,-0.3679542167175203,0.808833741209218,0.3781135380268097,-0.7221860289573669,-0.579204261302948,0,0,0,-1,-1,34614.81932900001,unknown,2,2022-06-02T10:54:47.938+02:00,2022-06-02T10:32:51.428+02:00,153,2.336344,0,0,129.7851,0,0,2022-06-02T10:54:47.938+02:00,675852887.9380348,0,-25.03906,101.493,1,0.86
425,2022-06-02T10:54:48.639+02:00,1654160088.319057,53.22910666804312,10.39861054569569,36.27478,0.04824361,0.6887171,-1.0,-1.0,81.50042724609375,64.0,-9999,34615.515606875,5.165969848632812,0.2686767578125,-1.248931884765625,34615.511855875,-1.127386833228363,0.5592896074585866,0.6731644312253082,-10.41779804229736,-2.851598501205444,-8.3106050491333,4.858247756958008,0.9902693033218384,-0.4587211012840271,XArbitraryZVertical,0.4075251050578687,0.0506115720538779,-0.4076854288612709,0.8155699074240628,0.4148386418819427,-0.6234632134437561,-0.6627235412597656,0,0,0,-1,-1,34614.81932900001,unknown,2,2022-06-02T10:54:47.938+02:00,2022-06-02T10:32:51.428+02:00,153,2.336344,0,0,129.7851,0,0,2022-06-02T10:54:47.938+02:00,675852887.9380348,0,-25.03906,101.493,1,0.86
426,2022-06-02T10:54:48.649+02:00,1654160088.319057,53.22910666804312,10.39861054569569,36.27478,0.04824361,0.6887171,-1.0,-1.0,81.50042724609375,64.0,-9999,34615.525578875,4.711624145507812,0.41070556640625,-1.669647216796875,34615.521828875,-1.147843053461939,0.547950272297392,0.5435940229879711,-9.79776096343994,-1.730580568313599,-8.20526123046875,4.526609897613525,0.7897067666053772,-0.7079692482948303,XArbitraryZVertical,0.3585434352559408,0.0785497649073028,-0.4424945493609695,0.818214638934614,0.4458481669425964,-0.5172153115272522,-0.7305530905723572,0,0,0,-1,-1,34614.81932900001,unknown,2,2022-06-02T10:54:47.938+02:00,2022-06-02T10:32:51.428+02:00,153,2.336344,0,0,129.7851,0,0,2022-06-02T10:54:47.938+02:00,675852887.9380348,0,-25.03906,101.493,1,0.86
427,2022-06-02T10:54:48.659+02:00,1654160088.319057,53.22910666804312,10.39861054569569,36.27478,0.04824361,0.6887171,-1.0,-1.0,81.50042724609375,64.0,-9999,34615.535551875,4.24127197265625,0.6769256591796875,-1.943267822265625,34615.531801875,-1.172443163669314,0.5483205842920816,0.4244823416911995,-8.251025199890137,-0.5221410989761353,-7.918878555297852,3.972713708877563,0.9735251069068908,-1.0587317943573,XArbitraryZVertical,0.3153431569942968,0.1082909079455669,-0.4730971381343952,0.8154820322123841,0.4749944806098938,-0.4118491113185883,-0.77766352891922,0,0,0,-1,-1,34614.81932900001,unknown,2,2022-06-02T10:54:47.938+02:00,2022-06-02T10:32:51.428+02:00,153,2.336344,0,0,129.7851,0,0,2022-06-02T10:54:47.938+02:00,675852887.9380348,0,-25.03906,101.493,1,0.86
428,2022-06-02T10:54:48.669+02:00,1654160088.319057,53.22910666804312,10.39861054569569,36.27478,0.04824361,0.6887171,-1.0,-1.0,81.50042724609375,64.0,-9999,34615.545524875,3.819412231445312,0.53076171875,-2.133880615234375,34615.541773875,-1.198495486852403,0.5587497853051839,0.3231972518201953,-6.419108390808105,0.5909239649772644,-7.272659778594971,3.576803922653198,1.013690590858459,-1.208616852760315,XArbitraryZVertical,0.2812156374643091,0.1375102259805561,-0.4984524282339002,0.8084267797004804,0.5026791095733643,-0.317599892616272,-0.8040174245834351,0,0,0,-1,-1,34614.81932900001,unknown,2,2022-06-02T10:54:47.938+02:00,2022-06-02T10:32:51.428+02:00,153,2.336344,0,0,129.7851,0,0,2022-06-02T10:54:47.938+02:00,675852887.9380348,0,-25.03906,101.493,1,0.86
429,2022-06-02T10:54:48.679+02:00,1654160088.319057,53.22910666804312,10.39861054569569,36.27478,0.04824361,0.6887171,-1.0,-1.0,81.50042724609375,64.0,-9999,34615.555496875,3.5028076171875,0.1834716796875,-2.25640869140625,34615.551746875,-1.228979909861702,0.5757765076094136,0.2343271793893668,-5.424645900726318,1.115370392799377,-7.217415809631348,3.063030242919922,0.5736497640609741,-1.390421390533447,XArbitraryZVertical,0.2541550774408224,0.1657762674743017,-0.5219061795996203,0.7972060328249532,0.5296058654785156,-0.2321886122226715,-0.815846860408783,0,0,0,-1,-1,34614.81932900001,unknown,2,2022-06-02T10:54:47.938+02:00,2022-06-02T10:32:51.428+02:00,153,2.336344,0,0,129.7851,0,0,2022-06-02T10:54:47.938+02:00,675852887.9380348,0,-25.03906,101.493,1,0.86
430,2022-06-02T10:54:48.689+02:00,1654160088.319057,53.22910666804312,10.39861054569569,36.27478,0.04824361,0.6887171,-1.0,-1.0,81.50042724609375,64.0,-9999,34615.565469875,3.475601196289062,0.062774658203125,-2.274459838867188,34615.561719875,-1.260268966583133,0.5941107548788959,0.153118519585626,-4.848812103271484,1.286266326904297,-6.909651756286621,2.902618169784546,0.2490327507257462,-1.440478324890137,XArbitraryZVertical,0.2310616771549283,0.1927035807715865,-0.5437072459896777,0.7834911735230581,0.5532229542732239,-0.1525209099054337,-0.8189516663551331,0,0,0,-1,-1,34614.81932900001,unknown,2,2022-06-02T10:54:47.938+02:00,2022-06-02T10:32:51.428+02:00,153,2.336344,0,0,129.7851,0,0,2022-06-02T10:54:47.938+02:00,675852887.9380348,0,-25.03906,101.493,1,0.86
431,2022-06-02T10:54:48.699+02:00,1654160088.319057,53.22910666804312,10.39861054569569,36.27478,0.04824361,0.6887171,-1.0,-1.0,81.50042724609375,64.0,-9999,34615.575442875,3.480056762695312,-0.1392822265625,-2.349151611328125,34615.571691875,-1.287595284721738,0.6102473144249193,0.0751164565100463,-5.023941516876221,1.26309335231781,-6.398648738861084,2.888659477233887,0.0502197965979576,-1.497303485870361,XArbitraryZVertical,0.2088363988477056,0.2186085024603008,-0.5630861835494604,0.7691108742301224,0.5714541077613831,-0.0750458389520645,-0.8171953558921814,0,0,0,-1,-1,34614.81932900001,unknown,2,2022-06-02T10:54:47.938+02:00,2022-06-02T10:32:51.428+02:00,153,2.336344,0,0,129.7851,0,0,2022-06-02T10:54:47.938+02:00,675852887.9380348,0,-25.03906,101.493,1,0.86
432,2022-06-02T10:54:48.709+02:00,1654160088.319057,53.22910666804312,10.39861054569569,36.27478,0.04824361,0.6887171,-1.0,-1.0,81.50042724609375,64.0,-9999,34615.585414875,3.549530029296875,-0.200164794921875,-2.633529663085938,34615.581664875,-1.306348061478604,0.6219289912839954,-0.0037304814123459,-5.673393249511719,0.9110788702964784,-5.78804349899292,2.930568218231201,-0.2091595232486725,-1.644341826438904,XArbitraryZVertical,0.1845347444789934,0.2440731102641195,-0.57901593416439,0.7557220942745244,0.5825999975204468,0.003730472875759,-0.812750518321991,0,0,0,-1,-1,34614.81932900001,unknown,2,2022-06-02T10:54:47.938+02:00,2022-06-02T10:32:51.428+02:00,153,2.336344,0,0,129.7851,0,0,2022-06-02T10:54:47.938+02:00,675852887.9380348,0,-25.03906,101.493,1,0.86
433,2022-06-02T10:54:48.719+02:00,1654160088.319057,53.22910666804312,10.39861054569569,36.27478,0.04824361,0.6887171,-1.0,-1.0,81.50042724609375,64.0,-9999,34615.595387875,3.439559936523438,-0.2276763916015625,-2.883560180664062,34615.591636875,-1.31725248642086,0.6296199510509723,-0.0814725871307824,-5.593019008636475,0.7346287369728088,-5.154812335968018,2.930830955505371,-0.2790753543376923,-1.979921579360962,XArbitraryZVertical,0.158725544277037,0.2683673360065175,-0.5914424565373495,0.743626962642009,0.5868844389915466,0.0813824832439422,-0.8055703639984131,0,0,0,-1,-1,34614.81932900001,unknown,2,2022-06-02T10:54:47.938+02:00,2022-06-02T10:32:51.428+02:00,153,2.336344,0,0,129.7851,0,0,2022-06-02T10:54:47.938+02:00,675852887.9380348,0,-25.03906,101.493,1,0.86
434,2022-06-02T10:54:48.729+02:00,1654160088.319057,53.22910666804312,10.39861054569569,36.27478,0.04824361,0.6887171,-1.0,-1.0,81.50042724609375,64.0,-9999,34615.605359875,3.176803588867188,-0.2752532958984375,-2.986434936523438,34615.601609875,-1.325945119616982,0.6356509702880276,-0.1535702700630078,-4.968394756317139,0.6919167041778564,-4.807263851165771,2.725770473480225,-0.4188212156295776,-2.145931720733643,XArbitraryZVertical,0.1343343449922444,0.2904249710963694,-0.6018095548018902,0.7317328000021248,0.5867143273353577,0.1529673486948013,-0.7952152490615845,0,0,0,-1,-1,34614.81932900001,unknown,2,2022-06-02T10:54:47.938+02:00,2022-06-02T10:32:51.428+02:00,153,2.336344,0,0,129.7851,0,0,2022-06-02T10:54:47.938+02:00,675852887.9380348,0,-25.03906,101.493,1,0.86
435,2022-06-02T10:54:48.739+02:00,1654160088.319057,53.22910666804312,10.39861054569569,36.27478,0.04824361,0.6887171,-1.0,-1.0,81.50042724609375,64.0,-9999,34615.615332875,2.889617919921875,-0.19061279296875,-3.009246826171875,34615.611582875,-1.337939263748231,0.6404845783820905,-0.215775294702567,-3.555400848388672,0.7151562571525574,-4.507876396179199,2.444960117340088,-0.4621669352054596,-2.233434438705444,XArbitraryZVertical,0.1139197017008068,0.3088945155428154,-0.6118158625428393,0.7192273054985088,0.5837265253067017,0.2141048014163971,-0.7832129597663879,0,0,0,-1,-1,34614.81932900001,unknown,2,2022-06-02T10:54:47.938+02:00,2022-06-02T10:32:51.428+02:00,153,2.336344,0,0,129.7851,0,0,2022-06-02T10:54:47.938+02:00,675852887.9380348,0,-25.03906,101.493,1,0.86
436,2022-06-02T10:54:48.749+02:00,1654160088.319057,53.22910666804312,10.39861054569569,36.27478,0.04824361,0.6887171,-1.0,-1.0,81.50042724609375,64.0,-9999,34615.625305875,2.651596069335938,-0.1802825927734375,-2.808883666992188,34615.621554875,-1.356420711827723,0.6433787055357411,-0.2630236018820544,-1.89721405506134,0.7454336285591125,-4.007532596588135,2.184157371520996,-0.4079810678958893,-2.170984983444214,XArbitraryZVertical,0.0997773004289423,0.3221268699756233,-0.622361626374975,0.7063603341017873,0.5792704224586487,0.2600013613700867,-0.7725575566291809,0,0,0,-1,-1,34614.81932900001,unknown,2,2022-06-02T10:54:47.938+02:00,2022-06-02T10:32:51.428+02:00,153,2.336344,0,0,129.7851,0,0,2022-06-02T10:54:47.938+02:00,675852887.9380348,0,-25.03906,101.493,1,0.86
437,2022-06-02T10:54:48.759+02:00,1654160088.319057,53.22910666804312,10.39861054569569,36.27478,0.04824361,0.6887171,-1.0,-1.0,81.50042724609375,64.0,-9999,34615.635277875,2.461441040039062,-0.379364013671875,-2.5443115234375,34615.631527875,-1.378648657962378,0.6444766258653237,-0.2956963444786785,-0.9798216223716736,0.7070702910423279,-3.320064067840576,1.968339085578918,-0.5496152639389038,-1.877507925033569,XArbitraryZVertical,0.0913980672259154,0.3305854494415195,-0.6326979488355958,0.6943003935183191,0.574705958366394,0.2914060354232788,-0.7647193074226379,0,0,0,-1,-1,34614.81932900001,unknown,2,2022-06-02T10:54:47.938+02:00,2022-06-02T10:32:51.428+02:00,153,2.336344,0,0,129.7851,0,0,2022-06-02T10:54:47.938+02:00,675852887.9380348,0,-25.03906,101.493,1,0.86
438,2022-06-02T10:54:48.769+02:00,1654160088.319057,53.22910666804312,10.39861054569569,36.27478,0.04824361,0.6887171,-1.0,-1.0,81.50042724609375,64.0,-9999,34615.645250875,2.247482299804688,-0.9085540771484376,-2.554611206054688,34615.641500875,-1.396282001687641,0.6468744542307424,-0.3207628130402667,-1.144143223762512,0.8074036836624146,-2.445971488952637,1.799321889877319,-0.9327985048294068,-1.785362005233765,XArbitraryZVertical,0.0856867075195689,0.3376718023991105,-0.6405238703056834,0.6843718515164688,0.5719549059867859,0.3152905702590942,-0.7572711110115051,0,0,0,-1,-1,34614.81932900001,unknown,2,2022-06-02T10:54:47.938+02:00,2022-06-02T10:32:51.428+02:00,153,2.336344,0,0,129.7851,0,0,2022-06-02T10:54:47.938+02:00,675852887.9380348,0,-25.03906,101.493,1,0.86
439,2022-06-02T10:54:48.779+02:00,1654160088.319057,53.22910666804312,10.39861054569569,36.27478,0.04824361,0.6887171,-1.0,-1.0,81.50042724609375,64.0,-9999,34615.655222875,2.158462524414062,-1.112823486328125,-2.489837646484375,34615.651472875,-1.405294981024598,0.6511931080013985,-0.3446090419280505,-1.642724752426147,0.573434054851532,-1.817423582077026,1.588329076766968,-1.432326316833496,-1.766429901123047,XArbitraryZVertical,0.0796871725364589,0.3454706248105511,-0.6450732180315109,0.6768904050910152,0.57049959897995,0.3378287255764008,-0.7486000061035156,0,0,0,-1,-1,34614.81932900001,unknown,2,2022-06-02T10:54:47.938+02:00,2022-06-02T10:32:51.428+02:00,153,2.336344,0,0,129.7851,0,0,2022-06-02T10:54:47.938+02:00,675852887.9380348,0,-25.03906,101.493,1,0.86
440,2022-06-02T10:54:48.789+02:00,1654160088.319057,53.22910666804312,10.39861054569569,36.27478,0.04824361,0.6887171,-1.0,-1.0,81.50042724609375,64.0,-9999,34615.665195875,2.260589599609375,-1.057861328125,-2.5948486328125,34615.661445875,-1.405256752963767,0.6542662178519669,-0.368983667865079,-2.254006862640381,0.0399113856256008,-1.097736716270447,1.637934684753418,-1.421321392059326,-1.786614775657654,XArbitraryZVertical,0.0715549100884733,0.3533211641924078,-0.6465547669029783,0.6723177673555519,0.5676165223121643,0.3606677055358887,-0.7400881052017212,0,0,0,-1,-1,34614.81932900001,unknown,2,2022-06-02T10:54:47.938+02:00,2022-06-02T10:32:51.428+02:00,153,2.336344,0,0,129.7851,0,0,2022-06-02T10:54:47.938+02:00,675852887.9380348,0,-25.03906,101.493,1,0.86
441,2022-06-02T10:54:48.799+02:00,1654160088.319057,53.22910666804312,10.39861054569569,36.27478,0.04824361,0.6887171,-1.0,-1.0,81.50042724609375,64.0,-9999,34615.675168875,2.305618286132812,-1.077362060546875,-2.61956787109375,34615.671417875,-1.394522673924832,0.6562646337207828,-0.3925575443224154,-2.681254863739014,-0.4402685463428497,-0.2418465465307236,1.742067694664001,-1.479659557342529,-1.8838791847229,XArbitraryZVertical,0.0614392263516309,0.3608594402517935,-0.6443707725301864,0.6714105338842216,0.5637489557266235,0.3825526535511017,-0.7320113778114319,0,0,0,-1,-1,34614.81932900001,unknown,2,2022-06-02T10:54:47.938+02:00,2022-06-02T10:32:51.428+02:00,153,2.336344,0,0,129.7851,0,0,2022-06-02T10:54:47.938+02:00,675852887.9380348,0,-25.03906,101.493,1,0.86
442,2022-06-02T10:54:48.809+02:00,1654160088.319057,53.22910666804312,10.39861054569569,36.27478,0.04824361,0.6887171,-1.0,-1.0,81.50042724609375,64.0,-9999,34615.685140875,2.112655639648438,-0.849639892578125,-2.649063110351562,34615.681390875,-1.375338444573739,0.6577247705043578,-0.4134869505055809,-2.752995729446411,-0.7493073344230652,0.4975351989269257,1.670761108398438,-1.36988353729248,-1.910287857055664,XArbitraryZVertical,0.050513272771393,0.3675631836281744,-0.6391590452724514,0.6736626851061426,0.5597992539405823,0.4018048644065857,-0.7246914505958557,0,0,0,-1,-1,34614.81932900001,unknown,2,2022-06-02T10:54:47.938+02:00,2022-06-02T10:32:51.428+02:00,153,2.336344,0,0,129.7851,0,0,2022-06-02T10:54:47.938+02:00,675852887.9380348,0,-25.03906,101.493,1,0.86
443,2022-06-02T10:54:48.819+02:00,1654160088.319057,53.22910666804312,10.39861054569569,36.27478,0.04824361,0.6887171,-1.0,-1.0,81.50042724609375,64.0,-9999,34615.695113875,1.921142578125,-0.642578125,-2.531768798828125,34615.691363875,-1.351175632085828,0.6592527886010885,-0.4277632985617531,-2.147928714752197,-0.9254799485206604,1.220153331756592,1.447333931922913,-1.166255712509155,-1.894893169403076,XArbitraryZVertical,0.041095249601713,0.3724211594340913,-0.6318199733211739,0.6785404422485252,0.5573352575302124,0.4148366749286652,-0.7192273139953613,0,0,0,-1,-1,34614.81932900001,unknown,2,2022-06-02T10:54:47.938+02:00,2022-06-02T10:32:51.428+02:00,153,2.336344,0,0,129.7851,0,0,2022-06-02T10:54:47.938+02:00,675852887.9380348,0,-25.03906,101.493,1,0.86
444,2022-06-02T10:54:48.829+02:00,1654160088.319057,53.22910666804312,10.39861054569569,36.27478,0.04824361,0.6887171,-1.0,-1.0,81.50042724609375,64.0,-9999,34615.705086875,1.820632934570312,-0.365966796875,-2.3402099609375,34615.701335875,-1.326816176299857,0.6596398563787066,-0.4320927925088212,-1.230102181434631,-1.017798781394958,1.749707937240601,1.301219344139099,-0.9305366277694702,-1.715962409973145,XArbitraryZVertical,0.0350083611998183,0.3741411912482607,-0.6237724381158466,0.6853471518383263,0.5565077066421509,0.4187721610069275,-0.717585563659668,0,0,0,-1,-1,34614.81932900001,unknown,2,2022-06-02T10:54:47.938+02:00,2022-06-02T10:32:51.428+02:00,153,2.336344,0,0,129.7851,0,0,2022-06-02T10:54:47.938+02:00,675852887.9380348,0,-25.03906,101.493,1,0.86
445,2022-06-02T10:54:48.839+02:00,1654160088.319057,53.22910666804312,10.39861054569569,36.27478,0.04824361,0.6887171,-1.0,-1.0,81.50042724609375,64.0,-9999,34615.715058875,1.808395385742188,-0.043670654296875,-2.12982177734375,34615.711308875,-1.304262153399406,0.6590658966355735,-0.4257801830044327,-0.3223144710063934,-0.963956356048584,2.287574052810669,1.24738073348999,-0.6224430203437805,-1.524968862533569,XArbitraryZVertical,0.0330614013883303,0.3727153280690069,-0.6156056233412126,0.6935560605934847,0.5577034950256348,0.4130314290523529,-0.7199804782867432,0,0,0,-1,-1,34614.81932900001,unknown,2,2022-06-02T10:54:47.938+02:00,2022-06-02T10:32:51.428+02:00,153,2.336344,0,0,129.7851,0,0,2022-06-02T10:54:47.938+02:00,675852887.9380348,0,-25.03906,101.493,1,0.86
446,2022-06-02T10:54:48.849+02:00,1654160088.319057,53.22910666804312,10.39861054569569,36.27478,0.04824361,0.6887171,-1.0,-1.0,81.50042724609375,64.0,-9999,34615.725031875,1.8228759765625,0.36529541015625,-1.88916015625,34615.721281875,-1.282349000647178,0.6589504928092446,-0.410061840869153,0.2961483299732208,-0.8324391841888428,2.805234432220459,1.256344676017761,-0.2529903650283813,-1.276650905609131,XArbitraryZVertical,0.0350861118439432,0.369086263119018,-0.60690074676747,0.7030048650805555,0.5615264773368835,0.3986660540103912,-0.7250885963439941,0,0,0,-1,-1,34614.81932900001,unknown,2,2022-06-02T10:54:47.938+02:00,2022-06-02T10:32:51.428+02:00,153,2.336344,0,0,129.7851,0,0,2022-06-02T10:54:47.938+02:00,675852887.9380348,0,-25.03906,101.493,1,0.86
