,loggingTime(txt),locationTimestamp_since1970(s),locationLatitude(WGS84),locationLongitude(WGS84),locationAltitude(m),locationSpeed(m/s),locationSpeedAccuracy(m/s),locationCourse(°),locationCourseAccuracy(°),locationVerticalAccuracy(m),locationHorizontalAccuracy(m),locationFloor(Z),accelerometerTimestamp_sinceReboot(s),accelerometerAccelerationX(G),accelerometerAccelerationY(G),accelerometerAccelerationZ(G),motionTimestamp_sinceReboot(s),motionYaw(rad),motionRoll(rad),motionPitch(rad),motionRotationRateX(rad/s),motionRotationRateY(rad/s),motionRotationRateZ(rad/s),motionUserAccelerationX(G),motionUserAccelerationY(G),motionUserAccelerationZ(G),motionAttitudeReferenceFrame(txt),motionQuaternionX(R),motionQuaternionY(R),motionQuaternionZ(R),motionQuaternionW(R),motionGravityX(G),motionGravityY(G),motionGravityZ(G),motionMagneticFieldX(µT),motionMagneticFieldY(µT),motionMagneticFieldZ(µT),motionHeading(°),motionMagneticFieldCalibrationAccuracy(Z),activityTimestamp_sinceReboot(s),activity(txt),activityActivityConfidence(Z),activityActivityStartDate(txt),pedometerStartDate(txt),pedometerNumberofSteps(N),pedometerAverageActivePace(s/m),pedometerCurrentPace(s/m),pedometerCurrentCadence(steps/s),pedometerDistance(m),pedometerFloorAscended(N),pedometerFloorDescended(N),pedometerEndDate(txt),altimeterTimestamp_sinceReboot(s),altimeterReset(bool),altimeterRelativeAltitude(m),altimeterPressure(kPa),batteryState(N),batteryLevel(R)
373,2022-06-02T10:55:24.536+02:00,1654160123.439556,53.22901020978689,10.39862284212641,45.55574,0.6108506,0.8545049,-1.0,-1.0,75.97978210449219,48.00000000000001,-9999,34651.41239416667,-0.208099365234375,0.5230255126953125,1.05206298828125,34651.40365716667,2.624043862363189,-1.514248253410632,0.2601528354194655,-3.597278118133545,-5.844968318939209,7.374119281768799,0.7147908210754395,0.5880693197250366,0.7519885897636414,XArbitraryZVertical,0.6824808660069274,-0.0831371847399702,0.6738812527471604,0.2705404988656961,-0.964806079864502,-0.2572282552719116,-0.0546161532402038,0,0,0,-1,-1,34650.56078516667,unknown,2,2022-06-02T10:55:23.680+02:00,2022-06-02T10:32:51.428+02:00,153,2.451919,0,0,129.7851,0,0,2022-06-02T10:55:23.680+02:00,675852923.679526,0,-25.08203,101.4933,1,0.86
374,2022-06-02T10:55:24.546+02:00,1654160123.439556,53.22901020978689,10.39862284212641,45.55574,0.6108506,0.8545049,-1.0,-1.0,75.97978210449219,48.00000000000001,-9999,34651.42236716667,-0.228302001953125,0.699981689453125,1.251296997070312,34651.41363016667,2.57950323266584,-1.567087990052699,0.1815824190420125,-5.558187484741211,-6.688590526580811,8.1217679977417,0.7754530310630798,0.7036117315292358,1.055710315704346,XArbitraryZVertical,0.6931252863386076,-0.1332428506398158,0.6600707645962376,0.2571581424342373,-0.9835524559020996,-0.1805862039327621,-0.0036473604850471,0,0,0,-1,-1,34650.56078516667,unknown,2,2022-06-02T10:55:23.680+02:00,2022-06-02T10:32:51.428+02:00,153,2.451919,0,0,129.7851,0,0,2022-06-02T10:55:23.680+02:00,675852923.679526,0,-25.08203,101.4933,1,0.86
375,2022-06-02T10:55:24.556+02:00,1654160123.439556,53.22901020978689,10.39862284212641,45.55574,0.6108506,0.8545049,-1.0,-1.0,75.97978210449219,48.00000000000001,-9999,34651.43234016667,-0.248260498046875,0.9527130126953124,1.4747314453125,34651.42360316667,2.512266446260181,-1.629078076967358,0.0984946251922332,-7.310983180999756,-7.609461784362793,8.93549633026123,0.7651616930961609,0.7983171343803406,1.193330526351929,XArbitraryZVertical,0.7013102482238128,-0.1927359880568181,0.6406379829545378,0.246170250632341,-0.993463695049286,-0.0983354523777961,0.0579664520919323,0,0,0,-1,-1,34650.56078516667,unknown,2,2022-06-02T10:55:23.680+02:00,2022-06-02T10:32:51.428+02:00,153,2.451919,0,0,129.7851,0,0,2022-06-02T10:55:23.680+02:00,675852923.679526,0,-25.08203,101.4933,1,0.86
376,2022-06-02T10:55:24.566+02:00,1654160123.439556,53.22901020978689,10.39862284212641,45.55574,0.6108506,0.8545049,-1.0,-1.0,75.97978210449219,48.00000000000001,-9999,34651.44231316667,-0.48858642578125,1.077392578125,1.72900390625,34651.43357616667,2.422731327026306,-1.705613502773269,0.012793115179165,-8.989002227783203,-8.7427396774292,9.804800033569336,0.7425843477249146,0.9655057787895204,1.340333342552185,XArbitraryZVertical,0.7064685045376067,-0.2609623186126175,0.6141250169562577,0.2359055929353758,-0.9908449053764344,-0.0127927660942077,0.1343981623649597,0,0,0,-1,-1,34650.56078516667,unknown,2,2022-06-02T10:55:23.680+02:00,2022-06-02T10:32:51.428+02:00,153,2.451919,0,0,129.7851,0,0,2022-06-02T10:55:23.680+02:00,675852923.679526,0,-25.08203,101.4933,1,0.86
377,2022-06-02T10:55:24.576+02:00,1654160123.439556,53.22901020978689,10.39862284212641,45.55574,0.6108506,0.8545049,-1.0,-1.0,75.97978210449219,48.00000000000001,-9999,34651.45228616667,-0.3231964111328125,1.2955322265625,2.04510498046875,34651.44354916667,2.309279999807775,-1.803198305059702,-0.0678719242632814,-10.30752849578857,-10.24724292755127,10.22644329071045,0.4822890758514404,1.009572744369507,1.499218702316284,XArbitraryZVertical,0.708456052783927,-0.3361289515921584,0.5778397214543354,0.2262931425151382,-0.9708754420280457,0.0678198263049125,0.2297853082418442,0,0,0,-1,-1,34650.56078516667,unknown,2,2022-06-02T10:55:23.680+02:00,2022-06-02T10:32:51.428+02:00,153,2.451919,0,0,129.7851,0,0,2022-06-02T10:55:23.680+02:00,675852923.679526,0,-25.08203,101.4933,1,0.86
378,2022-06-02T10:55:24.586+02:00,1654160123.439556,53.22901020978689,10.39862284212641,45.55574,0.6108506,0.8545049,-1.0,-1.0,75.97978210449219,48.00000000000001,-9999,34651.46225916667,0.2114105224609375,1.602706909179688,2.54693603515625,34651.45352216667,2.176407958066638,-1.92776987341772,-0.1350107033619392,-11.14039897918701,-11.95877170562744,10.34005165100098,0.6052358746528625,1.160931348800659,1.698844790458679,XArbitraryZVertical,0.7080929647145173,-0.4144085941320549,0.5297609937823258,0.2149958518979146,-0.9284323453903198,0.1346009224653244,0.3462602496147156,0,0,0,-1,-1,34650.56078516667,unknown,2,2022-06-02T10:55:23.680+02:00,2022-06-02T10:32:51.428+02:00,153,2.451919,0,0,129.7851,0,0,2022-06-02T10:55:23.680+02:00,675852923.679526,0,-25.08203,101.4933,1,0.86
379,2022-06-02T10:55:24.596+02:00,1654160123.439556,53.22901020978689,10.39862284212641,45.55574,0.6108506,0.8545049,-1.0,-1.0,75.97978210449219,48.00000000000001,-9999,34651.47223116667,0.8307342529296875,1.579345703125,2.984298706054688,34651.46349516667,2.027722895370521,-2.079929275486416,-0.1820575334208401,-11.67229270935059,-13.80208778381348,10.558669090271,1.070147275924683,1.421653389930725,2.06757116317749,XArbitraryZVertical,0.704705512882811,-0.4930239483963776,0.4694043733135497,0.199942887900581,-0.8587369918823242,0.18105348944664,0.4793649613857269,0,0,0,-1,-1,34650.56078516667,unknown,2,2022-06-02T10:55:23.680+02:00,2022-06-02T10:32:51.428+02:00,153,2.451919,0,0,129.7851,0,0,2022-06-02T10:55:23.680+02:00,675852923.679526,0,-25.08203,101.4933,1,0.86
380,2022-06-02T10:55:24.606+02:00,1654160123.439556,53.22901020978689,10.39862284212641,45.55574,0.6108506,0.8545049,-1.0,-1.0,75.97978210449219,48.00000000000001,-9999,34651.48220416667,1.672393798828125,1.303817749023438,3.081741333007812,34651.47346716667,1.867599599624748,-2.257957489482496,-0.2040396942186118,-11.81471252441406,-15.68555450439453,10.80510807037354,1.587748050689697,1.376718759536743,2.363112449645996,XArbitraryZVertical,0.6970143556666952,-0.5698807997763847,0.396698766909055,0.1789885321746367,-0.757013738155365,0.2026268690824509,0.6211862564086914,0,0,0,-1,-1,34650.56078516667,unknown,2,2022-06-02T10:55:23.680+02:00,2022-06-02T10:32:51.428+02:00,153,2.451919,0,0,129.7851,0,0,2022-06-02T10:55:23.680+02:00,675852923.679526,0,-25.08203,101.4933,1,0.86
381,2022-06-02T10:55:24.616+02:00,1654160123.439556,53.22901020978689,10.39862284212641,45.55574,0.6108506,0.8545049,-1.0,-1.0,75.97978210449219,48.00000000000001,-9999,34651.49217716667,3.036041259765625,0.997406005859375,3.26910400390625,34651.48344016667,1.70701741281234,-2.455704842101211,-0.197904595935983,-11.38834190368652,-17.38217926025391,10.57973003387451,2.293391227722168,1.107202410697937,2.322989463806152,XArbitraryZVertical,0.6844005813329463,-0.6410707968366319,0.3133218351402919,0.1498447707208479,-0.6209974884986877,0.1966152638196945,0.7587518692016602,0,0,0,-1,-1,34650.56078516667,unknown,2,2022-06-02T10:55:23.680+02:00,2022-06-02T10:32:51.428+02:00,153,2.451919,0,0,129.7851,0,0,2022-06-02T10:55:23.680+02:00,675852923.679526,0,-25.08203,101.4933,1,0.86
382,2022-06-02T10:55:24.626+02:00,1654160123.439556,53.22901020978689,10.39862284212641,45.55574,0.6108506,0.8545049,-1.0,-1.0,75.97978210449219,48.00000000000001,-9999,34651.50215016667,5.121978759765625,0.9468231201171876,4.367355346679688,34651.49341316667,1.557086053515824,-2.661184572547904,-0.1634409650385097,-10.6493501663208,-18.10086631774902,10.25759315490723,3.492023468017578,0.8346917033195496,2.394115924835205,XArbitraryZVertical,0.6659791946752065,-0.7028269789267607,0.222953233900943,0.1131272760155522,-0.4559822380542755,0.1627142727375031,0.8749880790710449,0,0,0,-1,-1,34650.56078516667,unknown,2,2022-06-02T10:55:23.680+02:00,2022-06-02T10:32:51.428+02:00,153,2.451919,0,0,129.7851,0,0,2022-06-02T10:55:23.680+02:00,675852923.679526,0,-25.08203,101.4933,1,0.86
383,2022-06-02T10:55:24.636+02:00,1654160123.439556,53.22901020978689,10.39862284212641,45.55574,0.6108506,0.8545049,-1.0,-1.0,75.97978210449219,48.00000000000001,-9999,34651.51212316667,7.510604858398438,1.185165405273438,6.585861206054688,34651.50338616667,1.42227873828948,-2.861231171670104,-0.1044416917493579,-10.38934135437012,-18.53535652160645,10.4342622756958,5.397173881530762,0.8425711989402771,3.411636114120483,XArbitraryZVertical,0.6398885288916173,-0.7539245389707923,0.1302295188987202,0.0719770215537743,-0.2751952409744263,0.1042519211769104,0.9557190537452698,0,0,0,-1,-1,34650.56078516667,unknown,2,2022-06-02T10:55:23.680+02:00,2022-06-02T10:32:51.428+02:00,153,2.451919,0,0,129.7851,0,0,2022-06-02T10:55:23.680+02:00,675852923.679526,0,-25.08203,101.4933,1,0.86
384,2022-06-02T10:55:24.646+02:00,1654160123.439556,53.22901020978689,10.39862284212641,45.55574,0.6108506,0.8545049,-1.0,-1.0,75.97978210449219,48.00000000000001,-9999,34651.52209675,8.697998046875,1.313995361328125,8.134872436523438,34651.51335916667,1.296168911697728,-3.06140963343676,-0.0224787607073855,-10.37730121612549,-19.9151611328125,11.45631313323975,7.590681552886963,1.162688493728638,5.589325904846191,XArbitraryZVertical,0.6027780480629559,-0.7968226350592792,0.0331467586233281,0.0251728704359049,-0.0800769031047821,0.0224768668413162,0.9965353608131408,0,0,0,-1,-1,34650.56078516667,unknown,2,2022-06-02T10:55:23.680+02:00,2022-06-02T10:32:51.428+02:00,153,2.451919,0,0,129.7851,0,0,2022-06-02T10:55:23.680+02:00,675852923.679526,0,-25.08203,101.4933,1,0.86
385,2022-06-02T10:55:24.656+02:00,1654160123.439556,53.22901020978689,10.39862284212641,45.55574,0.6108506,0.8545049,-1.0,-1.0,75.97978210449219,48.00000000000001,-9999,34651.53206975,9.817764282226562,0.8415069580078125,8.9613037109375,34651.52333275,1.177752469064887,3.023133642463418,0.0835396752979852,-10.30518245697021,-20.36271095275879,12.80249118804932,8.580227851867676,1.397437930107117,7.14534330368042,XArbitraryZVertical,0.5519138157212841,-0.8307560128139414,-0.067513109881651,-0.0260287954356314,0.1177699938416481,-0.0834425389766693,0.9895288348197936,0,0,0,-1,-1,34650.56078516667,unknown,2,2022-06-02T10:55:23.680+02:00,2022-06-02T10:32:51.428+02:00,153,2.451919,0,0,129.7851,0,0,2022-06-02T10:55:23.680+02:00,675852923.679526,0,-25.08203,101.4933,1,0.86
386,2022-06-02T10:55:24.665+02:00,1654160123.439556,53.22901020978689,10.39862284212641,45.55574,0.6108506,0.8545049,-1.0,-1.0,75.97978210449219,48.00000000000001,-9999,34651.54204175,11.00643920898438,-0.64300537109375,9.946914672851562,34651.53330575,1.063057804344973,2.840425399372994,0.2044233709233479,-8.257257461547852,-19.26901245117188,14.56874561309814,9.527305603027344,1.044509530067444,8.02619743347168,XArbitraryZVertical,0.4853060183465235,-0.8555882732735651,-0.1625998289392199,-0.077512373479598,0.2904587090015411,-0.2030025720596313,0.9351064562797546,0,0,0,-1,-1,34650.56078516667,unknown,2,2022-06-02T10:55:23.680+02:00,2022-06-02T10:32:51.428+02:00,153,2.451919,0,0,129.7851,0,0,2022-06-02T10:55:23.680+02:00,675852923.679526,0,-25.08203,101.4933,1,0.86
387,2022-06-02T10:55:24.676+02:00,1654160123.439556,53.22901020978689,10.39862284212641,45.55574,0.6108506,0.8545049,-1.0,-1.0,75.97978210449219,48.00000000000001,-9999,34651.55201475,11.92977905273438,-2.146835327148438,11.22857666015625,34651.54327775,0.9392578826273408,2.69572958355908,0.3206639007055902,-4.483242511749268,-15.93405628204346,16.23104667663574,10.59718418121338,-0.3278086483478546,9.090665817260742,XArbitraryZVertical,0.4042208243135852,-0.8744882734888791,-0.2376110920678438,-0.1241642339803462,0.4092550277709961,-0.315196692943573,0.8562484383583069,0,0,0,-1,-1,34650.56078516667,unknown,2,2022-06-02T10:55:23.680+02:00,2022-06-02T10:32:51.428+02:00,153,2.451919,0,0,129.7851,0,0,2022-06-02T10:55:23.680+02:00,675852923.679526,0,-25.08203,101.4933,1,0.86
388,2022-06-02T10:55:24.685+02:00,1654160123.439556,53.22901020978689,10.39862284212641,45.55574,0.6108506,0.8545049,-1.0,-1.0,75.97978210449219,48.00000000000001,-9999,34651.56198775,13.196044921875,-1.2965087890625,12.48689270019531,34651.55325075,0.7903130687955283,2.617406935587741,0.4206228765980287,-0.0657911449670791,-10.35302066802979,17.61859130859375,11.47289752960205,-1.738506078720093,10.43830680847168,XArbitraryZVertical,0.313691154315654,-0.8925989298457316,-0.2836408725506436,-0.1562459788786968,0.4568812549114227,-0.4083291292190552,0.7902699708938599,0,0,0,-1,-1,34650.56078516667,unknown,2,2022-06-02T10:55:23.680+02:00,2022-06-02T10:32:51.428+02:00,153,2.451919,0,0,129.7851,0,0,2022-06-02T10:55:23.680+02:00,675852923.679526,0,-25.08203,101.4933,1,0.86
389,2022-06-02T10:55:24.695+02:00,1654160123.439556,53.22901020978689,10.39862284212641,45.55574,0.6108506,0.8545049,-1.0,-1.0,75.97978210449219,48.00000000000001,-9999,34651.57196075,14.36235046386719,1.31500244140625,12.31320190429688,34651.56322375,0.6013145703420761,2.634027850397425,0.4970844018306508,3.412163972854614,-2.914518117904663,19.70792198181152,12.76881790161133,-0.8196439743041992,11.71872806549072,XArbitraryZVertical,0.2188639732031812,-0.9144293041219144,-0.2994991153183476,-0.1619195424984572,0.4272270798683167,-0.4768648147583008,0.7681647539138794,0,0,0,-1,-1,34650.56078516667,unknown,2,2022-06-02T10:55:23.680+02:00,2022-06-02T10:32:51.428+02:00,153,2.451919,0,0,129.7851,0,0,2022-06-02T10:55:23.680+02:00,675852923.679526,0,-25.08203,101.4933,1,0.86
390,2022-06-02T10:55:24.705+02:00,1654160123.439556,53.22901020978689,10.39862284212641,45.55574,0.6108506,0.8545049,-1.0,-1.0,75.97978210449219,48.00000000000001,-9999,34651.58193375,15.85496520996094,3.221481323242188,9.989425659179688,34651.57319675,0.3586136479700971,2.770413905303895,0.5511883813660743,4.872094631195068,5.91883373260498,22.91694641113281,14.05335330963135,1.838702321052551,11.51931381225586,XArbitraryZVertical,0.1192623899761867,-0.9395322568160266,-0.294825851511069,-0.1270174587984831,0.3089972734451294,-0.5236999988555908,0.7938887476921082,0,0,0,-1,-1,34650.56078516667,unknown,2,2022-06-02T10:55:23.680+02:00,2022-06-02T10:32:51.428+02:00,153,2.451919,0,0,129.7851,0,0,2022-06-02T10:55:23.680+02:00,675852923.679526,0,-25.08203,101.4933,1,0.86
391,2022-06-02T10:55:24.716+02:00,1654160123.439556,53.22901020978689,10.39862284212641,45.55574,0.6108506,0.8545049,-1.0,-1.0,75.97978210449219,48.00000000000001,-9999,34651.59190675,17.00204467773438,4.759323120117188,5.578765869140625,34651.58316975,0.069638863428101,3.031139849076976,0.5467450734969573,8.653276443481445,15.88267612457275,24.61606216430664,15.7608060836792,3.741390705108643,9.140409469604492,XArbitraryZVertical,0.0185751320228161,-0.9613340143336068,-0.2712554690510487,-0.0437320603995117,0.0941594466567039,-0.5199095606803894,0.8490162491798401,0,0,0,-1,-1,34650.56078516667,unknown,2,2022-06-02T10:55:23.680+02:00,2022-06-02T10:32:51.428+02:00,153,2.451919,0,0,129.7851,0,0,2022-06-02T10:55:23.680+02:00,675852923.679526,0,-25.08203,101.4933,1,0.86
392,2022-06-02T10:55:24.725+02:00,1654160123.439556,53.22901020978689,10.39862284212641,45.55574,0.6108506,0.8545049,-1.0,-1.0,75.97978210449219,48.00000000000001,-9999,34651.60187975,19.62057495117188,7.543594360351562,1.507705688476562,34651.59314275,-0.1957286053605922,-2.908460328719412,0.4101056786734354,16.61991500854492,28.47005462646484,23.92361068725586,17.21391487121582,5.158029556274414,4.686496257781982,XArbitraryZVertical,-0.0714439732122167,-0.970067326045418,-0.2123950319503931,0.0935608347875674,-0.2118693143129349,-0.3987062573432922,0.8922697305679321,0,0,0,-1,-1,34650.56078516667,unknown,2,2022-06-02T10:55:23.680+02:00,2022-06-02T10:32:51.428+02:00,153,2.451919,0,0,129.7851,0,0,2022-06-02T10:55:23.680+02:00,675852923.679526,0,-25.08203,101.4933,1,0.86
393,2022-06-02T10:55:24.735+02:00,1654160123.439556,53.22901020978689,10.39862284212641,45.55574,0.6108506,0.8545049,-1.0,-1.0,75.97978210449219,48.00000000000001,-9999,34651.61185175,30.29104614257812,13.20124816894531,1.41070556640625,34651.60311575,-0.3015231295925818,-2.53980178798342,0.1229529156368494,28.53292083740234,35.36012649536133,17.34458541870117,20.18242073059082,7.666237831115723,0.6896055936813354,XArbitraryZVertical,-0.12517016693117,-0.9451891034858384,-0.1024407355860196,0.2836473520522342,-0.5618458390235901,-0.1226433590054512,0.8181000351905823,0,0,0,-1,-1,34650.56078516667,unknown,2,2022-06-02T10:55:23.680+02:00,2022-06-02T10:32:51.428+02:00,153,2.451919,0,0,129.7851,0,0,2022-06-02T10:55:23.680+02:00,675852923.679526,0,-25.08203,101.4933,1,0.86
394,2022-06-02T10:55:24.745+02:00,1654160123.439556,53.22901020978689,10.39862284212641,45.55574,0.6108506,0.8545049,-1.0,-1.0,75.97978210449219,48.00000000000001,-9999,34651.62182475,30.89187622070312,9.006301879882812,-7.962539672851562,34651.61308775,-0.1578692030059666,-2.176072254442956,-0.1907823385749449,35.51641845703125,35.36407089233398,7.527608871459961,31.09847068786621,13.01162147521973,0.8520401120185852,XArbitraryZVertical,-0.113601840106855,-0.8754583756786746,0.0476597995783868,0.4673285016692239,-0.8074248433113098,0.1896270960569382,0.5586655139923096,0,0,0,-1,-1,34650.56078516667,unknown,2,2022-06-02T10:55:23.680+02:00,2022-06-02T10:32:51.428+02:00,153,2.451919,0,0,129.7851,0,0,2022-06-02T10:55:23.680+02:00,675852923.679526,0,-25.08203,101.4933,1,0.86
395,2022-06-02T10:55:24.756+02:00,1654160123.439556,53.22901020978689,10.39862284212641,45.55574,0.6108506,0.8545049,-1.0,-1.0,75.97978210449219,48.00000000000001,-9999,34651.63179775,24.81564331054688,30.07485961914062,2.892730712890625,34651.62306075,0.1870715147540044,-1.730416793835135,-0.2981385912812974,35.89112091064453,35.23730087280273,-16.63504028320312,31.83560943603516,8.712560653686523,-8.114471435546875,XArbitraryZVertical,-0.0255800805575492,-0.7584929324271972,0.1724581462983932,0.6279271436780356,-0.9437336325645448,0.2937414348125458,0.1519317328929901,0,0,0,-1,-1,34650.56078516667,unknown,2,2022-06-02T10:55:23.680+02:00,2022-06-02T10:32:51.428+02:00,153,2.451919,0,0,129.7851,0,0,2022-06-02T10:55:23.680+02:00,675852923.679526,0,-25.08203,101.4933,1,0.86
396,2022-06-02T10:55:24.766+02:00,1654160123.439556,53.22901020978689,10.39862284212641,45.55574,0.6108506,0.8545049,-1.0,-1.0,75.97978210449219,48.00000000000001,-9999,34651.64177075,32.67658996582031,7.513290405273438,30.70550537109375,34651.63303375,0.538387511096827,-1.308759023042824,-0.0753120929461856,35.91461944580078,35.25783157348633,-12.82252407073975,25.77877044677734,29.99961853027344,3.151045322418213,XArbitraryZVertical,0.1329684130098396,-0.5942744566590829,0.2329547372533835,0.758214586592157,-0.9631263613700868,0.0752409175038337,-0.2583145499229431,0,0,0,-1,-1,34650.56078516667,unknown,2,2022-06-02T10:55:23.680+02:00,2022-06-02T10:32:51.428+02:00,153,2.451919,0,0,129.7851,0,0,2022-06-02T10:55:23.680+02:00,675852923.679526,0,-25.08203,101.4933,1,0.86
397,2022-06-02T10:55:24.775+02:00,1654160123.439556,53.22901020978689,10.39862284212641,45.55574,0.6108506,0.8545049,-1.0,-1.0,75.97978210449219,48.00000000000001,-9999,34651.65174375,30.24360656738281,-27.68296813964844,15.03514099121094,34651.64300675,0.8284402195553557,-1.079773364277441,0.1429364523939386,33.46123123168945,-0.9058418869972228,-10.40669441223145,33.54944610595703,7.655740737915039,31.17222595214844,XArbitraryZVertical,0.2624311301950621,-0.4447135078309623,0.3107474624037185,0.7979949230385905,-0.8728578686714172,-0.1424502283334732,-0.4667195975780487,0,0,0,-1,-1,34650.56078516667,unknown,2,2022-06-02T10:55:23.680+02:00,2022-06-02T10:32:51.428+02:00,153,2.451919,0,0,129.7851,0,0,2022-06-02T10:55:23.680+02:00,675852923.679526,0,-25.08203,101.4933,1,0.86
398,2022-06-02T10:55:24.785+02:00,1654160123.439556,53.22901020978689,10.39862284212641,45.55574,0.6108506,0.8545049,-1.0,-1.0,75.97978210449219,48.00000000000001,-9999,34651.66171675,21.62582397460938,-11.50315856933594,-1.188308715820312,34651.65297975,1.007351815181808,-1.207915629146264,0.4624128458994394,21.23869895935059,-10.652756690979,-28.93842315673828,31.08030319213867,-27.23685836791992,15.35283088684082,XArbitraryZVertical,0.4319951522734155,-0.3931099386809398,0.2727186899128414,0.764505921686818,-0.8366960287094116,-0.4461088478565216,-0.3176895380020142,0,0,0,-1,-1,34650.56078516667,unknown,2,2022-06-02T10:55:23.680+02:00,2022-06-02T10:32:51.428+02:00,153,2.451919,0,0,129.7851,0,0,2022-06-02T10:55:23.680+02:00,675852923.679526,0,-25.08203,101.4933,1,0.86
399,2022-06-02T10:55:24.795+02:00,1654160123.439556,53.22901020978689,10.39862284212641,45.55574,0.6108506,0.8545049,-1.0,-1.0,75.97978210449219,48.00000000000001,-9999,34651.67168975,12.747802734375,-5.794677734375,-4.025070190429688,34651.66295275,1.063650314907254,-1.31702066567151,0.7802332783661127,8.223837852478027,-3.046712636947632,-27.22367286682129,22.31380844116211,-10.79971313476562,-1.009867548942566,XArbitraryZVertical,0.546238537953467,-0.3352654469291758,0.170362812598365,0.7484630916806096,-0.6879851222038269,-0.7034452557563782,-0.1784410774707794,0,0,0,-1,-1,34650.56078516667,unknown,2,2022-06-02T10:55:23.680+02:00,2022-06-02T10:32:51.428+02:00,153,2.451919,0,0,129.7851,0,0,2022-06-02T10:55:23.680+02:00,675852923.679526,0,-25.08203,101.4933,1,0.86
400,2022-06-02T10:55:24.806+02:00,1654160123.439556,53.22901020978689,10.39862284212641,45.55574,0.6108506,0.8545049,-1.0,-1.0,75.97978210449219,48.00000000000001,-9999,34651.68166175,10.50091552734375,-4.488616943359375,-3.409210205078125,34651.67292575,1.056059778550281,-1.313738934270335,1.03169907682462,4.299795150756836,1.771939039230347,-21.90550422668457,13.24429607391357,-4.936505317687988,-3.894555330276489,XArbitraryZVertical,0.6050505964927599,-0.2620235851349258,0.0868816606432724,0.7467991616992875,-0.4964935779571533,-0.8581724762916565,-0.1305148303508759,0,0,0,-1,-1,34650.56078516667,unknown,2,2022-06-02T10:55:23.680+02:00,2022-06-02T10:32:51.428+02:00,153,2.451919,0,0,129.7851,0,0,2022-06-02T10:55:23.680+02:00,675852923.679526,0,-25.08203,101.4933,1,0.86
401,2022-06-02T10:55:24.815+02:00,1654160123.439556,53.22901020978689,10.39862284212641,45.55574,0.6108506,0.8545049,-1.0,-1.0,75.97978210449219,48.00000000000001,-9999,34651.69163475,10.71823120117188,-5.48486328125,-0.7828369140625,34651.68289775,0.9948901228571956,-1.234767060336406,1.215516272791215,1.37251353263855,2.101662397384644,-14.93070888519287,10.82931327819824,-3.55106782913208,-3.294508695602417,XArbitraryZVertical,0.6359596102193156,-0.1954600807139919,0.02891067561567,0.7459993203253316,-0.3283982276916504,-0.9375491142272948,-0.1147014647722244,0,0,0,-1,-1,34650.56078516667,unknown,2,2022-06-02T10:55:23.680+02:00,2022-06-02T10:32:51.428+02:00,153,2.451919,0,0,129.7851,0,0,2022-06-02T10:55:23.680+02:00,675852923.679526,0,-25.08203,101.4933,1,0.86
402,2022-06-02T10:55:24.825+02:00,1654160123.439556,53.22901020978689,10.39862284212641,45.55574,0.6108506,0.8545049,-1.0,-1.0,75.97978210449219,48.00000000000001,-9999,34651.70160775,9.317947387695312,-4.346786499023438,-1.106399536132812,34651.69287075,0.7846758830782147,-1.030043578857162,1.327614937529749,-3.423236131668091,-1.309157729148865,-11.30631351470947,10.92466735839844,-4.514286518096924,-0.658881664276123,XArbitraryZVertical,0.6437935193492804,-0.1534675939773806,-0.0183208735309209,0.7494277949482926,-0.2064360380172729,-0.9705768227577208,-0.1239552050828934,0,0,0,-1,-1,34650.56078516667,unknown,2,2022-06-02T10:55:23.680+02:00,2022-06-02T10:32:51.428+02:00,153,2.451919,0,0,129.7851,0,0,2022-06-02T10:55:23.680+02:00,675852923.679526,0,-25.08203,101.4933,1,0.86
403,2022-06-02T10:55:24.835+02:00,1654160123.439556,53.22901020978689,10.39862284212641,45.55574,0.6108506,0.8545049,-1.0,-1.0,75.97978210449219,48.00000000000001,-9999,34651.71158075,7.850173950195312,-1.637359619140625,-1.28875732421875,34651.70284375,0.2354828451166446,-0.518042870574056,1.372197591718502,-6.486147403717041,-3.691437721252441,-11.98417663574219,9.415644645690918,-3.366442680358887,-0.9349902868270874,XArbitraryZVertical,0.6314295922567948,-0.1248682063238508,-0.0732867857582131,0.7617964352170579,-0.0976974219083786,-0.9803439974784852,-0.1714092046022415,0,0,0,-1,-1,34650.56078516667,unknown,2,2022-06-02T10:55:23.680+02:00,2022-06-02T10:32:51.428+02:00,153,2.451919,0,0,129.7851,0,0,2022-06-02T10:55:23.680+02:00,675852923.679526,0,-25.08203,101.4933,1,0.86
404,2022-06-02T10:55:24.845+02:00,1654160123.439556,53.22901020978689,10.39862284212641,45.55574,0.6108506,0.8545049,-1.0,-1.0,75.97978210449219,48.00000000000001,-9999,34651.72155375,7.295089721679688,-1.151611328125,-1.661529541015625,34651.71281675001,-0.370655096834027,0.0271389255793134,1.327418974845739,-8.188493728637695,-5.581068515777588,-11.08483695983887,7.843634605407715,-0.6668300032615662,-1.047863960266113,XArbitraryZVertical,0.6074076626357705,-0.1030013500537108,-0.1369212231950782,0.7756927904063704,0.0065391911193728,-0.9705296158790588,-0.2408933043479919,0,0,0,-1,-1,34650.56078516667,unknown,2,2022-06-02T10:55:23.680+02:00,2022-06-02T10:32:51.428+02:00,153,2.451919,0,0,129.7851,0,0,2022-06-02T10:55:23.680+02:00,675852923.679526,0,-25.08203,101.4933,1,0.86
405,2022-06-02T10:55:24.855+02:00,1654160123.439556,53.22901020978689,10.39862284212641,45.55574,0.6108506,0.8545049,-1.0,-1.0,75.97978210449219,48.00000000000001,-9999,34651.73152675,7.3948974609375,-0.834075927734375,-1.1309814453125,34651.72278975001,-0.6792660311095828,0.2678202043227325,1.223121741204772,-9.344430923461914,-5.443130493164062,-10.04147052764893,7.20492696762085,-0.2114437818527222,-1.332963228225708,XArbitraryZVertical,0.5729189222721182,-0.0864915635521851,-0.1980426512994006,0.7906088273925798,0.0901627764105796,-0.9401675462722778,-0.3285662233829498,0,0,0,-1,-1,34650.56078516667,unknown,2,2022-06-02T10:55:23.680+02:00,2022-06-02T10:32:51.428+02:00,153,2.451919,0,0,129.7851,0,0,2022-06-02T10:55:23.680+02:00,675852923.679526,0,-25.08203,101.4933,1,0.86
406,2022-06-02T10:55:24.865+02:00,1654160123.439556,53.22901020978689,10.39862284212641,45.55574,0.6108506,0.8545049,-1.0,-1.0,75.97978210449219,48.00000000000001,-9999,34651.74149975,6.699981689453125,-0.703125,-0.26177978515625,34651.73276275001,-0.8456465679324121,0.3691447946383999,1.100299731261301,-9.806385040283203,-4.932975292205811,-10.25527000427246,7.231328010559082,0.0572673678398132,-0.7081902623176575,XArbitraryZVertical,0.5328702979755304,-0.0682176581544198,-0.2563484313594004,0.8035429080023644,0.163569301366806,-0.8913432955741882,-0.4227911829948425,0,0,0,-1,-1,34650.56078516667,unknown,2,2022-06-02T10:55:23.680+02:00,2022-06-02T10:32:51.428+02:00,153,2.451919,0,0,129.7851,0,0,2022-06-02T10:55:23.680+02:00,675852923.679526,0,-25.08203,101.4933,1,0.86
407,2022-06-02T10:55:24.875+02:00,1654160123.439556,53.22901020978689,10.39862284212641,45.55574,0.6108506,0.8545049,-1.0,-1.0,75.97978210449219,48.00000000000001,-9999,34651.75147175,5.934967041015625,-0.5728912353515625,-0.08612060546875,34651.74273575001,-0.9587449880884448,0.4193104536152416,0.9698331707589974,-9.837875366210938,-4.530417919158936,-10.50643825531006,6.469774723052979,0.1216663718223572,0.2546734809875488,XArbitraryZVertical,0.4894618486904869,-0.0469091828487253,-0.3130364463949001,0.81254834027579,0.2302068322896957,-0.8247913718223572,-0.5164532661437988,0,0,0,-1,-1,34650.56078516667,unknown,2,2022-06-02T10:55:23.680+02:00,2022-06-02T10:32:51.428+02:00,153,2.451919,0,0,129.7851,0,0,2022-06-02T10:55:23.680+02:00,675852923.679526,0,-25.08203,101.4933,1,0.86
408,2022-06-02T10:55:24.885+02:00,1654160123.439556,53.22901020978689,10.39862284212641,45.55574,0.6108506,0.8545049,-1.0,-1.0,75.97978210449219,48.00000000000001,-9999,34651.76144475,5.276504516601562,0.1116180419921875,-0.6139984130859375,34651.75270775001,-1.051029758525911,0.4485194583164916,0.8393567452879804,-8.884672164916992,-4.140429019927979,-10.79563617706299,5.645326137542725,0.1713224053382874,0.5157550573348999,XArbitraryZVertical,0.4455388434783541,-0.0236076651566658,-0.3682652875676752,0.8156705759534578,0.2896408140659332,-0.7442136406898499,-0.6018756628036499,0,0,0,-1,-1,34650.56078516667,unknown,2,2022-06-02T10:55:23.680+02:00,2022-06-02T10:32:51.428+02:00,153,2.451919,0,0,129.7851,0,0,2022-06-02T10:55:23.680+02:00,675852923.679526,0,-25.08203,101.4933,1,0.86
409,2022-06-02T10:55:24.895+02:00,1654160123.439556,53.22901020978689,10.39862284212641,45.55574,0.6108506,0.8545049,-1.0,-1.0,75.97978210449219,48.00000000000001,-9999,34651.77141775,4.592453002929688,0.175994873046875,-0.78741455078125,34651.76268075001,-1.133272131960404,0.4699726386748481,0.7209800585560348,-7.282753944396973,-3.069613456726074,-10.09541606903076,4.936333179473877,0.7717391848564148,0.055720567703247,XArbitraryZVertical,0.4063747073422002,-0.0003275305538798,-0.419198301739758,0.8118696321286475,0.3401713371276855,-0.6601211428642273,-0.6697189807891846,0,0,0,-1,-1,34650.56078516667,unknown,2,2022-06-02T10:55:23.680+02:00,2022-06-02T10:32:51.428+02:00,153,2.451919,0,0,129.7851,0,0,2022-06-02T10:55:23.680+02:00,675852923.679526,0,-25.08203,101.4933,1,0.86
410,2022-06-02T10:55:24.905+02:00,1654160123.439556,53.22901020978689,10.39862284212641,45.55574,0.6108506,0.8545049,-1.0,-1.0,75.97978210449219,48.00000000000001,-9999,34651.78139075,4.342788696289062,-0.2373809814453125,-0.495391845703125,34651.77265375001,-1.199451245770596,0.4865568826999921,0.6160255120810858,-6.804222583770752,-1.894863724708557,-8.792710304260254,4.210818767547607,0.7537906765937805,-0.0659526586532592,XArbitraryZVertical,0.3724522305546757,0.023417868526687,-0.4617313377290005,0.804695620187275,0.3816342353820801,-0.5777958035469055,-0.7214618921279907,0,0,0,-1,-1,34650.56078516667,unknown,2,2022-06-02T10:55:23.680+02:00,2022-06-02T10:32:51.428+02:00,153,2.451919,0,0,129.7851,0,0,2022-06-02T10:55:23.680+02:00,675852923.679526,0,-25.08203,101.4933,1,0.86
411,2022-06-02T10:55:24.915+02:00,1654160123.439556,53.22901020978689,10.39862284212641,45.55574,0.6108506,0.8545049,-1.0,-1.0,75.97978210449219,48.00000000000001,-9999,34651.79136375,4.174652099609375,0.000518798828125,-0.6067047119140625,34651.78262675,-1.246061116787214,0.4966886300005455,0.51307226568873,-7.711483478546143,-1.110660076141357,-8.026429176330566,3.927627801895142,0.2534752786159515,0.2705726623535156,XArbitraryZVertical,0.3384672785899476,0.049574607329235,-0.4964391331058396,0.7978286618841766,0.4151608943939209,-0.4908562302589417,-0.7659645080566406,0,0,0,-1,-1,34650.56078516667,unknown,2,2022-06-02T10:55:23.680+02:00,2022-06-02T10:32:51.428+02:00,153,2.451919,0,0,129.7851,0,0,2022-06-02T10:55:23.680+02:00,675852923.679526,0,-25.08203,101.4933,1,0.86
412,2022-06-02T10:55:24.925+02:00,1654160123.439556,53.22901020978689,10.39862284212641,45.55574,0.6108506,0.8545049,-1.0,-1.0,75.97978210449219,48.00000000000001,-9999,34651.80133675,3.813858032226562,0.58612060546875,-1.193695068359375,34651.79259975,-1.281113173943449,0.5055970251276799,0.4065624388594039,-7.804531097412109,-0.1612634360790253,-7.724288940429688,3.729802131652832,0.3959731459617615,0.1968650221824646,XArbitraryZVertical,0.3031196210247847,0.0795840267081876,-0.5262474932424187,0.7904735886775022,0.4448500275611877,-0.3954543173313141,-0.8035697340965271,0,0,0,-1,-1,34650.56078516667,unknown,2,2022-06-02T10:55:23.680+02:00,2022-06-02T10:32:51.428+02:00,153,2.451919,0,0,129.7851,0,0,2022-06-02T10:55:23.680+02:00,675852923.679526,0,-25.08203,101.4933,1,0.86
413,2022-06-02T10:55:24.935+02:00,1654160123.439556,53.22901020978689,10.39862284212641,45.55574,0.6108506,0.8545049,-1.0,-1.0,75.97978210449219,48.00000000000001,-9999,34651.81130975,3.515945434570312,0.8671722412109375,-1.455520629882812,34651.80257275,-1.312541182099459,0.5215171161240704,0.3064617211084804,-6.724165439605713,1.153496503829956,-7.28235387802124,3.338874340057373,0.8878077268600464,-0.3670298457145691,XArbitraryZVertical,0.2723042081822669,0.1118829633876445,-0.5514555411362516,0.780531588559482,0.4749836921691895,-0.3016871213912964,-0.8266652226448059,0,0,0,-1,-1,34650.56078516667,unknown,2,2022-06-02T10:55:23.680+02:00,2022-06-02T10:32:51.428+02:00,153,2.451919,0,0,129.7851,0,0,2022-06-02T10:55:23.680+02:00,675852923.679526,0,-25.08203,101.4933,1,0.86
414,2022-06-02T10:55:24.945+02:00,1654160124.444919,53.22900132126869,10.39857851153998,29.18065,0.1280675,0.776904,-1.0,-1.0,3.0,16.0,-9999,34651.82128175,3.62054443359375,0.7410430908203125,-1.485244750976562,34651.81254575,-1.342836068505464,0.5460823484679955,0.2176676232689334,-5.571742534637451,2.1113440990448,-6.796878814697266,3.008856534957886,1.083125114440918,-0.6211194396018982,XArbitraryZVertical,0.2486547443990353,0.1448110393438408,-0.5725745162050636,0.7676971810234717,0.5070887804031372,-0.2159528732299805,-0.8344011902809143,0,0,0,-1,-1,34650.56078516667,unknown,2,2022-06-02T10:55:23.680+02:00,2022-06-02T10:32:51.428+02:00,153,2.451919,0,0,129.7851,0,0,2022-06-02T10:55:23.680+02:00,675852923.679526,0,-25.08203,101.4933,1,0.86
415,2022-06-02T10:55:24.955+02:00,1654160124.444919,53.22900132126869,10.39857851153998,29.18065,0.1280675,0.776904,-1.0,-1.0,3.0,16.0,-9999,34651.83125475,3.62725830078125,0.6206207275390625,-1.610488891601562,34651.82251775,-1.373734240275657,0.5738466207800839,0.1408269733565205,-4.252988815307617,2.299697160720825,-6.603636741638184,3.083052158355713,0.8814050555229187,-0.6537397503852844,XArbitraryZVertical,0.2311896875072824,0.175495979543947,-0.5912917286031377,0.7524137323062424,0.5374922752380371,-0.140361949801445,-0.8315050005912781,0,0,0,-1,-1,34650.56078516667,unknown,2,2022-06-02T10:55:23.680+02:00,2022-06-02T10:32:51.428+02:00,153,2.451919,0,0,129.7851,0,0,2022-06-02T10:55:23.680+02:00,675852923.679526,0,-25.08203,101.4933,1,0.86
416,2022-06-02T10:55:24.965+02:00,1654160124.444919,53.22900132126869,10.39857851153998,29.18065,0.1280675,0.776904,-1.0,-1.0,3.0,16.0,-9999,34651.84122775,3.634597778320312,0.48095703125,-1.833770751953125,34651.83249075,-1.409790035203267,0.5993620252142059,0.0764206772679393,-2.455603122711182,1.997887969017029,-6.530683517456055,3.064788818359375,0.6969670653343201,-0.7872031331062317,XArbitraryZVertical,0.2189464746220534,0.2010461417323032,-0.6100332767333136,0.7345082592721136,0.5624693632125854,-0.0763463154435157,-0.8232857584953308,0,0,0,-1,-1,34650.56078516667,unknown,2,2022-06-02T10:55:23.680+02:00,2022-06-02T10:32:51.428+02:00,153,2.451919,0,0,129.7851,0,0,2022-06-02T10:55:23.680+02:00,675852923.679526,0,-25.08203,101.4933,1,0.86
417,2022-06-02T10:55:24.975+02:00,1654160124.444919,53.22900132126869,10.39857851153998,29.18065,0.1280675,0.776904,-1.0,-1.0,3.0,16.0,-9999,34651.85120075,3.599288940429688,0.0329742431640625,-1.954727172851562,34651.84246375,-1.452665149305167,0.6195340512823049,0.0265682420202357,-1.00874137878418,1.634685277938843,-6.180212497711182,3.054146766662598,0.5075221657752991,-1.019908905029297,XArbitraryZVertical,0.2118924755811788,0.2194781922772259,-0.6294394789465771,0.7146586815947172,0.5804509520530701,-0.0265651158988475,-0.8138617873191833,0,0,0,-1,-1,34650.56078516667,unknown,2,2022-06-02T10:55:23.680+02:00,2022-06-02T10:32:51.428+02:00,153,2.451919,0,0,129.7851,0,0,2022-06-02T10:55:23.680+02:00,675852923.679526,0,-25.08203,101.4933,1,0.86
418,2022-06-02T10:55:24.986+02:00,1654160124.444919,53.22900132126869,10.39857851153998,29.18065,0.1280675,0.776904,-1.0,-1.0,3.0,16.0,-9999,34651.86117375,3.419754028320312,-0.487457275390625,-2.106094360351562,34651.85243675,-1.492757247322456,0.6351038602557824,-0.0169337389428035,-1.602612495422363,1.486058831214905,-5.389863967895508,3.006112813949585,0.0160413086414337,-1.149832487106323,XArbitraryZVertical,0.2060946624630094,0.2346862917862904,-0.6469548919839593,0.6956268445291957,0.5931760668754578,0.0169329289346933,-0.8048946857452393,0,0,0,-1,-1,34650.56078516667,unknown,2,2022-06-02T10:55:23.680+02:00,2022-06-02T10:32:51.428+02:00,153,2.451919,0,0,129.7851,0,0,2022-06-02T10:55:23.680+02:00,675852923.679526,0,-25.08203,101.4933,1,0.86
419,2022-06-02T10:55:24.995+02:00,1654160124.444919,53.22900132126869,10.39857851153998,29.18065,0.1280675,0.776904,-1.0,-1.0,3.0,16.0,-9999,34651.87114675,3.084686279296875,-0.367950439453125,-2.393569946289062,34651.86240975,-1.518356771618006,0.6493343995035765,-0.0652561545712184,-3.007522821426392,1.576475977897644,-4.627083301544189,2.816384553909302,-0.5526670813560486,-1.31130313873291,XArbitraryZVertical,0.1970264907073341,0.2525568689571318,-0.6595669637665588,0.6799757818727085,0.603369414806366,0.0652098506689071,-0.7947911620140076,0,0,0,-1,-1,34650.56078516667,unknown,2,2022-06-02T10:55:23.680+02:00,2022-06-02T10:32:51.428+02:00,153,2.451919,0,0,129.7851,0,0,2022-06-02T10:55:23.680+02:00,675852923.679526,0,-25.08203,101.4933,1,0.86
420,2022-06-02T10:55:25.005+02:00,1654160124.444919,53.22900132126869,10.39857851153998,29.18065,0.1280675,0.776904,-1.0,-1.0,3.0,16.0,-9999,34651.88111975,2.9810791015625,-0.002197265625,-2.6297607421875,34651.87238275,-1.533450336154001,0.6653210852818724,-0.1186293327782833,-3.41744327545166,1.883058428764343,-4.298156261444092,2.471713066101074,-0.4863017201423645,-1.612380504608154,XArbitraryZVertical,0.185809677115802,0.2736422127506172,-0.6685337048631342,0.6660761792102695,0.612973153591156,0.1183512881398201,-0.7811893820762634,0,0,0,-1,-1,34650.56078516667,unknown,2,2022-06-02T10:55:23.680+02:00,2022-06-02T10:32:51.428+02:00,153,2.451919,0,0,129.7851,0,0,2022-06-02T10:55:23.680+02:00,675852923.679526,0,-25.08203,101.4933,1,0.86
421,2022-06-02T10:55:25.014+02:00,1654160124.444919,53.22900132126869,10.39857851153998,29.18065,0.1280675,0.776904,-1.0,-1.0,3.0,16.0,-9999,34651.89109175,2.8367919921875,0.06231689453125,-2.625625610351562,34651.88235575,-1.546288248547993,0.6831057390689688,-0.1683936673961819,-2.704642772674561,2.029169321060181,-3.899751424789429,2.358802318572998,-0.1697961986064911,-1.865115523338318,XArbitraryZVertical,0.1763839411515554,0.2942211469118348,-0.6758766188096892,0.6523140141892021,0.6222767233848572,0.1675989478826523,-0.7646452188491821,0,0,0,-1,-1,34650.56078516667,unknown,2,2022-06-02T10:55:23.680+02:00,2022-06-02T10:32:51.428+02:00,153,2.451919,0,0,129.7851,0,0,2022-06-02T10:55:23.680+02:00,675852923.679526,0,-25.08203,101.4933,1,0.86
422,2022-06-02T10:55:25.024+02:00,1654160124.444919,53.22900132126869,10.39857851153998,29.18065,0.1280675,0.776904,-1.0,-1.0,3.0,16.0,-9999,34651.90106475,2.661911010742188,-0.1164398193359375,-2.47698974609375,34651.89232775,-1.560524955686124,0.700709948191155,-0.2079995839545463,-1.626410484313965,2.005422353744507,-3.328416585922241,2.205928564071655,-0.1441861093044281,-1.877716541290283,XArbitraryZVertical,0.1708466192221689,0.311218397390997,-0.6824855526805662,0.6388803757614199,0.6308633685112,0.2065030187368393,-0.7479090690612793,0,0,0,-1,-1,34650.56078516667,unknown,2,2022-06-02T10:55:23.680+02:00,2022-06-02T10:32:51.428+02:00,153,2.451919,0,0,129.7851,0,0,2022-06-02T10:55:23.680+02:00,675852923.679526,0,-25.08203,101.4933,1,0.86
423,2022-06-02T10:55:25.034+02:00,1654160124.444919,53.22900132126869,10.39857851153998,29.18065,0.1280675,0.776904,-1.0,-1.0,3.0,16.0,-9999,34651.91103775,2.459075927734375,-0.351654052734375,-2.320999145507812,34651.90230075,-1.576807651096602,0.7159552859606514,-0.2362869404346599,-0.5941702127456665,1.76150643825531,-2.782667398452759,2.023809671401978,-0.3505341410636902,-1.743486881256104,XArbitraryZVertical,0.1689405746527486,0.3235855792319077,-0.6887533748122798,0.6263946939068581,0.63810133934021,0.2340943664312363,-0.7335029244422913,0,0,0,-1,-1,34650.56078516667,unknown,2,2022-06-02T10:55:23.680+02:00,2022-06-02T10:32:51.428+02:00,153,2.451919,0,0,129.7851,0,0,2022-06-02T10:55:23.680+02:00,675852923.679526,0,-25.08203,101.4933,1,0.86
424,2022-06-02T10:55:25.044+02:00,1654160124.444919,53.22900132126869,10.39857851153998,29.18065,0.1280675,0.776904,-1.0,-1.0,3.0,16.0,-9999,34651.92101075,2.324493408203125,-0.502105712890625,-2.304412841796875,34651.91227375,-1.596391179902355,0.7269060326666017,-0.2537015817888642,0.4467241168022156,1.371107220649719,-2.413380146026611,1.815787553787231,-0.6026427745819092,-1.597683906555176,XArbitraryZVertical,0.1699939415721602,0.3308239512677551,-0.6953333650601873,0.614954556345749,0.6432883143424988,0.2509887516498566,-0.7233151197433472,0,0,0,-1,-1,34650.56078516667,unknown,2,2022-06-02T10:55:23.680+02:00,2022-06-02T10:32:51.428+02:00,153,2.451919,0,0,129.7851,0,0,2022-06-02T10:55:23.680+02:00,675852923.679526,0,-25.08203,101.4933,1,0.86
425,2022-06-02T10:55:25.055+02:00,1654160124.444919,53.22900132126869,10.39857851153998,29.18065,0.1280675,0.776904,-1.0,-1.0,3.0,16.0,-9999,34651.93098375,2.362472534179688,-0.5592498779296875,-2.354141235351562,34651.92224675,-1.619162545083233,0.732067278127369,-0.2630262998927254,0.9559208750724792,0.8309876918792725,-2.111458539962769,1.679072856903076,-0.762109637260437,-1.586199522018433,XArbitraryZVertical,0.172427605362179,0.3334097629536042,-0.7025745586633524,0.6045623541640163,0.645420491695404,0.2600039541721344,-0.7182133197784424,0,0,0,-1,-1,34650.56078516667,unknown,2,2022-06-02T10:55:23.680+02:00,2022-06-02T10:32:51.428+02:00,153,2.451919,0,0,129.7851,0,0,2022-06-02T10:55:23.680+02:00,675852923.679526,0,-25.08203,101.4933,1,0.86
426,2022-06-02T10:55:25.083+02:00,1654160124.444919,53.22900132126869,10.39857851153998,29.18065,0.1280675,0.776904,-1.0,-1.0,3.0,16.0,-9999,34651.94095675,2.383819580078125,-0.6964263916015625,-2.335830688476562,34651.93221975,-1.637972156097095,0.7330362495621452,-0.2700072238740156,0.320804625749588,0.3816929757595062,-1.481118202209473,1.717586636543274,-0.8259882926940918,-1.637919902801514,XArbitraryZVertical,0.1735714721724431,0.3343087044458788,-0.708674536559766,0.596566160754239,0.6448858976364136,0.2667383849620819,-0.716221272945404,0,0,0,-1,-1,34650.56078516667,unknown,2,2022-06-02T10:55:23.680+02:00,2022-06-02T10:32:51.428+02:00,153,2.451919,0,0,129.7851,0,0,2022-06-02T10:55:23.680+02:00,675852923.679526,0,-25.08203,101.4933,1,0.86
427,2022-06-02T10:55:25.092+02:00,1654160124.444919,53.22900132126869,10.39857851153998,29.18065,0.1280675,0.776904,-1.0,-1.0,3.0,16.0,-9999,34651.95092975,2.201995849609375,-0.6822052001953125,-2.231475830078125,34651.94219275,-1.645655318746154,0.7329856175090063,-0.2789644332995424,-0.6046565175056458,0.0310312546789646,-0.853968620300293,1.740594387054443,-0.9717866182327272,-1.621381044387817,XArbitraryZVertical,0.1718584158229687,0.336511359720028,-0.7116274351413064,0.5922932755458977,0.6432251334190369,0.2753602564334869,-0.7144495844841003,0,0,0,-1,-1,34650.56078516667,unknown,2,2022-06-02T10:55:23.680+02:00,2022-06-02T10:32:51.428+02:00,153,2.451919,0,0,129.7851,0,0,2022-06-02T10:55:23.680+02:00,675852923.679526,0,-25.08203,101.4933,1,0.86
428,2022-06-02T10:55:25.095+02:00,1654160124.444919,53.22900132126869,10.39857851153998,29.18065,0.1280675,0.776904,-1.0,-1.0,3.0,16.0,-9999,34651.96090175,2.038040161132812,-0.40325927734375,-2.100494384765625,34651.95216575,-1.644753818198528,0.7320300166570065,-0.2900796187847677,-1.082412481307983,-0.2752671539783478,-0.5143066644668579,1.561539053916931,-0.9682337045669556,-1.51873254776001,XArbitraryZVertical,0.1676645292268324,0.3398779417906778,-0.7122430264366973,0.5908311980550444,0.6404567956924438,0.2860285043716431,-0.7127431631088257,0,0,0,-1,-1,34650.56078516667,unknown,2,2022-06-02T10:55:23.680+02:00,2022-06-02T10:32:51.428+02:00,153,2.451919,0,0,129.7851,0,0,2022-06-02T10:55:23.680+02:00,675852923.679526,0,-25.08203,101.4933,1,0.86
429,2022-06-02T10:55:25.097+02:00,1654160124.444919,53.22900132126869,10.39857851153998,29.18065,0.1280675,0.776904,-1.0,-1.0,3.0,16.0,-9999,34651.97087475,1.907730102539062,-0.227996826171875,-1.932769775390625,34651.96213775,-1.638798683232624,0.7299169727359514,-0.3004026237209304,-1.147652268409729,-0.4997162222862244,0.0281565822660923,1.401093721389771,-0.699164092540741,-1.388637900352478,XArbitraryZVertical,0.1624473287911631,0.3430489954868679,-0.7113820101228829,0.5914930875134844,0.636946439743042,0.295904815196991,-0.711856484413147,0,0,0,-1,-1,34650.56078516667,unknown,2,2022-06-02T10:55:23.680+02:00,2022-06-02T10:32:51.428+02:00,153,2.451919,0,0,129.7851,0,0,2022-06-02T10:55:23.680+02:00,675852923.679526,0,-25.08203,101.4933,1,0.86
430,2022-06-02T10:55:25.104+02:00,1654160124.444919,53.22900132126869,10.39857851153998,29.18065,0.1280675,0.776904,-1.0,-1.0,3.0,16.0,-9999,34651.98084775,1.767776489257812,-0.1754302978515625,-1.739822387695312,34651.97211075,-1.629394294452542,0.7264989808342304,-0.3047327944165809,-0.6689608097076416,-0.7290887236595154,0.7272246479988098,1.274077653884888,-0.5280351042747498,-1.219704866409302,XArbitraryZVertical,0.158164246230751,0.3441679898799572,-0.7091665394873913,0.594655739186514,0.6336525082588196,0.3000382781028748,-0.7130649089813232,0,0,0,-1,-1,34650.56078516667,unknown,2,2022-06-02T10:55:23.680+02:00,2022-06-02T10:32:51.428+02:00,153,2.451919,0,0,129.7851,0,0,2022-06-02T10:55:23.680+02:00,675852923.679526,0,-25.08203,101.4933,1,0.86
431,2022-06-02T10:55:25.114+02:00,1654160124.444919,53.22900132126869,10.39857851153998,29.18065,0.1280675,0.776904,-1.0,-1.0,3.0,16.0,-9999,34651.99082075,1.687301635742188,-0.095428466796875,-1.601181030273438,34651.98208375,-1.618893965617701,0.7216668125462938,-0.3005463221774946,0.0188271589577198,-0.8583447337150574,1.331408262252808,1.136752724647522,-0.4714723527431488,-1.022767186164856,XArbitraryZVertical,0.1560651850088672,0.342222247529233,-0.7061201270433844,0.5999350519767868,0.6310237646102905,0.2960420846939087,-0.7170552015304565,0,0,0,-1,-1,34650.56078516667,unknown,2,2022-06-02T10:55:23.680+02:00,2022-06-02T10:32:51.428+02:00,153,2.451919,0,0,129.7851,0,0,2022-06-02T10:55:23.680+02:00,675852923.679526,0,-25.08203,101.4933,1,0.86
432,2022-06-02T10:55:25.124+02:00,1654160124.444919,53.22900132126869,10.39857851153998,29.18065,0.1280675,0.776904,-1.0,-1.0,3.0,16.0,-9999,34652.00079375,1.754684448242188,0.0795440673828125,-1.487869262695312,34651.99205675,-1.608908194834704,0.7157292255503928,-0.2880928050773963,0.6103463768959045,-0.8970715999603271,1.74572765827179,1.058176040649414,-0.3795526027679443,-0.877665638923645,XArbitraryZVertical,0.1564978997064992,0.3372694994219085,-0.7026909537978193,0.6066161415865163,0.6291255354881287,0.2841241359710693,-0.7235153913497925,0,0,0,-1,-1,34650.56078516667,unknown,2,2022-06-02T10:55:23.680+02:00,2022-06-02T10:32:51.428+02:00,153,2.451919,0,0,129.7851,0,0,2022-06-02T10:55:23.680+02:00,675852923.679526,0,-25.08203,101.4933,1,0.86
