,loggingTime(txt),locationTimestamp_since1970(s),locationLatitude(WGS84),locationLongitude(WGS84),locationAltitude(m),locationSpeed(m/s),locationSpeedAccuracy(m/s),locationCourse(°),locationCourseAccuracy(°),locationVerticalAccuracy(m),locationHorizontalAccuracy(m),locationFloor(Z),accelerometerTimestamp_sinceReboot(s),accelerometerAccelerationX(G),accelerometerAccelerationY(G),accelerometerAccelerationZ(G),motionTimestamp_sinceReboot(s),motionYaw(rad),motionRoll(rad),motionPitch(rad),motionRotationRateX(rad/s),motionRotationRateY(rad/s),motionRotationRateZ(rad/s),motionUserAccelerationX(G),motionUserAccelerationY(G),motionUserAccelerationZ(G),motionAttitudeReferenceFrame(txt),motionQuaternionX(R),motionQuaternionY(R),motionQuaternionZ(R),motionQuaternionW(R),motionGravityX(G),motionGravityY(G),motionGravityZ(G),motionMagneticFieldX(µT),motionMagneticFieldY(µT),motionMagneticFieldZ(µT),motionHeading(°),motionMagneticFieldCalibrationAccuracy(Z),activityTimestamp_sinceReboot(s),activity(txt),activityActivityConfidence(Z),activityActivityStartDate(txt),pedometerStartDate(txt),pedometerNumberofSteps(N),pedometerAverageActivePace(s/m),pedometerCurrentPace(s/m),pedometerCurrentCadence(steps/s),pedometerDistance(m),pedometerFloorAscended(N),pedometerFloorDescended(N),pedometerEndDate(txt),altimeterTimestamp_sinceReboot(s),altimeterReset(bool),altimeterRelativeAltitude(m),altimeterPressure(kPa),batteryState(N),batteryLevel(R)
329,2022-06-02T10:56:36.282+02:00,1654160195.00039,53.22909917541843,10.39873989011385,36.6852,0.1466293,0.4403503,204.7725000719458,180.0,3,12.00181241052132,-9999,34723.15858916667,0.53668212890625,0.4531097412109375,-2.17803955078125,34723.15483816667,1.040524344264129,0.5357624011875985,0.3745035230542392,-11.56345367431641,10.68695735931396,-4.915303230285645,0.1451711654663086,0.5507622957229614,-1.310589551925659,XArbitraryZVertical,-0.0264885644264785,-0.3148935361642024,-0.5137527944019,-0.7976204262055768,0.4751138985157013,-0.3658105134963989,-0.8002808094024658,0,0,0,-1,-1,34722.046775625,walking,2,2022-06-02T10:56:35.166+02:00,2022-06-02T10:32:51.428+02:00,153,2.5721,0,0,129.7851,0,0,2022-06-02T10:56:04.528+02:00,675852995.1655154,0,-24.83984,101.4914,1,0.85
330,2022-06-02T10:56:36.292+02:00,1654160195.00039,53.22909917541843,10.39873989011385,36.6852,0.1466293,0.4403503,204.7725000719458,180.0,3,12.00181241052132,-9999,34723.16856216667,0.45709228515625,0.7509307861328125,-2.137344360351562,34723.16481216667,1.067610647870428,0.638604017964952,0.23834596618718,-14.0502758026123,11.56420135498047,-5.913301944732666,-0.0425418615341186,0.6892054080963135,-1.397809743881226,XArbitraryZVertical,0.0614082573700167,-0.3257517032831088,-0.5117966736139313,-0.7925774508893126,0.5792239904403687,-0.2360956817865372,-0.7802296876907349,0,0,0,-1,-1,34722.046775625,walking,2,2022-06-02T10:56:35.166+02:00,2022-06-02T10:32:51.428+02:00,153,2.5721,0,0,129.7851,0,0,2022-06-02T10:56:04.528+02:00,675852995.1655154,0,-24.83984,101.4914,1,0.85
331,2022-06-02T10:56:36.302+02:00,1654160195.00039,53.22909917541843,10.39873989011385,36.6852,0.1466293,0.4403503,204.7725000719458,180.0,3,12.00181241052132,-9999,34723.17853616667,0.2942657470703125,1.294754028320312,-2.042510986328125,34723.17478516667,1.118101321732117,0.7506662943896343,0.0796021193141011,-16.80418014526367,12.46411895751953,-6.760216236114502,-0.2228738069534302,0.8304488658905029,-1.408425331115723,XArbitraryZVertical,0.1628901228788668,-0.3301625186763144,-0.505434450984813,-0.7803817037067777,0.679966151714325,-0.0795180797576904,-0.7289190292358398,0,0,0,-1,-1,34722.046775625,walking,2,2022-06-02T10:56:35.166+02:00,2022-06-02T10:32:51.428+02:00,153,2.5721,0,0,129.7851,0,0,2022-06-02T10:56:04.528+02:00,675852995.1655154,0,-24.83984,101.4914,1,0.85
332,2022-06-02T10:56:36.312+02:00,1654160195.00039,53.22909917541843,10.39873989011385,36.6852,0.1466293,0.4403503,204.7725000719458,180.0,3,12.00181241052132,-9999,34723.18850916667,0.0630035400390625,1.85125732421875,-1.587799072265625,34723.18475816667,1.201455573517112,0.8815630366225582,-0.0980189028539159,-19.8371696472168,13.50953102111816,-7.732277870178223,-0.4737637639045715,1.196892023086548,-1.409617781639099,XArbitraryZVertical,0.2774194902432492,-0.3264840713079324,-0.4933603721324665,-0.7569955297247908,0.768029510974884,0.0978620201349258,-0.6328931450843811,0,0,0,-1,-1,34722.046775625,walking,2,2022-06-02T10:56:35.166+02:00,2022-06-02T10:32:51.428+02:00,153,2.5721,0,0,129.7851,0,0,2022-06-02T10:56:04.528+02:00,675852995.1655154,0,-24.83984,101.4914,1,0.85
333,2022-06-02T10:56:36.322+02:00,1654160195.00039,53.22909917541843,10.39873989011385,36.6852,0.1466293,0.4403503,204.7725000719458,180.0,3,12.00181241052132,-9999,34723.19848216667,-0.102569580078125,2.64447021484375,-1.016220092773438,34723.19473116667,1.332093675065956,1.045728998945232,-0.282959903474638,-22.4991340637207,14.277268409729,-8.023930549621582,-0.7678768634796143,1.572058200836182,-1.106461644172668,XArbitraryZVertical,0.401522923572337,-0.3132262028312588,-0.4746150712608312,-0.7179201789880232,0.8308804631233215,0.2791990637779236,-0.4813373684883118,0,0,0,-1,-1,34722.046775625,walking,2,2022-06-02T10:56:35.166+02:00,2022-06-02T10:32:51.428+02:00,153,2.5721,0,0,129.7851,0,0,2022-06-02T10:56:04.528+02:00,675852995.1655154,0,-24.83984,101.4914,1,0.85
334,2022-06-02T10:56:36.332+02:00,1654160195.00039,53.22909917541843,10.39873989011385,36.6852,0.1466293,0.4403503,204.7725000719458,180.0,3,12.00181241052132,-9999,34723.20845516667,-0.3975067138671875,2.672088623046875,-0.310699462890625,34723.20470416667,1.530521625431333,1.265707917366335,-0.4553203067532711,-25.4232063293457,15.23722076416016,-8.632153511047363,-0.959214985370636,2.204720258712769,-0.7464449405670166,XArbitraryZVertical,0.5303913390144629,-0.2894779323480893,-0.4478885516330954,-0.6590018186647142,0.856645405292511,0.4397500157356262,-0.2697751224040985,0,0,0,-1,-1,34722.046775625,walking,2,2022-06-02T10:56:35.166+02:00,2022-06-02T10:32:51.428+02:00,153,2.5721,0,0,129.7851,0,0,2022-06-02T10:56:04.528+02:00,675852995.1655154,0,-24.83984,101.4914,1,0.85
335,2022-06-02T10:56:36.342+02:00,1654160195.00039,53.22909917541843,10.39873989011385,36.6852,0.1466293,0.4403503,204.7725000719458,180.0,3,12.00181241052132,-9999,34723.21842816667,-1.0987548828125,3.685882568359375,0.5465545654296875,34723.21467816667,1.813033784748485,1.563421256545723,-0.5833126052371629,-26.42124176025391,15.69099044799805,-8.521710395812988,-1.232126712799072,2.121296882629395,-0.3045439720153809,XArbitraryZVertical,0.657073388199676,-0.2552975047526286,-0.410316560183272,-0.5785482999712656,0.8346200585365295,0.5507918000221252,-0.0061554932035505,0,0,0,-1,-1,34722.046775625,walking,2,2022-06-02T10:56:35.166+02:00,2022-06-02T10:32:51.428+02:00,153,2.5721,0,0,129.7851,0,0,2022-06-02T10:56:04.528+02:00,675852995.1655154,0,-24.83984,101.4914,1,0.85
336,2022-06-02T10:56:36.352+02:00,1654160195.00039,53.22909917541843,10.39873989011385,36.6852,0.1466293,0.4403503,204.7725000719458,180.0,3,12.00181241052132,-9999,34723.22840216667,-1.611083984375,2.234100341796875,1.443603515625,34723.22465116667,2.145129003564521,1.912424885781454,-0.6247822118722538,-26.27424812316895,16.15506935119629,-8.877349853515625,-1.862972736358643,3.100961923599243,0.2748214304447174,XArbitraryZVertical,0.7676394285489461,-0.2158617852056123,-0.3620113503508383,-0.4827849157190029,0.7642179727554321,0.5849206447601318,0.2717331945896149,0,0,0,-1,-1,34722.046775625,walking,2,2022-06-02T10:56:35.166+02:00,2022-06-02T10:32:51.428+02:00,153,2.5721,0,0,129.7851,0,0,2022-06-02T10:56:04.528+02:00,675852995.1655154,0,-24.83984,101.4914,1,0.85
337,2022-06-02T10:56:36.362+02:00,1654160196.000391,53.2290944038537,10.39869322871799,36.71597,0.1823835,0.3906729,189.2931740540542,65.4946972538297,3,12.00181241052132,-9999,34723.23837516667,-2.53704833984375,2.830902099609375,2.951995849609375,34723.23462416667,2.464446449608891,2.253394631303291,-0.5780187299026666,-23.92513847351074,15.61908054351807,-8.71072769165039,-2.260967016220093,1.687734603881836,0.9152695536613464,XArbitraryZVertical,0.8570809683799069,-0.1719860357264334,-0.3029672065695851,-0.3795311560127774,0.649882972240448,0.5463656187057495,0.5283339619636536,0,0,0,-1,-1,34722.046775625,walking,2,2022-06-02T10:56:35.166+02:00,2022-06-02T10:32:51.428+02:00,153,2.5721,0,0,129.7851,0,0,2022-06-02T10:56:04.528+02:00,675852995.1655154,0,-24.83984,101.4914,1,0.85
338,2022-06-02T10:56:36.372+02:00,1654160196.000391,53.2290944038537,10.39869322871799,36.71597,0.1823835,0.3906729,189.2931740540542,65.4946972538297,3,12.00181241052132,-9999,34723.24834816667,-3.041183471679688,1.744903564453125,4.58660888671875,34723.24459716667,2.714019335706598,2.531766425777341,-0.474230678641466,-20.56093788146973,14.79630565643311,-8.850334167480469,-3.04656982421875,2.374248027801514,2.22271203994751,XArbitraryZVertical,0.921037087191774,-0.1277990657488128,-0.2376291975231554,-0.2808745413696251,0.5095216035842896,0.4566541612148285,0.7292838096618652,0,0,0,-1,-1,34722.046775625,walking,2,2022-06-02T10:56:35.166+02:00,2022-06-02T10:32:51.428+02:00,153,2.5721,0,0,129.7851,0,0,2022-06-02T10:56:04.528+02:00,675852995.1655154,0,-24.83984,101.4914,1,0.85
339,2022-06-02T10:56:36.382+02:00,1654160196.000391,53.2290944038537,10.39869322871799,36.71597,0.1823835,0.3906729,189.2931740540542,65.4946972538297,3,12.00181241052132,-9999,34723.25832116667,-3.698806762695312,1.357025146484375,6.852066040039062,34723.25457116667,2.899832687259986,2.747466612169283,-0.3538084827134926,-16.82032585144043,13.2080602645874,-9.50133228302002,-3.401399850845337,1.398430585861206,3.720467567443848,XArbitraryZVertical,0.9624517945054014,-0.0822021577288745,-0.1705176552217877,-0.1945586975259401,0.360216349363327,0.3464728891849518,0.8661413192749023,0,0,0,-1,-1,34722.046775625,walking,2,2022-06-02T10:56:35.166+02:00,2022-06-02T10:32:51.428+02:00,153,2.5721,0,0,129.7851,0,0,2022-06-02T10:56:04.528+02:00,675852995.1655154,0,-24.83984,101.4914,1,0.85
340,2022-06-02T10:56:36.392+02:00,1654160196.000391,53.2290944038537,10.39869322871799,36.71597,0.1823835,0.3906729,189.2931740540542,65.4946972538297,3,12.00181241052132,-9999,34723.26829416667,-4.210617065429688,0.58758544921875,9.017410278320312,34723.26454416667,3.046459680375382,2.909353238954724,-0.243923825091754,-12.73906421661377,10.44376754760742,-10.56685829162598,-3.9221510887146,1.11551296710968,5.90772008895874,XArbitraryZVertical,0.9854426754811736,-0.032798097961542,-0.1091224528482434,-0.1261718063712046,0.2233442366123199,0.2415121495723724,0.9443459510803224,0,0,0,-1,-1,34722.046775625,walking,2,2022-06-02T10:56:35.166+02:00,2022-06-02T10:32:51.428+02:00,153,2.5721,0,0,129.7851,0,0,2022-06-02T10:56:04.528+02:00,675852995.1655154,0,-24.83984,101.4914,1,0.85
341,2022-06-02T10:56:36.402+02:00,1654160196.000391,53.2290944038537,10.39869322871799,36.71597,0.1823835,0.3906729,189.2931740540542,65.4946972538297,3,12.00181241052132,-9999,34723.27826816667,-5.158721923828125,-0.545196533203125,10.46214294433594,34723.27451716667,-3.102310622887605,3.019146919904184,-0.1604262802742295,-8.242253303527832,6.023918151855469,-12.60982227325439,-4.331188678741455,0.427846372127533,8.037641525268555,XArbitraryZVertical,0.9946289535956352,0.0244415304958398,-0.0625468628591778,-0.0787638168811323,0.1205716282129288,0.1597390323877335,0.9797682762145996,0,0,0,-1,-1,34722.046775625,walking,2,2022-06-02T10:56:35.166+02:00,2022-06-02T10:32:51.428+02:00,153,2.5721,0,0,129.7851,0,0,2022-06-02T10:56:04.528+02:00,675852995.1655154,0,-24.83984,101.4914,1,0.85
342,2022-06-02T10:56:36.412+02:00,1654160196.000391,53.2290944038537,10.39869322871799,36.71597,0.1823835,0.3906729,189.2931740540542,65.4946972538297,3,12.00181241052132,-9999,34723.28824116667,-6.666351318359375,-0.308807373046875,11.26358032226562,34723.28449016667,-2.957740927093456,3.066090879718722,-0.1147365550167698,-3.665621757507324,-0.857383668422699,-15.12780952453613,-5.23365592956543,-0.659681499004364,9.471548080444336,XArbitraryZVertical,0.9932327388334788,0.0937350214224055,-0.0427803127350578,-0.0535951687447311,0.0749341249465942,0.1144849807024002,0.990595042705536,0,0,0,-1,-1,34722.046775625,walking,2,2022-06-02T10:56:35.166+02:00,2022-06-02T10:32:51.428+02:00,153,2.5721,0,0,129.7851,0,0,2022-06-02T10:56:04.528+02:00,675852995.1655154,0,-24.83984,101.4914,1,0.85
343,2022-06-02T10:56:36.422+02:00,1654160196.000391,53.2290944038537,10.39869322871799,36.71597,0.1823835,0.3906729,189.2931740540542,65.4946972538297,3,12.00181241052132,-9999,34723.29821416667,-8.264968872070312,1.235137939453125,10.85720825195312,34723.29446316667,-2.794837317097272,3.033490117634767,-0.1102705696662117,-0.0261843036860227,-9.627297401428224,-17.1553897857666,-6.773588180541992,-0.4188545942306519,10.27545547485352,XArbitraryZVertical,0.9815610219894148,0.1749292143685637,-0.062626842034549,-0.0448961911994095,0.1072368249297142,0.1100472286343575,0.9881245493888856,0,0,0,-1,-1,34722.046775625,walking,2,2022-06-02T10:56:35.166+02:00,2022-06-02T10:32:51.428+02:00,153,2.5721,0,0,129.7851,0,0,2022-06-02T10:56:04.528+02:00,675852995.1655154,0,-24.83984,101.4914,1,0.85
344,2022-06-02T10:56:36.432+02:00,1654160196.000391,53.2290944038537,10.39869322871799,36.71597,0.1823835,0.3906729,189.2931740540542,65.4946972538297,3,12.00181241052132,-9999,34723.30818716667,-10.01266479492188,2.46466064453125,8.163116455078125,34723.30443716667,-2.621094180491276,2.910010473445499,-0.1561645126601771,3.457926750183105,-19.67246055603027,-18.38694190979004,-8.491693496704102,1.079607367515564,9.895748138427734,XArbitraryZVertical,0.9546116140136102,0.2635279833832282,-0.1312393419527129,-0.0452330910142032,0.2267248332500458,0.1555305421352386,0.9614606499671936,0,0,0,-1,-1,34722.046775625,walking,2,2022-06-02T10:56:35.166+02:00,2022-06-02T10:32:51.428+02:00,153,2.5721,0,0,129.7851,0,0,2022-06-02T10:56:04.528+02:00,675852995.1655154,0,-24.83984,101.4914,1,0.85
345,2022-06-02T10:56:36.442+02:00,1654160196.000391,53.2290944038537,10.39869322871799,36.71597,0.1823835,0.3906729,189.2931740540542,65.4946972538297,3,12.00181241052132,-9999,34723.31816016667,-12.87396240234375,3.527816772460938,3.964813232421875,34723.31441016667,-2.458203725604684,2.702185767942428,-0.26904195275784,7.661895275115967,-28.05319595336914,-19.45387649536133,-10.42276382446289,2.1988525390625,7.290668964385986,XArbitraryZVertical,0.901438369032355,0.3516142609522913,-0.2473453217285394,-0.0509561687893677,0.4100992977619171,0.2658079862594604,0.8724474310874939,0,0,0,-1,-1,34722.046775625,walking,2,2022-06-02T10:56:35.166+02:00,2022-06-02T10:32:51.428+02:00,153,2.5721,0,0,129.7851,0,0,2022-06-02T10:56:04.528+02:00,675852995.1655154,0,-24.83984,101.4914,1,0.85
346,2022-06-02T10:56:36.452+02:00,1654160196.000391,53.2290944038537,10.39869322871799,36.71597,0.1823835,0.3906729,189.2931740540542,65.4946972538297,3,12.00181241052132,-9999,34723.32813416667,-17.23127746582031,5.399246215820312,0.6100311279296875,34723.32438316667,-2.342604893314422,2.427352941171516,-0.4514438662397462,11.91367626190186,-35.02483367919922,-17.88286399841309,-13.46338176727295,3.091551542282104,3.284918308258057,XArbitraryZVertical,0.8108070575281924,0.4272462678328572,-0.3954404070262201,-0.0606582838767775,0.5894197225570679,0.4362652003765106,0.6798949241638184,0,0,0,-1,-1,34722.046775625,walking,2,2022-06-02T10:56:35.166+02:00,2022-06-02T10:32:51.428+02:00,153,2.5721,0,0,129.7851,0,0,2022-06-02T10:56:04.528+02:00,675852995.1655154,0,-24.83984,101.4914,1,0.85
347,2022-06-02T10:56:36.462+02:00,1654160196.000391,53.2290944038537,10.39869322871799,36.71597,0.1823835,0.3906729,189.2931740540542,65.4946972538297,3,12.00181241052132,-9999,34723.33810716667,-25.17362976074219,7.24603271484375,1.041091918945312,34723.33435616667,-2.406469781342334,2.041674320569757,-0.6597917946764701,21.97178840637207,-34.89323425292969,-8.68006420135498,-17.93540954589844,4.786293983459473,0.2515783309936523,XArbitraryZVertical,0.6918591719585482,0.4478362677579131,-0.5606835097633307,-0.0800477479919405,0.7041314840316772,0.6129523515701294,0.3584528863430023,0,0,0,-1,-1,34722.046775625,walking,2,2022-06-02T10:56:35.166+02:00,2022-06-02T10:32:51.428+02:00,153,2.5721,0,0,129.7851,0,0,2022-06-02T10:56:04.528+02:00,675852995.1655154,0,-24.83984,101.4914,1,0.85
348,2022-06-02T10:56:36.472+02:00,1654160196.000391,53.2290944038537,10.39869322871799,36.71597,0.1823835,0.3906729,189.2931740540542,65.4946972538297,3,12.00181241052132,-9999,34723.34808016667,-27.76014709472656,6.963851928710938,2.618423461914062,34723.34432916667,-2.70180171847482,1.496132721955971,-0.7756849949213681,27.06913375854492,-34.83629989624023,-5.971743583679199,-25.88558197021484,6.545827388763428,1.094347834587097,XArbitraryZVertical,0.5540689253402965,0.4078966282583781,-0.7183378487053412,-0.10304684835373,0.7119524478912354,0.7002052664756775,-0.0532559342682361,0,0,0,-1,-1,34722.046775625,walking,2,2022-06-02T10:56:35.166+02:00,2022-06-02T10:32:51.428+02:00,153,2.5721,0,0,129.7851,0,0,2022-06-02T10:56:04.528+02:00,675852995.1655154,0,-24.83984,101.4914,1,0.85
349,2022-06-02T10:56:36.482+02:00,1654160196.000391,53.2290944038537,10.39869322871799,36.71597,0.1823835,0.3906729,189.2931740540542,65.4946972538297,3,12.00181241052132,-9999,34723.35805316667,-21.83821105957031,14.25262451171875,10.95307922363281,34723.35430316667,-3.121136091926706,0.8653610483869869,-0.660051054442298,36.24590301513672,-34.70731353759766,4.033227443695068,-28.36156845092773,6.35069465637207,3.130606651306152,XArbitraryZVertical,0.3936477041768072,0.2982446618014341,-0.8601972069073814,-0.1270917277202657,0.6014204621315002,0.6131572127342224,-0.5121831893920898,0,0,0,-1,-1,34722.046775625,walking,2,2022-06-02T10:56:35.166+02:00,2022-06-02T10:32:51.428+02:00,153,2.5721,0,0,129.7851,0,0,2022-06-02T10:56:04.528+02:00,675852995.1655154,0,-24.83984,101.4914,1,0.85
350,2022-06-02T10:56:36.492+02:00,1654160196.000391,53.2290944038537,10.39869322871799,36.71597,0.1823835,0.3906729,189.2931740540542,65.4946972538297,3,12.00181241052132,-9999,34723.36802716667,-23.55680847167969,8.319473266601562,17.62397766113281,34723.36427616667,2.960197022929455,0.420318374059413,-0.3458304653694563,35.22361755371094,-33.17741775512695,4.866057395935059,-22.22210311889648,13.91364669799805,11.81198596954346,XArbitraryZVertical,0.2199006475694434,0.1489643389999571,-0.956202366666866,-0.1230055134111293,0.3838921785354614,0.3389780819416046,-0.8589066863059998,0,0,0,-1,-1,34722.046775625,walking,2,2022-06-02T10:56:35.166+02:00,2022-06-02T10:32:51.428+02:00,153,2.5721,0,0,129.7851,0,0,2022-06-02T10:56:04.528+02:00,675852995.1655154,0,-24.83984,101.4914,1,0.85
351,2022-06-02T10:56:36.502+02:00,1654160196.000391,53.2290944038537,10.39869322871799,36.71597,0.1823835,0.3906729,189.2931740540542,65.4946972538297,3,12.00181241052132,-9999,34723.37800016667,-13.56466674804688,-15.05574035644531,8.43280029296875,34723.37424916667,2.909875443366654,0.1381215887289377,-0.0825244907809486,22.9913158416748,-28.71442985534668,-1.107430458068848,-23.69402313232422,8.237042427062988,18.611083984375,XArbitraryZVertical,0.0732421210381861,0.0329060510127841,-0.9897556769109854,-0.1180533245742691,0.1372142732143402,0.0824308544397354,-0.9871055483818054,0,0,0,-1,-1,34722.046775625,walking,2,2022-06-02T10:56:35.166+02:00,2022-06-02T10:32:51.428+02:00,153,2.5721,0,0,129.7851,0,0,2022-06-02T10:56:04.528+02:00,675852995.1655154,0,-24.83984,101.4914,1,0.85
352,2022-06-02T10:56:36.511+02:00,1654160196.000391,53.2290944038537,10.39869322871799,36.71597,0.1823835,0.3906729,189.2931740540542,65.4946972538297,3,12.00181241052132,-9999,34723.38797316667,-7.737060546875,-8.795974731445312,3.213821411132812,34723.38422216667,2.877160870570441,-0.0547782630443418,0.0767302610004324,10.46444988250732,-12.85242462158203,5.709854125976562,-13.51007652282715,-14.97908496856689,9.428362846374512,XArbitraryZVertical,-0.0321812892779312,-0.0343990656275442,-0.9900328804329492,-0.1327258681721555,-0.0545897781848907,-0.0766549929976463,-0.9955621361732484,0,0,0,-1,-1,34722.046775625,walking,2,2022-06-02T10:56:35.166+02:00,2022-06-02T10:32:51.428+02:00,153,2.5721,0,0,129.7851,0,0,2022-06-02T10:56:04.528+02:00,675852995.1655154,0,-24.83984,101.4914,1,0.85
353,2022-06-02T10:56:36.521+02:00,1654160196.000391,53.2290944038537,10.39869322871799,36.71597,0.1823835,0.3906729,189.2931740540542,65.4946972538297,3,12.00181241052132,-9999,34723.39794616667,-8.381072998046875,1.3963623046875,-0.2614288330078125,34723.39419516667,2.946601694261708,-0.1293874680148906,0.1590838297740489,6.407510757446289,-0.6896887421607971,4.185621738433838,-7.609663009643555,-8.637560844421387,4.192940711975098,XArbitraryZVertical,-0.0718565217858662,-0.0726422189859127,-0.9895289581668244,-0.1019428210967288,-0.1273975074291229,-0.1584136784076691,-0.9791194796562196,0,0,0,-1,-1,34722.046775625,walking,2,2022-06-02T10:56:35.166+02:00,2022-06-02T10:32:51.428+02:00,153,2.5721,0,0,129.7851,0,0,2022-06-02T10:56:04.528+02:00,675852995.1655154,0,-24.83984,101.4914,1,0.85
354,2022-06-02T10:56:36.531+02:00,1654160196.000391,53.2290944038537,10.39869322871799,36.71597,0.1823835,0.3906729,189.2931740540542,65.4946972538297,3,12.00181241052132,-9999,34723.40791916667,-6.13604736328125,-1.823837280273438,-0.8024139404296875,34723.40416916667,3.002562356948375,-0.1263115853033388,0.2054983725837344,4.651801109313965,3.893476963043213,6.03078556060791,-8.257747650146484,1.600417375564575,0.7097315192222595,XArbitraryZVertical,-0.0697394418644736,-0.097756059203505,-0.9898954589462008,-0.0754129463563664,-0.1233253702521324,-0.2040550708770752,-0.971160352230072,0,0,0,-1,-1,34722.046775625,walking,2,2022-06-02T10:56:35.166+02:00,2022-06-02T10:32:51.428+02:00,153,2.5721,0,0,129.7851,0,0,2022-06-02T10:56:04.528+02:00,675852995.1655154,0,-24.83984,101.4914,1,0.85
355,2022-06-02T10:56:36.541+02:00,1654160196.000391,53.2290944038537,10.39869322871799,36.71597,0.1823835,0.3906729,189.2931740540542,65.4946972538297,3,12.00181241052132,-9999,34723.41789316667,-4.680572509765625,-1.821685791015625,0.675750732421875,34723.41414216667,3.091902315330758,-0.0909587325785912,0.2035403595714217,-3.229347229003906,6.277372360229492,11.23614311218262,-6.047089099884033,-1.621699452400208,0.1728945970535278,XArbitraryZVertical,-0.0477357645361921,-0.1003346360257538,-0.9933757173891868,-0.029305956521795,-0.0889582931995391,-0.2021378725767136,-0.9753085374832152,0,0,0,-1,-1,34722.046775625,walking,2,2022-06-02T10:56:35.166+02:00,2022-06-02T10:32:51.428+02:00,153,2.5721,0,0,129.7851,0,0,2022-06-02T10:56:04.528+02:00,675852995.1655154,0,-24.83984,101.4914,1,0.85
356,2022-06-02T10:56:36.551+02:00,1654160196.000391,53.2290944038537,10.39869322871799,36.71597,0.1823835,0.3906729,189.2931740540542,65.4946972538297,3,12.00181241052132,-9999,34723.42786616667,-3.603347778320312,0.4312591552734375,2.46240234375,34723.42411516667,-3.063809309494919,-0.0545452418381029,0.1272155166611011,-10.16735553741455,5.247929096221924,14.40347766876221,-4.626494884490967,-1.694813132286072,1.666194558143616,XArbitraryZVertical,-0.0247229115210063,-0.0645513194817315,-0.9969196526685776,0.0370567585956221,-0.0540776364505291,-0.1268726587295532,-0.9904438257217408,0,0,0,-1,-1,34722.046775625,walking,2,2022-06-02T10:56:35.166+02:00,2022-06-02T10:32:51.428+02:00,153,2.5721,0,0,129.7851,0,0,2022-06-02T10:56:04.528+02:00,675852995.1655154,0,-24.83984,101.4914,1,0.85
357,2022-06-02T10:56:36.561+02:00,1654160196.000391,53.2290944038537,10.39869322871799,36.71597,0.1823835,0.3906729,189.2931740540542,65.4946972538297,3,12.00181241052132,-9999,34723.43783916667,-4.474212646484375,2.657028198242188,2.755905151367188,34723.43408816667,-2.919184806525977,-0.0301262311578042,0.0019773350484494,-12.62222957611084,1.827628135681152,15.7892541885376,-3.5732262134552,0.4332364797592163,3.461946725845337,XArbitraryZVertical,-0.0148597959082706,-0.0026540123335927,-0.993711622091583,0.1109474202253759,-0.0301216151565313,-0.0019773337990045,-0.9995442628860474,0,0,0,-1,-1,34722.046775625,walking,2,2022-06-02T10:56:35.166+02:00,2022-06-02T10:32:51.428+02:00,153,2.5721,0,0,129.7851,0,0,2022-06-02T10:56:04.528+02:00,675852995.1655154,0,-24.83984,101.4914,1,0.85
358,2022-06-02T10:56:36.571+02:00,1654160196.000391,53.2290944038537,10.39869322871799,36.71597,0.1823835,0.3906729,189.2931740540542,65.4946972538297,3,12.00181241052132,-9999,34723.44781216667,-5.383712768554688,2.833648681640625,3.564407348632812,34723.44406216667,-2.757231943056751,-0.0155013156570983,-0.1196338578984308,-10.78820991516113,-1.025735020637512,16.72200584411621,-4.458822727203369,2.537679433822632,3.748638153076172,XArbitraryZVertical,-0.0190121387120258,0.0572012217248703,-0.9797166767745786,0.1911070771925863,-0.0153899025171995,0.1193486899137497,-0.992733120918274,0,0,0,-1,-1,34722.046775625,walking,2,2022-06-02T10:56:35.166+02:00,2022-06-02T10:32:51.428+02:00,153,2.5721,0,0,129.7851,0,0,2022-06-02T10:56:04.528+02:00,675852995.1655154,0,-24.83984,101.4914,1,0.85
359,2022-06-02T10:56:36.581+02:00,1654160196.000391,53.2290944038537,10.39869322871799,36.71597,0.1823835,0.3906729,189.2931740540542,65.4946972538297,3,12.00181241052132,-9999,34723.45778516667,-6.2080078125,1.280487060546875,3.65966796875,34723.45403516667,-2.597353956644613,-0.0091258513917677,-0.2168356840560633,-8.422101020812988,-2.901304244995117,15.14652824401855,-5.374800682067871,2.618508100509644,4.540949821472168,XArbitraryZVertical,-0.0334516827396066,0.1030036941201541,-0.9574054104852532,0.2676681448224117,-0.0089120287448167,0.2151404917240143,-0.9765424728393556,0,0,0,-1,-1,34722.046775625,walking,2,2022-06-02T10:56:35.166+02:00,2022-06-02T10:32:51.428+02:00,153,2.5721,0,0,129.7851,0,0,2022-06-02T10:56:04.528+02:00,675852995.1655154,0,-24.83984,101.4914,1,0.85
360,2022-06-02T10:56:36.591+02:00,1654160196.000391,53.2290944038537,10.39869322871799,36.71597,0.1823835,0.3906729,189.2931740540542,65.4946972538297,3,12.00181241052132,-9999,34723.46775916667,-6.204452514648438,1.733551025390625,3.167572021484375,34723.46400816667,-2.453157909481512,-0.0064644583609424,-0.2867510060931069,-5.177803516387939,-3.964126825332642,12.77061080932617,-6.201807498931885,0.9976496696472168,4.618815898895264,XArbitraryZVertical,-0.0512290585632369,0.1334228957671222,-0.9315203219139134,0.3344304594890149,-0.006200457457453,0.2828373908996582,-0.959147810935974,0,0,0,-1,-1,34722.046775625,walking,2,2022-06-02T10:56:35.166+02:00,2022-06-02T10:32:51.428+02:00,153,2.5721,0,0,129.7851,0,0,2022-06-02T10:56:04.528+02:00,675852995.1655154,0,-24.83984,101.4914,1,0.85
361,2022-06-02T10:56:36.601+02:00,1654160196.000391,53.2290944038537,10.39869322871799,36.71597,0.1823835,0.3906729,189.2931740540542,65.4946972538297,3,12.00181241052132,-9999,34723.47773216667,-5.636474609375,0.8048095703125,2.884033203125,34723.47398116667,-2.334934795078087,-0.0194251200795035,-0.3187876001931655,-1.101144552230835,-5.706488132476807,9.803717613220217,-6.186007499694824,1.420135498046875,4.117009162902832,XArbitraryZVertical,-0.0711115888797482,0.1422134575630746,-0.9074525442074116,0.3889067166606585,-0.0184452459216117,0.3134154677391052,-0.9494369626045228,0,0,0,-1,-1,34722.046775625,walking,2,2022-06-02T10:56:35.166+02:00,2022-06-02T10:32:51.428+02:00,153,2.5721,0,0,129.7851,0,0,2022-06-02T10:56:04.528+02:00,675852995.1655154,0,-24.83984,101.4914,1,0.85
362,2022-06-02T10:56:36.611+02:00,1654160196.000391,53.2290944038537,10.39869322871799,36.71597,0.1823835,0.3906729,189.2931740540542,65.4946972538297,3,12.00181241052132,-9999,34723.48770516667,-5.435287475585938,0.2832794189453125,2.734573364257812,34723.48395416667,-2.247215663338511,-0.0578108101817629,-0.3184741397264135,1.715070366859436,-7.373964309692383,7.090301513671875,-5.581601619720459,0.4916917681694031,3.832160949707031,XArbitraryZVertical,-0.0942696742011395,0.1305732194257387,-0.8879054483775342,0.4309150804679732,-0.0548731759190559,0.3131178021430969,-0.9481277465820312,0,0,0,-1,-1,34722.046775625,walking,2,2022-06-02T10:56:35.166+02:00,2022-06-02T10:32:51.428+02:00,153,2.5721,0,0,129.7851,0,0,2022-06-02T10:56:04.528+02:00,675852995.1655154,0,-24.83984,101.4914,1,0.85
363,2022-06-02T10:56:36.621+02:00,1654160196.000391,53.2290944038537,10.39869322871799,36.71597,0.1823835,0.3906729,189.2931740540542,65.4946972538297,3,12.00181241052132,-9999,34723.49767816667,-5.552139282226562,0.0619049072265625,2.389877319335938,34723.49392816667,-2.180485086392428,-0.1127249671066784,-0.293859370155886,4.152510166168213,-7.491774559020996,5.291324615478516,-5.327622890472412,-0.00636887550354,3.68563175201416,XArbitraryZVertical,-0.1169837754683778,0.1038535346785577,-0.8719793216353867,0.4638764404673572,-0.1076644510030746,0.2896482944488525,-0.9510585069656372,0,0,0,-1,-1,34722.046775625,walking,2,2022-06-02T10:56:35.166+02:00,2022-06-02T10:32:51.428+02:00,153,2.5721,0,0,129.7851,0,0,2022-06-02T10:56:04.528+02:00,675852995.1655154,0,-24.83984,101.4914,1,0.85
364,2022-06-02T10:56:36.631+02:00,1654160196.000391,53.2290944038537,10.39869322871799,36.71597,0.1823835,0.3906729,189.2931740540542,65.4946972538297,3,12.00181241052132,-9999,34723.50765116667,-5.321640014648438,-0.3415985107421875,1.991256713867188,34723.50390116667,-2.124172063967209,-0.1701785364830898,-0.2527462264410897,5.30964183807373,-7.098556041717529,4.398044109344482,-5.388161659240723,-0.1881589591503143,3.344120025634766,XArbitraryZVertical,-0.1347975511698431,0.0686163671979416,-0.8580570845205228,0.4907743307157947,-0.1639776825904846,0.2500638663768768,-0.9542428255081176,0,0,0,-1,-1,34722.046775625,walking,2,2022-06-02T10:56:35.166+02:00,2022-06-02T10:32:51.428+02:00,153,2.5721,0,0,129.7851,0,0,2022-06-02T10:56:04.528+02:00,675852995.1655154,0,-24.83984,101.4914,1,0.85
365,2022-06-02T10:56:36.641+02:00,1654160196.000391,53.2290944038537,10.39869322871799,36.71597,0.1823835,0.3906729,189.2931740540542,65.4946972538297,3,12.00181241052132,-9999,34723.51762516667,-5.258453369140625,-0.6140289306640625,1.481704711914062,34723.51387416667,-2.070195063468641,-0.2277548625044884,-0.2097848474089979,5.008959293365479,-6.931920051574707,4.28362512588501,-5.100799560546875,-0.5498479604721069,2.944074392318726,XArbitraryZVertical,-0.1502732498967781,0.0317663240211668,-0.8435740129552184,0.5145792028220522,-0.2208406329154968,0.2082494646310806,-0.952817678451538,0,0,0,-1,-1,34722.046775625,walking,2,2022-06-02T10:56:35.166+02:00,2022-06-02T10:32:51.428+02:00,153,2.5721,0,0,129.7851,0,0,2022-06-02T10:56:04.528+02:00,675852995.1655154,0,-24.83984,101.4914,1,0.85
366,2022-06-02T10:56:36.651+02:00,1654160196.000391,53.2290944038537,10.39869322871799,36.71597,0.1823835,0.3906729,189.2931740540542,65.4946972538297,3,12.00181241052132,-9999,34723.52759816667,-5.340438842773438,-0.482574462890625,1.117782592773438,34723.52384716667,-2.016021087334971,-0.2846795037436795,-0.1784811692836546,3.752821445465088,-6.495223999023438,4.499538421630859,-4.982065200805664,-0.7915639877319336,2.426210403442383,XArbitraryZVertical,-0.1665731785405311,-0.0007724666571042,-0.8271415539571468,0.5367399349396531,-0.2763884365558624,0.1775350719690323,-0.9445055723190308,0,0,0,-1,-1,34722.046775625,walking,2,2022-06-02T10:56:35.166+02:00,2022-06-02T10:32:51.428+02:00,153,2.5721,0,0,129.7851,0,0,2022-06-02T10:56:04.528+02:00,675852995.1655154,0,-24.83984,101.4914,1,0.85
367,2022-06-02T10:56:36.661+02:00,1654160196.000391,53.2290944038537,10.39869322871799,36.71597,0.1823835,0.3906729,189.2931740540542,65.4946972538297,3,12.00181241052132,-9999,34723.53757116667,-5.154953002929688,-0.26171875,0.97833251953125,34723.53382016667,-1.960806570103213,-0.336010082794859,-0.1630073901240589,2.559587240219116,-5.677679061889648,4.95280933380127,-5.015086650848389,-0.6448609232902527,2.04934549331665,XArbitraryZVertical,-0.1831324706488844,-0.026098227894068,-0.8087282981010097,0.5583368404986004,-0.3253520131111145,0.1622864603996277,-0.9315627813339232,0,0,0,-1,-1,34722.046775625,walking,2,2022-06-02T10:56:35.166+02:00,2022-06-02T10:32:51.428+02:00,153,2.5721,0,0,129.7851,0,0,2022-06-02T10:56:04.528+02:00,675852995.1655154,0,-24.83984,101.4914,1,0.85
368,2022-06-02T10:56:36.671+02:00,1654160196.000391,53.2290944038537,10.39869322871799,36.71597,0.1823835,0.3906729,189.2931740540542,65.4946972538297,3,12.00181241052132,-9999,34723.54754416667,-4.881057739257812,-0.2393951416015625,0.87908935546875,34723.54379416667,-1.904898928579909,-0.3814148343976196,-0.1617678867497442,1.547887563705444,-5.340728759765625,5.301521778106689,-4.78757905960083,-0.4227820038795471,1.894353747367859,XArbitraryZVertical,-0.1999377057518405,-0.0448809660060139,-0.7885715292661067,0.5797980073212692,-0.3673741519451141,0.1610632687807083,-0.9160212278366088,0,0,0,-1,-1,34722.046775625,walking,2,2022-06-02T10:56:35.166+02:00,2022-06-02T10:32:51.428+02:00,153,2.5721,0,0,129.7851,0,0,2022-06-02T10:56:04.528+02:00,675852995.1655154,0,-24.83984,101.4914,1,0.85
369,2022-06-02T10:56:36.681+02:00,1654160196.000391,53.2290944038537,10.39869322871799,36.71597,0.1823835,0.3906729,189.2931740540542,65.4946972538297,3,12.00181241052132,-9999,34723.55751816667,-4.808975219726562,-0.1470794677734375,0.7930450439453125,34723.55376716667,-1.850641887575372,-0.4252865373206097,-0.1729533281711489,0.6550086736679077,-5.272121429443359,5.434667110443115,-4.474631309509277,-0.411487489938736,1.776419758796692,XArbitraryZVertical,-0.2187425895882712,-0.0590465511138315,-0.7669386617668306,0.6003918316900592,-0.4064264297485352,0.1720923632383347,-0.8973303437232971,0,0,0,-1,-1,34722.046775625,walking,2,2022-06-02T10:56:35.166+02:00,2022-06-02T10:32:51.428+02:00,153,2.5721,0,0,129.7851,0,0,2022-06-02T10:56:04.528+02:00,675852995.1655154,0,-24.83984,101.4914,1,0.85
370,2022-06-02T10:56:36.691+02:00,1654160196.000391,53.2290944038537,10.39869322871799,36.71597,0.1823835,0.3906729,189.2931740540542,65.4946972538297,3,12.00181241052132,-9999,34723.56749116667,-4.668182373046875,-0.146697998046875,0.6403961181640625,34723.56374016667,-1.799026383085567,-0.4680197776514211,-0.1927942528464536,0.2157151997089386,-5.199525833129883,5.443982601165771,-4.366213321685791,-0.3386815786361694,1.668973445892334,XArbitraryZVertical,-0.238958381159438,-0.070247377753938,-0.7442646444570205,0.6197049880897701,-0.4427618384361267,0.1916021257638931,-0.8759284019470215,0,0,0,-1,-1,34722.046775625,walking,2,2022-06-02T10:56:35.166+02:00,2022-06-02T10:32:51.428+02:00,153,2.5721,0,0,129.7851,0,0,2022-06-02T10:56:04.528+02:00,675852995.1655154,0,-24.83984,101.4914,1,0.85
371,2022-06-02T10:56:36.701+02:00,1654160196.000391,53.2290944038537,10.39869322871799,36.71597,0.1823835,0.3906729,189.2931740540542,65.4946972538297,3,12.00181241052132,-9999,34723.57746416667,-4.54132080078125,-0.1605377197265625,0.365814208984375,34723.57371316667,-1.750438599072051,-0.5112086108504984,-0.2164236682592481,0.1326860934495926,-5.481612205505371,5.156964302062988,-4.190363883972168,-0.361436128616333,1.492204189300537,XArbitraryZVertical,-0.2599197618035714,-0.0808562981343777,-0.720899711193032,0.6373441241082283,-0.4778187274932861,0.2147381007671356,-0.8518079519271851,0,0,0,-1,-1,34722.046775625,walking,2,2022-06-02T10:56:35.166+02:00,2022-06-02T10:32:51.428+02:00,153,2.5721,0,0,129.7851,0,0,2022-06-02T10:56:04.528+02:00,675852995.1655154,0,-24.83984,101.4914,1,0.85
372,2022-06-02T10:56:36.711+02:00,1654160196.000391,53.2290944038537,10.39869322871799,36.71597,0.1823835,0.3906729,189.2931740540542,65.4946972538297,3,12.00181241052132,-9999,34723.58743716667,-4.545669555664062,-0.18438720703125,0.090789794921875,34723.58368716667,-1.705659801660706,-0.5572282277573395,-0.2387436855448307,0.5226614475250244,-5.7476806640625,4.634198188781738,-4.027484893798828,-0.3970198631286621,1.190465092658997,XArbitraryZVertical,-0.2809803858688062,-0.0934056332631229,-0.6974028096060999,0.6526520245012959,-0.5138357877731323,0.2364821285009384,-0.8246508240699768,0,0,0,-1,-1,34722.046775625,walking,2,2022-06-02T10:56:35.166+02:00,2022-06-02T10:32:51.428+02:00,153,2.5721,0,0,129.7851,0,0,2022-06-02T10:56:04.528+02:00,675852995.1655154,0,-24.83984,101.4914,1,0.85
373,2022-06-02T10:56:36.721+02:00,1654160196.000391,53.2290944038537,10.39869322871799,36.71597,0.1823835,0.3906729,189.2931740540542,65.4946972538297,3,12.00181241052132,-9999,34723.59740954167,-4.57196044921875,-0.3928985595703125,-0.2396392822265625,34723.59365954167,-1.663275703689558,-0.6038601353227457,-0.2552651719670032,1.241577506065369,-5.635452747344971,4.067555904388428,-3.99624490737915,-0.4368892014026642,0.8872666954994202,XArbitraryZVertical,-0.2998443517103852,-0.1088804501163028,-0.6743670881389862,0.6659334732583768,-0.5494245886802673,0.2525019943714142,-0.7964768409729004,0,0,0,-1,-1,34722.046775625,walking,2,2022-06-02T10:56:35.166+02:00,2022-06-02T10:32:51.428+02:00,153,2.5721,0,0,129.7851,0,0,2022-06-02T10:56:04.528+02:00,675852995.1655154,0,-24.83984,101.4914,1,0.85
374,2022-06-02T10:56:36.731+02:00,1654160196.000391,53.2290944038537,10.39869322871799,36.71597,0.1823835,0.3906729,189.2931740540542,65.4946972538297,3,12.00181241052132,-9999,34723.60738354167,-4.506561279296875,-0.7434234619140625,-0.61773681640625,34723.60363254167,-1.622171605707614,-0.6470597712315186,-0.264537411985956,1.901294112205505,-5.101005077362061,3.478985548019409,-3.990087985992432,-0.654361367225647,0.5304657816886902,XArbitraryZVertical,-0.3146037399381698,-0.1263802075012019,-0.6525393800367212,0.6776761848201694,-0.5818723440170288,0.2614628076553345,-0.7701050639152527,0,0,0,-1,-1,34722.046775625,walking,2,2022-06-02T10:56:35.166+02:00,2022-06-02T10:32:51.428+02:00,153,2.5721,0,0,129.7851,0,0,2022-06-02T10:56:04.528+02:00,675852995.1655154,0,-24.83984,101.4914,1,0.85
375,2022-06-02T10:56:36.741+02:00,1654160196.000391,53.2290944038537,10.39869322871799,36.71597,0.1823835,0.3906729,189.2931740540542,65.4946972538297,3,12.00181241052132,-9999,34723.61735654167,-4.287200927734375,-1.262924194335938,-0.8842315673828125,34723.61360554167,-1.582039516743512,-0.6836742153874888,-0.2683803648766963,2.208022832870483,-4.361793994903564,3.147205829620361,-3.897527456283569,-1.008593559265137,0.1297674179077148,XArbitraryZVertical,-0.3248472756345921,-0.1439518180982167,-0.6323721096764561,0.6883732659614208,-0.6090338826179504,0.2651701271533966,-0.7475042343139648,0,0,0,-1,-1,34722.046775625,walking,2,2022-06-02T10:56:35.166+02:00,2022-06-02T10:32:51.428+02:00,153,2.5721,0,0,129.7851,0,0,2022-06-02T10:56:04.528+02:00,675852995.1655154,0,-24.83984,101.4914,1,0.85
376,2022-06-02T10:56:36.751+02:00,1654160196.000391,53.2290944038537,10.39869322871799,36.71597,0.1823835,0.3906729,189.2931740540542,65.4946972538297,3,12.00181241052132,-9999,34723.62732954167,-3.849151611328125,-1.788589477539062,-0.9676666259765624,34723.62357854167,-1.543651344659891,-0.7130570353704591,-0.2717735693842078,1.931743144989014,-3.638140678405762,2.973414182662964,-3.657061576843262,-1.531364440917969,-0.1556272506713867,XArbitraryZVertical,-0.3321575586283014,-0.1592771955296849,-0.6136763237613724,0.6983577618689714,-0.6301394104957581,0.2684403359889984,-0.728604257106781,0,0,0,-1,-1,34722.046775625,walking,2,2022-06-02T10:56:35.166+02:00,2022-06-02T10:32:51.428+02:00,153,2.5721,0,0,129.7851,0,0,2022-06-02T10:56:04.528+02:00,675852995.1655154,0,-24.83984,101.4914,1,0.85
377,2022-06-02T10:56:36.761+02:00,1654160196.000391,53.2290944038537,10.39869322871799,36.71597,0.1823835,0.3906729,189.2931740540542,65.4946972538297,3,12.00181241052132,-9999,34723.63730254167,-3.503082275390625,-1.752639770507812,-1.266769409179688,34723.63355254167,-1.511521892190824,-0.7405776290890553,-0.2780938326081759,1.267155289649963,-3.689289569854736,2.456087112426758,-3.200359344482422,-2.063112735748291,-0.2579442858695984,XArbitraryZVertical,-0.339829734459584,-0.1722051141471172,-0.5966857360469842,0.7062770513667307,-0.6487921476364136,0.2745232284069061,-0.7097222805023193,0,0,0,-1,-1,34722.046775625,walking,2,2022-06-02T10:56:35.166+02:00,2022-06-02T10:32:51.428+02:00,153,2.5721,0,0,129.7851,0,0,2022-06-02T10:56:04.528+02:00,675852995.1655154,0,-24.83984,101.4914,1,0.85
378,2022-06-02T10:56:36.771+02:00,1654160196.000391,53.2290944038537,10.39869322871799,36.71597,0.1823835,0.3906729,189.2931740540542,65.4946972538297,3,12.00181241052132,-9999,34723.64727554167,-3.464218139648438,-1.482681274414062,-1.636138916015625,34723.64352554167,-1.486832059946264,-0.7710247705173383,-0.283391863293134,1.340067863464355,-3.739909648895264,1.728061556816101,-2.83400821685791,-2.032253742218018,-0.5781795978546143,XArbitraryZVertical,-0.3482837294139025,-0.1854820169008072,-0.5817544328755936,0.7112359127639796,-0.6690741777420044,0.2796138226985931,-0.6885897517204285,0,0,0,-1,-1,34722.046775625,walking,2,2022-06-02T10:56:35.166+02:00,2022-06-02T10:32:51.428+02:00,153,2.5721,0,0,129.7851,0,0,2022-06-02T10:56:04.528+02:00,675852995.1655154,0,-24.83984,101.4914,1,0.85
379,2022-06-02T10:56:36.781+02:00,1654160196.000391,53.2290944038537,10.39869322871799,36.71597,0.1823835,0.3906729,189.2931740540542,65.4946972538297,3,12.00181241052132,-9999,34723.65724954167,-3.414581298828125,-1.5157470703125,-1.858810424804688,34723.65349854167,-1.464013643231131,-0.7998829986200285,-0.2813348541191084,2.095047473907471,-3.260615348815918,1.093284368515015,-2.775142669677734,-1.760319590568542,-0.9667420387268066,XArbitraryZVertical,-0.353725139840431,-0.2004498214386292,-0.5689320254657049,0.7148529460505859,-0.6890754103660583,0.2776382565498352,-0.6693968176841736,0,0,0,-1,-1,34722.046775625,walking,2,2022-06-02T10:56:35.166+02:00,2022-06-02T10:32:51.428+02:00,153,2.5721,0,0,129.7851,0,0,2022-06-02T10:56:04.528+02:00,675852995.1655154,0,-24.83984,101.4914,1,0.85
380,2022-06-02T10:56:36.791+02:00,1654160196.000391,53.2290944038537,10.39869322871799,36.71597,0.1823835,0.3906729,189.2931740540542,65.4946972538297,3,12.00181241052132,-9999,34723.66722254167,-3.167877197265625,-1.826446533203125,-1.986740112304688,34723.66347154167,-1.43997973788724,-0.8224438435392604,-0.2705002348629981,2.707021236419678,-2.592387199401855,0.5333223938941956,-2.708417415618896,-1.782960653305054,-1.203120350837708,XArbitraryZVertical,-0.3540873429890447,-0.2162801796417158,-0.5583653709238231,0.7183824141551511,-0.7061640024185181,0.2672135233879089,-0.65569007396698,0,0,0,-1,-1,34722.046775625,walking,2,2022-06-02T10:56:35.166+02:00,2022-06-02T10:32:51.428+02:00,153,2.5721,0,0,129.7851,0,0,2022-06-02T10:56:04.528+02:00,675852995.1655154,0,-24.83984,101.4914,1,0.85
381,2022-06-02T10:56:36.801+02:00,1654160196.000391,53.2290944038537,10.39869322871799,36.71597,0.1823835,0.3906729,189.2931740540542,65.4946972538297,3,12.00181241052132,-9999,34723.67719554167,-2.891281127929688,-2.108474731445312,-2.0079345703125,34723.67344454167,-1.416657241605764,-0.8395591962721561,-0.2534463276893526,2.863789319992065,-2.057371377944946,-0.0258527230471372,-2.447307348251343,-2.07718825340271,-1.340282320976257,XArbitraryZVertical,-0.3506670516786691,-0.2319563252967032,-0.5502001641730745,0.7214628337902254,-0.7205698490142822,0.2507416605949402,-0.6464577913284302,0,0,0,-1,-1,34722.046775625,walking,2,2022-06-02T10:56:35.166+02:00,2022-06-02T10:32:51.428+02:00,153,2.5721,0,0,129.7851,0,0,2022-06-02T10:56:04.528+02:00,675852995.1655154,0,-24.83984,101.4914,1,0.85
382,2022-06-02T10:56:36.811+02:00,1654160196.000391,53.2290944038537,10.39869322871799,36.71597,0.1823835,0.3906729,189.2931740540542,65.4946972538297,3,12.00181241052132,-9999,34723.68716854167,-2.672805786132812,-2.288681030273438,-1.903289794921875,34723.68341854167,-1.397486683649874,-0.852667926495079,-0.2329041505993876,2.647119283676147,-1.477802515029907,-0.5659878253936768,-2.15857458114624,-2.339278936386108,-1.367723345756531,XArbitraryZVertical,-0.3452049237404691,-0.2464304019407142,-0.5449218711389432,0.7233020578983815,-0.7327066659927368,0.2308042347431183,-0.6402112245559692,0,0,0,-1,-1,34722.046775625,walking,2,2022-06-02T10:56:35.166+02:00,2022-06-02T10:32:51.428+02:00,153,2.5721,0,0,129.7851,0,0,2022-06-02T10:56:04.528+02:00,675852995.1655154,0,-24.83984,101.4914,1,0.85
383,2022-06-02T10:56:36.821+02:00,1654160196.000391,53.2290944038537,10.39869322871799,36.71597,0.1823835,0.3906729,189.2931740540542,65.4946972538297,3,12.00181241052132,-9999,34723.69714154167,-2.437789916992188,-2.313552856445312,-1.749465942382812,34723.69339154167,-1.384126487622942,-0.8615809120926087,-0.2111775927424296,2.163206577301025,-0.9197887182235718,-1.023072004318237,-1.930791258811951,-2.498292446136475,-1.266518592834473,XArbitraryZVertical,-0.3387222179299157,-0.2586149083805485,-0.5427106742039478,0.7237754032169621,-0.7420145273208618,0.2096114754676819,-0.6367712020874023,0,0,0,-1,-1,34722.046775625,walking,2,2022-06-02T10:56:35.166+02:00,2022-06-02T10:32:51.428+02:00,153,2.5721,0,0,129.7851,0,0,2022-06-02T10:56:04.528+02:00,675852995.1655154,0,-24.83984,101.4914,1,0.85
384,2022-06-02T10:56:36.831+02:00,1654160196.000391,53.2290944038537,10.39869322871799,36.71597,0.1823835,0.3906729,189.2931740540542,65.4946972538297,3,12.00181241052132,-9999,34723.70711554167,-2.2850341796875,-2.1805419921875,-1.648651123046875,34723.70336454167,-1.377928684393485,-0.8674923851990936,-0.1896101820211483,1.567174077033997,-0.5242013931274414,-1.485914945602417,-1.68874979019165,-2.502028942108154,-1.114315748214722,XArbitraryZVertical,-0.3322881496112952,-0.2683459057458942,-0.5435670370845346,0.7225717439706778,-0.7490401268005371,0.1884760707616806,-0.635150134563446,0,0,0,-1,-1,34722.046775625,walking,2,2022-06-02T10:56:35.166+02:00,2022-06-02T10:32:51.428+02:00,153,2.5721,0,0,129.7851,0,0,2022-06-02T10:56:04.528+02:00,675852995.1655154,0,-24.83984,101.4914,1,0.85
385,2022-06-02T10:56:36.841+02:00,1654160196.000391,53.2290944038537,10.39869322871799,36.71597,0.1823835,0.3906729,189.2931740540542,65.4946972538297,3,12.00181241052132,-9999,34723.71708854167,-2.238327026367188,-1.9925537109375,-1.57989501953125,34723.71333754167,-1.379101243086585,-0.8712534534690001,-0.16818903666529,1.048070549964905,-0.200057178735733,-1.929088711738586,-1.530694007873535,-2.347939252853394,-1.01386833190918,XArbitraryZVertical,-0.3262628501450002,-0.2759731530284633,-0.5473893743475695,0.7195528968125153,-0.7543401718139648,0.16739721596241,-0.6347827315330505,0,0,0,-1,-1,34722.046775625,walking,2,2022-06-02T10:56:35.166+02:00,2022-06-02T10:32:51.428+02:00,153,2.5721,0,0,129.7851,0,0,2022-06-02T10:56:04.528+02:00,675852995.1655154,0,-24.83984,101.4914,1,0.85
386,2022-06-02T10:56:36.851+02:00,1654160196.000391,53.2290944038537,10.39869322871799,36.71597,0.1823835,0.3906729,189.2931740540542,65.4946972538297,3,12.00181241052132,-9999,34723.72706154167,-2.225418090820312,-1.778717041015625,-1.436767578125,34723.72331054167,-1.386210922600376,-0.8727051068906805,-0.1469176930438165,0.6035709977149963,0.1378068923950195,-2.246678829193115,-1.480509400367737,-2.138943433761597,-0.9440628290176392,XArbitraryZVertical,-0.3204749157830614,-0.2817440729078963,-0.5536379257902913,0.7151232703940772,-0.7578176259994507,0.1463897377252579,-0.6358321905136108,0,0,0,-1,-1,34722.046775625,walking,2,2022-06-02T10:56:35.166+02:00,2022-06-02T10:32:51.428+02:00,153,2.5721,0,0,129.7851,0,0,2022-06-02T10:56:04.528+02:00,675852995.1655154,0,-24.83984,101.4914,1,0.85
387,2022-06-02T10:56:36.861+02:00,1654160196.000391,53.2290944038537,10.39869322871799,36.71597,0.1823835,0.3906729,189.2931740540542,65.4946972538297,3,12.00181241052132,-9999,34723.73703454167,-2.221649169921875,-1.566299438476562,-1.230743408203125,34723.73328454167,-1.399249222633051,-0.8716560359944776,-0.1263744224730347,0.0669509619474411,0.4318036139011383,-2.589346170425415,-1.466126084327698,-1.904755353927612,-0.7983397841453552,XArbitraryZVertical,-0.3150951791868423,-0.2854840351370436,-0.5621763130479844,0.7093460454365905,-0.7592920064926147,0.1260383129119873,-0.6384277939796448,0,0,0,-1,-1,34722.046775625,walking,2,2022-06-02T10:56:35.166+02:00,2022-06-02T10:32:51.428+02:00,153,2.5721,0,0,129.7851,0,0,2022-06-02T10:56:04.528+02:00,675852995.1655154,0,-24.83984,101.4914,1,0.85
388,2022-06-02T10:56:36.870+02:00,1654160196.000391,53.2290944038537,10.39869322871799,36.71597,0.1823835,0.3906729,189.2931740540542,65.4946972538297,3,12.00181241052132,-9999,34723.74700754167,-2.190536499023438,-1.33599853515625,-1.018600463867188,34723.74325754167,-1.418609288477514,-0.8680090988784186,-0.1065549197926525,-0.4472178220748901,0.7474028468132019,-2.926785945892334,-1.46293318271637,-1.672652840614319,-0.5880622267723083,XArbitraryZVertical,-0.3101527837739249,-0.2871666036201703,-0.5730925069930057,0.7020724591968915,-0.7587159872055054,0.1063533946871758,-0.6426811814308167,0,0,0,-1,-1,34722.046775625,walking,2,2022-06-02T10:56:35.166+02:00,2022-06-02T10:32:51.428+02:00,153,2.5721,0,0,129.7851,0,0,2022-06-02T10:56:04.528+02:00,675852995.1655154,0,-24.83984,101.4914,1,0.85
