,loggingTime(txt),locationTimestamp_since1970(s),locationLatitude(WGS84),locationLongitude(WGS84),locationAltitude(m),locationSpeed(m/s),locationSpeedAccuracy(m/s),locationCourse(°),locationCourseAccuracy(°),locationVerticalAccuracy(m),locationHorizontalAccuracy(m),locationFloor(Z),accelerometerTimestamp_sinceReboot(s),accelerometerAccelerationX(G),accelerometerAccelerationY(G),accelerometerAccelerationZ(G),motionTimestamp_sinceReboot(s),motionYaw(rad),motionRoll(rad),motionPitch(rad),motionRotationRateX(rad/s),motionRotationRateY(rad/s),motionRotationRateZ(rad/s),motionUserAccelerationX(G),motionUserAccelerationY(G),motionUserAccelerationZ(G),motionAttitudeReferenceFrame(txt),motionQuaternionX(R),motionQuaternionY(R),motionQuaternionZ(R),motionQuaternionW(R),motionGravityX(G),motionGravityY(G),motionGravityZ(G),motionMagneticFieldX(µT),motionMagneticFieldY(µT),motionMagneticFieldZ(µT),motionHeading(°),motionMagneticFieldCalibrationAccuracy(Z),activityTimestamp_sinceReboot(s),activity(txt),activityActivityConfidence(Z),activityActivityStartDate(txt),pedometerStartDate(txt),pedometerNumberofSteps(N),pedometerAverageActivePace(s/m),pedometerCurrentPace(s/m),pedometerCurrentCadence(steps/s),pedometerDistance(m),pedometerFloorAscended(N),pedometerFloorDescended(N),pedometerEndDate(txt),altimeterTimestamp_sinceReboot(s),altimeterReset(bool),altimeterRelativeAltitude(m),altimeterPressure(kPa),batteryState(N),batteryLevel(R)
475,2022-06-02T10:57:43.228+02:00,1654160262.000201,53.22896301878701,10.39879438966121,36.66785,0.1067322,0.4019952,-1,-1,3,12.00181241052132,-9999,34790.04562475,0.713470458984375,1.171371459960938,-0.6096954345703125,34790.04187375,1.30386820048601,1.0764562760497,-0.366127522620953,-16.24202919006348,8.77460765838623,-5.4248046875,-0.0479812622070312,0.5902093648910522,-0.3168525695800781,XArbitraryZVertical,0.4300687160083257,-0.3058408394391106,-0.4380608698360612,-0.7277396588516273,0.8219375610351562,0.3580023050308228,-0.4430045485496521,0,0,0,-1,-1,34788.36729275,unknown,2,2022-06-02T10:57:41.545+02:00,2022-06-02T10:32:51.428+02:00,153,2.639414,0,0,129.7851,0,0,2022-06-02T10:57:26.230+02:00,675853061.5444556,0,-24.80078,101.4908,1,0.85
476,2022-06-02T10:57:43.238+02:00,1654160262.000201,53.22896301878701,10.39879438966121,36.66785,0.1067322,0.4019952,-1,-1,3,12.00181241052132,-9999,34790.05559775,0.7343597412109375,1.401840209960938,-0.4839935302734375,34790.05184775,1.445985901022592,1.224098667564915,-0.4829207190332249,-17.0555248260498,9.079985618591309,-5.396161079406738,-0.1636809110641479,1.100405693054199,-0.222806841135025,XArbitraryZVertical,0.5158619171385506,-0.2888227499878646,-0.4228015641109472,-0.6868090689929076,0.8329465985298157,0.4643678665161133,-0.3009358048439026,0,0,0,-1,-1,34788.36729275,unknown,2,2022-06-02T10:57:41.545+02:00,2022-06-02T10:32:51.428+02:00,153,2.639414,0,0,129.7851,0,0,2022-06-02T10:57:26.230+02:00,675853061.5444556,0,-24.80078,101.4908,1,0.85
477,2022-06-02T10:57:43.248+02:00,1654160262.000201,53.22896301878701,10.39879438966121,36.66785,0.1067322,0.4019952,-1,-1,3,12.00181241052132,-9999,34790.06557175,0.467620849609375,1.203598022460938,-0.1132354736328125,34790.06182075,1.627610766767704,1.410892552730838,-0.5816154347504147,-18.22809410095215,9.68756866455078,-5.804617881774902,-0.1548725366592407,0.524539053440094,-0.1963788121938705,XArbitraryZVertical,0.6014261396619859,-0.2678899636659586,-0.402504942999903,-0.6360120475540898,0.8249164819717407,0.5493744611740112,-0.1330431252717972,0,0,0,-1,-1,34788.36729275,unknown,2,2022-06-02T10:57:41.545+02:00,2022-06-02T10:32:51.428+02:00,153,2.639414,0,0,129.7851,0,0,2022-06-02T10:57:26.230+02:00,675853061.5444556,0,-24.80078,101.4908,1,0.85
478,2022-06-02T10:57:43.257+02:00,1654160262.000201,53.22896301878701,10.39879438966121,36.66785,0.1067322,0.4019952,-1,-1,3,12.00181241052132,-9999,34790.07554475001,0.250244140625,1.266204833984375,0.1187286376953125,34790.07179375,1.848988034571826,1.636877730199189,-0.648082126220098,-18.55940246582031,9.959479331970217,-5.766852378845215,-0.4354566335678101,0.8183690905570984,-0.0495165586471557,XArbitraryZVertical,0.6835382800056348,-0.2431002353802609,-0.3771522341690907,-0.5757030163790201,0.7955030798912048,0.6036584973335266,0.0526446104049682,0,0,0,-1,-1,34788.36729275,unknown,2,2022-06-02T10:57:41.545+02:00,2022-06-02T10:32:51.428+02:00,153,2.639414,0,0,129.7851,0,0,2022-06-02T10:57:26.230+02:00,675853061.5444556,0,-24.80078,101.4908,1,0.85
479,2022-06-02T10:57:43.267+02:00,1654160262.000201,53.22896301878701,10.39879438966121,36.66785,0.1067322,0.4019952,-1,-1,3,12.00181241052132,-9999,34790.08551875001,-0.15106201171875,1.15411376953125,0.510711669921875,34790.08176775,2.092144624938147,1.88759273875656,-0.6695489397945447,-18.42731857299805,10.25786209106445,-5.765756607055664,-0.7097898721694946,0.5842320919036865,0.0783196687698364,XArbitraryZVertical,0.7585087705534656,-0.2163277301607635,-0.3463022834670704,-0.5078793923616088,0.7450834512710571,0.6206323504447937,0.2442664802074432,0,0,0,-1,-1,34788.36729275,unknown,2,2022-06-02T10:57:41.545+02:00,2022-06-02T10:32:51.428+02:00,153,2.639414,0,0,129.7851,0,0,2022-06-02T10:57:26.230+02:00,675853061.5444556,0,-24.80078,101.4908,1,0.85
480,2022-06-02T10:57:43.277+02:00,1654160262.000201,53.22896301878701,10.39879438966121,36.66785,0.1067322,0.4019952,-1,-1,3,12.00181241052132,-9999,34790.09549175,-0.5927886962890625,1.02020263671875,0.9806976318359376,34790.09174075,2.328628099616759,2.136821557348128,-0.6445245616332116,-17.58529090881348,10.58338165283203,-5.737386226654053,-1.023620247840881,0.4446526765823364,0.2877198159694672,XArbitraryZVertical,0.8238773074385888,-0.1886106763896637,-0.3097648907735887,-0.4355432371748912,0.6747127175331116,0.6008184552192688,0.4286956191062927,0,0,0,-1,-1,34788.36729275,unknown,2,2022-06-02T10:57:41.545+02:00,2022-06-02T10:32:51.428+02:00,153,2.639414,0,0,129.7851,0,0,2022-06-02T10:57:26.230+02:00,675853061.5444556,0,-24.80078,101.4908,1,0.85
481,2022-06-02T10:57:43.287+02:00,1654160262.000201,53.22896301878701,10.39879438966121,36.66785,0.1067322,0.4019952,-1,-1,3,12.00181241052132,-9999,34790.10546475,-1.002517700195312,0.8831024169921875,1.577133178710938,34790.10171475,2.534913443409055,2.362538592959278,-0.5818580263912596,-16.54003524780273,10.75296878814697,-5.740574359893799,-1.389356017112732,0.4111315608024597,0.6677237153053284,XArbitraryZVertical,0.8782917242108106,-0.1607648799419782,-0.2679199601938489,-0.3619078846815433,0.5869879126548767,0.5495771765708923,0.5944833755493164,0,0,0,-1,-1,34788.36729275,unknown,2,2022-06-02T10:57:41.545+02:00,2022-06-02T10:32:51.428+02:00,153,2.639414,0,0,129.7851,0,0,2022-06-02T10:57:26.230+02:00,675853061.5444556,0,-24.80078,101.4908,1,0.85
482,2022-06-02T10:57:43.297+02:00,1654160262.000201,53.22896301878701,10.39879438966121,36.66785,0.1067322,0.4019952,-1,-1,3,12.00181241052132,-9999,34790.11543875,-1.387222290039062,0.9063873291015624,2.337142944335938,34790.11168775,2.702924610683938,2.556869984904607,-0.4952157327239434,-15.13640594482422,10.81260013580322,-5.775976657867432,-1.692430019378662,0.4172804057598114,1.2040696144104,XArbitraryZVertical,0.921489712008725,-0.1330478075268589,-0.2216670276267262,-0.2898600469185219,0.4856582581996918,0.4752214848995209,0.7336900234222412,0,0,0,-1,-1,34788.36729275,unknown,2,2022-06-02T10:57:41.545+02:00,2022-06-02T10:32:51.428+02:00,153,2.639414,0,0,129.7851,0,0,2022-06-02T10:57:26.230+02:00,675853061.5444556,0,-24.80078,101.4908,1,0.85
483,2022-06-02T10:57:43.308+02:00,1654160262.000201,53.22896301878701,10.39879438966121,36.66785,0.1067322,0.4019952,-1,-1,3,12.00181241052132,-9999,34790.12541175,-1.725387573242188,0.7614288330078125,3.219161987304688,34790.12166075,2.836198899943803,2.721913029919695,-0.3974929562986226,-13.6172513961792,10.64339256286621,-5.945273876190186,-1.925992488861084,0.461021363735199,1.919241189956665,XArbitraryZVertical,0.9539104211711066,-0.1051902083274513,-0.1724540100959517,-0.221922791630307,0.3756995499134064,0.3871079683303833,0.8420201539993286,0,0,0,-1,-1,34788.36729275,unknown,2,2022-06-02T10:57:41.545+02:00,2022-06-02T10:32:51.428+02:00,153,2.639414,0,0,129.7851,0,0,2022-06-02T10:57:26.230+02:00,675853061.5444556,0,-24.80078,101.4908,1,0.85
484,2022-06-02T10:57:43.317+02:00,1654160263.000201,53.22896750589561,10.3987951721788,36.67131,0.1067322,0.4898411,-1,-1,3,12.00181241052132,-9999,34790.13538475,-2.039962768554688,0.5766448974609375,4.185928344726562,34790.13163475,2.943511092495046,2.862148909800091,-0.2977704928141871,-12.08506488800049,10.03852367401123,-6.223496437072754,-2.156230449676514,0.3868929743766785,2.782522201538086,XArbitraryZVertical,0.9765431822625572,-0.0762749518903636,-0.1225276872925206,-0.1597887000609702,0.2636829018592834,0.2933895587921143,0.9189088940620422,0,0,0,-1,-1,34788.36729275,unknown,2,2022-06-02T10:57:41.545+02:00,2022-06-02T10:32:51.428+02:00,153,2.639414,0,0,129.7851,0,0,2022-06-02T10:57:26.230+02:00,675853061.5444556,0,-24.80078,101.4908,1,0.85
485,2022-06-02T10:57:43.327+02:00,1654160263.000201,53.22896750589561,10.3987951721788,36.67131,0.1067322,0.4898411,-1,-1,3,12.00181241052132,-9999,34790.14535875,-2.333419799804688,0.331573486328125,5.178024291992188,34790.14160775,3.033325790011796,2.979349663034574,-0.2016353404227328,-10.4799633026123,8.888072967529297,-6.603682518005371,-2.348674058914185,0.2505491375923157,3.710967302322388,XArbitraryZVertical,0.9906390602680392,-0.0455114965515498,-0.0750752020388735,-0.1045311985070101,0.1582596004009247,0.200271800160408,0.966874063014984,0,0,0,-1,-1,34788.36729275,unknown,2,2022-06-02T10:57:41.545+02:00,2022-06-02T10:32:51.428+02:00,153,2.639414,0,0,129.7851,0,0,2022-06-02T10:57:26.230+02:00,675853061.5444556,0,-24.80078,101.4908,1,0.85
486,2022-06-02T10:57:43.337+02:00,1654160263.000201,53.22896750589561,10.3987951721788,36.67131,0.1067322,0.4898411,-1,-1,3,12.00181241052132,-9999,34790.15533175,-2.622161865234375,-0.0045013427734375,6.251312255859375,34790.15158175,3.113200272657395,3.071830804169036,-0.1150574744077035,-8.51215648651123,7.005462646484375,-7.136436462402344,-2.548690795898438,0.0942263752222061,4.727137088775635,XArbitraryZVertical,0.997666385222209,-0.0121586705797045,-0.0339969418136419,-0.0579504832107075,0.0692444145679473,0.114803783595562,0.990972101688385,0,0,0,-1,-1,34788.36729275,unknown,2,2022-06-02T10:57:41.545+02:00,2022-06-02T10:32:51.428+02:00,153,2.639414,0,0,129.7851,0,0,2022-06-02T10:57:26.230+02:00,675853061.5444556,0,-24.80078,101.4908,1,0.85
487,2022-06-02T10:57:43.347+02:00,1654160263.000201,53.22896750589561,10.3987951721788,36.67131,0.1067322,0.4898411,-1,-1,3,12.00181241052132,-9999,34790.16530575,-3.053176879882812,-1.069961547851562,7.099456787109375,34790.16155475,-3.092802793977015,3.134456995538196,-0.0426853416029645,-6.48935604095459,4.206768035888672,-7.767178535461426,-2.803744792938232,-0.4678127765655518,5.737340927124023,XArbitraryZVertical,0.9994665260436424,0.0244629155476541,-0.0040865056487864,-0.02124755737358,0.007129096891731,0.0426723808050155,0.9990635514259338,0,0,0,-1,-1,34788.36729275,unknown,2,2022-06-02T10:57:41.545+02:00,2022-06-02T10:32:51.428+02:00,153,2.639414,0,0,129.7851,0,0,2022-06-02T10:57:26.230+02:00,675853061.5444556,0,-24.80078,101.4908,1,0.85
488,2022-06-02T10:57:43.357+02:00,1654160263.000201,53.22896750589561,10.3987951721788,36.67131,0.1067322,0.4898411,-1,-1,3,12.00181241052132,-9999,34790.17527875,-3.796722412109375,-1.977142333984375,7.567703247070312,34790.17152775,-3.011098521848122,-3.123163440974241,0.0057413996458115,-2.870543241500854,0.5574939846992493,-8.794657707214355,-3.391255378723145,-1.657588720321655,6.371371746063232,XArbitraryZVertical,0.9978240316516116,0.0652241530646829,0.0093819966663288,0.0022636769542513,-0.0184278711676597,-0.005741368047893,0.999813973903656,0,0,0,-1,-1,34788.36729275,unknown,2,2022-06-02T10:57:41.545+02:00,2022-06-02T10:32:51.428+02:00,153,2.639414,0,0,129.7851,0,0,2022-06-02T10:57:26.230+02:00,675853061.5444556,0,-24.80078,101.4908,1,0.85
489,2022-06-02T10:57:43.367+02:00,1654160263.000201,53.22896750589561,10.3987951721788,36.67131,0.1067322,0.4898411,-1,-1,3,12.00181241052132,-9999,34790.18525175,-4.593475341796875,-1.5335693359375,7.827774047851562,34790.18150175,-2.918494154767576,3.140377077672116,0.0139766889146904,1.274248719215393,-4.387626171112061,-9.808755874633787,-4.154764652252197,-1.951111674308777,6.784811973571777,XArbitraryZVertical,0.9937608763440868,0.1113111022921766,0.0001739267406614,0.007012508865975,0.0012154569849371,-0.013976234011352,0.9999016523361206,0,0,0,-1,-1,34788.36729275,unknown,2,2022-06-02T10:57:41.545+02:00,2022-06-02T10:32:51.428+02:00,153,2.639414,0,0,129.7851,0,0,2022-06-02T10:57:26.230+02:00,675853061.5444556,0,-24.80078,101.4908,1,0.85
490,2022-06-02T10:57:43.377+02:00,1654160263.000201,53.22896750589561,10.3987951721788,36.67131,0.1067322,0.4898411,-1,-1,3,12.00181241052132,-9999,34790.19522575,-5.374008178710938,0.0136566162109375,7.258682250976562,34790.19147475,-2.817729620076274,3.066009024579166,-0.0172914894266217,4.148360252380371,-10.66070079803467,-10.53909873962402,-5.117599487304688,-0.8178277611732483,6.663450241088867,XArbitraryZVertical,0.986123586279766,0.1614260375270828,-0.0386800449166757,-0.0024351384866424,0.0755004212260246,0.0172906275838613,0.9969961643218994,0,0,0,-1,-1,34788.36729275,unknown,2,2022-06-02T10:57:41.545+02:00,2022-06-02T10:32:51.428+02:00,153,2.639414,0,0,129.7851,0,0,2022-06-02T10:57:26.230+02:00,675853061.5444556,0,-24.80078,101.4908,1,0.85
491,2022-06-02T10:57:43.387+02:00,1654160263.000201,53.22896750589561,10.3987951721788,36.67131,0.1067322,0.4898411,-1,-1,3,12.00181241052132,-9999,34790.20519875,-6.264755249023438,1.361358642578125,5.567428588867188,34790.20144775001,-2.719833038481828,2.9313700825055,-0.0829386452286207,5.98411226272583,-17.30775833129883,-10.71285820007324,-5.951993942260742,0.7040979266166687,5.599428176879883,XArbitraryZVertical,0.9707038510956114,0.2122393893636138,-0.1111354210767034,-0.0183727320244049,0.2079603224992752,0.0828435942530632,0.9746230244636536,0,0,0,-1,-1,34788.36729275,unknown,2,2022-06-02T10:57:41.545+02:00,2022-06-02T10:32:51.428+02:00,153,2.639414,0,0,129.7851,0,0,2022-06-02T10:57:26.230+02:00,675853061.5444556,0,-24.80078,101.4908,1,0.85
492,2022-06-02T10:57:43.397+02:00,1654160263.000201,53.22896750589561,10.3987951721788,36.67131,0.1067322,0.4898411,-1,-1,3,12.00181241052132,-9999,34790.21517275,-7.449249267578125,2.043258666992188,2.9305419921875,34790.21142175001,-2.637105590329507,2.734556329729072,-0.1799233752422606,7.660492897033691,-23.79387664794922,-10.7884578704834,-7.130175590515137,1.524964213371277,3.317869663238525,XArbitraryZVertical,0.9400026737339172,0.2610213872840546,-0.2168880306452181,-0.0349623243974275,0.3894988298416138,0.1789541840553284,0.9034743905067444,0,0,0,-1,-1,34788.36729275,unknown,2,2022-06-02T10:57:41.545+02:00,2022-06-02T10:32:51.428+02:00,153,2.639414,0,0,129.7851,0,0,2022-06-02T10:57:26.230+02:00,675853061.5444556,0,-24.80078,101.4908,1,0.85
493,2022-06-02T10:57:43.407+02:00,1654160263.000201,53.22896750589561,10.3987951721788,36.67131,0.1067322,0.4898411,-1,-1,3,12.00181241052132,-9999,34790.22514575,-9.614181518554688,3.261306762695312,0.9742431640625,34790.22139475,-2.586255629399928,2.490294050565149,-0.3040768568618408,8.831445693969727,-27.48389434814453,-10.30659294128418,-9.071785926818848,2.323481798171997,1.051139712333679,XArbitraryZVertical,0.8873608911172336,0.3033093950476211,-0.3434544337937333,-0.0513131680368799,0.5784085392951965,0.2994125187397003,0.758811891078949,0,0,0,-1,-1,34788.36729275,unknown,2,2022-06-02T10:57:41.545+02:00,2022-06-02T10:32:51.428+02:00,153,2.639414,0,0,129.7851,0,0,2022-06-02T10:57:26.230+02:00,675853061.5444556,0,-24.80078,101.4908,1,0.85
494,2022-06-02T10:57:43.417+02:00,1654160263.000201,53.22896750589561,10.3987951721788,36.67131,0.1067322,0.4898411,-1,-1,3,12.00181241052132,-9999,34790.23511875,-11.890625,4.069183349609375,0.4199066162109375,34790.23136875,-2.592950503040118,2.19577563692718,-0.4442710986336019,12.66583728790283,-30.58938789367676,-8.862860679626465,-11.38860607147217,3.203119516372681,-0.211114227771759,XArbitraryZVertical,0.8087206034041442,0.3318322536316345,-0.4808050986035631,-0.068445500547969,0.7322491407394409,0.4297998547554016,0.5282832980155945,0,0,0,-1,-1,34788.36729275,unknown,2,2022-06-02T10:57:41.545+02:00,2022-06-02T10:32:51.428+02:00,153,2.639414,0,0,129.7851,0,0,2022-06-02T10:57:26.230+02:00,675853061.5444556,0,-24.80078,101.4908,1,0.85
495,2022-06-02T10:57:43.427+02:00,1654160263.000201,53.22896750589561,10.3987951721788,36.67131,0.1067322,0.4898411,-1,-1,3,12.00181241052132,-9999,34790.24509275,-16.09136962890625,3.693191528320312,1.407333374023438,34790.24134175,-2.709291727273276,1.837152701881024,-0.5693664759597014,17.1558952331543,-30.18501663208008,-5.677122116088867,-14.91779708862305,3.672830581665039,0.9650893211364746,XArbitraryZVertical,0.7084419074636231,0.3300860579124144,-0.616838716319691,-0.0930766899206001,0.8125421404838562,0.5390985608100891,0.2216934859752655,0,0,0,-1,-1,34788.36729275,unknown,2,2022-06-02T10:57:41.545+02:00,2022-06-02T10:32:51.428+02:00,153,2.639414,0,0,129.7851,0,0,2022-06-02T10:57:26.230+02:00,675853061.5444556,0,-24.80078,101.4908,1,0.85
496,2022-06-02T10:57:43.437+02:00,1654160263.000201,53.22896750589561,10.3987951721788,36.67131,0.1067322,0.4898411,-1,-1,3,12.00181241052132,-9999,34790.25506575,-13.81007385253906,6.133758544921875,2.5098876953125,34790.25131475,-2.965268203670124,1.355260613261711,-0.6185461341878197,26.91330528259277,-34.81866073608398,-2.382079601287842,-16.5815315246582,3.442762136459351,1.622472286224365,XArbitraryZVertical,0.5740057855292655,0.2887814228755826,-0.7560174618646684,-0.1247406243233031,0.7958712577819824,0.5798512697219849,-0.174245297908783,0,0,0,-1,-1,34788.36729275,unknown,2,2022-06-02T10:57:41.545+02:00,2022-06-02T10:32:51.428+02:00,153,2.639414,0,0,129.7851,0,0,2022-06-02T10:57:26.230+02:00,675853061.5444556,0,-24.80078,101.4908,1,0.85
497,2022-06-02T10:57:43.447+02:00,1654160263.000201,53.22896750589561,10.3987951721788,36.67131,0.1067322,0.4898411,-1,-1,3,12.00181241052132,-9999,34790.26503975,-16.78875732421875,9.504409790039062,10.31245422363281,34790.26128875,3.010193730303815,0.8458990668875417,-0.4510286617366094,34.37996292114258,-34.71068572998047,6.189793586730957,-14.05092239379883,8.476370811462402,7.099193572998047,XArbitraryZVertical,0.4125825375232181,0.1771992320868487,-0.8808496511874873,-0.1499333884724688,0.6737102270126343,0.4358915686607361,-0.5967521667480469,0,0,0,-1,-1,34788.36729275,unknown,2,2022-06-02T10:57:41.545+02:00,2022-06-02T10:32:51.428+02:00,153,2.639414,0,0,129.7851,0,0,2022-06-02T10:57:26.230+02:00,675853061.5444556,0,-24.80078,101.4908,1,0.85
498,2022-06-02T10:57:43.457+02:00,1654160263.000201,53.22896750589561,10.3987951721788,36.67131,0.1067322,0.4898411,-1,-1,3,12.00181241052132,-9999,34790.27501275,-18.18647766113281,3.185012817382812,9.99798583984375,34790.27126175,2.780139943557858,0.4312926406422508,-0.1786926401337295,35.79001235961914,-32.9891242980957,-8.38045883178711,-21.03130722045898,6.840140342712402,12.0128116607666,XArbitraryZVertical,0.2253208738671931,0.0474332471482227,-0.9536642590904718,-0.1936624790732053,0.4113888442516327,0.1777431815862656,-0.8939611911773682,0,0,0,-1,-1,34788.36729275,unknown,2,2022-06-02T10:57:41.545+02:00,2022-06-02T10:32:51.428+02:00,153,2.639414,0,0,129.7851,0,0,2022-06-02T10:57:26.230+02:00,675853061.5444556,0,-24.80078,101.4908,1,0.85
499,2022-06-02T10:57:43.467+02:00,1654160263.000201,53.22896750589561,10.3987951721788,36.67131,0.1067322,0.4898411,-1,-1,3,12.00181241052132,-9999,34790.28498575,-10.88937377929688,-5.907302856445312,7.71746826171875,34790.28123575,2.624632778497789,0.1817001731222291,0.1472753606310492,35.76781845092773,-16.80093955993652,-1.466417074203491,-13.59183216094971,-1.105194330215454,10.24381065368652,XArbitraryZVertical,0.0687454781953477,-0.0939612857424308,-0.9618895666919508,-0.2474142680924574,0.178745836019516,-0.1467435359954834,-0.9728906750679016,0,0,0,-1,-1,34788.36729275,unknown,2,2022-06-02T10:57:41.545+02:00,2022-06-02T10:32:51.428+02:00,153,2.639414,0,0,129.7851,0,0,2022-06-02T10:57:26.230+02:00,675853061.5444556,0,-24.80078,101.4908,1,0.85
500,2022-06-02T10:57:43.477+02:00,1654160263.000201,53.22896750589561,10.3987951721788,36.67131,0.1067322,0.4898411,-1,-1,3,12.00181241052132,-9999,34790.29495975,-8.258529663085938,-12.92660522460938,1.9993896484375,34790.29120875,2.592724544940966,0.0916143471301963,0.4474292365506979,23.3148021697998,-4.353049755096436,2.578184843063354,-9.686728477478027,-9.296857833862305,6.153518676757812,XArbitraryZVertical,-0.0170804554656093,-0.2254274254307655,-0.9403598546216256,-0.2541928950132998,0.0824805498123168,-0.4326492547988892,-0.897781491279602,0,0,0,-1,-1,34788.36729275,unknown,2,2022-06-02T10:57:41.545+02:00,2022-06-02T10:32:51.428+02:00,153,2.639414,0,0,129.7851,0,0,2022-06-02T10:57:26.230+02:00,675853061.5444556,0,-24.80078,101.4908,1,0.85
501,2022-06-02T10:57:43.487+02:00,1654160263.000201,53.22896750589561,10.3987951721788,36.67131,0.1067322,0.4898411,-1,-1,3,12.00181241052132,-9999,34790.30493275,-4.787872314453125,-11.91099548339844,-1.72894287109375,34790.30118175,2.621620787889112,0.0763496053573732,0.6227477740940335,11.22860336303711,3.796501636505127,4.942369937896729,-6.495947360992432,-12.8580150604248,0.1472843289375305,XArbitraryZVertical,-0.0435900263236087,-0.305194485611001,-0.9222586895813466,-0.2332274990427425,0.0619569309055805,-0.5832692980766296,-0.8099124431610107,0,0,0,-1,-1,34788.36729275,unknown,2,2022-06-02T10:57:41.545+02:00,2022-06-02T10:32:51.428+02:00,153,2.639414,0,0,129.7851,0,0,2022-06-02T10:57:26.230+02:00,675853061.5444556,0,-24.80078,101.4908,1,0.85
502,2022-06-02T10:57:43.497+02:00,1654160263.000201,53.22896750589561,10.3987951721788,36.67131,0.1067322,0.4898411,-1,-1,3,12.00181241052132,-9999,34790.31490575,-3.128921508789062,-8.125320434570312,-1.949844360351562,34790.31115575,2.664782758544526,0.1012855715408457,0.6843540210148077,1.099018812179565,5.435193538665771,2.867653369903564,-3.619375705718994,-9.496367454528809,-1.110185861587524,XArbitraryZVertical,-0.032799184187735,-0.336891573044279,-0.9182195575230344,-0.2056721711764984,0.078344739973545,-0.6321726441383362,-0.7708565592765808,0,0,0,-1,-1,34788.36729275,unknown,2,2022-06-02T10:57:41.545+02:00,2022-06-02T10:32:51.428+02:00,153,2.639414,0,0,129.7851,0,0,2022-06-02T10:57:26.230+02:00,675853061.5444556,0,-24.80078,101.4908,1,0.85
503,2022-06-02T10:57:43.507+02:00,1654160263.000201,53.22896750589561,10.3987951721788,36.67131,0.1067322,0.4898411,-1,-1,3,12.00181241052132,-9999,34790.32487975001,-4.17999267578125,-2.952301025390625,-1.07763671875,34790.32112875,2.707504574179262,0.1392089340764816,0.6704584867877846,-4.581964492797852,8.150224685668945,3.699953556060791,-3.924870252609253,-4.802909851074219,-1.017957806587219,XArbitraryZVertical,-0.0065375501488749,-0.3346322974012103,-0.9248733173439614,-0.1805208069884808,0.108723372220993,-0.6213452816009521,-0.7759569883346558,0,0,0,-1,-1,34788.36729275,unknown,2,2022-06-02T10:57:41.545+02:00,2022-06-02T10:32:51.428+02:00,153,2.639414,0,0,129.7851,0,0,2022-06-02T10:57:26.230+02:00,675853061.5444556,0,-24.80078,101.4908,1,0.85
504,2022-06-02T10:57:43.517+02:00,1654160263.000201,53.22896750589561,10.3987951721788,36.67131,0.1067322,0.4898411,-1,-1,3,12.00181241052132,-9999,34790.33485275001,-3.784698486328125,-1.830917358398438,0.154449462890625,34790.33110275,2.791247735269243,0.1850267149318175,0.6141388616416603,-8.798500061035156,10.58224773406982,8.031601905822754,-4.435160636901855,-1.079659342765808,0.2763274908065796,XArbitraryZVertical,0.0342594300915502,-0.3117148697918565,-0.9394883889061292,-0.1379189337030388,0.1503554433584213,-0.5762549638748169,-0.8033202886581421,0,0,0,-1,-1,34788.36729275,unknown,2,2022-06-02T10:57:41.545+02:00,2022-06-02T10:32:51.428+02:00,153,2.639414,0,0,129.7851,0,0,2022-06-02T10:57:26.230+02:00,675853061.5444556,0,-24.80078,101.4908,1,0.85
505,2022-06-02T10:57:43.527+02:00,1654160263.000201,53.22896750589561,10.3987951721788,36.67131,0.1067322,0.4898411,-1,-1,3,12.00181241052132,-9999,34790.34482675,-2.208343505859375,-0.3719635009765625,1.68109130859375,34790.34107575,2.911695900064531,0.2268843995217452,0.5219970447923779,-12.79409694671631,12.98923397064209,7.418639183044434,-2.867074728012085,-1.253569841384888,1.684713363647461,XArbitraryZVertical,0.0792371825284037,-0.2672384732680226,-0.9569383446793032,-0.0810810306318406,0.1949861347675323,-0.4986122250556946,-0.8446101546287537,0,0,0,-1,-1,34788.36729275,unknown,2,2022-06-02T10:57:41.545+02:00,2022-06-02T10:32:51.428+02:00,153,2.639414,0,0,129.7851,0,0,2022-06-02T10:57:26.230+02:00,675853061.5444556,0,-24.80078,101.4908,1,0.85
506,2022-06-02T10:57:43.537+02:00,1654160263.000201,53.22896750589561,10.3987951721788,36.67131,0.1067322,0.4898411,-1,-1,3,12.00181241052132,-9999,34790.35479975,-0.6685028076171875,0.911224365234375,1.925048828125,34790.35104875,3.054036719250714,0.2098451695004556,0.4093108593016097,-14.37733173370361,0.6566662788391113,12.03620624542236,-1.166153073310852,0.8236210942268372,3.301643848419189,XArbitraryZVertical,0.0936010839594372,-0.2064062683351959,-0.9737451070219352,-0.0213511395043537,0.1911012083292007,-0.397977203130722,-0.8972705602645874,0,0,0,-1,-1,34788.36729275,unknown,2,2022-06-02T10:57:41.545+02:00,2022-06-02T10:32:51.428+02:00,153,2.639414,0,0,129.7851,0,0,2022-06-02T10:57:26.230+02:00,675853061.5444556,0,-24.80078,101.4908,1,0.85
507,2022-06-02T10:57:43.547+02:00,1654160263.000201,53.22896750589561,10.3987951721788,36.67131,0.1067322,0.4898411,-1,-1,3,12.00181241052132,-9999,34790.36477275,-3.278533935546875,3.129730224609375,0.771209716796875,34790.36102275,-3.088451155202532,0.1496673591771653,0.3034846995527565,-10.38597679138184,-1.680453538894653,10.42403411865234,-2.101142168045044,2.343189477920532,2.540709018707275,XArbitraryZVertical,0.0778834097636637,-0.1487209480357479,-0.9850944442017396,0.0374862054485055,0.1422950625419617,-0.2988474667072296,-0.9436324834823608,0,0,0,-1,-1,34788.36729275,unknown,2,2022-06-02T10:57:41.545+02:00,2022-06-02T10:32:51.428+02:00,153,2.639414,0,0,129.7851,0,0,2022-06-02T10:57:26.230+02:00,675853061.5444556,0,-24.80078,101.4908,1,0.85
508,2022-06-02T10:57:43.557+02:00,1654160263.000201,53.22896750589561,10.3987951721788,36.67131,0.1067322,0.4898411,-1,-1,3,12.00181241052132,-9999,34790.37474675,-3.82666015625,2.370941162109375,-0.6284942626953125,34790.37099575,-2.982162305823934,0.1070929251358014,0.2569378625708823,-1.367826342582703,-0.9297972321510316,8.381302833557129,-3.932297945022583,3.303421258926392,0.9214706420898438,XArbitraryZVertical,0.0630986062398299,-0.1232991709702559,-0.9866468513417838,0.0856964625332696,0.1033794730901718,-0.2541201412677765,-0.9616317749023438,0,0,0,-1,-1,34788.36729275,unknown,2,2022-06-02T10:57:41.545+02:00,2022-06-02T10:32:51.428+02:00,153,2.639414,0,0,129.7851,0,0,2022-06-02T10:57:26.230+02:00,675853061.5444556,0,-24.80078,101.4908,1,0.85
509,2022-06-02T10:57:43.567+02:00,1654160263.000201,53.22896750589561,10.3987951721788,36.67131,0.1067322,0.4898411,-1,-1,3,12.00181241052132,-9999,34790.38471975,-3.6832275390625,-0.49261474609375,-0.85552978515625,34790.38096975,-2.906383556054653,0.0778633991633934,0.2864293661100535,5.234654903411865,-0.6869997978210449,6.639026165008545,-3.839355707168579,1.384381294250488,0.0778124332427978,XArbitraryZVertical,0.0549911229039315,-0.1371122511564992,-0.9815289849371194,0.1215612025257373,0.0746157020330429,-0.2825288772583008,-0.9563524127006532,0,0,0,-1,-1,34788.36729275,unknown,2,2022-06-02T10:57:41.545+02:00,2022-06-02T10:32:51.428+02:00,153,2.639414,0,0,129.7851,0,0,2022-06-02T10:57:26.230+02:00,675853061.5444556,0,-24.80078,101.4908,1,0.85
510,2022-06-02T10:57:43.577+02:00,1654160263.000201,53.22896750589561,10.3987951721788,36.67131,0.1067322,0.4898411,-1,-1,3,12.00181241052132,-9999,34790.39469375,-3.236465454101562,-2.972854614257812,-0.6219635009765625,34790.39094275,-2.847509490043802,0.0555798480487292,0.3516417661070821,6.481906414031982,0.0499414727091789,5.480795860290527,-3.596661806106567,-1.604977607727051,0.2030754089355469,XArbitraryZVertical,0.0526802586501045,-0.1689537784436445,-0.972870389770445,0.1490057067760621,0.0521519742906093,-0.3444395661354065,-0.9373587965965272,0,0,0,-1,-1,34788.36729275,unknown,2,2022-06-02T10:57:41.545+02:00,2022-06-02T10:32:51.428+02:00,153,2.639414,0,0,129.7851,0,0,2022-06-02T10:57:26.230+02:00,675853061.5444556,0,-24.80078,101.4908,1,0.85
511,2022-06-02T10:57:43.587+02:00,1654160263.000201,53.22896750589561,10.3987951721788,36.67131,0.1067322,0.4898411,-1,-1,3,12.00181241052132,-9999,34790.40466675,-2.515090942382812,-4.066909790039062,-0.6075592041015625,34790.40091575,-2.794187105688936,0.0386265056195119,0.4087829226146629,4.289602279663086,0.5873101353645325,5.038866996765137,-2.924122333526611,-3.30239725112915,0.3250324130058289,XArbitraryZVertical,0.0536986092218243,-0.1966113896813043,-0.9635922247769302,0.1730623333809864,0.0354350730776786,-0.3974928259849548,-0.916920840740204,0,0,0,-1,-1,34788.36729275,unknown,2,2022-06-02T10:57:41.545+02:00,2022-06-02T10:32:51.428+02:00,153,2.639414,0,0,129.7851,0,0,2022-06-02T10:57:26.230+02:00,675853061.5444556,0,-24.80078,101.4908,1,0.85
512,2022-06-02T10:57:43.597+02:00,1654160263.000201,53.22896750589561,10.3987951721788,36.67131,0.1067322,0.4898411,-1,-1,3,12.00181241052132,-9999,34790.41463975,-1.964767456054688,-3.765884399414062,-0.7393646240234375,34790.41088975,-2.741078252320323,0.0234781247918736,0.4376667088240234,1.212931036949158,0.7891703844070435,4.826010704040527,-2.251655578613281,-3.655335426330566,0.2505099177360535,XArbitraryZVertical,0.0544108996559385,-0.2104584059237299,-0.9560706271256604,0.1966614990232659,0.0212631952017545,-0.4238272607326508,-0.905493438243866,0,0,0,-1,-1,34788.36729275,unknown,2,2022-06-02T10:57:41.545+02:00,2022-06-02T10:32:51.428+02:00,153,2.639414,0,0,129.7851,0,0,2022-06-02T10:57:26.230+02:00,675853061.5444556,0,-24.80078,101.4908,1,0.85
513,2022-06-02T10:57:43.607+02:00,1654160263.000201,53.22896750589561,10.3987951721788,36.67131,0.1067322,0.4898411,-1,-1,3,12.00181241052132,-9999,34790.42461375,-1.7047119140625,-2.740798950195312,-1.008148193359375,34790.42086275,-2.689280933615415,0.0085328460008765,0.4405942781795725,-0.5083993673324585,0.6263031363487244,4.588339328765869,-1.802868604660034,-2.865026950836182,0.033753216266632,XArbitraryZVertical,0.053056130549256,-0.2120196228890638,-0.9507658592636368,0.2197203779925074,0.0077178515493869,-0.4264770746231079,-0.9044654369354248,0,0,0,-1,-1,34788.36729275,unknown,2,2022-06-02T10:57:41.545+02:00,2022-06-02T10:32:51.428+02:00,153,2.639414,0,0,129.7851,0,0,2022-06-02T10:57:26.230+02:00,675853061.5444556,0,-24.80078,101.4908,1,0.85
514,2022-06-02T10:57:43.617+02:00,1654160263.000201,53.22896750589561,10.3987951721788,36.67131,0.1067322,0.4898411,-1,-1,3,12.00181241052132,-9999,34790.43458675,-1.776519775390625,-1.920547485351562,-1.249786376953125,34790.43083575,-2.641510887563199,-0.0059491279799235,0.4347572053294035,-0.504342794418335,0.5684266686439514,4.087190628051758,-1.726019144058228,-1.84260368347168,-0.2472795844078064,XArbitraryZVertical,0.0505518484756853,-0.2096816010257616,-0.9462548349728018,0.2409975986881397,-0.0053956625051796,-0.4211902022361755,-0.9069562554359436,0,0,0,-1,-1,34788.36729275,unknown,2,2022-06-02T10:57:41.545+02:00,2022-06-02T10:32:51.428+02:00,153,2.639414,0,0,129.7851,0,0,2022-06-02T10:57:26.230+02:00,675853061.5444556,0,-24.80078,101.4908,1,0.85
515,2022-06-02T10:57:43.627+02:00,1654160263.000201,53.22896750589561,10.3987951721788,36.67131,0.1067322,0.4898411,-1,-1,3,12.00181241052132,-9999,34790.44456075,-1.799331665039062,-1.623291015625,-1.253250122070312,34790.44080975001,-2.59914941303428,-0.0177133651086536,0.4337360340657933,0.440043717622757,0.6682044267654419,3.631937980651855,-1.802027702331543,-1.296258449554443,-0.3833287358283997,XArbitraryZVertical,0.0493112449061138,-0.2096153561479565,-0.9413503740769128,0.2597868337279461,-0.0160723011940717,-0.4202638268470764,-0.9072595834732056,0,0,0,-1,-1,34788.36729275,unknown,2,2022-06-02T10:57:41.545+02:00,2022-06-02T10:32:51.428+02:00,153,2.639414,0,0,129.7851,0,0,2022-06-02T10:57:26.230+02:00,675853061.5444556,0,-24.80078,101.4908,1,0.85
516,2022-06-02T10:57:43.636+02:00,1654160263.000201,53.22896750589561,10.3987951721788,36.67131,0.1067322,0.4898411,-1,-1,3,12.00181241052132,-9999,34790.45453375,-1.666305541992188,-1.7548828125,-1.084747314453125,34790.45078275001,-2.560993959235155,-0.0264381259505195,0.4421199486829462,1.350276470184326,0.8220638632774353,3.27783989906311,-1.716920971870422,-1.21649158000946,-0.2721130847930908,XArbitraryZVertical,0.0503990376874986,-0.2137628211423068,-0.9355899233232832,0.2764720518147935,-0.0238932278007268,-0.4278565347194672,-0.903530776500702,0,0,0,-1,-1,34788.36729275,unknown,2,2022-06-02T10:57:41.545+02:00,2022-06-02T10:32:51.428+02:00,153,2.639414,0,0,129.7851,0,0,2022-06-02T10:57:26.230+02:00,675853061.5444556,0,-24.80078,101.4908,1,0.85
517,2022-06-02T10:57:43.646+02:00,1654160263.000201,53.22896750589561,10.3987951721788,36.67131,0.1067322,0.4898411,-1,-1,3,12.00181241052132,-9999,34790.46450675,-1.580474853515625,-2.014205932617188,-0.949462890625,34790.46075675,-2.525793072507815,-0.0329316722937165,0.4564361086373439,1.685184001922607,0.9748302102088928,2.995407819747925,-1.591004610061646,-1.463682413101196,-0.1071606874465942,XArbitraryZVertical,0.0532712418298899,-0.2204337098801037,-0.9292657715716997,0.2916100372062668,-0.0295550823211669,-0.440751850605011,-0.8971422910690308,0,0,0,-1,-1,34788.36729275,unknown,2,2022-06-02T10:57:41.545+02:00,2022-06-02T10:32:51.428+02:00,153,2.639414,0,0,129.7851,0,0,2022-06-02T10:57:26.230+02:00,675853061.5444556,0,-24.80078,101.4908,1,0.85
518,2022-06-02T10:57:43.656+02:00,1654160263.000201,53.22896750589561,10.3987951721788,36.67131,0.1067322,0.4898411,-1,-1,3,12.00181241052132,-9999,34790.47448075,-1.469100952148438,-2.175186157226562,-0.9261932373046876,34790.47072975,-2.492850541691972,-0.036863316765748,0.4719280131157842,1.549355030059814,1.206981182098389,2.8106369972229,-1.501154899597168,-1.611206769943237,-0.0323969721794128,XArbitraryZVertical,0.0575107373487626,-0.2272626917838124,-0.922802639439048,0.3057444218097355,-0.032826479524374,-0.4546043872833252,-0.8900883793830872,0,0,0,-1,-1,34788.36729275,unknown,2,2022-06-02T10:57:41.545+02:00,2022-06-02T10:32:51.428+02:00,153,2.639414,0,0,129.7851,0,0,2022-06-02T10:57:26.230+02:00,675853061.5444556,0,-24.80078,101.4908,1,0.85
519,2022-06-02T10:57:43.666+02:00,1654160263.000201,53.22896750589561,10.3987951721788,36.67131,0.1067322,0.4898411,-1,-1,3,12.00181241052132,-9999,34790.48445375,-1.354248046875,-2.44915771484375,-0.902008056640625,34790.48070275,-2.461903252280175,-0.0380020192280905,0.4844381015774387,1.120942711830139,1.410885810852051,2.599656343460083,-1.377297878265381,-1.872683048248291,-0.0378517508506774,XArbitraryZVertical,0.0625495520767172,-0.2322468963692038,-0.9166380700849523,0.3192548415642198,-0.0336212925612926,-0.4657111763954163,-0.8842978477478027,0,0,0,-1,-1,34788.36729275,unknown,2,2022-06-02T10:57:41.545+02:00,2022-06-02T10:32:51.428+02:00,153,2.639414,0,0,129.7851,0,0,2022-06-02T10:57:26.230+02:00,675853061.5444556,0,-24.80078,101.4908,1,0.85
520,2022-06-02T10:57:43.676+02:00,1654160263.000201,53.22896750589561,10.3987951721788,36.67131,0.1067322,0.4898411,-1,-1,3,12.00181241052132,-9999,34790.49442675,-1.197067260742188,-2.441650390625,-0.8396453857421875,34790.49067675,-2.433964573718498,-0.0361231462385338,0.4913271277392019,0.4410074651241302,1.566711187362671,2.273094415664673,-1.251833081245422,-2.004201412200928,0.0120221972465515,XArbitraryZVertical,0.0678165183393569,-0.2341682438832774,-0.9112674066089212,0.3319004445020797,-0.0318431220948696,-0.471796452999115,-0.8811323046684265,0,0,0,-1,-1,34788.36729275,unknown,2,2022-06-02T10:57:41.545+02:00,2022-06-02T10:32:51.428+02:00,153,2.639414,0,0,129.7851,0,0,2022-06-02T10:57:26.230+02:00,675853061.5444556,0,-24.80078,101.4908,1,0.85
521,2022-06-02T10:57:43.686+02:00,1654160263.000201,53.22896750589561,10.3987951721788,36.67131,0.1067322,0.4898411,-1,-1,3,12.00181241052132,-9999,34790.50440075,-1.016632080078125,-2.253509521484375,-0.8178253173828125,34790.50064975,-2.41022255317595,-0.0314489772358452,0.4924684217787462,-0.0061748204752802,1.590415716171265,1.916287899017334,-1.07770049571991,-1.890768766403198,0.052119493484497,XArbitraryZVertical,0.0729115786106547,-0.2330611971409747,-0.9069692323580558,0.3431811013043625,-0.0277072787284851,-0.4728024303913116,-0.8807327747344971,0,0,0,-1,-1,34788.36729275,unknown,2,2022-06-02T10:57:41.545+02:00,2022-06-02T10:32:51.428+02:00,153,2.639414,0,0,129.7851,0,0,2022-06-02T10:57:26.230+02:00,675853061.5444556,0,-24.80078,101.4908,1,0.85
522,2022-06-02T10:57:43.696+02:00,1654160263.000201,53.22896750589561,10.3987951721788,36.67131,0.1067322,0.4898411,-1,-1,3,12.00181241052132,-9999,34790.51437375,-0.9124603271484376,-2.013351440429688,-0.8323211669921875,34790.51062375,-2.390834228877092,-0.0252325175133134,0.491691477606426,0.0082520563155412,1.487486124038696,1.517736911773682,-0.9308992624282836,-1.65361475944519,0.0621326565742492,XArbitraryZVertical,0.077836443265818,-0.2308982877396547,-0.9034480834018948,0.3527167168501182,-0.0222410000860691,-0.4721176624298096,-0.8812549114227295,0,0,0,-1,-1,34788.36729275,unknown,2,2022-06-02T10:57:41.545+02:00,2022-06-02T10:32:51.428+02:00,153,2.639414,0,0,129.7851,0,0,2022-06-02T10:57:26.230+02:00,675853061.5444556,0,-24.80078,101.4908,1,0.85
523,2022-06-02T10:57:43.706+02:00,1654160263.000201,53.22896750589561,10.3987951721788,36.67131,0.1067322,0.4898411,-1,-1,3,12.00181241052132,-9999,34790.52434775,-0.8291473388671875,-1.865493774414062,-0.8228607177734375,34790.52059675,-2.375721412490666,-0.0177007705103396,0.4928959379415526,0.3128758668899536,1.415277719497681,1.136775374412537,-0.8521438837051392,-1.44839072227478,0.0529474020004272,XArbitraryZVertical,0.0831899663645384,-0.22948921227246,-0.9003168069478948,0.3603385440416227,-0.0155929671600461,-0.4731791019439697,-0.8808282613754272,0,0,0,-1,-1,34788.36729275,unknown,2,2022-06-02T10:57:41.545+02:00,2022-06-02T10:32:51.428+02:00,153,2.639414,0,0,129.7851,0,0,2022-06-02T10:57:26.230+02:00,675853061.5444556,0,-24.80078,101.4908,1,0.85
524,2022-06-02T10:57:43.716+02:00,1654160263.000201,53.22896750589561,10.3987951721788,36.67131,0.1067322,0.4898411,-1,-1,3,12.00181241052132,-9999,34790.53432075,-0.7858734130859375,-1.815704345703125,-0.82855224609375,34790.53056975,-2.365200962652643,-0.009246876902103,0.4975386138850987,0.6238793730735779,1.274450778961182,0.7239856123924255,-0.7942577600479126,-1.356949329376221,0.0521690845489502,XArbitraryZVertical,0.0890470380893625,-0.2295853197770455,-0.8975215232441951,0.3658093998899868,-0.0081256693229079,-0.477264016866684,-0.8787224292755127,0,0,0,-1,-1,34788.36729275,unknown,2,2022-06-02T10:57:41.545+02:00,2022-06-02T10:32:51.428+02:00,153,2.639414,0,0,129.7851,0,0,2022-06-02T10:57:26.230+02:00,675853061.5444556,0,-24.80078,101.4908,1,0.85
525,2022-06-02T10:57:43.726+02:00,1654160263.000201,53.22896750589561,10.3987951721788,36.67131,0.1067322,0.4898411,-1,-1,3,12.00181241052132,-9999,34790.54429375,-0.7895660400390625,-1.8155517578125,-0.819366455078125,34790.54054375,-2.35906867466354,-0.0001897954659926,0.5045753176381221,0.7455397844314575,1.145732998847961,0.3454844057559967,-0.7854936718940735,-1.331139445304871,0.0431044697761535,XArbitraryZVertical,0.0951089192745438,-0.2307907272882369,-0.8951738264468342,0.3692613120270681,-0.0001661431306274,-0.483435720205307,-0.8753798604011536,0,0,0,-1,-1,34788.36729275,unknown,2,2022-06-02T10:57:41.545+02:00,2022-06-02T10:32:51.428+02:00,153,2.639414,0,0,129.7851,0,0,2022-06-02T10:57:26.230+02:00,675853061.5444556,0,-24.80078,101.4908,1,0.85
526,2022-06-02T10:57:43.736+02:00,1654160263.000201,53.22896750589561,10.3987951721788,36.67131,0.1067322,0.4898411,-1,-1,3,12.00181241052132,-9999,34790.55426775001,-0.7777099609375,-1.811431884765625,-0.734588623046875,34790.55051675,-2.356926346390337,0.0100369446775763,0.5114568636638481,0.6100646257400513,1.135506272315979,0.0491445809602737,-0.7989593148231506,-1.3281329870224,0.0865575671195983,XArbitraryZVertical,0.1011994660673256,-0.2318715878113707,-0.8934731750112521,0.371079579434238,0.0087523935362696,-0.4894481897354126,-0.8719884753227234,0,0,0,-1,-1,34788.36729275,unknown,2,2022-06-02T10:57:41.545+02:00,2022-06-02T10:32:51.428+02:00,153,2.639414,0,0,129.7851,0,0,2022-06-02T10:57:26.230+02:00,675853061.5444556,0,-24.80078,101.4908,1,0.85
527,2022-06-02T10:57:43.746+02:00,1654160263.000201,53.22896750589561,10.3987951721788,36.67131,0.1067322,0.4898411,-1,-1,3,12.00181241052132,-9999,34790.56424075001,-0.7060699462890625,-1.748703002929688,-0.6530609130859375,34790.56048975,-2.35788249867199,0.0220101815862076,0.5160756975814835,0.3059670031070709,1.162380337715149,-0.1966398805379868,-0.7654189467430115,-1.293653964996338,0.1867820024490356,XArbitraryZVertical,0.107283718092266,-0.2317635114081652,-0.8924776744094842,0.3718328267305222,0.0191420838236808,-0.4934707283973694,-0.8695517778396606,0,0,0,-1,-1,34788.36729275,unknown,2,2022-06-02T10:57:41.545+02:00,2022-06-02T10:32:51.428+02:00,153,2.639414,0,0,129.7851,0,0,2022-06-02T10:57:26.230+02:00,675853061.5444556,0,-24.80078,101.4908,1,0.85
528,2022-06-02T10:57:43.756+02:00,1654160263.000201,53.22896750589561,10.3987951721788,36.67131,0.1067322,0.4898411,-1,-1,3,12.00181241052132,-9999,34790.57421475,-0.617889404296875,-1.624237060546875,-0.6209564208984375,34790.57046375,-2.361396052621997,0.0355130583454443,0.5171778167640343,-0.0321715325117111,1.154359340667725,-0.3941528499126434,-0.6905148029327393,-1.206514000892639,0.2282280921936035,XArbitraryZVertical,0.1131040787821479,-0.2299401890850815,-0.8922537883683564,0.3717770786307326,0.0308621022850275,-0.4944290220737457,-0.8686699271202087,0,0,0,-1,-1,34788.36729275,unknown,2,2022-06-02T10:57:41.545+02:00,2022-06-02T10:32:51.428+02:00,153,2.639414,0,0,129.7851,0,0,2022-06-02T10:57:26.230+02:00,675853061.5444556,0,-24.80078,101.4908,1,0.85
529,2022-06-02T10:57:43.766+02:00,1654160263.000201,53.22896750589561,10.3987951721788,36.67131,0.1067322,0.4898411,-1,-1,3,12.00181241052132,-9999,34790.58418775,-0.5688323974609375,-1.442825317382812,-0.623077392578125,34790.58043675,-2.366851444143855,0.0491931949303489,0.5157144867119545,-0.1893984377384186,1.053196430206299,-0.5714346766471863,-0.6290968656539917,-1.041038393974304,0.2610848546028137,XArbitraryZVertical,0.1183208700005108,-0.2270596446112498,-0.892653805196709,0.370962554253385,0.0427778996527195,-0.4931565225124359,-0.8688881993293762,0,0,0,-1,-1,34788.36729275,unknown,2,2022-06-02T10:57:41.545+02:00,2022-06-02T10:32:51.428+02:00,153,2.639414,0,0,129.7851,0,0,2022-06-02T10:57:26.230+02:00,675853061.5444556,0,-24.80078,101.4908,1,0.85
530,2022-06-02T10:57:43.776+02:00,1654160263.000201,53.22896750589561,10.3987951721788,36.67131,0.1067322,0.4898411,-1,-1,3,12.00181241052132,-9999,34790.59416075,-0.55841064453125,-1.3045654296875,-0.6878509521484375,34790.59041075,-2.374330369563001,0.0630365832546071,0.5135712849349999,-0.1539661586284637,0.9791129231452942,-0.772014856338501,-0.6144537925720215,-0.8789788484573364,0.2055845856666565,XArbitraryZVertical,0.1232766149258834,-0.2239867784890533,-0.893465258232753,0.3692595580114422,0.0548682287335395,-0.491290956735611,-0.869265615940094,0,0,0,-1,-1,34788.36729275,unknown,2,2022-06-02T10:57:41.545+02:00,2022-06-02T10:32:51.428+02:00,153,2.639414,0,0,129.7851,0,0,2022-06-02T10:57:26.230+02:00,675853061.5444556,0,-24.80078,101.4908,1,0.85
531,2022-06-02T10:57:43.786+02:00,1654160263.000201,53.22896750589561,10.3987951721788,36.67131,0.1067322,0.4898411,-1,-1,3,12.00181241052132,-9999,34790.60413475,-0.5748138427734375,-1.221969604492188,-0.7483062744140625,34790.60038375,-2.384312927826397,0.0770968924306679,0.5120757435385376,-0.0163158718496561,0.8707060813903809,-0.9911400079727172,-0.628878116607666,-0.7634302377700806,0.1523277163505554,XArbitraryZVertical,0.1281877187725211,-0.2213549054434882,-0.8946026814880796,0.3664095305168137,0.0671410635113716,-0.4899877905845642,-0.8691398501396179,0,0,0,-1,-1,34788.36729275,unknown,2,2022-06-02T10:57:41.545+02:00,2022-06-02T10:32:51.428+02:00,153,2.639414,0,0,129.7851,0,0,2022-06-02T10:57:26.230+02:00,675853061.5444556,0,-24.80078,101.4908,1,0.85
532,2022-06-02T10:57:43.796+02:00,1654160263.000201,53.22896750589561,10.3987951721788,36.67131,0.1067322,0.4898411,-1,-1,3,12.00181241052132,-9999,34790.61410775,-0.5983734130859375,-1.211456298828125,-0.8138427734375,34790.61035675,-2.396975768340902,0.0916958306043748,0.5115693900023708,0.0975939184427261,0.819142758846283,-1.220999121665955,-0.6677963733673096,-0.7185225486755371,0.0872318744659423,XArbitraryZVertical,0.1332408912374562,-0.2192940057718065,-0.8960189951999545,0.3623629778074188,0.0798446834087371,-0.4895463287830353,-0.8683140277862549,0,0,0,-1,-1,34788.36729275,unknown,2,2022-06-02T10:57:41.545+02:00,2022-06-02T10:32:51.428+02:00,153,2.639414,0,0,129.7851,0,0,2022-06-02T10:57:26.230+02:00,675853061.5444556,0,-24.80078,101.4908,1,0.85
533,2022-06-02T10:57:43.806+02:00,1654160263.000201,53.22896750589561,10.3987951721788,36.67131,0.1067322,0.4898411,-1,-1,3,12.00181241052132,-9999,34790.62408175,-0.6016387939453125,-1.2423095703125,-0.801849365234375,34790.62033075,-2.412181079651146,0.1071948699067889,0.5115293694169303,0.1467303186655045,0.7930927872657776,-1.430873990058899,-0.6948266625404358,-0.7377225160598755,0.0452754497528076,XArbitraryZVertical,0.1385240441164051,-0.217520596467033,-0.8977065836491025,0.3572379141150319,0.0932946875691413,-0.4895114302635193,-0.8669917583465576,0,0,0,-1,-1,34788.36729275,unknown,2,2022-06-02T10:57:41.545+02:00,2022-06-02T10:32:51.428+02:00,153,2.639414,0,0,129.7851,0,0,2022-06-02T10:57:26.230+02:00,675853061.5444556,0,-24.80078,101.4908,1,0.85
534,2022-06-02T10:57:43.816+02:00,1654160263.000201,53.22896750589561,10.3987951721788,36.67131,0.1067322,0.4898411,-1,-1,3,12.00181241052132,-9999,34790.63405475,-0.558258056640625,-1.254745483398438,-0.761566162109375,34790.63030375,-2.429729423270798,0.1238456126302806,0.5103665155024648,-0.0276778936386108,0.8039591908454895,-1.638092517852783,-0.6901543140411377,-0.7648293375968933,0.0791393518447876,XArbitraryZVertical,0.143917767205988,-0.215282231195253,-0.8997874205559243,0.3511748529842927,0.1077873781323433,-0.4884970784187317,-0.8658824563026428,0,0,0,-1,-1,34788.36729275,unknown,2,2022-06-02T10:57:41.545+02:00,2022-06-02T10:32:51.428+02:00,153,2.639414,0,0,129.7851,0,0,2022-06-02T10:57:26.230+02:00,675853061.5444556,0,-24.80078,101.4908,1,0.85
