,loggingTime(txt),locationTimestamp_since1970(s),locationLatitude(WGS84),locationLongitude(WGS84),locationAltitude(m),locationSpeed(m/s),locationSpeedAccuracy(m/s),locationCourse(°),locationCourseAccuracy(°),locationVerticalAccuracy(m),locationHorizontalAccuracy(m),locationFloor(Z),accelerometerTimestamp_sinceReboot(s),accelerometerAccelerationX(G),accelerometerAccelerationY(G),accelerometerAccelerationZ(G),motionTimestamp_sinceReboot(s),motionYaw(rad),motionRoll(rad),motionPitch(rad),motionRotationRateX(rad/s),motionRotationRateY(rad/s),motionRotationRateZ(rad/s),motionUserAccelerationX(G),motionUserAccelerationY(G),motionUserAccelerationZ(G),motionAttitudeReferenceFrame(txt),motionQuaternionX(R),motionQuaternionY(R),motionQuaternionZ(R),motionQuaternionW(R),motionGravityX(G),motionGravityY(G),motionGravityZ(G),motionMagneticFieldX(µT),motionMagneticFieldY(µT),motionMagneticFieldZ(µT),motionHeading(°),motionMagneticFieldCalibrationAccuracy(Z),activityTimestamp_sinceReboot(s),activity(txt),activityActivityConfidence(Z),activityActivityStartDate(txt),pedometerStartDate(txt),pedometerNumberofSteps(N),pedometerAverageActivePace(s/m),pedometerCurrentPace(s/m),pedometerCurrentCadence(steps/s),pedometerDistance(m),pedometerFloorAscended(N),pedometerFloorDescended(N),pedometerEndDate(txt),altimeterTimestamp_sinceReboot(s),altimeterReset(bool),altimeterRelativeAltitude(m),altimeterPressure(kPa),batteryState(N),batteryLevel(R)
420,2022-06-02T10:58:10.375+02:00,1654160289.000262,53.22903530705361,10.39864780748719,36.79718,0.07429553,0.523741,32.42201665036387,56.10675228262904,3,6.000906205260658,-9999,34817.19328854167,-0.718231201171875,0.2368621826171875,-2.281753540039062,34817.18953754167,0.7285534503264266,0.583791887942645,0.4376057276988531,-13.97724151611328,11.58288097381592,-8.198797225952148,-1.0819091796875,0.342991977930069,-1.530225992202759,XArbitraryZVertical,-0.0941588801969278,-0.336536790342708,-0.3914328483247217,-0.8512681718230365,0.4992523491382599,-0.4237720370292664,-0.7557541728019714,0,0,0,-1,-1,34816.452972625,unknown,2,2022-06-02T10:58:09.630+02:00,2022-06-02T10:32:51.428+02:00,153,2.639414,0,0,129.7851,0,0,2022-06-02T10:57:26.230+02:00,675853089.6301326,0,-24.74219,101.4897,1,0.85
421,2022-06-02T10:58:10.385+02:00,1654160289.000262,53.22903530705361,10.39864780748719,36.79718,0.07429553,0.523741,32.42201665036387,56.10675228262904,3,6.000906205260658,-9999,34817.20326254167,-1.010711669921875,1.106689453125,-2.151611328125,34817.19951154167,0.7533449422789376,0.697582860716309,0.2649915736485799,-16.41674041748047,12.76845264434814,-8.464903831481934,-1.461818218231201,0.8273460865020752,-1.510186314582825,XArbitraryZVertical,0.0091582150745662,-0.3606843848188174,-0.3846346309751085,-0.8496346967269641,0.6199450492858887,-0.2619011402130127,-0.739645779132843,0,0,0,-1,-1,34816.452972625,unknown,2,2022-06-02T10:58:09.630+02:00,2022-06-02T10:32:51.428+02:00,153,2.639414,0,0,129.7851,0,0,2022-06-02T10:57:26.230+02:00,675853089.6301326,0,-24.74219,101.4897,1,0.85
422,2022-06-02T10:58:10.395+02:00,1654160289.000262,53.22903530705361,10.39864780748719,36.79718,0.07429553,0.523741,32.42201665036387,56.10675228262904,3,6.000906205260658,-9999,34817.21323554167,-0.9123687744140624,1.260726928710938,-1.9805908203125,34817.20948454167,0.8132532852914193,0.8199967486380567,0.07745680657113,-19.11715888977051,13.80041313171387,-8.874431610107422,-1.709221839904785,1.325334668159485,-1.418302059173584,XArbitraryZVertical,0.1249221439114421,-0.3798755073622451,-0.3766368593201891,-0.8356038841437035,0.7289514541625977,-0.0773793756961822,-0.6801781058311462,0,0,0,-1,-1,34816.452972625,unknown,2,2022-06-02T10:58:09.630+02:00,2022-06-02T10:32:51.428+02:00,153,2.639414,0,0,129.7851,0,0,2022-06-02T10:57:26.230+02:00,675853089.6301326,0,-24.74219,101.4897,1,0.85
423,2022-06-02T10:58:10.405+02:00,1654160289.000262,53.22903530705361,10.39864780748719,36.79718,0.07429553,0.523741,32.42201665036387,56.10675228262904,3,6.000906205260658,-9999,34817.22320954167,-0.992889404296875,1.99530029296875,-1.6129150390625,34817.21945854167,0.9148253771275544,0.964890148317865,-0.1177844179601399,-21.16409111022949,14.55517578125,-8.672752380371094,-1.790381669998169,1.500636577606201,-1.224386215209961,XArbitraryZVertical,0.2513168418154257,-0.392503727611057,-0.3660441428578017,-0.8054765539057401,0.8162912130355835,0.1175122633576393,-0.5655613541603088,0,0,0,-1,-1,34816.452972625,unknown,2,2022-06-02T10:58:09.630+02:00,2022-06-02T10:32:51.428+02:00,153,2.639414,0,0,129.7851,0,0,2022-06-02T10:57:26.230+02:00,675853089.6301326,0,-24.74219,101.4897,1,0.85
424,2022-06-02T10:58:10.415+02:00,1654160290.000261,53.22903737241781,10.39864597355306,36.79971,0.001642193,0.4749113,38.00743799508766,169.8604365470516,3,6.000906205260658,-9999,34817.23318254167,-0.867706298828125,1.66009521484375,-1.297012329101562,34817.22943154167,1.065740140923966,1.145971090954991,-0.3009556862140613,-22.70349311828613,15.38623237609863,-8.748048782348633,-1.73002290725708,1.53672730922699,-1.115717172622681,XArbitraryZVertical,0.3808032157216916,-0.3977068077037196,-0.3520431706529037,-0.7568909358291731,0.8701596856117249,0.2964330613613129,-0.3936364054679871,0,0,0,-1,-1,34816.452972625,unknown,2,2022-06-02T10:58:09.630+02:00,2022-06-02T10:32:51.428+02:00,153,2.639414,0,0,129.7851,0,0,2022-06-02T10:57:26.230+02:00,675853089.6301326,0,-24.74219,101.4897,1,0.85
425,2022-06-02T10:58:10.425+02:00,1654160290.000261,53.22903737241781,10.39864597355306,36.79971,0.001642193,0.4749113,38.00743799508766,169.8604365470516,3,6.000906205260658,-9999,34817.24315654167,-1.22589111328125,2.316909790039062,-0.53546142578125,34817.23940554167,1.272882275239383,1.379301923716113,-0.4540866855017599,-23.13364219665527,15.64502334594727,-8.54631519317627,-1.965380430221558,1.526324152946472,-0.7376066446304321,XArbitraryZVertical,0.5081093728650135,-0.395354766779082,-0.3315632097885859,-0.6896270411405635,0.8822354078292847,0.4386417269706726,-0.1710389405488968,0,0,0,-1,-1,34816.452972625,unknown,2,2022-06-02T10:58:09.630+02:00,2022-06-02T10:32:51.428+02:00,153,2.639414,0,0,129.7851,0,0,2022-06-02T10:57:26.230+02:00,675853089.6301326,0,-24.74219,101.4897,1,0.85
426,2022-06-02T10:58:10.435+02:00,1654160290.000261,53.22903737241781,10.39864597355306,36.79971,0.001642193,0.4749113,38.00743799508766,169.8604365470516,3,6.000906205260658,-9999,34817.25312954167,-1.491683959960938,2.007080078125,0.358551025390625,34817.24937854167,1.530083916435502,1.662418070454518,-0.5509490084430562,-22.84438323974609,15.99556350708008,-8.415654182434082,-2.126042366027832,1.516604065895081,-0.2288340330123901,XArbitraryZVertical,0.6245840563023681,-0.385839766136868,-0.3042293323746198,-0.6070148506574973,0.8484545350074768,0.5234960317611694,0.0779551342129707,0,0,0,-1,-1,34816.452972625,unknown,2,2022-06-02T10:58:09.630+02:00,2022-06-02T10:32:51.428+02:00,153,2.639414,0,0,129.7851,0,0,2022-06-02T10:57:26.230+02:00,675853089.6301326,0,-24.74219,101.4897,1,0.85
427,2022-06-02T10:58:10.445+02:00,1654160290.000261,53.22903737241781,10.39864597355306,36.79971,0.001642193,0.4749113,38.00743799508766,169.8604365470516,3,6.000906205260658,-9999,34817.26310354167,-1.959121704101562,1.83349609375,1.371841430664062,34817.25935254167,1.810377480662781,1.974310203851314,-0.5779390745065854,-21.74856567382812,16.20664978027344,-8.410107612609863,-2.506725311279297,1.420940637588501,0.532461404800415,XArbitraryZVertical,0.7261003150570642,-0.3704312408988597,-0.2686199351741191,-0.5132275137119007,0.7703210711479187,0.5462988615036011,0.3288819491863251,0,0,0,-1,-1,34816.452972625,unknown,2,2022-06-02T10:58:09.630+02:00,2022-06-02T10:32:51.428+02:00,153,2.639414,0,0,129.7851,0,0,2022-06-02T10:57:26.230+02:00,675853089.6301326,0,-24.74219,101.4897,1,0.85
428,2022-06-02T10:58:10.455+02:00,1654160290.000261,53.22903737241781,10.39864597355306,36.79971,0.001642193,0.4749113,38.00743799508766,169.8604365470516,3,6.000906205260658,-9999,34817.27307654167,-2.544357299804688,1.626571655273438,2.450836181640625,34817.26932554167,2.070157565939017,2.275287545157045,-0.5394861326750314,-19.74248313903809,16.23572158813477,-8.314292907714844,-2.895774841308594,1.220252513885498,1.347260713577271,XArbitraryZVertical,0.8093610577519526,-0.3503798818062195,-0.22441292854455,-0.4144965461691521,0.6537246704101562,0.5136951804161072,0.5556627511978149,0,0,0,-1,-1,34816.452972625,unknown,2,2022-06-02T10:58:09.630+02:00,2022-06-02T10:32:51.428+02:00,153,2.639414,0,0,129.7851,0,0,2022-06-02T10:57:26.230+02:00,675853089.6301326,0,-24.74219,101.4897,1,0.85
429,2022-06-02T10:58:10.465+02:00,1654160290.000261,53.22903737241781,10.39864597355306,36.79971,0.001642193,0.4749113,38.00743799508766,169.8604365470516,3,6.000906205260658,-9999,34817.28304954167,-3.170791625976562,1.297073364257812,3.790054321289062,34817.27929954167,2.281053120448951,2.538075114239531,-0.4594954436733799,-17.01822090148926,16.00491523742676,-8.516436576843262,-3.342170715332031,1.019272565841675,2.346269130706787,XArbitraryZVertical,0.8732161044337282,-0.3262908660595189,-0.1723152170394931,-0.3183322556134092,0.508674681186676,0.4434959292411804,0.7379441857337952,0,0,0,-1,-1,34816.452972625,unknown,2,2022-06-02T10:58:09.630+02:00,2022-06-02T10:32:51.428+02:00,153,2.639414,0,0,129.7851,0,0,2022-06-02T10:57:26.230+02:00,675853089.6301326,0,-24.74219,101.4897,1,0.85
430,2022-06-02T10:58:10.475+02:00,1654160290.000261,53.22903737241781,10.39864597355306,36.79971,0.001642193,0.4749113,38.00743799508766,169.8604365470516,3,6.000906205260658,-9999,34817.29302354167,-3.879776000976562,1.022079467773438,5.465179443359375,34817.28927254167,2.445920404517286,2.761031572285084,-0.3641281737043966,-14.10510158538818,15.29821395874023,-9.182795524597168,-3.891399383544922,0.8210351467132568,3.695650577545166,XArbitraryZVertical,0.9195597728055844,-0.2969862723795497,-0.1142658817301515,-0.2305481244157233,0.3470878601074219,0.3561347723007202,0.8675820231437683,0,0,0,-1,-1,34816.452972625,unknown,2,2022-06-02T10:58:09.630+02:00,2022-06-02T10:32:51.428+02:00,153,2.639414,0,0,129.7851,0,0,2022-06-02T10:57:26.230+02:00,675853089.6301326,0,-24.74219,101.4897,1,0.85
431,2022-06-02T10:58:10.485+02:00,1654160290.000261,53.22903737241781,10.39864597355306,36.79971,0.001642193,0.4749113,38.00743799508766,169.8604365470516,3,6.000906205260658,-9999,34817.30299654167,-4.484634399414062,0.284088134765625,7.709304809570312,34817.29924654167,2.582086232021325,2.948725817652883,-0.2688198300071746,-11.61211585998535,13.65159606933594,-10.40099620819092,-4.350545883178711,0.4620824754238129,5.593462944030762,XArbitraryZVertical,0.9515922504876816,-0.2599557159584479,-0.0548766775534859,-0.1545435293131273,0.1847893893718719,0.2655938267707825,0.9462095499038696,0,0,0,-1,-1,34816.452972625,unknown,2,2022-06-02T10:58:09.630+02:00,2022-06-02T10:32:51.428+02:00,153,2.639414,0,0,129.7851,0,0,2022-06-02T10:57:26.230+02:00,675853089.6301326,0,-24.74219,101.4897,1,0.85
432,2022-06-02T10:58:10.495+02:00,1654160290.000261,53.22903737241781,10.39864597355306,36.79971,0.001642193,0.4749113,38.00743799508766,169.8604365470516,3,6.000906205260658,-9999,34817.31297054167,-5.1295166015625,-0.6168212890625,10.06265258789062,34817.30921954167,2.708030846116598,3.09946935183198,-0.1794465527106829,-8.975699424743652,10.76410961151123,-12.02951431274414,-4.876548290252686,-0.3702422976493835,7.944237232208252,XArbitraryZVertical,0.9728567359256882,-0.2123314090310501,-0.0012162961402387,-0.0919979014105286,0.0414346531033515,0.1784850358963013,0.9830697178840636,0,0,0,-1,-1,34816.452972625,unknown,2,2022-06-02T10:58:09.630+02:00,2022-06-02T10:32:51.428+02:00,153,2.639414,0,0,129.7851,0,0,2022-06-02T10:57:26.230+02:00,675853089.6301326,0,-24.74219,101.4897,1,0.85
433,2022-06-02T10:58:10.505+02:00,1654160290.000261,53.22903737241781,10.39864597355306,36.79971,0.001642193,0.4749113,38.00743799508766,169.8604365470516,3,6.000906205260658,-9999,34817.32294354167,-6.025421142578125,-0.847991943359375,11.49728393554688,34817.31919354167,2.840431812864452,-3.078522772646776,-0.1023939260986355,-6.159695148468018,6.361911296844482,-14.45701122283936,-5.388229846954346,-1.002651453018188,9.939817428588867,XArbitraryZVertical,0.9866557711258714,-0.1513362337756479,0.0388050730812756,-0.0458467229246127,-0.0626979544758796,0.1022150963544846,0.9927845597267152,0,0,0,-1,-1,34816.452972625,unknown,2,2022-06-02T10:58:09.630+02:00,2022-06-02T10:32:51.428+02:00,153,2.639414,0,0,129.7851,0,0,2022-06-02T10:57:26.230+02:00,675853089.6301326,0,-24.74219,101.4897,1,0.85
434,2022-06-02T10:58:10.515+02:00,1654160290.000261,53.22903737241781,10.39864597355306,36.79971,0.001642193,0.4749113,38.00743799508766,169.8604365470516,3,6.000906205260658,-9999,34817.33291754167,-7.063796997070312,0.1361541748046875,11.875732421875,34817.32916654167,2.992874099155808,-3.037253932528659,-0.0424444082947951,-3.105461359024048,-0.5681764483451843,-16.92527389526367,-6.495095729827881,-0.508862316608429,10.8310718536377,XArbitraryZVertical,0.995573480610532,-0.0752765129580714,0.0535642536675771,-0.0172601046086543,-0.1040557399392128,0.0424316637217998,0.9936662316322328,0,0,0,-1,-1,34816.452972625,unknown,2,2022-06-02T10:58:09.630+02:00,2022-06-02T10:32:51.428+02:00,153,2.639414,0,0,129.7851,0,0,2022-06-02T10:57:26.230+02:00,675853089.6301326,0,-24.74219,101.4897,1,0.85
435,2022-06-02T10:58:10.525+02:00,1654160290.000261,53.22903737241781,10.39864597355306,36.79971,0.001642193,0.4749113,38.00743799508766,169.8604365470516,3,6.000906205260658,-9999,34817.34289054167,-8.307342529296875,1.41864013671875,10.79240417480469,34817.33914054167,-3.113960213697155,-3.080874213616514,-0.012082555125882,0.1173010021448135,-9.248604774475098,-18.7768440246582,-7.544044494628906,0.7442348599433899,10.51964664459229,XArbitraryZVertical,0.9994281506304928,0.0136258027803951,0.0302676850631628,-0.0064572446501082,-0.0606767237186431,0.0120822610333561,0.9980846047401428,0,0,0,-1,-1,34816.452972625,unknown,2,2022-06-02T10:58:09.630+02:00,2022-06-02T10:32:51.428+02:00,153,2.639414,0,0,129.7851,0,0,2022-06-02T10:57:26.230+02:00,675853089.6301326,0,-24.74219,101.4897,1,0.85
436,2022-06-02T10:58:10.535+02:00,1654160290.000261,53.22903737241781,10.39864597355306,36.79971,0.001642193,0.4749113,38.00743799508766,169.8604365470516,3,6.000906205260658,-9999,34817.35286454167,-10.02442932128906,2.809661865234375,8.6656494140625,34817.34911354167,-2.922454778190119,3.064518935216858,-0.0304951129778621,3.438097238540649,-19.0950870513916,-19.60166358947754,-9.172069549560549,2.078793048858643,8.813902854919434,XArbitraryZVertical,0.993085626177972,0.1098398449688086,-0.0399578486060064,-0.0109318161167674,0.0769616290926933,0.0304903872311115,0.996567726135254,0,0,0,-1,-1,34816.452972625,unknown,2,2022-06-02T10:58:09.630+02:00,2022-06-02T10:32:51.428+02:00,153,2.639414,0,0,129.7851,0,0,2022-06-02T10:57:26.230+02:00,675853089.6301326,0,-24.74219,101.4897,1,0.85
437,2022-06-02T10:58:10.545+02:00,1654160290.000261,53.22903737241781,10.39864597355306,36.79971,0.001642193,0.4749113,38.00743799508766,169.8604365470516,3,6.000906205260658,-9999,34817.36283754167,-12.70870971679688,3.9212646484375,5.577484130859375,34817.35908754167,-2.738335231151894,2.845791844688085,-0.1159164675216982,6.837393283843994,-26.64067459106445,-19.85000610351562,-11.46012783050537,3.266865491867065,6.345428466796875,XArbitraryZVertical,0.9657089553472964,0.206109496648734,-0.1556079596007867,-0.0266708190872241,0.2895497679710388,0.1156570538878441,0.9501498341560364,0,0,0,-1,-1,34816.452972625,unknown,2,2022-06-02T10:58:09.630+02:00,2022-06-02T10:32:51.428+02:00,153,2.639414,0,0,129.7851,0,0,2022-06-02T10:57:26.230+02:00,675853089.6301326,0,-24.74219,101.4897,1,0.85
438,2022-06-02T10:58:10.555+02:00,1654160290.000261,53.22903737241781,10.39864597355306,36.79971,0.001642193,0.4749113,38.00743799508766,169.8604365470516,3,6.000906205260658,-9999,34817.37281154167,-16.42547607421875,5.622467041015625,1.946975708007812,34817.36906054167,-2.595751434387726,2.575673619724681,-0.2694605249439705,9.839809417724608,-32.75569152832031,-17.76407623291016,-14.9077730178833,4.518563270568848,2.980644226074219,XArbitraryZVertical,0.9062043885855146,0.2925954143954266,-0.3011947465677517,-0.049632878246618,0.516843318939209,0.2662114799022675,0.8136369585990906,0,0,0,-1,-1,34816.452972625,unknown,2,2022-06-02T10:58:09.630+02:00,2022-06-02T10:32:51.428+02:00,153,2.639414,0,0,129.7851,0,0,2022-06-02T10:57:26.230+02:00,675853089.6301326,0,-24.74219,101.4897,1,0.85
439,2022-06-02T10:58:10.565+02:00,1654160290.000261,53.22903737241781,10.39864597355306,36.79971,0.001642193,0.4749113,38.00743799508766,169.8604365470516,3,6.000906205260658,-9999,34817.38278454167,-23.72976684570312,8.106201171875,0.683197021484375,34817.37903454167,-2.582921419490194,2.234271603234042,-0.4776372413653528,21.4517822265625,-34.91685485839844,-12.31651210784912,-20.27127647399902,5.959003925323486,0.0961173176765441,XArbitraryZVertical,0.8109020548828987,0.3404480069656473,-0.4679398259895854,-0.0869795374689016,0.6996827125549316,0.4596821367740631,0.5469339489936829,0,0,0,-1,-1,34816.452972625,unknown,2,2022-06-02T10:58:09.630+02:00,2022-06-02T10:32:51.428+02:00,153,2.639414,0,0,129.7851,0,0,2022-06-02T10:57:26.230+02:00,675853089.6301326,0,-24.74219,101.4897,1,0.85
440,2022-06-02T10:58:10.575+02:00,1654160290.000261,53.22903737241781,10.39864597355306,36.79971,0.001642193,0.4749113,38.00743799508766,169.8604365470516,3,6.000906205260658,-9999,34817.39275854167,-30.09867858886719,7.579849243164062,3.441299438476562,34817.38900754167,-2.810692930874021,1.759779378840583,-0.6595400848514187,28.20455551147461,-34.83284378051758,-7.04888391494751,-28.99335098266602,8.043954849243164,2.249396562576294,XArbitraryZVertical,0.6852000478756792,0.323622346107495,-0.6357688969321906,-0.1468588730817326,0.7762041091918945,0.6127534508705139,0.1484610587358475,0,0,0,-1,-1,34816.452972625,unknown,2,2022-06-02T10:58:09.630+02:00,2022-06-02T10:32:51.428+02:00,153,2.639414,0,0,129.7851,0,0,2022-06-02T10:57:26.230+02:00,675853089.6301326,0,-24.74219,101.4897,1,0.85
441,2022-06-02T10:58:10.585+02:00,1654160290.000261,53.22903737241781,10.39864597355306,36.79971,0.001642193,0.4749113,38.00743799508766,169.8604365470516,3,6.000906205260658,-9999,34817.40273154167,-25.10774230957031,16.25881958007812,8.193191528320312,34817.39898154167,3.05450158688622,1.154410441387637,-0.6216860364005452,36.2704963684082,-34.68467330932617,8.104231834411621,-27.02885627746582,9.133138656616213,3.504228353500366,XArbitraryZVertical,0.5301978404993051,0.2334499182284284,-0.7898091972719952,-0.2014764691341695,0.7434409260749817,0.5824065804481506,-0.3287827670574188,0,0,0,-1,-1,34816.452972625,unknown,2,2022-06-02T10:58:09.630+02:00,2022-06-02T10:32:51.428+02:00,153,2.639414,0,0,129.7851,0,0,2022-06-02T10:57:26.230+02:00,675853089.6301326,0,-24.74219,101.4897,1,0.85
442,2022-06-02T10:58:10.595+02:00,1654160290.000261,53.22903737241781,10.39864597355306,36.79971,0.001642193,0.4749113,38.00743799508766,169.8604365470516,3,6.000906205260658,-9999,34817.41270554167,-25.10923767089844,13.02481079101562,23.75177001953125,34817.40895454167,2.752438583403271,0.661315940315224,-0.3715559420668565,36.19327926635742,-34.75227355957031,-4.379091262817383,-26.55834770202637,19.4873218536377,18.0776195526123,XArbitraryZVertical,0.3468371907194643,0.1097139861510781,-0.9004177267899133,-0.238568425478897,0.572248101234436,0.363065630197525,-0.7353336215019226,0,0,0,-1,-1,34816.452972625,unknown,2,2022-06-02T10:58:09.630+02:00,2022-06-02T10:32:51.428+02:00,153,2.639414,0,0,129.7851,0,0,2022-06-02T10:57:26.230+02:00,675853089.6301326,0,-24.74219,101.4897,1,0.85
443,2022-06-02T10:58:10.605+02:00,1654160290.000261,53.22903737241781,10.39864597355306,36.79971,0.001642193,0.4749113,38.00743799508766,169.8604365470516,3,6.000906205260658,-9999,34817.42267854167,-20.73539733886719,-13.95989990234375,18.78256225585938,34817.41892854167,2.563146297133118,0.3248985886159034,-0.0630180113921589,36.17304992675781,-16.93314933776855,1.580278873443604,-24.55754661560059,-1.059298992156982,26.50454902648926,XArbitraryZVertical,0.1638080296151774,-0.0163076384139288,-0.9439240203209976,-0.2861967538074456,0.3185790479183197,0.0629763081669807,-0.9458019733428956,0,0,0,-1,-1,34816.452972625,unknown,2,2022-06-02T10:58:09.630+02:00,2022-06-02T10:32:51.428+02:00,153,2.639414,0,0,129.7851,0,0,2022-06-02T10:57:26.230+02:00,675853089.6301326,0,-24.74219,101.4897,1,0.85
444,2022-06-02T10:58:10.615+02:00,1654160290.000261,53.22903737241781,10.39864597355306,36.79971,0.001642193,0.4749113,38.00743799508766,169.8604365470516,3,6.000906205260658,-9999,34817.43265254167,-8.51373291015625,-16.95797729492188,3.507492065429688,34817.42890154167,2.538278023596944,0.2159281962480536,0.2081185897750982,15.76338958740234,-6.08446216583252,8.049623489379883,-13.94124412536621,-19.52557373046875,10.27885150909424,XArbitraryZVertical,0.0716514264783133,-0.1304448550631521,-0.9474762494701612,-0.283088219205179,0.2096308469772339,-0.206619456410408,-0.9557003974914552,0,0,0,-1,-1,34816.452972625,unknown,2,2022-06-02T10:58:09.630+02:00,2022-06-02T10:32:51.428+02:00,153,2.639414,0,0,129.7851,0,0,2022-06-02T10:57:26.230+02:00,675853089.6301326,0,-24.74219,101.4897,1,0.85
445,2022-06-02T10:58:10.625+02:00,1654160290.000261,53.22903737241781,10.39864597355306,36.79971,0.001642193,0.4749113,38.00743799508766,169.8604365470516,3,6.000906205260658,-9999,34817.44262554167,-7.125137329101562,-2.87750244140625,-0.7272491455078125,34817.43887554167,2.593295403618995,0.1575855369582716,0.3196602859773174,5.795239925384521,-2.995502233505249,6.321123123168945,-7.200680732727051,-9.138041496276855,1.633089900016785,XArbitraryZVertical,0.0318533752805312,-0.1737695731893242,-0.950829109923076,-0.2543884781959712,0.1489841938018799,-0.3142440617084503,-0.9375789761543274,0,0,0,-1,-1,34816.452972625,unknown,2,2022-06-02T10:58:09.630+02:00,2022-06-02T10:32:51.428+02:00,153,2.639414,0,0,129.7851,0,0,2022-06-02T10:57:26.230+02:00,675853089.6301326,0,-24.74219,101.4897,1,0.85
446,2022-06-02T10:58:10.635+02:00,1654160290.000261,53.22903737241781,10.39864597355306,36.79971,0.001642193,0.4749113,38.00743799508766,169.8604365470516,3,6.000906205260658,-9999,34817.45259954167,-6.884353637695312,-2.670806884765625,-1.161956787109375,34817.44884854167,2.655157171311497,0.1393785449283839,0.3684942160443359,2.980989456176758,4.238165855407715,6.58575439453125,-7.501778602600098,-0.7178070545196533,-0.4220466613769531,XArbitraryZVertical,0.0224256213665813,-0.1938683507341729,-0.9548969527138904,-0.2237943722276229,0.1296016126871109,-0.3602111339569092,-0.9238243103027344,0,0,0,-1,-1,34816.452972625,unknown,2,2022-06-02T10:58:09.630+02:00,2022-06-02T10:32:51.428+02:00,153,2.639414,0,0,129.7851,0,0,2022-06-02T10:57:26.230+02:00,675853089.6301326,0,-24.74219,101.4897,1,0.85
447,2022-06-02T10:58:10.645+02:00,1654160290.000261,53.22903737241781,10.39864597355306,36.79971,0.001642193,0.4749113,38.00743799508766,169.8604365470516,3,6.000906205260658,-9999,34817.46257254167,-4.551467895507812,-3.07611083984375,-0.19989013671875,34817.45882254167,2.747292021634982,0.1717998262033741,0.3865038534893747,-2.837539672851562,8.193994522094727,11.30367755889893,-5.863392353057861,-3.482056379318237,0.2894435524940491,XArbitraryZVertical,0.0450867625585887,-0.2041288043981765,-0.9620532826802618,-0.1753629138892183,0.1583449840545654,-0.3769524693489075,-0.9125972390174866,0,0,0,-1,-1,34816.452972625,unknown,2,2022-06-02T10:58:09.630+02:00,2022-06-02T10:32:51.428+02:00,153,2.639414,0,0,129.7851,0,0,2022-06-02T10:57:26.230+02:00,675853089.6301326,0,-24.74219,101.4897,1,0.85
448,2022-06-02T10:58:10.655+02:00,1654160290.000261,53.22903737241781,10.39864597355306,36.79971,0.001642193,0.4749113,38.00743799508766,169.8604365470516,3,6.000906205260658,-9999,34817.47254654167,-3.78216552734375,0.9018402099609376,0.4758453369140625,34817.46879554167,2.886725158065659,0.2028721722246464,0.3477615803922843,-9.261114120483398,7.813477993011475,12.26808261871338,-4.128921031951904,-0.6758073568344116,1.097249031066895,XArbitraryZVertical,0.0770523927289363,-0.18339624390244,-0.9741391938927182,-0.1071524059638096,0.1894222050905228,-0.3407942354679108,-0.9208574891090392,0,0,0,-1,-1,34816.452972625,unknown,2,2022-06-02T10:58:09.630+02:00,2022-06-02T10:32:51.428+02:00,153,2.639414,0,0,129.7851,0,0,2022-06-02T10:57:26.230+02:00,675853089.6301326,0,-24.74219,101.4897,1,0.85
449,2022-06-02T10:58:10.664+02:00,1654160290.000261,53.22903737241781,10.39864597355306,36.79971,0.001642193,0.4749113,38.00743799508766,169.8604365470516,3,6.000906205260658,-9999,34817.48251954167,-4.011474609375,2.491989135742188,1.391708374023438,34817.47876854167,3.040303843770251,0.2138283327917957,0.2804438103439293,-9.291628837585447,4.146115303039551,13.40192890167236,-4.074670314788818,2.182635307312012,1.685904741287231,XArbitraryZVertical,0.0984929716346372,-0.1441356001748788,-0.9840238981199751,-0.0349446386451871,0.2039124071598053,-0.2767821550369263,-0.9390481114387512,0,0,0,-1,-1,34816.452972625,unknown,2,2022-06-02T10:58:09.630+02:00,2022-06-02T10:32:51.428+02:00,153,2.639414,0,0,129.7851,0,0,2022-06-02T10:57:26.230+02:00,675853089.6301326,0,-24.74219,101.4897,1,0.85
450,2022-06-02T10:58:10.675+02:00,1654160290.000261,53.22903737241781,10.39864597355306,36.79971,0.001642193,0.4749113,38.00743799508766,169.8604365470516,3,6.000906205260658,-9999,34817.49249354167,-4.9603271484375,2.991531372070312,2.645126342773438,34817.48874254167,-3.08754268920722,0.200641953203854,0.2277162545000628,-6.803296566009521,1.183542609214783,13.47769069671631,-4.573608875274658,3.053893566131592,3.018468856811523,XArbitraryZVertical,0.1025225312424697,-0.1103109887234551,-0.9878614245977286,0.0380861830064008,0.1941534578800201,-0.2257533222436905,-0.9546412229537964,0,0,0,-1,-1,34816.452972625,unknown,2,2022-06-02T10:58:09.630+02:00,2022-06-02T10:32:51.428+02:00,153,2.639414,0,0,129.7851,0,0,2022-06-02T10:57:26.230+02:00,675853089.6301326,0,-24.74219,101.4897,1,0.85
451,2022-06-02T10:58:10.685+02:00,1654160290.000261,53.22903737241781,10.39864597355306,36.79971,0.001642193,0.4749113,38.00743799508766,169.8604365470516,3,6.000906205260658,-9999,34817.50246654167,-6.166168212890625,1.78814697265625,2.665908813476562,34817.49871554167,-2.947393835067432,0.1767236617641235,0.2067880546957686,-2.663873434066772,0.2903183698654175,12.75382041931152,-5.82066535949707,2.934016227722168,3.742474555969238,XArbitraryZVertical,0.0973289945507541,-0.0938133997279217,-0.9852291130966574,0.1051180227430745,0.1720597594976425,-0.2053174525499344,-0.9634522199630736,0,0,0,-1,-1,34816.452972625,unknown,2,2022-06-02T10:58:09.630+02:00,2022-06-02T10:32:51.428+02:00,153,2.639414,0,0,129.7851,0,0,2022-06-02T10:57:26.230+02:00,675853089.6301326,0,-24.74219,101.4897,1,0.85
452,2022-06-02T10:58:10.695+02:00,1654160290.000261,53.22903737241781,10.39864597355306,36.79971,0.001642193,0.4749113,38.00743799508766,169.8604365470516,3,6.000906205260658,-9999,34817.51244054167,-5.93511962890625,0.6886749267578125,2.429107666015625,34817.50868954167,-2.824561154481057,0.1512692248014354,0.2117271364688038,-0.4092053174972534,-0.4390260875225067,11.14859008789062,-6.434834003448486,1.070225715637207,3.379606246948242,XArbitraryZVertical,0.0908294171687049,-0.0921818852085401,-0.9778669491574484,0.1644045737981418,0.1473279297351837,-0.2101487815380096,-0.9665050506591796,0,0,0,-1,-1,34816.452972625,unknown,2,2022-06-02T10:58:09.630+02:00,2022-06-02T10:32:51.428+02:00,153,2.639414,0,0,129.7851,0,0,2022-06-02T10:57:26.230+02:00,675853089.6301326,0,-24.74219,101.4897,1,0.85
453,2022-06-02T10:58:10.704+02:00,1654160290.000261,53.22903737241781,10.39864597355306,36.79971,0.001642193,0.4749113,38.00743799508766,169.8604365470516,3,6.000906205260658,-9999,34817.52241354167,-5.02386474609375,0.491729736328125,2.616256713867188,34817.51866254167,-2.719792243817193,0.1184905825144843,0.2314813694565348,1.562806129455566,-1.608520746231079,9.686038970947266,-5.558190822601318,0.9787787199020386,3.494975805282593,XArbitraryZVertical,0.0816440372790921,-0.1004133179947096,-0.9681651128377547,0.2142611450591051,0.1150604709982872,-0.2294196337461472,-0.966502845287323,0,0,0,-1,-1,34816.452972625,unknown,2,2022-06-02T10:58:09.630+02:00,2022-06-02T10:32:51.428+02:00,153,2.639414,0,0,129.7851,0,0,2022-06-02T10:57:26.230+02:00,675853089.6301326,0,-24.74219,101.4897,1,0.85
454,2022-06-02T10:58:10.714+02:00,1654160290.000261,53.22903737241781,10.39864597355306,36.79971,0.001642193,0.4749113,38.00743799508766,169.8604365470516,3,6.000906205260658,-9999,34817.53238754167,-4.739425659179688,0.098785400390625,2.278076171875,34817.52863654167,-2.630553586254872,0.0748316710131399,0.2622969604284704,2.801907062530518,-2.803467273712158,8.24211597442627,-4.863845825195312,0.4644235372543335,3.470341920852661,XArbitraryZVertical,0.0689112233218125,-0.1170649838050764,-0.957315579828607,0.2551352588431732,0.0722047686576843,-0.259299635887146,-0.9630940556526184,0,0,0,-1,-1,34816.452972625,unknown,2,2022-06-02T10:58:09.630+02:00,2022-06-02T10:32:51.428+02:00,153,2.639414,0,0,129.7851,0,0,2022-06-02T10:57:26.230+02:00,675853089.6301326,0,-24.74219,101.4897,1,0.85
455,2022-06-02T10:58:10.724+02:00,1654160290.000261,53.22903737241781,10.39864597355306,36.79971,0.001642193,0.4749113,38.00743799508766,169.8604365470516,3,6.000906205260658,-9999,34817.54236054167,-4.70391845703125,-0.0128173828125,1.769546508789062,34817.53860954167,-2.552299928629726,0.0238185860427893,0.2994644624071359,3.851661443710327,-2.971538066864014,7.23809814453125,-4.777120590209961,0.3828991651535034,2.956627368927002,XArbitraryZVertical,0.0545853783589238,-0.1393148936976972,-0.945615185841057,0.2888318123241138,0.0227563790977001,-0.2950085401535034,-0.9552236199378968,0,0,0,-1,-1,34816.452972625,unknown,2,2022-06-02T10:58:09.630+02:00,2022-06-02T10:32:51.428+02:00,153,2.639414,0,0,129.7851,0,0,2022-06-02T10:57:26.230+02:00,675853089.6301326,0,-24.74219,101.4897,1,0.85
456,2022-06-02T10:58:10.734+02:00,1654160290.000261,53.22903737241781,10.39864597355306,36.79971,0.001642193,0.4749113,38.00743799508766,169.8604365470516,3,6.000906205260658,-9999,34817.55233454167,-4.300872802734375,-0.349639892578125,1.503250122070312,34817.54858354167,-2.479670139198382,-0.0269818976469193,0.3404914327738172,4.264389514923096,-2.683833122253418,6.65141773223877,-4.507315635681152,0.1411555409431458,2.559358835220337,XArbitraryZVertical,0.0424759049943984,-0.1645357422870676,-0.9327160628444894,0.3180637694484202,-0.0254297982901334,-0.3339503407478333,-0.9422475695610046,0,0,0,-1,-1,34816.452972625,unknown,2,2022-06-02T10:58:09.630+02:00,2022-06-02T10:32:51.428+02:00,153,2.639414,0,0,129.7851,0,0,2022-06-02T10:57:26.230+02:00,675853089.6301326,0,-24.74219,101.4897,1,0.85
457,2022-06-02T10:58:10.744+02:00,1654160290.000261,53.22903737241781,10.39864597355306,36.79971,0.001642193,0.4749113,38.00743799508766,169.8604365470516,3,6.000906205260658,-9999,34817.56230754167,-3.959686279296875,-0.466156005859375,1.256423950195312,34817.55855654167,-2.408879133863266,-0.0785248046904165,0.3773500697310804,3.73947286605835,-2.728958368301392,6.238543033599854,-4.016293048858643,-0.0694537460803985,2.309027671813965,XArbitraryZVertical,0.0311373040834526,-0.1887873683740819,-0.9190003283853716,0.3447145957354227,-0.0729251354932785,-0.3684582710266113,-0.926779568195343,0,0,0,-1,-1,34816.452972625,unknown,2,2022-06-02T10:58:09.630+02:00,2022-06-02T10:32:51.428+02:00,153,2.639414,0,0,129.7851,0,0,2022-06-02T10:57:26.230+02:00,675853089.6301326,0,-24.74219,101.4897,1,0.85
458,2022-06-02T10:58:10.754+02:00,1654160290.000261,53.22903737241781,10.39864597355306,36.79971,0.001642193,0.4749113,38.00743799508766,169.8604365470516,3,6.000906205260658,-9999,34817.57228154167,-3.902053833007812,-0.348358154296875,1.072708129882812,34817.56853054167,-2.339024235624973,-0.1327149981902449,0.4043645694520277,3.019957542419434,-2.767329454421997,6.118074417114258,-3.779469013214111,-0.0361307859420776,2.068296194076538,XArbitraryZVertical,0.0184651326105521,-0.2098213744567292,-0.9050252020557824,0.3695449088975997,-0.1216540187597275,-0.3934346437454224,-0.9112680554389954,0,0,0,-1,-1,34816.452972625,unknown,2,2022-06-02T10:58:09.630+02:00,2022-06-02T10:32:51.428+02:00,153,2.639414,0,0,129.7851,0,0,2022-06-02T10:57:26.230+02:00,675853089.6301326,0,-24.74219,101.4897,1,0.85
459,2022-06-02T10:58:10.764+02:00,1654160290.000261,53.22903737241781,10.39864597355306,36.79971,0.001642193,0.4749113,38.00743799508766,169.8604365470516,3,6.000906205260658,-9999,34817.58225454167,-3.972320556640625,-0.11785888671875,0.9177703857421876,34817.57850354167,-2.268883833249983,-0.1879655857127882,0.4215540597304509,2.470139265060425,-2.654486179351807,6.03724193572998,-3.7618408203125,0.1790916323661804,1.894414186477661,XArbitraryZVertical,0.0048652482305759,-0.2275632669100112,-0.8906278893618019,0.3936665159997245,-0.1705018281936646,-0.4091789424419403,-0.8963825702667236,0,0,0,-1,-1,34816.452972625,unknown,2,2022-06-02T10:58:09.630+02:00,2022-06-02T10:32:51.428+02:00,153,2.639414,0,0,129.7851,0,0,2022-06-02T10:57:26.230+02:00,675853089.6301326,0,-24.74219,101.4897,1,0.85
460,2022-06-02T10:58:10.774+02:00,1654160290.000261,53.22903737241781,10.39864597355306,36.79971,0.001642193,0.4749113,38.00743799508766,169.8604365470516,3,6.000906205260658,-9999,34817.59222754167,-4.035125732421875,-0.117523193359375,0.749237060546875,34817.58847754167,-2.199309935774375,-0.2421678930119616,0.4314762531992111,2.208787679672241,-2.444842100143433,5.947619438171387,-3.786916255950928,0.3404228985309601,1.712334156036377,XArbitraryZVertical,-0.0086784827445473,-0.2429046078718786,-0.8757588517479713,0.4170953536332139,-0.2178292870521545,-0.4182122051715851,-0.8818440437316895,0,0,0,-1,-1,34816.452972625,unknown,2,2022-06-02T10:58:09.630+02:00,2022-06-02T10:32:51.428+02:00,153,2.639414,0,0,129.7851,0,0,2022-06-02T10:57:26.230+02:00,675853089.6301326,0,-24.74219,101.4897,1,0.85
461,2022-06-02T10:58:10.784+02:00,1654160290.000261,53.22903737241781,10.39864597355306,36.79971,0.001642193,0.4749113,38.00743799508766,169.8604365470516,3,6.000906205260658,-9999,34817.60220154167,-4.074600219726562,-0.201690673828125,0.5781097412109375,34817.59845054167,-2.130758546971524,-0.2942433425796994,0.4360195303106179,1.965679526329041,-2.197533369064331,5.832520008087158,-3.79905366897583,0.2499867081642151,1.533086538314819,XArbitraryZVertical,-0.0216386683128002,-0.2564963133774925,-0.8603844629653965,0.4398635284310475,-0.2628819048404694,-0.422334760427475,-0.8674828410148621,0,0,0,-1,-1,34816.452972625,unknown,2,2022-06-02T10:58:09.630+02:00,2022-06-02T10:32:51.428+02:00,153,2.639414,0,0,129.7851,0,0,2022-06-02T10:57:26.230+02:00,675853089.6301326,0,-24.74219,101.4897,1,0.85
462,2022-06-02T10:58:10.794+02:00,1654160290.000261,53.22903737241781,10.39864597355306,36.79971,0.001642193,0.4749113,38.00743799508766,169.8604365470516,3,6.000906205260658,-9999,34817.61217454167,-4.007339477539062,-0.20147705078125,0.49658203125,34817.60842454167,-2.064017705805461,-0.3430614289323281,0.435897241002929,1.800390601158142,-1.919931411743164,5.701985359191895,-3.754163980484009,0.2305582463741302,1.367509365081787,XArbitraryZVertical,-0.0337262430753037,-0.2683797789700583,-0.844664959423988,0.4619263038134162,-0.304918110370636,-0.4222239255905151,-0.8536696434020996,0,0,0,-1,-1,34816.452972625,unknown,2,2022-06-02T10:58:09.630+02:00,2022-06-02T10:32:51.428+02:00,153,2.639414,0,0,129.7851,0,0,2022-06-02T10:57:26.230+02:00,675853089.6301326,0,-24.74219,101.4897,1,0.85
463,2022-06-02T10:58:10.804+02:00,1654160290.000261,53.22903737241781,10.39864597355306,36.79971,0.001642193,0.4749113,38.00743799508766,169.8604365470516,3,6.000906205260658,-9999,34817.62214854167,-3.786407470703125,-0.520233154296875,0.540618896484375,34817.61839754167,-1.998807664823149,-0.3878911140538346,0.43114751530469,1.513433218002319,-1.561012268066406,5.737196922302246,-3.56908106803894,0.1069699823856354,1.35384213924408,XArbitraryZVertical,-0.0448505184466623,-0.2783726616302808,-0.8285697015727425,0.4837037341501767,-0.3436233401298523,-0.4179135859012604,-0.8409941792488098,0,0,0,-1,-1,34816.452972625,unknown,2,2022-06-02T10:58:09.630+02:00,2022-06-02T10:32:51.428+02:00,153,2.639414,0,0,129.7851,0,0,2022-06-02T10:57:26.230+02:00,675853089.6301326,0,-24.74219,101.4897,1,0.85
464,2022-06-02T10:58:10.814+02:00,1654160290.000261,53.22903737241781,10.39864597355306,36.79971,0.001642193,0.4749113,38.00743799508766,169.8604365470516,3,6.000906205260658,-9999,34817.63212154167,-3.49493408203125,-0.974273681640625,0.5438232421875,34817.62837154167,-1.935511187528531,-0.4280212069923706,0.4187356986013711,0.729680061340332,-1.275875568389893,5.866251945495605,-3.2629554271698,-0.3636732399463654,1.382318735122681,XArbitraryZVertical,-0.0559119706332255,-0.285097510782687,-0.8122852246523179,0.5057529067432569,-0.3792107105255127,-0.4066057205200195,-0.8311865329742432,0,0,0,-1,-1,34816.452972625,unknown,2,2022-06-02T10:58:09.630+02:00,2022-06-02T10:32:51.428+02:00,153,2.639414,0,0,129.7851,0,0,2022-06-02T10:57:26.230+02:00,675853089.6301326,0,-24.74219,101.4897,1,0.85
465,2022-06-02T10:58:10.824+02:00,1654160290.000261,53.22903737241781,10.39864597355306,36.79971,0.001642193,0.4749113,38.00743799508766,169.8604365470516,3,6.000906205260658,-9999,34817.64209554167,-3.208984375,-1.083175659179688,0.4384002685546875,34817.63834454167,-1.876723390310061,-0.4636905860347129,0.3952775921232572,-0.3004024624824524,-1.222663164138794,5.913510322570801,-2.942643404006958,-0.6895511150360107,1.328934192657471,XArbitraryZVertical,-0.0687637939663975,-0.287317909888067,-0.7963970588240167,0.5277042032122795,-0.412764310836792,-0.3850643932819366,-0.8254399299621582,0,0,0,-1,-1,34816.452972625,unknown,2,2022-06-02T10:58:09.630+02:00,2022-06-02T10:32:51.428+02:00,153,2.639414,0,0,129.7851,0,0,2022-06-02T10:57:26.230+02:00,675853089.6301326,0,-24.74219,101.4897,1,0.85
466,2022-06-02T10:58:10.834+02:00,1654160290.000261,53.22903737241781,10.39864597355306,36.79971,0.001642193,0.4749113,38.00743799508766,169.8604365470516,3,6.000906205260658,-9999,34817.65206854167,-2.860458374023438,-0.99346923828125,0.31500244140625,34817.64831854167,-1.823564273907639,-0.4958216069421371,0.363092198059055,-0.746496856212616,-1.31862485408783,5.80983829498291,-2.596324682235718,-0.6919373273849487,1.18847382068634,XArbitraryZVertical,-0.0836298307272166,-0.2861640807526285,-0.7809584791414774,0.5488353075860661,-0.4447367489337921,-0.3551665246486664,-0.8222323656082153,0,0,0,-1,-1,34816.452972625,unknown,2,2022-06-02T10:58:09.630+02:00,2022-06-02T10:32:51.428+02:00,153,2.639414,0,0,129.7851,0,0,2022-06-02T10:57:26.230+02:00,675853089.6301326,0,-24.74219,101.4897,1,0.85
467,2022-06-02T10:58:10.844+02:00,1654160290.000261,53.22903737241781,10.39864597355306,36.79971,0.001642193,0.4749113,38.00743799508766,169.8604365470516,3,6.000906205260658,-9999,34817.66204254167,-2.63153076171875,-0.8740386962890625,0.225372314453125,34817.65829154167,-1.775114003045854,-0.5277321766690162,0.3305997389443192,-0.3751390874385834,-1.817959785461426,5.286975860595703,-2.233365297317505,-0.6052907705307007,1.095807313919067,XArbitraryZVertical,-0.0992277683082534,-0.28560566710959,-0.7655780165307059,0.5678677132042199,-0.4763056635856628,-0.3246103525161743,-0.8171665072441101,0,0,0,-1,-1,34816.452972625,unknown,2,2022-06-02T10:58:09.630+02:00,2022-06-02T10:32:51.428+02:00,153,2.639414,0,0,129.7851,0,0,2022-06-02T10:57:26.230+02:00,675853089.6301326,0,-24.74219,101.4897,1,0.85
468,2022-06-02T10:58:10.854+02:00,1654160290.000261,53.22903737241781,10.39864597355306,36.79971,0.001642193,0.4749113,38.00743799508766,169.8604365470516,3,6.000906205260658,-9999,34817.67201554167,-2.688629150390625,-0.8787078857421875,0.0789642333984375,34817.66826554167,-1.730504433063947,-0.5624088160687479,0.3063022082180812,0.6825454831123352,-2.304943799972534,4.488311290740967,-2.125168800354004,-0.5517364740371704,0.9657924175262452,XArbitraryZVertical,-0.1137491411440481,-0.289417384565578,-0.7502500576358628,0.5834584330884647,-0.5084066390991211,-0.301535040140152,-0.8065974116325378,0,0,0,-1,-1,34816.452972625,unknown,2,2022-06-02T10:58:09.630+02:00,2022-06-02T10:32:51.428+02:00,153,2.639414,0,0,129.7851,0,0,2022-06-02T10:57:26.230+02:00,675853089.6301326,0,-24.74219,101.4897,1,0.85
469,2022-06-02T10:58:10.864+02:00,1654160290.000261,53.22903737241781,10.39864597355306,36.79971,0.001642193,0.4749113,38.00743799508766,169.8604365470516,3,6.000906205260658,-9999,34817.68198954167,-2.77838134765625,-1.119552612304688,-0.10662841796875,34817.67823854167,-1.687306086101547,-0.59879347995386,0.2947475335380825,1.869011998176575,-2.380769014358521,3.718382596969604,-2.210706472396851,-0.6697983741760254,0.7813920974731445,XArbitraryZVertical,-0.1246885721077684,-0.2987563968795888,-0.7348941449290087,0.5959261972963616,-0.5393393039703369,-0.290498286485672,-0.7903947234153748,0,0,0,-1,-1,34816.452972625,unknown,2,2022-06-02T10:58:09.630+02:00,2022-06-02T10:32:51.428+02:00,153,2.639414,0,0,129.7851,0,0,2022-06-02T10:57:26.230+02:00,675853089.6301326,0,-24.74219,101.4897,1,0.85
470,2022-06-02T10:58:10.874+02:00,1654160290.000261,53.22903737241781,10.39864597355306,36.79971,0.001642193,0.4749113,38.00743799508766,169.8604365470516,3,6.000906205260658,-9999,34817.691961875,-2.731842041015625,-1.599075317382812,-0.3080291748046875,34817.688211875,-1.645016363367389,-0.6344485640672818,0.2929653706154682,2.436636447906494,-2.318702220916748,3.130645513534546,-2.198741912841797,-1.062785267829895,0.5523320436477661,XArbitraryZVertical,-0.1317979838886231,-0.3115899344190234,-0.7198093527179577,0.6061480660715236,-0.5674781203269958,-0.2887925207614899,-0.7710819840431213,0,0,0,-1,-1,34816.452972625,unknown,2,2022-06-02T10:58:09.630+02:00,2022-06-02T10:32:51.428+02:00,153,2.639414,0,0,129.7851,0,0,2022-06-02T10:57:26.230+02:00,675853089.6301326,0,-24.74219,101.4897,1,0.85
471,2022-06-02T10:58:10.884+02:00,1654160290.000261,53.22903737241781,10.39864597355306,36.79971,0.001642193,0.4749113,38.00743799508766,169.8604365470516,3,6.000906205260658,-9999,34817.701935875,-2.647674560546875,-1.994918823242188,-0.4303741455078125,34817.698184875,-1.605814642585734,-0.6682896451766529,0.2938515810139727,2.148110151290894,-2.169414281845093,2.772706747055054,-2.100855588912964,-1.521714687347412,0.366992175579071,XArbitraryZVertical,-0.137320342287655,-0.3248440399421597,-0.7056191136021108,0.6145902178012544,-0.5930836796760559,-0.2896408438682556,-0.7512389421463013,0,0,0,-1,-1,34816.452972625,unknown,2,2022-06-02T10:58:09.630+02:00,2022-06-02T10:32:51.428+02:00,153,2.639414,0,0,129.7851,0,0,2022-06-02T10:57:26.230+02:00,675853089.6301326,0,-24.74219,101.4897,1,0.85
472,2022-06-02T10:58:10.894+02:00,1654160290.000261,53.22903737241781,10.39864597355306,36.79971,0.001642193,0.4749113,38.00743799508766,169.8604365470516,3,6.000906205260658,-9999,34817.711908875,-2.474014282226562,-2.234878540039062,-0.4716796875,34817.708158875,-1.573208449943119,-0.6980475848941253,0.29026917303111,1.19645631313324,-1.914291143417358,2.547829627990723,-1.960061192512512,-1.859022974967957,0.2782397270202637,XArbitraryZVertical,-0.1435789785385287,-0.335201371586873,-0.693210418407086,0.6216788131620498,-0.6158360838890076,-0.2862101495265961,-0.7340502142906189,0,0,0,-1,-1,34816.452972625,unknown,2,2022-06-02T10:58:09.630+02:00,2022-06-02T10:32:51.428+02:00,153,2.639414,0,0,129.7851,0,0,2022-06-02T10:57:26.230+02:00,675853089.6301326,0,-24.74219,101.4897,1,0.85
473,2022-06-02T10:58:10.904+02:00,1654160290.000261,53.22903737241781,10.39864597355306,36.79971,0.001642193,0.4749113,38.00743799508766,169.8604365470516,3,6.000906205260658,-9999,34817.721882875,-2.218170166015625,-2.217910766601562,-0.5648651123046875,34817.718131875,-1.549976040720486,-0.7226554447498788,0.2788387615795977,-0.0032461865339428,-1.720539927482605,2.326983451843262,-1.712875604629517,-1.980528354644775,0.2182437777519226,XArbitraryZVertical,-0.1520859118562088,-0.3410702442606208,-0.6832733990484894,0.6274381364606296,-0.6358335018157959,-0.2752394378185272,-0.7210819125175476,0,0,0,-1,-1,34816.452972625,unknown,2,2022-06-02T10:58:09.630+02:00,2022-06-02T10:32:51.428+02:00,153,2.639414,0,0,129.7851,0,0,2022-06-02T10:57:26.230+02:00,675853089.6301326,0,-24.74219,101.4897,1,0.85
474,2022-06-02T10:58:10.914+02:00,1654160290.000261,53.22903737241781,10.39864597355306,36.79971,0.001642193,0.4749113,38.00743799508766,169.8604365470516,3,6.000906205260658,-9999,34817.731855875,-2.071426391601562,-1.961196899414062,-0.7790679931640625,34817.728105875,-1.536521205360476,-0.7435804551624111,0.2615306601278007,-0.7367353439331055,-1.778572916984558,1.904507875442505,-1.460303068161011,-1.860886335372925,0.0457677841186523,XArbitraryZVertical,-0.1629235768608243,-0.3434321787687108,-0.675946997056959,0.6313525613184172,-0.6539089679718018,-0.2585594654083252,-0.7110204696655273,0,0,0,-1,-1,34816.452972625,unknown,2,2022-06-02T10:58:09.630+02:00,2022-06-02T10:32:51.428+02:00,153,2.639414,0,0,129.7851,0,0,2022-06-02T10:57:26.230+02:00,675853089.6301326,0,-24.74219,101.4897,1,0.85
475,2022-06-02T10:58:10.924+02:00,1654160290.000261,53.22903737241781,10.39864597355306,36.79971,0.001642193,0.4749113,38.00743799508766,169.8604365470516,3,6.000906205260658,-9999,34817.74182987501,-2.119216918945312,-1.638824462890625,-0.9713592529296876,34817.738078875,-1.529728715229953,-0.7634045073077939,0.2448920761687231,-0.7172327637672424,-1.833136439323425,1.331482768058777,-1.414265394210815,-1.539835929870605,-0.1839730143547058,XArbitraryZVertical,-0.1742235042377495,-0.3452263222368096,-0.6706195795911056,0.6330358257065365,-0.6707566380500793,-0.2424516230821609,-0.7009299397468567,0,0,0,-1,-1,34816.452972625,unknown,2,2022-06-02T10:58:09.630+02:00,2022-06-02T10:32:51.428+02:00,153,2.639414,0,0,129.7851,0,0,2022-06-02T10:57:26.230+02:00,675853089.6301326,0,-24.74219,101.4897,1,0.85
476,2022-06-02T10:58:10.934+02:00,1654160290.000261,53.22903737241781,10.39864597355306,36.79971,0.001642193,0.4749113,38.00743799508766,169.8604365470516,3,6.000906205260658,-9999,34817.75180287501,-2.123565673828125,-1.5338134765625,-1.054290771484375,34817.748051875,-1.525305412866454,-0.7822869504602469,0.2343131183760298,-0.1688979864120483,-1.732316613197327,0.7789608240127563,-1.451657295227051,-1.326342582702637,-0.3385367393493652,XArbitraryZVertical,-0.1834466289027235,-0.3484061946064601,-0.6665066012726757,0.6330318802852408,-0.6856412291526794,-0.2321749329566956,-0.6899209022521973,0,0,0,-1,-1,34816.452972625,unknown,2,2022-06-02T10:58:09.630+02:00,2022-06-02T10:32:51.428+02:00,153,2.639414,0,0,129.7851,0,0,2022-06-02T10:57:26.230+02:00,675853089.6301326,0,-24.74219,101.4897,1,0.85
477,2022-06-02T10:58:10.944+02:00,1654160290.000261,53.22903737241781,10.39864597355306,36.79971,0.001642193,0.4749113,38.00743799508766,169.8604365470516,3,6.000906205260658,-9999,34817.761776875,-2.056289672851562,-1.5523681640625,-1.041351318359375,34817.758025875,-1.520609588983737,-0.8000630270271156,0.2313852232886768,0.3465424776077271,-1.619557499885559,0.2747028172016144,-1.392066240310669,-1.306135416030884,-0.3764396905899048,XArbitraryZVertical,-0.1895476055677851,-0.3535874669934078,-0.6630666152988759,0.6319732698341053,-0.6982810497283936,-0.2293260544538498,-0.6780952215194702,0,0,0,-1,-1,34816.452972625,unknown,2,2022-06-02T10:58:09.630+02:00,2022-06-02T10:32:51.428+02:00,153,2.639414,0,0,129.7851,0,0,2022-06-02T10:57:26.230+02:00,675853089.6301326,0,-24.74219,101.4897,1,0.85
478,2022-06-02T10:58:10.954+02:00,1654160290.000261,53.22903737241781,10.39864597355306,36.79971,0.001642193,0.4749113,38.00743799508766,169.8604365470516,3,6.000906205260658,-9999,34817.771749875,-2.024871826171875,-1.6220703125,-1.066665649414062,34817.767998875,-1.517186385328662,-0.8166884841671145,0.2341165252213888,0.4879310429096222,-1.5359787940979,-0.1986287832260132,-1.327225923538208,-1.353648662567139,-0.3776938915252686,XArbitraryZVertical,-0.1934915492599205,-0.3599725962922514,-0.6606813037848107,0.629667359015817,-0.7089985013008118,-0.2319837063550949,-0.665961503982544,0,0,0,-1,-1,34816.452972625,unknown,2,2022-06-02T10:58:09.630+02:00,2022-06-02T10:32:51.428+02:00,153,2.639414,0,0,129.7851,0,0,2022-06-02T10:57:26.230+02:00,675853089.6301326,0,-24.74219,101.4897,1,0.85
479,2022-06-02T10:58:10.964+02:00,1654160290.000261,53.22903737241781,10.39864597355306,36.79971,0.001642193,0.4749113,38.00743799508766,169.8604365470516,3,6.000906205260658,-9999,34817.781723875,-1.930419921875,-1.6141357421875,-1.094284057617188,34817.777972875,-1.516059691146218,-0.831339450448628,0.2400278355951053,0.4567215442657471,-1.35085129737854,-0.5071300864219666,-1.273649215698242,-1.392870306968689,-0.4272197484970093,XArbitraryZVertical,-0.1960738468195431,-0.3664305980559769,-0.6595336326030178,0.6263378485809544,-0.7176532745361328,-0.2377296686172485,-0.654567301273346,0,0,0,-1,-1,34816.452972625,unknown,2,2022-06-02T10:58:09.630+02:00,2022-06-02T10:32:51.428+02:00,153,2.639414,0,0,129.7851,0,0,2022-06-02T10:57:26.230+02:00,675853089.6301326,0,-24.74219,101.4897,1,0.85
