,loggingTime(txt),locationTimestamp_since1970(s),locationLatitude(WGS84),locationLongitude(WGS84),locationAltitude(m),locationSpeed(m/s),locationSpeedAccuracy(m/s),locationCourse(°),locationCourseAccuracy(°),locationVerticalAccuracy(m),locationHorizontalAccuracy(m),locationFloor(Z),accelerometerTimestamp_sinceReboot(s),accelerometerAccelerationX(G),accelerometerAccelerationY(G),accelerometerAccelerationZ(G),motionTimestamp_sinceReboot(s),motionYaw(rad),motionRoll(rad),motionPitch(rad),motionRotationRateX(rad/s),motionRotationRateY(rad/s),motionRotationRateZ(rad/s),motionUserAccelerationX(G),motionUserAccelerationY(G),motionUserAccelerationZ(G),motionAttitudeReferenceFrame(txt),motionQuaternionX(R),motionQuaternionY(R),motionQuaternionZ(R),motionQuaternionW(R),motionGravityX(G),motionGravityY(G),motionGravityZ(G),motionMagneticFieldX(µT),motionMagneticFieldY(µT),motionMagneticFieldZ(µT),motionHeading(°),motionMagneticFieldCalibrationAccuracy(Z),activityTimestamp_sinceReboot(s),activity(txt),activityActivityConfidence(Z),activityActivityStartDate(txt),pedometerStartDate(txt),pedometerNumberofSteps(N),pedometerAverageActivePace(s/m),pedometerCurrentPace(s/m),pedometerCurrentCadence(steps/s),pedometerDistance(m),pedometerFloorAscended(N),pedometerFloorDescended(N),pedometerEndDate(txt),altimeterTimestamp_sinceReboot(s),altimeterReset(bool),altimeterRelativeAltitude(m),altimeterPressure(kPa),batteryState(N),batteryLevel(R)
372,2022-06-02T10:42:00.647+02:00,1654159320.153195,53.22889530089837,10.39819557704936,29.08258,0.2267936,0.8167022,-1,-1,3.0,32.0,-9999,33893.88838625,0.3675384521484375,1.484390258789062,-1.585006713867188,33893.88463625,0.2758957685744473,0.670341153775919,0.1081154334211755,-15.27836894989014,9.530922889709473,-5.879672527313232,-0.1555287837982178,1.045496463775635,-0.9313842058181764,XArbitraryZVertical,-0.0053746689247979,-0.3323460337954028,-0.147272916257756,-0.9315728551647704,0.6176260113716125,-0.1079049333930016,-0.779034435749054,0,0,0,-1,-1,33892.733467375,unknown,2,2022-06-02T10:41:59.488+02:00,2022-06-02T10:32:51.428+02:00,42,1.366331,0,0,42.60812,0,0,2022-06-02T10:41:51.825+02:00,675852119.4873743,0,8.351562,101.0917,1,0.91
373,2022-06-02T10:42:00.657+02:00,1654159320.153195,53.22889530089837,10.39819557704936,29.08258,0.2267936,0.8167022,-1,-1,3.0,32.0,-9999,33893.89835925,0.2496337890625,1.8907470703125,-1.474014282226562,33893.89460825,0.339952763709849,0.7693833153960922,-0.0552545920470772,-17.76533699035645,10.58436298370361,-6.041795253753662,-0.3174028992652893,1.370463252067566,-0.8799854516983032,XArbitraryZVertical,0.08869253156834,-0.3653927386273974,-0.1465190284508402,-0.9149612463407626,0.6946306824684143,0.0552264787256717,-0.7172435522079468,0,0,0,-1,-1,33892.733467375,unknown,2,2022-06-02T10:41:59.488+02:00,2022-06-02T10:32:51.428+02:00,42,1.366331,0,0,42.60812,0,0,2022-06-02T10:41:51.825+02:00,675852119.4873743,0,8.351562,101.0917,1,0.91
374,2022-06-02T10:42:00.667+02:00,1654159320.153195,53.22889530089837,10.39819557704936,29.08258,0.2267936,0.8167022,-1,-1,3.0,32.0,-9999,33893.90833125,0.0520782470703125,2.299758911132812,-1.2008056640625,33893.90458125,0.4377894169649625,0.8935570300465827,-0.225651079035754,-19.58098983764648,11.4451789855957,-6.066566944122314,-0.4910402894020081,1.617048859596252,-0.8847866654396057,XArbitraryZVertical,0.1923386441266636,-0.3970226674034378,-0.1471073912510719,-0.8852899064855169,0.7595492005348206,0.2237409800291061,-0.6107577085494995,0,0,0,-1,-1,33892.733467375,unknown,2,2022-06-02T10:41:59.488+02:00,2022-06-02T10:32:51.428+02:00,42,1.366331,0,0,42.60812,0,0,2022-06-02T10:41:51.825+02:00,675852119.4873743,0,8.351562,101.0917,1,0.91
375,2022-06-02T10:42:00.677+02:00,1654159320.153195,53.22889530089837,10.39819557704936,29.08258,0.2267936,0.8167022,-1,-1,3.0,32.0,-9999,33893.91830425,-0.104644775390625,2.3916015625,-0.857574462890625,33893.91455425,0.5776271637484001,1.05397121677591,-0.388869990921572,-20.83693504333496,12.0825662612915,-5.89351224899292,-0.7296222448348999,1.881202459335327,-0.7858574390411377,XArbitraryZVertical,0.3006248993582664,-0.4254521515964625,-0.1483871569063784,-0.840592859083095,0.8044818043708801,0.3791430294513702,-0.457230269908905,0,0,0,-1,-1,33892.733467375,unknown,2,2022-06-02T10:41:59.488+02:00,2022-06-02T10:32:51.428+02:00,42,1.366331,0,0,42.60812,0,0,2022-06-02T10:41:51.825+02:00,675852119.4873743,0,8.351562,101.0917,1,0.91
376,2022-06-02T10:42:00.687+02:00,1654159320.153195,53.22889530089837,10.39819557704936,29.08258,0.2267936,0.8167022,-1,-1,3.0,32.0,-9999,33893.92827625,-0.336822509765625,2.29486083984375,-0.3739166259765625,33893.92452625,0.766182199542596,1.261451367797042,-0.52632170244634,-21.18071556091309,12.61187553405762,-5.623704433441162,-0.9060460329055786,1.894738435745239,-0.642910361289978,XArbitraryZVertical,0.4077019408529885,-0.4496251128708434,-0.1491905046948528,-0.7806142166274822,0.8236180543899536,0.5023562908172607,-0.2632327675819397,0,0,0,-1,-1,33892.733467375,unknown,2,2022-06-02T10:41:59.488+02:00,2022-06-02T10:32:51.428+02:00,42,1.366331,0,0,42.60812,0,0,2022-06-02T10:41:51.825+02:00,675852119.4873743,0,8.351562,101.0917,1,0.91
377,2022-06-02T10:42:00.697+02:00,1654159320.153195,53.22889530089837,10.39819557704936,29.08258,0.2267936,0.8167022,-1,-1,3.0,32.0,-9999,33893.93824925,-0.64776611328125,2.222183227539062,0.1651763916015625,33893.93449925,0.9953745227163114,1.51437943957589,-0.6176984431448245,-20.00348091125488,13.01405334472656,-5.278949737548828,-1.116086363792419,1.726518869400024,-0.3902050256729126,XArbitraryZVertical,0.5065098069727567,-0.4695360546394969,-0.1470809372212851,-0.7080613561752657,0.8139165639877319,0.5791604518890381,-0.0459674187004566,0,0,0,-1,-1,33892.733467375,unknown,2,2022-06-02T10:41:59.488+02:00,2022-06-02T10:32:51.428+02:00,42,1.366331,0,0,42.60812,0,0,2022-06-02T10:41:51.825+02:00,675852119.4873743,0,8.351562,101.0917,1,0.91
378,2022-06-02T10:42:00.707+02:00,1654159320.153195,53.22889530089837,10.39819557704936,29.08258,0.2267936,0.8167022,-1,-1,3.0,32.0,-9999,33893.94822225,-1.121963500976562,2.093063354492188,0.7091217041015625,33893.94447125,1.235263271142991,1.788630681790113,-0.6541757625647697,-17.89360427856445,13.28675365447998,-5.071707725524902,-1.376221656799316,1.628082036972046,-0.0810597091913223,XArbitraryZVertical,0.591615802995348,-0.4855306464842528,-0.1390815133848447,-0.6284163194615223,0.7747964262962341,0.608505368232727,0.1714985370635986,0,0,0,-1,-1,33892.733467375,unknown,2,2022-06-02T10:41:59.488+02:00,2022-06-02T10:32:51.428+02:00,42,1.366331,0,0,42.60812,0,0,2022-06-02T10:41:51.825+02:00,675852119.4873743,0,8.351562,101.0917,1,0.91
379,2022-06-02T10:42:00.717+02:00,1654159320.153195,53.22889530089837,10.39819557704936,29.08258,0.2267936,0.8167022,-1,-1,3.0,32.0,-9999,33893.95819425,-1.7393798828125,2.114166259765625,1.570053100585938,33893.95444425,1.454608241759517,2.055104528907092,-0.6449233069769998,-15.65483093261719,13.40971755981445,-5.274109363555908,-1.755230903625488,1.501737713813782,0.2582155168056488,XArbitraryZVertical,0.6621705755759764,-0.4975639031675803,-0.1233243285685722,-0.546581686520719,0.7072421312332153,0.6011371612548828,0.3720794320106506,0,0,0,-1,-1,33892.733467375,unknown,2,2022-06-02T10:41:59.488+02:00,2022-06-02T10:32:51.428+02:00,42,1.366331,0,0,42.60812,0,0,2022-06-02T10:41:51.825+02:00,675852119.4873743,0,8.351562,101.0917,1,0.91
380,2022-06-02T10:42:00.727+02:00,1654159320.153195,53.22889530089837,10.39819557704936,29.08258,0.2267936,0.8167022,-1,-1,3.0,32.0,-9999,33893.96816725,-2.236129760742188,2.239059448242188,2.683334350585938,33893.96441725,1.643594002052376,2.299873862058582,-0.606376773074072,-14.10140800476074,13.3782844543457,-5.937471866607666,-2.280553340911865,1.53000545501709,0.8924969434738159,XArbitraryZVertical,0.7210285993200072,-0.5038102934765044,-0.1000047320455058,-0.465072233633637,0.6128289103507996,0.5698939561843872,0.5474141240119934,0,0,0,-1,-1,33892.733467375,unknown,2,2022-06-02T10:41:59.488+02:00,2022-06-02T10:32:51.428+02:00,42,1.366331,0,0,42.60812,0,0,2022-06-02T10:41:51.825+02:00,675852119.4873743,0,8.351562,101.0917,1,0.91
381,2022-06-02T10:42:00.738+02:00,1654159320.153195,53.22889530089837,10.39819557704936,29.08258,0.2267936,0.8167022,-1,-1,3.0,32.0,-9999,33893.97814025,-2.622879028320312,2.531005859375,3.81463623046875,33893.97438925,1.8098730441336,2.523145553075138,-0.5469610834479166,-13.50703239440918,13.10056400299072,-7.012449741363525,-2.674401760101318,1.700807332992554,1.847790479660034,XArbitraryZVertical,0.7720219863331697,-0.501933684145766,-0.0714912274314479,-0.3833192508387993,0.4951872825622559,0.520094096660614,0.6959107518196106,0,0,0,-1,-1,33892.733467375,unknown,2,2022-06-02T10:41:59.488+02:00,2022-06-02T10:32:51.428+02:00,42,1.366331,0,0,42.60812,0,0,2022-06-02T10:41:51.825+02:00,675852119.4873743,0,8.351562,101.0917,1,0.91
382,2022-06-02T10:42:00.747+02:00,1654159320.153195,53.22889530089837,10.39819557704936,29.08258,0.2267936,0.8167022,-1,-1,3.0,32.0,-9999,33893.98811225,-2.91375732421875,2.73028564453125,5.077621459960938,33893.98436225,1.961955031914391,2.724703859712089,-0.46761908730533,-13.487548828125,12.37876892089844,-8.33065128326416,-2.942654609680176,2.036466121673584,2.852616310119629,XArbitraryZVertical,0.8175974933168408,-0.4895203734870819,-0.0412187084655866,-0.3003415841053352,0.361447274684906,0.4507622718811035,0.8161917328834534,0,0,0,-1,-1,33892.733467375,unknown,2,2022-06-02T10:41:59.488+02:00,2022-06-02T10:32:51.428+02:00,42,1.366331,0,0,42.60812,0,0,2022-06-02T10:41:51.825+02:00,675852119.4873743,0,8.351562,101.0917,1,0.91
383,2022-06-02T10:42:00.757+02:00,1654159320.153195,53.22889530089837,10.39819557704936,29.08258,0.2267936,0.8167022,-1,-1,3.0,32.0,-9999,33893.99808525,-3.109619140625,2.628890991210938,6.531021118164062,33893.99433525,2.101697791285011,2.89891869389354,-0.3713767706199723,-12.92411041259766,10.96282386779785,-9.684942245483398,-3.103891849517822,2.359009742736816,4.000245094299316,XArbitraryZVertical,0.8577581358666255,-0.465310070993574,-0.0121850296629773,-0.2181490959532309,0.2239175587892532,0.3628986775875092,0.9045249819755554,0,0,0,-1,-1,33892.733467375,unknown,2,2022-06-02T10:41:59.488+02:00,2022-06-02T10:32:51.428+02:00,42,1.366331,0,0,42.60812,0,0,2022-06-02T10:41:51.825+02:00,675852119.4873743,0,8.351562,101.0917,1,0.91
384,2022-06-02T10:42:00.767+02:00,1654159320.153195,53.22889530089837,10.39819557704936,29.08258,0.2267936,0.8167022,-1,-1,3.0,32.0,-9999,33894.00805825,-3.231338500976562,2.002777099609375,7.828399658203125,33894.00430725,2.229645602544162,3.037753430641838,-0.2691000702004173,-11.30014705657959,8.652219772338867,-10.72730731964111,-3.196342706680298,2.401189088821411,5.393675327301025,XArbitraryZVertical,0.8915844926928358,-0.4295183488003694,0.012816044226967,-0.1429222650385873,0.0999222993850708,0.2658640146255493,0.9588178396224976,0,0,0,-1,-1,33892.733467375,unknown,2,2022-06-02T10:41:59.488+02:00,2022-06-02T10:32:51.428+02:00,42,1.366331,0,0,42.60812,0,0,2022-06-02T10:41:51.825+02:00,675852119.4873743,0,8.351562,101.0917,1,0.91
385,2022-06-02T10:42:00.777+02:00,1654159320.153195,53.22889530089837,10.39819557704936,29.08258,0.2267936,0.8167022,-1,-1,3.0,32.0,-9999,33894.01803025,-3.925430297851562,0.969635009765625,8.99957275390625,33894.01428025,2.348873842711429,3.135165825138304,-0.1755132509911281,-8.440747261047363,5.449562549591064,-11.60038471221924,-3.207591533660889,1.946907520294189,6.700167179107666,XArbitraryZVertical,0.919026823095816,-0.3843152173637737,0.0308830303588471,-0.0820845951767064,0.006328051444143,0.1746135205030441,0.984616994857788,0,0,0,-1,-1,33892.733467375,unknown,2,2022-06-02T10:41:59.488+02:00,2022-06-02T10:32:51.428+02:00,42,1.366331,0,0,42.60812,0,0,2022-06-02T10:41:51.825+02:00,675852119.4873743,0,8.351562,101.0917,1,0.91
386,2022-06-02T10:42:00.787+02:00,1654159320.153195,53.22889530089837,10.39819557704936,29.08258,0.2267936,0.8167022,-1,-1,3.0,32.0,-9999,33894.02800325,-4.964706420898438,0.624420166015625,10.21839904785156,33894.02425325001,2.469527258658486,-3.100186318940858,-0.1066927753080615,-4.786576747894287,0.5456618070602417,-12.62886142730713,-3.768609523773193,0.9645239114761353,7.837715148925781,XArbitraryZVertical,0.9421612567199356,-0.3302467302885464,0.0370946024301948,-0.0435115153614677,-0.0411591231822967,0.106490470468998,0.9934614896774292,0,0,0,-1,-1,33892.733467375,unknown,2,2022-06-02T10:41:59.488+02:00,2022-06-02T10:32:51.428+02:00,42,1.366331,0,0,42.60812,0,0,2022-06-02T10:41:51.825+02:00,675852119.4873743,0,8.351562,101.0917,1,0.91
387,2022-06-02T10:42:00.797+02:00,1654159320.153195,53.22889530089837,10.39819557704936,29.08258,0.2267936,0.8167022,-1,-1,3.0,32.0,-9999,33894.03797525,-6.341888427734375,1.210479736328125,10.3800048828125,33894.03422525,2.599136821565438,-3.115434550427369,-0.0710922193062425,-1.305928111076355,-6.069412708282471,-13.50821971893311,-4.805423259735107,0.5452701449394226,9.106687545776367,XArbitraryZVertical,0.962627159897126,-0.2681703251731001,0.0221131011104812,-0.0307347420152725,-0.0260890517383813,0.0710323527455329,0.9971327185630798,0,0,0,-1,-1,33892.733467375,unknown,2,2022-06-02T10:41:59.488+02:00,2022-06-02T10:32:51.428+02:00,42,1.366331,0,0,42.60812,0,0,2022-06-02T10:41:51.825+02:00,675852119.4873743,0,8.351562,101.0917,1,0.91
388,2022-06-02T10:42:00.807+02:00,1654159320.153195,53.22889530089837,10.39819557704936,29.08258,0.2267936,0.8167022,-1,-1,3.0,32.0,-9999,33894.04794825,-7.681900024414062,2.478057861328125,8.947784423828125,33894.04419825001,2.735971265269006,3.077594479328869,-0.0743783764033709,1.42721951007843,-13.98878479003906,-13.7717399597168,-6.225185394287109,1.002121448516846,9.433486938476562,XArbitraryZVertical,0.9785656525790704,-0.2000157966196958,-0.0238310307111278,-0.0428397326735065,0.0637777000665664,0.0743098184466362,0.995194137096405,0,0,0,-1,-1,33892.733467375,unknown,2,2022-06-02T10:41:59.488+02:00,2022-06-02T10:32:51.428+02:00,42,1.366331,0,0,42.60812,0,0,2022-06-02T10:41:51.825+02:00,675852119.4873743,0,8.351562,101.0917,1,0.91
389,2022-06-02T10:42:00.817+02:00,1654159320.153195,53.22889530089837,10.39819557704936,29.08258,0.2267936,0.8167022,-1,-1,3.0,32.0,-9999,33894.05792125,-9.339889526367188,3.4647216796875,6.20654296875,33894.05417025,2.865211650834388,2.908956794984896,-0.1190228819444532,3.831285953521729,-22.3514232635498,-13.08535099029541,-7.732924938201904,2.21367073059082,8.251137733459473,XArbitraryZVertical,0.9829833055934982,-0.1297413022455287,-0.106608392683457,-0.0744697705506879,0.2289121448993683,0.1187420561909676,0.9661779403686525,0,0,0,-1,-1,33892.733467375,unknown,2,2022-06-02T10:41:59.488+02:00,2022-06-02T10:32:51.428+02:00,42,1.366331,0,0,42.60812,0,0,2022-06-02T10:41:51.825+02:00,675852119.4873743,0,8.351562,101.0917,1,0.91
390,2022-06-02T10:42:00.827+02:00,1654159320.153195,53.22889530089837,10.39819557704936,29.08258,0.2267936,0.8167022,-1,-1,3.0,32.0,-9999,33894.06789325,-12.07420349121094,4.414642333984375,2.749679565429688,33894.06414325001,2.969335447565652,2.665354332577358,-0.2129730823621261,6.709444522857666,-29.25611877441406,-12.93396472930908,-9.559715270996094,3.156431198120117,5.717931747436523,XArbitraryZVertical,0.9648537178252332,-0.0581442399893562,-0.2247849625936012,-0.1230790937258978,0.4480818808078766,0.21136674284935,0.8686469197273254,0,0,0,-1,-1,33892.733467375,unknown,2,2022-06-02T10:41:59.488+02:00,2022-06-02T10:32:51.428+02:00,42,1.366331,0,0,42.60812,0,0,2022-06-02T10:41:51.825+02:00,675852119.4873743,0,8.351562,101.0917,1,0.91
391,2022-06-02T10:42:00.837+02:00,1654159320.153195,53.22889530089837,10.39819557704936,29.08258,0.2267936,0.8167022,-1,-1,3.0,32.0,-9999,33894.07786625,-16.41168212890625,5.539352416992188,0.1172332763671875,33894.07411625001,3.022149068170959,2.367764631383297,-0.3498613388720126,10.2687406539917,-33.12058639526367,-11.26406669616699,-12.30053806304932,3.909063577651978,2.516778707504272,XArbitraryZVertical,0.91423852922919,0.0111231859429049,-0.3612914313458492,-0.1830649854698274,0.65654057264328,0.3427675366401672,0.6719116568565369,0,0,0,-1,-1,33892.733467375,unknown,2,2022-06-02T10:41:59.488+02:00,2022-06-02T10:32:51.428+02:00,42,1.366331,0,0,42.60812,0,0,2022-06-02T10:41:51.825+02:00,675852119.4873743,0,8.351562,101.0917,1,0.91
392,2022-06-02T10:42:00.847+02:00,1654159320.153195,53.22889530089837,10.39819557704936,29.08258,0.2267936,0.8167022,-1,-1,3.0,32.0,-9999,33894.08783925,-22.35617065429688,6.618423461914062,0.342681884765625,33894.08408825001,2.942513585942368,1.988787398078807,-0.5073103125332625,20.46529769897461,-34.89118957519531,-6.042350769042969,-16.51486778259277,4.951611042022705,-0.0612064898014068,XArbitraryZVertical,0.82117422926763,0.0554372527070238,-0.5040520175117021,-0.2617846130839002,0.7988038063049316,0.4858280718326569,0.354800820350647,0,0,0,-1,-1,33892.733467375,unknown,2,2022-06-02T10:41:59.488+02:00,2022-06-02T10:32:51.428+02:00,42,1.366331,0,0,42.60812,0,0,2022-06-02T10:41:51.825+02:00,675852119.4873743,0,8.351562,101.0917,1,0.91
393,2022-06-02T10:42:00.857+02:00,1654159320.153195,53.22889530089837,10.39819557704936,29.08258,0.2267936,0.8167022,-1,-1,3.0,32.0,-9999,33894.09781125,-25.84149169921875,8.21832275390625,4.948257446289062,33894.09406125001,2.656073250106424,1.490611524494414,-0.569822972187294,31.5845890045166,-34.76385116577148,0.6818479299545288,-22.4166374206543,5.90994930267334,0.2185813188552856,XArbitraryZVertical,0.6814239799689585,0.0440439070351521,-0.6387533784949588,-0.354563844063168,0.839290976524353,0.5394830107688904,-0.0674429908394813,0,0,0,-1,-1,33892.733467375,unknown,2,2022-06-02T10:41:59.488+02:00,2022-06-02T10:32:51.428+02:00,42,1.366331,0,0,42.60812,0,0,2022-06-02T10:41:51.825+02:00,675852119.4873743,0,8.351562,101.0917,1,0.91
394,2022-06-02T10:42:00.867+02:00,1654159320.153195,53.22889530089837,10.39819557704936,29.08258,0.2267936,0.8167022,-1,-1,3.0,32.0,-9999,33894.10778425,-28.10562133789062,14.59712219238281,16.362060546875,33894.10403425001,2.313277143676247,0.9782047020383652,-0.3904345245211946,36.29986953735352,-34.65905380249023,12.82900810241699,-26.72970199584961,7.328958511352539,4.670076370239258,XArbitraryZVertical,0.4908509476993798,-0.0287193124729185,-0.7560973837811109,-0.431922838207634,0.7670713067054749,0.3805902600288391,-0.5164811015129089,0,0,0,-1,-1,33892.733467375,unknown,2,2022-06-02T10:41:59.488+02:00,2022-06-02T10:32:51.428+02:00,42,1.366331,0,0,42.60812,0,0,2022-06-02T10:41:51.825+02:00,675852119.4873743,0,8.351562,101.0917,1,0.91
395,2022-06-02T10:42:00.877+02:00,1654159320.153195,53.22889530089837,10.39819557704936,29.08258,0.2267936,0.8167022,-1,-1,3.0,32.0,-9999,33894.11775725,-31.46575927734375,1.344879150390625,22.12562561035156,33894.11400625001,2.110746451461918,0.6044229933282654,-0.0748887708658352,36.20697402954102,-26.33963775634766,2.18301248550415,-27.38093376159668,14.10029125213623,15.38062858581543,XArbitraryZVertical,0.2763994490068515,-0.1155049836700143,-0.8245783993866481,-0.4799297184301689,0.5666945576667786,0.0748187899589538,-0.8205238580703735,0,0,0,-1,-1,33892.733467375,unknown,2,2022-06-02T10:41:59.488+02:00,2022-06-02T10:32:51.428+02:00,42,1.366331,0,0,42.60812,0,0,2022-06-02T10:41:51.825+02:00,675852119.4873743,0,8.351562,101.0917,1,0.91
396,2022-06-02T10:42:00.887+02:00,1654159320.153195,53.22889530089837,10.39819557704936,29.08258,0.2267936,0.8167022,-1,-1,3.0,32.0,-9999,33894.12772925,-20.48443603515625,-13.73405456542969,20.62120056152344,33894.12397925001,1.986909015015851,0.4719308883384625,0.2695813698654032,36.18735504150391,-3.306585788726807,11.01919364929199,-32.54133605957031,4.048584938049316,22.73948860168457,XArbitraryZVertical,0.1227992878958786,-0.2359217266264301,-0.8244542313695685,-0.4995362102357043,0.4381876885890961,-0.2663279473781586,-0.8585225343704224,0,0,0,-1,-1,33892.733467375,unknown,2,2022-06-02T10:41:59.488+02:00,2022-06-02T10:32:51.428+02:00,42,1.366331,0,0,42.60812,0,0,2022-06-02T10:41:51.825+02:00,675852119.4873743,0,8.351562,101.0917,1,0.91
397,2022-06-02T10:42:00.897+02:00,1654159320.153195,53.22889530089837,10.39819557704936,29.08258,0.2267936,0.8167022,-1,-1,3.0,32.0,-9999,33894.13770225,-8.050018310546875,-20.18171691894531,4.938507080078125,33894.13395225001,1.902695307517452,0.5375941062950274,0.6389389847095098,36.14694595336914,8.098716735839844,10.34313011169434,-22.33764457702637,-11.71392822265625,22.04792785644531,XArbitraryZVertical,0.029494590733662,-0.3929132298112891,-0.7936688534425114,-0.4635072910352408,0.4110541641712189,-0.5963440537452698,-0.6894985437393188,0,0,0,-1,-1,33892.733467375,unknown,2,2022-06-02T10:41:59.488+02:00,2022-06-02T10:32:51.428+02:00,42,1.366331,0,0,42.60812,0,0,2022-06-02T10:41:51.825+02:00,675852119.4873743,0,8.351562,101.0917,1,0.91
398,2022-06-02T10:42:00.907+02:00,1654159320.153195,53.22889530089837,10.39819557704936,29.08258,0.2267936,0.8167022,-1,-1,3.0,32.0,-9999,33894.14767525,-1.268844604492188,-10.3885498046875,-3.23590087890625,33894.14392425001,1.819853320034838,0.6361032490377161,0.9036491437112452,11.59871387481689,-0.7688137888908386,8.315930366516113,-9.844963073730469,-19.64856910705566,7.613163471221924,XArbitraryZVertical,-0.0324475924938682,-0.5000817244247457,-0.7584225405659599,-0.4167262850793204,0.3675764203071594,-0.7855900526046753,-0.4977308511734009,0,0,0,-1,-1,33892.733467375,unknown,2,2022-06-02T10:41:59.488+02:00,2022-06-02T10:32:51.428+02:00,42,1.366331,0,0,42.60812,0,0,2022-06-02T10:41:51.825+02:00,675852119.4873743,0,8.351562,101.0917,1,0.91
399,2022-06-02T10:42:00.917+02:00,1654159320.153195,53.22889530089837,10.39819557704936,29.08258,0.2267936,0.8167022,-1,-1,3.0,32.0,-9999,33894.15764725,-2.625961303710938,-3.668594360351562,-1.318954467773438,33894.15389725001,1.821476225227711,0.6200537361033426,0.9657065616250816,-1.305760383605957,-1.523189067840576,-0.5820096135139465,-1.76996111869812,-10.86147880554199,-2.424597263336182,XArbitraryZVertical,-0.0576734572858272,-0.5149766773030068,-0.7531449176320049,-0.4052722610601185,0.3305385708808899,-0.8224510550498962,-0.4629455804824829,0,0,0,-1,-1,33892.733467375,unknown,2,2022-06-02T10:41:59.488+02:00,2022-06-02T10:32:51.428+02:00,42,1.366331,0,0,42.60812,0,0,2022-06-02T10:41:51.825+02:00,675852119.4873743,0,8.351562,101.0917,1,0.91
400,2022-06-02T10:42:00.926+02:00,1654159320.153195,53.22889530089837,10.39819557704936,29.08258,0.2267936,0.8167022,-1,-1,3.0,32.0,-9999,33894.16762025,-4.921249389648438,-1.761764526367188,-0.1627197265625,33894.16386925001,1.846823709826947,0.5856759031155729,0.9169365061692488,-6.910973072052002,-1.000060558319092,-1.138197183609009,-2.751229047775269,-3.266240358352661,-1.237319469451904,XArbitraryZVertical,-0.0490716403842376,-0.4941163004028803,-0.761890734024131,-0.4158889058666773,0.3362205326557159,-0.7937419414520264,-0.5068821310997009,0,0,0,-1,-1,33892.733467375,unknown,2,2022-06-02T10:41:59.488+02:00,2022-06-02T10:32:51.428+02:00,42,1.366331,0,0,42.60812,0,0,2022-06-02T10:41:51.825+02:00,675852119.4873743,0,8.351562,101.0917,1,0.91
401,2022-06-02T10:42:00.936+02:00,1654159320.153195,53.22889530089837,10.39819557704936,29.08258,0.2267936,0.8167022,-1,-1,3.0,32.0,-9999,33894.17759225,-7.916641235351562,3.529144287109375,-0.47698974609375,33894.17384225001,1.935131716016518,0.5249628915454516,0.8682965706031636,-7.920059204101562,3.065409421920776,5.218081951141357,-4.884465217590332,-1.425262451171875,0.4334809184074402,XArbitraryZVertical,-0.0365987075579766,-0.4680808171556057,-0.7834394545685316,-0.4071653613006916,0.3238268494606018,-0.7632294297218323,-0.5591217875480652,0,0,0,-1,-1,33892.733467375,unknown,2,2022-06-02T10:41:59.488+02:00,2022-06-02T10:32:51.428+02:00,42,1.366331,0,0,42.60812,0,0,2022-06-02T10:41:51.825+02:00,675852119.4873743,0,8.351562,101.0917,1,0.91
402,2022-06-02T10:42:00.946+02:00,1654159320.153195,53.22889530089837,10.39819557704936,29.08258,0.2267936,0.8167022,-1,-1,3.0,32.0,-9999,33894.18756525,-8.177536010742188,5.384979248046875,0.40496826171875,33894.18381525,2.069616451590476,0.4740167572193058,0.8281428104520229,-5.740065097808838,6.440030097961426,6.337437629699707,-7.957164764404297,3.657910823822021,0.0750724077224731,XArbitraryZVertical,-0.0149182583097828,-0.446021982448035,-0.8133460847000838,-0.3732426582292494,0.308681458234787,-0.7366767525672913,-0.6016836762428284,0,0,0,-1,-1,33892.733467375,unknown,2,2022-06-02T10:41:59.488+02:00,2022-06-02T10:32:51.428+02:00,42,1.366331,0,0,42.60812,0,0,2022-06-02T10:41:51.825+02:00,675852119.4873743,0,8.351562,101.0917,1,0.91
403,2022-06-02T10:42:00.956+02:00,1654159320.153195,53.22889530089837,10.39819557704936,29.08258,0.2267936,0.8167022,-1,-1,3.0,32.0,-9999,33894.19753825,-8.014328002929688,3.3216552734375,0.6177520751953125,33894.19378725,2.186683861940478,0.4638412702630543,0.8410114145685362,0.1633696854114532,8.502423286437988,8.827513694763184,-8.55311393737793,6.084520816802979,0.9130988121032716,XArbitraryZVertical,0.0037945355558611,-0.4492805096101652,-0.8322013232273441,-0.3249210011887476,0.2982769906520844,-0.745317816734314,-0.5962652564048767,0,0,0,-1,-1,33892.733467375,unknown,2,2022-06-02T10:41:59.488+02:00,2022-06-02T10:32:51.428+02:00,42,1.366331,0,0,42.60812,0,0,2022-06-02T10:41:51.825+02:00,675852119.4873743,0,8.351562,101.0917,1,0.91
404,2022-06-02T10:42:00.966+02:00,1654159320.153195,53.22889530089837,10.39819557704936,29.08258,0.2267936,0.8167022,-1,-1,3.0,32.0,-9999,33894.20751025,-8.087081909179688,0.326690673828125,0.9718017578125,33894.20376025,2.301788668805397,0.4638970909448234,0.89048034697667,1.836036920547485,9.058012008666992,8.67329216003418,-8.26651668548584,4.622237682342529,1.18824577331543,XArbitraryZVertical,0.0185689160785109,-0.4673067709205745,-0.8423960624244531,-0.2676724226232244,0.2814550399780273,-0.7773739695549011,-0.5625591278076172,0,0,0,-1,-1,33892.733467375,unknown,2,2022-06-02T10:41:59.488+02:00,2022-06-02T10:32:51.428+02:00,42,1.366331,0,0,42.60812,0,0,2022-06-02T10:41:51.825+02:00,675852119.4873743,0,8.351562,101.0917,1,0.91
405,2022-06-02T10:42:00.976+02:00,1654159320.153195,53.22889530089837,10.39819557704936,29.08258,0.2267936,0.8167022,-1,-1,3.0,32.0,-9999,33894.21748325,-7.276138305664062,-0.0554962158203125,1.865524291992188,33894.21373325,2.414414175784004,0.4633867057418709,0.946069551767872,1.814885497093201,8.703198432922363,8.698148727416992,-8.398436546325684,1.257320404052734,1.369434118270874,XArbitraryZVertical,0.0333550591918042,-0.4871231501146474,-0.8469675530728166,-0.2103436917156663,0.2614278793334961,-0.8111229538917542,-0.5231969356536865,0,0,0,-1,-1,33892.733467375,unknown,2,2022-06-02T10:41:59.488+02:00,2022-06-02T10:32:51.428+02:00,42,1.366331,0,0,42.60812,0,0,2022-06-02T10:41:51.825+02:00,675852119.4873743,0,8.351562,101.0917,1,0.91
406,2022-06-02T10:42:00.986+02:00,1654159320.153195,53.22889530089837,10.39819557704936,29.08258,0.2267936,0.8167022,-1,-1,3.0,32.0,-9999,33894.22745625,-6.721282958984375,-1.619171142578125,2.1646728515625,33894.22370525,2.53522450203185,0.4493157508912089,1.00262321930865,2.204993486404419,8.552864074707031,8.494697570800781,-7.5956130027771,0.9187979102134703,2.268620014190674,XArbitraryZVertical,0.046575575551033,-0.5054587541268969,-0.8478870247256323,-0.153067554409098,0.2337203174829483,-0.842885434627533,-0.4846843183040619,0,0,0,-1,-1,33892.733467375,unknown,2,2022-06-02T10:41:59.488+02:00,2022-06-02T10:32:51.428+02:00,42,1.366331,0,0,42.60812,0,0,2022-06-02T10:41:51.825+02:00,675852119.4873743,0,8.351562,101.0917,1,0.91
407,2022-06-02T10:42:00.996+02:00,1654159320.153195,53.22889530089837,10.39819557704936,29.08258,0.2267936,0.8167022,-1,-1,3.0,32.0,-9999,33894.23742825,-5.562225341796875,-2.365219116210938,1.758514404296875,33894.23367825,2.66559347458284,0.4202420224130566,1.054891312607355,1.560152649879456,7.932003021240234,8.027931213378906,-7.032137870788574,-0.5668599605560303,2.62151050567627,XArbitraryZVertical,0.0590969037362804,-0.5208726351282703,-0.846019387361189,-0.0972138951166507,0.2012663632631302,-0.8698466420173645,-0.4503985047340393,0,0,0,-1,-1,33892.733467375,unknown,2,2022-06-02T10:41:59.488+02:00,2022-06-02T10:32:51.428+02:00,42,1.366331,0,0,42.60812,0,0,2022-06-02T10:41:51.825+02:00,675852119.4873743,0,8.351562,101.0917,1,0.91
408,2022-06-02T10:42:01.006+02:00,1654159320.153195,53.22889530089837,10.39819557704936,29.08258,0.2267936,0.8167022,-1,-1,3.0,32.0,-9999,33894.24740125,-5.009078979492188,-2.13311767578125,1.310440063476562,33894.24365125,2.80196244019238,0.3733222482879932,1.095870513061797,0.9938200116157532,6.760737419128418,7.102478981018066,-5.870675563812256,-1.458482265472412,2.25200891494751,XArbitraryZVertical,0.0696247555987133,-0.5312855785089109,-0.8430472225265344,-0.0464706496773233,0.1667722910642624,-0.8893266320228577,-0.4257760643959045,0,0,0,-1,-1,33892.733467375,unknown,2,2022-06-02T10:41:59.488+02:00,2022-06-02T10:32:51.428+02:00,42,1.366331,0,0,42.60812,0,0,2022-06-02T10:41:51.825+02:00,675852119.4873743,0,8.351562,101.0917,1,0.91
409,2022-06-02T10:42:01.016+02:00,1654159320.153195,53.22889530089837,10.39819557704936,29.08258,0.2267936,0.8167022,-1,-1,3.0,32.0,-9999,33894.25737325,-5.096420288085938,-2.142501831054688,1.146636962890625,33894.25362325,2.940867628624691,0.3130458507442875,1.12539032830866,0.4444573521614075,6.238160133361816,6.59935474395752,-5.161301136016846,-1.265365123748779,1.756611704826355,XArbitraryZVertical,0.0783899748241278,-0.5375052659972257,-0.8396083214038313,-0.000969272520559,0.1326757222414017,-0.902435839176178,-0.4098862111568451,0,0,0,-1,-1,33892.733467375,unknown,2,2022-06-02T10:41:59.488+02:00,2022-06-02T10:32:51.428+02:00,42,1.366331,0,0,42.60812,0,0,2022-06-02T10:41:51.825+02:00,675852119.4873743,0,8.351562,101.0917,1,0.91
410,2022-06-02T10:42:01.026+02:00,1654159320.153195,53.22889530089837,10.39819557704936,29.08258,0.2267936,0.8167022,-1,-1,3.0,32.0,-9999,33894.26734625,-5.113998413085938,-2.090347290039062,1.11138916015625,33894.26359625,3.08696705841176,0.2436143428694687,1.144896556297757,-0.0947672724723815,6.471590518951416,6.328600883483887,-5.180708885192871,-1.218330383300781,1.5561842918396,XArbitraryZVertical,0.0874135892035027,-0.5402668255945919,-0.8358353905698535,0.0430087807270285,0.09965430945158,-0.910667359828949,-0.4009412527084351,0,0,0,-1,-1,33892.733467375,unknown,2,2022-06-02T10:41:59.488+02:00,2022-06-02T10:32:51.428+02:00,42,1.366331,0,0,42.60812,0,0,2022-06-02T10:41:51.825+02:00,675852119.4873743,0,8.351562,101.0917,1,0.91
411,2022-06-02T10:42:01.036+02:00,1654159320.153195,53.22889530089837,10.39819557704936,29.08258,0.2267936,0.8167022,-1,-1,3.0,32.0,-9999,33894.27731925,-4.935287475585938,-1.760772705078125,1.01800537109375,33894.27356825,-3.04603471430333,0.1726562375208795,1.154790994106018,-0.4793415367603302,6.786546230316162,6.158051013946533,-5.196913242340088,-1.206245899200439,1.515288829803467,XArbitraryZVertical,0.098133803828762,-0.5397398432516217,-0.8315664321870837,0.0868785571622377,0.069425918161869,-0.914710521697998,-0.3981013298034668,0,0,0,-1,-1,33892.733467375,unknown,2,2022-06-02T10:41:59.488+02:00,2022-06-02T10:32:51.428+02:00,42,1.366331,0,0,42.60812,0,0,2022-06-02T10:41:51.825+02:00,675852119.4873743,0,8.351562,101.0917,1,0.91
412,2022-06-02T10:42:01.046+02:00,1654159320.153195,53.22889530089837,10.39819557704936,29.08258,0.2267936,0.8167022,-1,-1,3.0,32.0,-9999,33894.28729125,-4.78302001953125,-1.665130615234375,0.9806976318359376,33894.28354125,-2.892837065672969,0.100316331883106,1.157986878587856,-0.5771269202232361,6.800011157989502,6.151750564575195,-5.002503871917725,-0.8795501589775085,1.432233333587646,XArbitraryZVertical,0.1094378434557455,-0.5370657305435405,-0.8261000754536055,0.1309293506585215,0.0401778854429721,-0.915997326374054,-0.3991675078868866,0,0,0,-1,-1,33892.733467375,unknown,2,2022-06-02T10:41:59.488+02:00,2022-06-02T10:32:51.428+02:00,42,1.366331,0,0,42.60812,0,0,2022-06-02T10:41:51.825+02:00,675852119.4873743,0,8.351562,101.0917,1,0.91
413,2022-06-02T10:42:01.056+02:00,1654159320.153195,53.22889530089837,10.39819557704936,29.08258,0.2267936,0.8167022,-1,-1,3.0,32.0,-9999,33894.29726425,-4.804412841796875,-1.759719848632812,0.9636077880859376,33894.29351425,-2.738848399149616,0.0262400328318882,1.154664476796033,-0.9367839694023132,6.630427837371826,6.242098331451416,-4.805329322814941,-0.749815046787262,1.383761644363403,XArbitraryZVertical,0.1199273875802688,-0.5325169653491677,-0.8194869042061017,0.1745974209968851,0.0106056695803999,-0.9146593809127808,-0.4040862023830414,0,0,0,-1,-1,33892.733467375,unknown,2,2022-06-02T10:41:59.488+02:00,2022-06-02T10:32:51.428+02:00,42,1.366331,0,0,42.60812,0,0,2022-06-02T10:41:51.825+02:00,675852119.4873743,0,8.351562,101.0917,1,0.91
414,2022-06-02T10:42:01.066+02:00,1654159320.153195,53.22889530089837,10.39819557704936,29.08258,0.2267936,0.8167022,-1,-1,3.0,32.0,-9999,33894.30723725,-4.830703735351562,-1.816970825195312,0.949737548828125,33894.30348625,-2.585793716568663,-0.0473769472194468,1.142232667806699,-1.419489502906799,6.604665756225586,6.378740787506104,-4.777041435241699,-0.8304571509361267,1.382917761802673,XArbitraryZVertical,0.129094132038767,-0.525152784897797,-0.8123063118882569,0.2184209917982199,-0.0196808278560638,-0.9095636010169984,-0.4150985181331635,0,0,0,-1,-1,33892.733467375,unknown,2,2022-06-02T10:41:59.488+02:00,2022-06-02T10:32:51.428+02:00,42,1.366331,0,0,42.60812,0,0,2022-06-02T10:41:51.825+02:00,675852119.4873743,0,8.351562,101.0917,1,0.91
415,2022-06-02T10:42:01.076+02:00,1654159320.153195,53.22889530089837,10.39819557704936,29.08258,0.2267936,0.8167022,-1,-1,3.0,32.0,-9999,33894.31720925,-4.834228515625,-1.739791870117188,0.9720306396484376,33894.31345925,-2.437361420146402,-0.1163266554089487,1.120203342308113,-1.935376882553101,6.511998176574707,6.583699226379395,-4.779181003570557,-0.9217563271522522,1.380447626113892,XArbitraryZVertical,0.1366910981321058,-0.5148177817297438,-0.8045277299799248,0.2627042091480383,-0.0505460388958454,-0.9001890420913696,-0.4325563907623291,0,0,0,-1,-1,33892.733467375,unknown,2,2022-06-02T10:41:59.488+02:00,2022-06-02T10:32:51.428+02:00,42,1.366331,0,0,42.60812,0,0,2022-06-02T10:41:51.825+02:00,675852119.4873743,0,8.351562,101.0917,1,0.91
416,2022-06-02T10:42:01.086+02:00,1654159320.153195,53.22889530089837,10.39819557704936,29.08258,0.2267936,0.8167022,-1,-1,3.0,32.0,-9999,33894.32718225,-4.68609619140625,-1.538238525390625,0.9904327392578124,33894.32343225,-2.298617949209729,-0.1760702166167392,1.090083162207411,-2.107844114303589,6.354984760284424,6.637973308563232,-4.75523042678833,-0.8644332885742188,1.424882411956787,XArbitraryZVertical,0.1426850653775913,-0.5020056450521857,-0.7958953805036321,0.3068906500066875,-0.0809969082474708,-0.8866653442382812,-0.4552626013755798,0,0,0,-1,-1,33892.733467375,unknown,2,2022-06-02T10:41:59.488+02:00,2022-06-02T10:32:51.428+02:00,42,1.366331,0,0,42.60812,0,0,2022-06-02T10:41:51.825+02:00,675852119.4873743,0,8.351562,101.0917,1,0.91
417,2022-06-02T10:42:01.096+02:00,1654159320.153195,53.22889530089837,10.39819557704936,29.08258,0.2267936,0.8167022,-1,-1,3.0,32.0,-9999,33894.33715525,-4.17742919921875,-1.329498291015625,0.8979644775390625,33894.33340425,-2.170684415352236,-0.2264165372020729,1.058964167024768,-1.403334736824036,6.042072772979736,6.554146289825439,-4.61588191986084,-0.7020191550254822,1.464701771736145,XArbitraryZVertical,0.1479364241062392,-0.4893642290268992,-0.7850899278762373,0.3496730798273845,-0.1099482029676437,-0.8718486428260803,-0.4772749245166779,0,0,0,-1,-1,33892.733467375,unknown,2,2022-06-02T10:41:59.488+02:00,2022-06-02T10:32:51.428+02:00,42,1.366331,0,0,42.60812,0,0,2022-06-02T10:41:51.825+02:00,675852119.4873743,0,8.351562,101.0917,1,0.91
418,2022-06-02T10:42:01.106+02:00,1654159320.153195,53.22889530089837,10.39819557704936,29.08258,0.2267936,0.8167022,-1,-1,3.0,32.0,-9999,33894.34712725,-3.720474243164062,-1.3460693359375,0.5836334228515625,33894.34337725,-2.049948774597958,-0.2744206222128579,1.038357895092689,0.4847902953624725,5.281301975250244,6.150696277618408,-4.111520767211914,-0.4811558723449707,1.415322780609131,XArbitraryZVertical,0.153648986250732,-0.4817378696127544,-0.7703304176312649,0.3884735345355442,-0.1375638544559479,-0.8615717887878418,-0.488641232252121,0,0,0,-1,-1,33892.733467375,unknown,2,2022-06-02T10:41:59.488+02:00,2022-06-02T10:32:51.428+02:00,42,1.366331,0,0,42.60812,0,0,2022-06-02T10:41:51.825+02:00,675852119.4873743,0,8.351562,101.0917,1,0.91
419,2022-06-02T10:42:01.116+02:00,1654159320.153195,53.22889530089837,10.39819557704936,29.08258,0.2267936,0.8167022,-1,-1,3.0,32.0,-9999,33894.35710025,-3.459716796875,-1.681503295898438,0.4622802734375,33894.35334925,-1.930866592589201,-0.3276105446934266,1.036562959860463,2.717133760452271,4.624619007110596,5.532355308532715,-3.599658966064453,-0.4682744741439819,1.101179718971252,XArbitraryZVertical,0.1616478731388521,-0.4825141538174906,-0.7507146499791462,0.4212809813188982,-0.1638452261686325,-0.8606592416763306,-0.4821000993251801,0,0,0,-1,-1,33892.733467375,unknown,2,2022-06-02T10:41:59.488+02:00,2022-06-02T10:32:51.428+02:00,42,1.366331,0,0,42.60812,0,0,2022-06-02T10:41:51.825+02:00,675852119.4873743,0,8.351562,101.0917,1,0.91
420,2022-06-02T10:42:01.126+02:00,1654159320.153195,53.22889530089837,10.39819557704936,29.08258,0.2267936,0.8167022,-1,-1,3.0,32.0,-9999,33894.36707225,-3.211074829101562,-2.51556396484375,0.509857177734375,33894.36332225,-1.810339703174184,-0.3876970749952536,1.051260051567972,4.174298286437988,4.252575397491455,4.835729122161865,-3.300157070159912,-0.745643675327301,0.9246264696121216,XArbitraryZVertical,0.1729966879557508,-0.4901602519241687,-0.7273025896478162,0.4481584667570844,-0.1876970529556274,-0.8680495023727417,-0.459630161523819,0,0,0,-1,-1,33892.733467375,unknown,2,2022-06-02T10:41:59.488+02:00,2022-06-02T10:32:51.428+02:00,42,1.366331,0,0,42.60812,0,0,2022-06-02T10:41:51.825+02:00,675852119.4873743,0,8.351562,101.0917,1,0.91
421,2022-06-02T10:42:01.136+02:00,1654159320.153195,53.22889530089837,10.39819557704936,29.08258,0.2267936,0.8167022,-1,-1,3.0,32.0,-9999,33894.37704525,-2.866928100585938,-3.32476806640625,0.6970367431640625,33894.37329525,-1.689760584495853,-0.4514196496133784,1.072823807203018,4.355601787567139,4.090173244476318,4.172649383544922,-3.037785291671753,-1.516024112701416,0.925450086593628,XArbitraryZVertical,0.1867757115522154,-0.5002153846233275,-0.7024665180158508,0.4705742061778099,-0.2083695530891418,-0.8785527944564819,-0.429798811674118,0,0,0,-1,-1,33892.733467375,unknown,2,2022-06-02T10:41:59.488+02:00,2022-06-02T10:32:51.428+02:00,42,1.366331,0,0,42.60812,0,0,2022-06-02T10:41:51.825+02:00,675852119.4873743,0,8.351562,101.0917,1,0.91
422,2022-06-02T10:42:01.146+02:00,1654159320.153195,53.22889530089837,10.39819557704936,29.08258,0.2267936,0.8167022,-1,-1,3.0,32.0,-9999,33894.38701825,-2.394882202148438,-3.719268798828125,0.8081512451171875,33894.38326725,-1.579613295684115,-0.5082099414167263,1.089284858610807,3.288495302200317,4.00496768951416,3.510111570358276,-2.691250085830688,-2.358119487762451,1.079836249351501,XArbitraryZVertical,0.2003275253836089,-0.5075178300546979,-0.679639986986792,0.4902898943201601,-0.2253605276346207,-0.8862959742546082,-0.404589056968689,0,0,0,-1,-1,33892.733467375,unknown,2,2022-06-02T10:41:59.488+02:00,2022-06-02T10:32:51.428+02:00,42,1.366331,0,0,42.60812,0,0,2022-06-02T10:41:51.825+02:00,675852119.4873743,0,8.351562,101.0917,1,0.91
423,2022-06-02T10:42:01.156+02:00,1654159320.153195,53.22889530089837,10.39819557704936,29.08258,0.2267936,0.8167022,-1,-1,3.0,32.0,-9999,33894.39699025,-1.96685791015625,-3.634506225585938,0.7646331787109375,33894.39324025,-1.491052622807757,-0.5479302075726282,1.095791048873283,1.983603835105896,3.776861667633057,2.901292085647583,-2.218989610671997,-2.807151317596436,1.194940447807312,XArbitraryZVertical,0.2117766348238224,-0.5098583370804055,-0.6610104788882273,0.508193221778274,-0.2382399588823318,-0.8892903327941895,-0.3903902769088745,0,0,0,-1,-1,33892.733467375,unknown,2,2022-06-02T10:41:59.488+02:00,2022-06-02T10:32:51.428+02:00,42,1.366331,0,0,42.60812,0,0,2022-06-02T10:41:51.825+02:00,675852119.4873743,0,8.351562,101.0917,1,0.91
424,2022-06-02T10:42:01.166+02:00,1654159320.153195,53.22889530089837,10.39819557704936,29.08258,0.2267936,0.8167022,-1,-1,3.0,32.0,-9999,33894.40696325,-1.744491577148438,-3.241043090820312,0.73681640625,33894.40321325,-1.425747511282278,-0.5701904037405101,1.094012158854697,0.9484856128692628,3.386746168136597,2.361866235733032,-1.762499451637268,-2.77979850769043,1.159133911132812,XArbitraryZVertical,0.2204899968488594,-0.508156671037402,-0.6466973806554276,0.5243506850605038,-0.2477239966392517,-0.8884753584861755,-0.3863219320774078,0,0,0,-1,-1,33892.733467375,unknown,2,2022-06-02T10:41:59.488+02:00,2022-06-02T10:32:51.428+02:00,42,1.366331,0,0,42.60812,0,0,2022-06-02T10:41:51.825+02:00,675852119.4873743,0,8.351562,101.0917,1,0.91
425,2022-06-02T10:42:01.176+02:00,1654159320.153195,53.22889530089837,10.39819557704936,29.08258,0.2267936,0.8167022,-1,-1,3.0,32.0,-9999,33894.41693625,-1.655746459960938,-2.885009765625,0.735321044921875,33894.41318525,-1.380507318204391,-0.578203486080916,1.088185108243732,0.4106542766094208,3.098416090011597,1.780858755111694,-1.508005738258362,-2.40989875793457,1.125729203224182,XArbitraryZVertical,0.2272672160247104,-0.504006863198317,-0.6359714133526466,0.538393050823714,-0.2536366879940033,-0.8857861161231995,-0.3886533975601196,0,0,0,-1,-1,33892.733467375,unknown,2,2022-06-02T10:41:59.488+02:00,2022-06-02T10:32:51.428+02:00,42,1.366331,0,0,42.60812,0,0,2022-06-02T10:41:51.825+02:00,675852119.4873743,0,8.351562,101.0917,1,0.91
426,2022-06-02T10:42:01.186+02:00,1654159320.153195,53.22889530089837,10.39819557704936,29.08258,0.2267936,0.8167022,-1,-1,3.0,32.0,-9999,33894.42690825,-1.578704833984375,-2.654891967773438,0.7028350830078125,33894.42315825,-1.349658792299902,-0.5753738941572438,1.083051143665674,0.3546871542930603,2.936063289642334,1.186486959457397,-1.408902764320374,-2.036102771759033,1.130011320114136,XArbitraryZVertical,0.2340207123563815,-0.4986426310897516,-0.6275660848770247,0.5502277551455329,-0.2550071179866791,-0.883391797542572,-0.3931796550750732,0,0,0,-1,-1,33892.733467375,unknown,2,2022-06-02T10:41:59.488+02:00,2022-06-02T10:32:51.428+02:00,42,1.366331,0,0,42.60812,0,0,2022-06-02T10:41:51.825+02:00,675852119.4873743,0,8.351562,101.0917,1,0.91
427,2022-06-02T10:42:01.196+02:00,1654159320.153195,53.22889530089837,10.39819557704936,29.08258,0.2267936,0.8167022,-1,-1,3.0,32.0,-9999,33894.43688125,-1.453369140625,-2.35009765625,0.74652099609375,33894.43313125,-1.328945269662283,-0.5652184294908962,1.082261795413916,0.5780639052391052,2.784523487091064,0.5516060590744019,-1.338499784469604,-1.803074598312378,1.101660013198853,XArbitraryZVertical,0.2420361134529944,-0.4932034303684864,-0.6206576611203526,0.5594219379582245,-0.2513745129108429,-0.8830215930938721,-0.3963377773761749,0,0,0,-1,-1,33892.733467375,unknown,2,2022-06-02T10:41:59.488+02:00,2022-06-02T10:32:51.428+02:00,42,1.366331,0,0,42.60812,0,0,2022-06-02T10:41:51.825+02:00,675852119.4873743,0,8.351562,101.0917,1,0.91
428,2022-06-02T10:42:01.206+02:00,1654159320.153195,53.22889530089837,10.39819557704936,29.08258,0.2267936,0.8167022,-1,-1,3.0,32.0,-9999,33894.44685425,-1.284072875976562,-2.1158447265625,0.791839599609375,33894.44310325,-1.315555001659781,-0.5498844533469793,1.086934505478935,0.897061824798584,2.645743370056152,0.0302429944276809,-1.22861647605896,-1.504763841629028,1.132951736450195,XArbitraryZVertical,0.2517795303139169,-0.4881549887329274,-0.614719700301158,0.5660667236936088,-0.2431089133024216,-0.8852050304412842,-0.3966235518455505,0,0,0,-1,-1,33892.733467375,unknown,2,2022-06-02T10:41:59.488+02:00,2022-06-02T10:32:51.428+02:00,42,1.366331,0,0,42.60812,0,0,2022-06-02T10:41:51.825+02:00,675852119.4873743,0,8.351562,101.0917,1,0.91
429,2022-06-02T10:42:01.216+02:00,1654159320.153195,53.22889530089837,10.39819557704936,29.08258,0.2267936,0.8167022,-1,-1,3.0,32.0,-9999,33894.45682625,-1.141510009765625,-1.996200561523438,0.77789306640625,33894.45307625,-1.307064247809782,-0.5322911374093611,1.097115878669586,1.227582693099976,2.351646900177002,-0.378866970539093,-1.074156522750854,-1.245663642883301,1.183198571205139,XArbitraryZVertical,0.2629812101489179,-0.4840604710574132,-0.6094121355128724,0.5702133207328035,-0.2315075695514679,-0.8898954391479492,-0.3930526971817017,0,0,0,-1,-1,33892.733467375,unknown,2,2022-06-02T10:41:59.488+02:00,2022-06-02T10:32:51.428+02:00,42,1.366331,0,0,42.60812,0,0,2022-06-02T10:41:51.825+02:00,675852119.4873743,0,8.351562,101.0917,1,0.91
430,2022-06-02T10:42:01.226+02:00,1654159320.153195,53.22889530089837,10.39819557704936,29.08258,0.2267936,0.8167022,-1,-1,3.0,32.0,-9999,33894.46679925,-1.056854248046875,-1.941360473632812,0.6789703369140625,33894.46304825,-1.305675577192766,-0.5124882462352331,1.11063599612591,1.175056934356689,1.835573077201843,-0.8651774525642395,-0.9387197494506836,-1.107055187225342,1.174299955368042,XArbitraryZVertical,0.2743033166475018,-0.4808728598639455,-0.6054551590466826,0.5717892945033356,-0.2177591919898987,-0.8959813117980957,-0.3870379626750946,0,0,0,-1,-1,33892.733467375,unknown,2,2022-06-02T10:41:59.488+02:00,2022-06-02T10:32:51.428+02:00,42,1.366331,0,0,42.60812,0,0,2022-06-02T10:41:51.825+02:00,675852119.4873743,0,8.351562,101.0917,1,0.91
431,2022-06-02T10:42:01.236+02:00,1654159320.153195,53.22889530089837,10.39819557704936,29.08258,0.2267936,0.8167022,-1,-1,3.0,32.0,-9999,33894.47677125,-1.019500732421875,-1.762741088867188,0.6169586181640625,33894.47302125,-1.315292762798788,-0.488674774624057,1.125265168724209,0.9823552370071412,1.211894512176514,-1.26544177532196,-0.8626353144645691,-1.052223205566406,1.070455193519592,XArbitraryZVertical,0.2845457510506005,-0.4783142129598025,-0.6038027594305846,0.5706762662670207,-0.2023061215877533,-0.9023818969726562,-0.380498468875885,0,0,0,-1,-1,33892.733467375,unknown,2,2022-06-02T10:41:59.488+02:00,2022-06-02T10:32:51.428+02:00,42,1.366331,0,0,42.60812,0,0,2022-06-02T10:41:51.825+02:00,675852119.4873743,0,8.351562,101.0917,1,0.91
