,loggingTime(txt),locationTimestamp_since1970(s),locationLatitude(WGS84),locationLongitude(WGS84),locationAltitude(m),locationSpeed(m/s),locationSpeedAccuracy(m/s),locationCourse(°),locationCourseAccuracy(°),locationVerticalAccuracy(m),locationHorizontalAccuracy(m),locationFloor(Z),accelerometerTimestamp_sinceReboot(s),accelerometerAccelerationX(G),accelerometerAccelerationY(G),accelerometerAccelerationZ(G),motionTimestamp_sinceReboot(s),motionYaw(rad),motionRoll(rad),motionPitch(rad),motionRotationRateX(rad/s),motionRotationRateY(rad/s),motionRotationRateZ(rad/s),motionUserAccelerationX(G),motionUserAccelerationY(G),motionUserAccelerationZ(G),motionAttitudeReferenceFrame(txt),motionQuaternionX(R),motionQuaternionY(R),motionQuaternionZ(R),motionQuaternionW(R),motionGravityX(G),motionGravityY(G),motionGravityZ(G),motionMagneticFieldX(µT),motionMagneticFieldY(µT),motionMagneticFieldZ(µT),motionHeading(°),motionMagneticFieldCalibrationAccuracy(Z),activityTimestamp_sinceReboot(s),activity(txt),activityActivityConfidence(Z),activityActivityStartDate(txt),pedometerStartDate(txt),pedometerNumberofSteps(N),pedometerAverageActivePace(s/m),pedometerCurrentPace(s/m),pedometerCurrentCadence(steps/s),pedometerDistance(m),pedometerFloorAscended(N),pedometerFloorDescended(N),pedometerEndDate(txt),altimeterTimestamp_sinceReboot(s),altimeterReset(bool),altimeterRelativeAltitude(m),altimeterPressure(kPa),batteryState(N),batteryLevel(R)
461,2022-06-02T10:42:50.341+02:00,1654159370.003658,53.22899348970873,10.39848353911862,29.18989,0.2229311,0.9364879,-1,-1,3.0,32.0,-9999,33943.52354975,0.3049774169921875,0.53265380859375,-1.12640380859375,33943.51979975,0.252108757591034,0.8623371551748377,0.3387990574617371,-13.96193695068359,9.890275955200195,-7.474605083465576,-0.4084595441818237,0.4598113596439362,-0.5962684750556946,XArbitraryZVertical,-0.1001547771025431,-0.4279374477464244,-0.1824801887988201,-0.8795109445747828,0.7161988019943237,-0.3323546648025513,-0.6136771440505981,0,0,0,-1,-1,33938.63080725,unknown,2,2022-06-02T10:42:45.444+02:00,2022-06-02T10:32:51.428+02:00,42,1.845214,0,0,42.60812,0,0,2022-06-02T10:42:47.993+02:00,675852167.9930782,0,6.050781,101.1197,1,0.9
462,2022-06-02T10:42:50.351+02:00,1654159370.003658,53.22899348970873,10.39848353911862,29.18989,0.2229311,0.9364879,-1,-1,3.0,32.0,-9999,33943.53352275,0.3299713134765625,0.671142578125,-1.145660400390625,33943.52977275,0.3213538166445601,0.9473802470261486,0.1887737902487217,-15.06658744812012,10.72162532806396,-7.884871482849121,-0.4958146810531616,0.6895009279251099,-0.5554655194282532,XArbitraryZVertical,-0.0101324091240014,-0.4617109637975795,-0.1841758729420009,-0.8676401782818938,0.7974656820297241,-0.1876546144485474,-0.5734406113624573,0,0,0,-1,-1,33938.63080725,unknown,2,2022-06-02T10:42:45.444+02:00,2022-06-02T10:32:51.428+02:00,42,1.845214,0,0,42.60812,0,0,2022-06-02T10:42:47.993+02:00,675852167.9930782,0,6.050781,101.1197,1,0.9
463,2022-06-02T10:42:50.361+02:00,1654159370.003658,53.22899348970873,10.39848353911862,29.18989,0.2229311,0.9364879,-1,-1,3.0,32.0,-9999,33943.54349575,0.233154296875,0.7514495849609375,-1.068267822265625,33943.53974475,0.407376209038863,1.047896416270017,0.0377763107385714,-15.73679733276367,11.32231426239014,-8.23342514038086,-0.5363802909851074,0.6966723799705505,-0.6459506154060364,XArbitraryZVertical,0.0851691371721647,-0.4931805151386767,-0.1843691219239616,-0.8458885180430527,0.8657565712928772,-0.0377673283219337,-0.4990383982658386,0,0,0,-1,-1,33938.63080725,unknown,2,2022-06-02T10:42:45.444+02:00,2022-06-02T10:32:51.428+02:00,42,1.845214,0,0,42.60812,0,0,2022-06-02T10:42:47.993+02:00,675852167.9930782,0,6.050781,101.1197,1,0.9
464,2022-06-02T10:42:50.371+02:00,1654159370.003658,53.22899348970873,10.39848353911862,29.18989,0.2229311,0.9364879,-1,-1,3.0,32.0,-9999,33943.55346775,0.0008697509765625,0.8641815185546875,-0.656005859375,33943.54971775,0.5122148765218035,1.167503348056874,-0.1085869930503748,-16.12680816650391,11.85658550262451,-8.606972694396973,-0.6586953997612,0.6319827437400818,-0.703688383102417,XArbitraryZVertical,0.1832153256260397,-0.5209253545943887,-0.182122286249475,-0.8135726553139053,0.9143564105033876,0.10837372392416,-0.3901378512382507,0,0,0,-1,-1,33938.63080725,unknown,2,2022-06-02T10:42:45.444+02:00,2022-06-02T10:32:51.428+02:00,42,1.845214,0,0,42.60812,0,0,2022-06-02T10:42:47.993+02:00,675852167.9930782,0,6.050781,101.1197,1,0.9
465,2022-06-02T10:42:50.381+02:00,1654159370.003658,53.22899348970873,10.39848353911862,29.18989,0.2229311,0.9364879,-1,-1,3.0,32.0,-9999,33943.56344075,-0.19049072265625,1.18841552734375,-0.0151214599609375,33943.55969075,0.6401628627938941,1.311719679044186,-0.2450478991745012,-16.72197723388672,12.47610759735107,-9.020407676696776,-0.9097344875335692,0.5955014228820801,-0.4802402853965759,XArbitraryZVertical,0.2823850227452337,-0.5440508701165887,-0.1767456319634726,-0.7700833754872525,0.937749683856964,0.2426027953624725,-0.248534694314003,0,0,0,-1,-1,33938.63080725,unknown,2,2022-06-02T10:42:45.444+02:00,2022-06-02T10:32:51.428+02:00,42,1.845214,0,0,42.60812,0,0,2022-06-02T10:42:47.993+02:00,675852167.9930782,0,6.050781,101.1197,1,0.9
466,2022-06-02T10:42:50.391+02:00,1654159370.003658,53.22899348970873,10.39848353911862,29.18989,0.2229311,0.9364879,-1,-1,3.0,32.0,-9999,33943.57341375,-0.4975433349609375,1.592559814453125,0.5208587646484375,33943.56966275,0.8004436588782635,1.488768110128447,-0.365259384575271,-17.63012886047363,13.26903057098389,-9.487428665161133,-1.096173763275146,0.7783979773521423,-0.0181955024600029,XArbitraryZVertical,0.3826101209401146,-0.5615549729279891,-0.1684793177945103,-0.714058969356125,0.9308905005455016,0.3571915924549103,-0.0765310153365135,0,0,0,-1,-1,33938.63080725,unknown,2,2022-06-02T10:42:45.444+02:00,2022-06-02T10:32:51.428+02:00,42,1.845214,0,0,42.60812,0,0,2022-06-02T10:42:47.993+02:00,675852167.9930782,0,6.050781,101.1197,1,0.9
467,2022-06-02T10:42:50.401+02:00,1654159370.003658,53.22899348970873,10.39848353911862,29.18989,0.2229311,0.9364879,-1,-1,3.0,32.0,-9999,33943.58338575,-1.030746459960938,1.8961181640625,1.072128295898438,33943.57963575,0.9980026425234751,1.70478185412972,-0.4581095279580119,-18.19061470031738,14.02263736724854,-10.0128288269043,-1.33463716506958,1.106422185897827,0.3430948257446289,XArbitraryZVertical,0.482090877039067,-0.5722708416780641,-0.1566501174545333,-0.6446356602070432,0.8888515830039978,0.4422533512115479,0.1198110580444336,0,0,0,-1,-1,33938.63080725,unknown,2,2022-06-02T10:42:45.444+02:00,2022-06-02T10:32:51.428+02:00,42,1.845214,0,0,42.60812,0,0,2022-06-02T10:42:47.993+02:00,675852167.9930782,0,6.050781,101.1197,1,0.9
468,2022-06-02T10:42:50.411+02:00,1654159370.003658,53.22899348970873,10.39848353911862,29.18989,0.2229311,0.9364879,-1,-1,3.0,32.0,-9999,33943.59335875,-1.892654418945312,2.003860473632812,1.828033447265625,33943.58960875,1.227773625242425,1.955984424382778,-0.5103822843526675,-18.43328285217285,14.72860717773438,-10.52176570892334,-1.757750868797302,1.381530165672302,0.6620038747787476,XArbitraryZVertical,0.5775696933421015,-0.5747502900213998,-0.1402756274787194,-0.5624929514266359,0.8086238503456116,0.4885108470916748,0.3278492987155914,0,0,0,-1,-1,33938.63080725,unknown,2,2022-06-02T10:42:45.444+02:00,2022-06-02T10:32:51.428+02:00,42,1.845214,0,0,42.60812,0,0,2022-06-02T10:42:47.993+02:00,675852167.9930782,0,6.050781,101.1197,1,0.9
469,2022-06-02T10:42:50.421+02:00,1654159370.003658,53.22899348970873,10.39848353911862,29.18989,0.2229311,0.9364879,-1,-1,3.0,32.0,-9999,33943.60333175,-2.887420654296875,2.12738037109375,2.931106567382812,33943.59958075,1.467392162325883,2.224411408806262,-0.51465788485863,-17.33683776855469,15.32173538208008,-10.97342014312744,-2.456202983856201,1.493312835693359,1.191822171211243,XArbitraryZVertical,0.6643370935767371,-0.5685971283430695,-0.1171824606296857,-0.4707672559311568,0.6910511255264282,0.4922370910644531,0.5292929410934448,0,0,0,-1,-1,33938.63080725,unknown,2,2022-06-02T10:42:45.444+02:00,2022-06-02T10:32:51.428+02:00,42,1.845214,0,0,42.60812,0,0,2022-06-02T10:42:47.993+02:00,675852167.9930782,0,6.050781,101.1197,1,0.9
470,2022-06-02T10:42:50.431+02:00,1654159370.003658,53.22899348970873,10.39848353911862,29.18989,0.2229311,0.9364879,-1,-1,3.0,32.0,-9999,33943.61330375,-3.773651123046875,1.98895263671875,4.275238037109375,33943.60955375,1.688485025862269,2.483983177360842,-0.4788828681830884,-15.21828460693359,15.42665672302246,-11.44690895080566,-3.31602954864502,1.660595655441284,2.063596725463867,XArbitraryZVertical,0.738116204464474,-0.5535313676580302,-0.0853753944302909,-0.3761629345619908,0.5424699187278748,0.4607880115509033,0.7024250030517578,0,0,0,-1,-1,33938.63080725,unknown,2,2022-06-02T10:42:45.444+02:00,2022-06-02T10:32:51.428+02:00,42,1.845214,0,0,42.60812,0,0,2022-06-02T10:42:47.993+02:00,675852167.9930782,0,6.050781,101.1197,1,0.9
471,2022-06-02T10:42:50.441+02:00,1654159370.003658,53.22899348970873,10.39848353911862,29.18989,0.2229311,0.9364879,-1,-1,3.0,32.0,-9999,33943.62327675,-4.56634521484375,1.895095825195312,6.159088134765625,33943.61952675,1.879196313002464,2.718313907498576,-0.4216127316066912,-12.22899341583252,14.71476554870605,-12.20318794250488,-4.038692474365234,1.609917283058167,3.257114171981812,XArbitraryZVertical,0.7977732843740968,-0.528687654958304,-0.0451089801671681,-0.2863781104083622,0.3747826218605042,0.409232497215271,0.831905722618103,0,0,0,-1,-1,33938.63080725,unknown,2,2022-06-02T10:42:45.444+02:00,2022-06-02T10:32:51.428+02:00,42,1.845214,0,0,42.60812,0,0,2022-06-02T10:42:47.993+02:00,675852167.9930782,0,6.050781,101.1197,1,0.9
472,2022-06-02T10:42:50.451+02:00,1654159370.003658,53.22899348970873,10.39848353911862,29.18989,0.2229311,0.9364879,-1,-1,3.0,32.0,-9999,33943.63324975,-5.016738891601562,1.957748413085938,8.650100708007812,33943.62949875,2.046397928757139,2.920040983240141,-0.3613213688463818,-9.044572830200195,12.72502422332764,-13.43404579162598,-4.688968658447266,1.536534547805786,4.970566749572754,XArbitraryZVertical,0.8450765198585418,-0.4920658709904678,0.0001259560228542,-0.2090855825826924,0.205554872751236,0.3535105884075165,0.912566304206848,0,0,0,-1,-1,33938.63080725,unknown,2,2022-06-02T10:42:45.444+02:00,2022-06-02T10:32:51.428+02:00,42,1.845214,0,0,42.60812,0,0,2022-06-02T10:42:47.993+02:00,675852167.9930782,0,6.050781,101.1197,1,0.9
473,2022-06-02T10:42:50.461+02:00,1654159370.003658,53.22899348970873,10.39848353911862,29.18989,0.2229311,0.9364879,-1,-1,3.0,32.0,-9999,33943.64322175,-5.296768188476562,1.823440551757812,10.99101257324219,33943.63947175,2.205278778321353,3.081583844039038,-0.3025878623636204,-6.938601493835449,9.006221771240234,-14.7770881652832,-5.033398628234863,1.657513856887817,7.372299194335938,XArbitraryZVertical,0.883850661881449,-0.4418518773932849,0.0415133218397695,-0.147822492293785,0.0572481378912925,0.2979914844036102,0.9528501629829408,0,0,0,-1,-1,33938.63080725,unknown,2,2022-06-02T10:42:45.444+02:00,2022-06-02T10:32:51.428+02:00,42,1.845214,0,0,42.60812,0,0,2022-06-02T10:42:47.993+02:00,675852167.9930782,0,6.050781,101.1197,1,0.9
474,2022-06-02T10:42:50.471+02:00,1654159370.003658,53.22899348970873,10.39848353911862,29.18989,0.2229311,0.9364879,-1,-1,3.0,32.0,-9999,33943.65319475,-6.074920654296875,2.001434326171875,12.46336364746094,33943.64944475,2.365386299064164,-3.097218535279992,-0.2391047170553775,-5.901634216308594,2.894258499145508,-16.08322715759277,-5.19838809967041,1.608656644821167,9.786928176879885,XArbitraryZVertical,0.9177940579786596,-0.3780889408259638,0.0655125127436849,-0.1020347616229753,-0.0430975593626499,0.2368329018354416,0.9705943465232848,0,0,0,-1,-1,33938.63080725,unknown,2,2022-06-02T10:42:45.444+02:00,2022-06-02T10:32:51.428+02:00,42,1.845214,0,0,42.60812,0,0,2022-06-02T10:42:47.993+02:00,675852167.9930782,0,6.050781,101.1197,1,0.9
475,2022-06-02T10:42:50.481+02:00,1654159370.003658,53.22899348970873,10.39848353911862,29.18989,0.2229311,0.9364879,-1,-1,3.0,32.0,-9999,33943.66316775,-7.120437622070312,2.92584228515625,12.38031005859375,33943.65941675,2.529737678840229,-3.076312652077991,-0.1778298502610844,-4.219740390777588,-5.696409702301025,-16.66880798339844,-5.907490253448486,1.754059910774231,11.34402275085449,XArbitraryZVertical,0.9484225050988236,-0.3025915438250403,0.0577256911724416,-0.074839774789621,-0.0642049238085746,0.1768940687179565,0.9821338057518004,0,0,0,-1,-1,33938.63080725,unknown,2,2022-06-02T10:42:45.444+02:00,2022-06-02T10:32:51.428+02:00,42,1.845214,0,0,42.60812,0,0,2022-06-02T10:42:47.993+02:00,675852167.9930782,0,6.050781,101.1197,1,0.9
476,2022-06-02T10:42:50.491+02:00,1654159370.003658,53.22899348970873,10.39848353911862,29.18989,0.2229311,0.9364879,-1,-1,3.0,32.0,-9999,33943.67313975,-8.638259887695312,4.109588623046875,10.60125732421875,33943.66938975,2.694244586754028,3.128127048938058,-0.1468871026001107,-0.6958363652229309,-15.40339660644531,-15.92612838745117,-6.963545799255371,2.651278495788574,11.52361488342285,XArbitraryZVertical,0.9725480084918036,-0.220728921853462,0.0097284352510211,-0.0730374105962144,0.0133201973512768,0.1463594734668732,0.9891417622566224,0,0,0,-1,-1,33938.63080725,unknown,2,2022-06-02T10:42:45.444+02:00,2022-06-02T10:32:51.428+02:00,42,1.845214,0,0,42.60812,0,0,2022-06-02T10:42:47.993+02:00,675852167.9930782,0,6.050781,101.1197,1,0.9
477,2022-06-02T10:42:50.501+02:00,1654159370.003658,53.22899348970873,10.39848353911862,29.18989,0.2229311,0.9364879,-1,-1,3.0,32.0,-9999,33943.68311275,-10.43809509277344,4.868057250976562,7.789093017578125,33943.67936275,2.842191412251742,2.947969915197477,-0.1730818966013615,3.222762107849121,-25.30620765686035,-13.85282802581787,-8.65388011932373,3.780951738357544,9.910255432128906,XArbitraryZVertical,0.9817485402955072,-0.1396270636348391,-0.0823910453517257,-0.0994282357446794,0.1895403265953064,0.1722190082073212,0.9666517972946168,0,0,0,-1,-1,33938.63080725,unknown,2,2022-06-02T10:42:45.444+02:00,2022-06-02T10:32:51.428+02:00,42,1.845214,0,0,42.60812,0,0,2022-06-02T10:42:47.993+02:00,675852167.9930782,0,6.050781,101.1197,1,0.9
478,2022-06-02T10:42:50.510+02:00,1654159370.003658,53.22899348970873,10.39848353911862,29.18989,0.2229311,0.9364879,-1,-1,3.0,32.0,-9999,33943.69308575,-13.73257446289062,5.783279418945312,2.950668334960938,33943.68933475,2.954705448419674,2.681210638195492,-0.25790771944471,5.93818187713623,-32.1370849609375,-12.82295799255371,-10.55314636230469,4.530357837677002,7.381138801574707,XArbitraryZVertical,0.964064256194908,-0.0608791098578512,-0.2135993707836592,-0.1457711501166361,0.4295958876609802,0.2550580203533173,0.8662523031234741,0,0,0,-1,-1,33938.63080725,unknown,2,2022-06-02T10:42:45.444+02:00,2022-06-02T10:32:51.428+02:00,42,1.845214,0,0,42.60812,0,0,2022-06-02T10:42:47.993+02:00,675852167.9930782,0,6.050781,101.1197,1,0.9
479,2022-06-02T10:42:50.520+02:00,1654159370.003658,53.22899348970873,10.39848353911862,29.18989,0.2229311,0.9364879,-1,-1,3.0,32.0,-9999,33943.70305775,-18.42205810546875,6.954849243164062,0.224639892578125,33943.69930775,2.999602753140046,2.35794863199963,-0.3902423927838901,11.31789016723633,-34.98549270629883,-9.535296440124512,-13.96482276916504,5.259541034698486,2.92425537109375,XArbitraryZVertical,0.909645175205207,0.0095376489778599,-0.3609719796551235,-0.2053146420988457,0.6527963876724243,0.3804126083850861,0.6550906300544739,0,0,0,-1,-1,33938.63080725,unknown,2,2022-06-02T10:42:45.444+02:00,2022-06-02T10:32:51.428+02:00,42,1.845214,0,0,42.60812,0,0,2022-06-02T10:42:47.993+02:00,675852167.9930782,0,6.050781,101.1197,1,0.9
480,2022-06-02T10:42:50.530+02:00,1654159370.003658,53.22899348970873,10.39848353911862,29.18989,0.2229311,0.9364879,-1,-1,3.0,32.0,-9999,33943.71303075,-24.68527221679688,8.708755493164062,2.369461059570312,33943.70928075,2.871814337454879,1.950626946768728,-0.5276532284037759,22.52589988708496,-34.842529296875,-0.0628189966082572,-18.47418022155762,6.324205875396729,0.0543130338191986,XArbitraryZVertical,0.811643202411895,0.0374619755162433,-0.5075487849680221,-0.2867513571061422,0.8024125099182129,0.503507137298584,0.3203361630439758,0,0,0,-1,-1,33938.63080725,unknown,2,2022-06-02T10:42:45.444+02:00,2022-06-02T10:32:51.428+02:00,42,1.845214,0,0,42.60812,0,0,2022-06-02T10:42:47.993+02:00,675852167.9930782,0,6.050781,101.1197,1,0.9
481,2022-06-02T10:42:50.541+02:00,1654159370.003658,53.22899348970873,10.39848353911862,29.18989,0.2229311,0.9364879,-1,-1,3.0,32.0,-9999,33943.72300375,-26.41160583496094,10.04019165039062,10.32476806640625,33943.71925275,2.578006108634989,1.450146200068157,-0.5446732503772751,31.96770477294922,-34.74180603027344,4.215910911560059,-24.7932014465332,8.28598403930664,1.868978500366211,XArbitraryZVertical,0.6695378661462857,0.0157576629017356,-0.6428290978094731,-0.3718084570239316,0.8490791916847229,0.5181386470794678,-0.102941483259201,0,0,0,-1,-1,33938.63080725,unknown,2,2022-06-02T10:42:45.444+02:00,2022-06-02T10:32:51.428+02:00,42,1.845214,0,0,42.60812,0,0,2022-06-02T10:42:47.993+02:00,675852167.9930782,0,6.050781,101.1197,1,0.9
482,2022-06-02T10:42:50.551+02:00,1654159370.003658,53.22899348970873,10.39848353911862,29.18989,0.2229311,0.9364879,-1,-1,3.0,32.0,-9999,33943.73297575,-31.90675354003906,13.60577392578125,24.37068176269531,33943.72922575,2.25690011254839,0.9614678375368656,-0.3299743066288506,36.28726959228516,-34.6705322265625,10.73348236083984,-27.04611778259277,8.812868118286133,9.163557052612305,XArbitraryZVertical,0.474581839529927,-0.0636525807128924,-0.7579226041867843,-0.4430280993912643,0.7757923603057861,0.3240187168121338,-0.5414408445358276,0,0,0,-1,-1,33938.63080725,unknown,2,2022-06-02T10:42:45.444+02:00,2022-06-02T10:32:51.428+02:00,42,1.845214,0,0,42.60812,0,0,2022-06-02T10:42:47.993+02:00,675852167.9930782,0,6.050781,101.1197,1,0.9
483,2022-06-02T10:42:50.564+02:00,1654159370.003658,53.22899348970873,10.39848353911862,29.18989,0.2229311,0.9364879,-1,-1,3.0,32.0,-9999,33943.74294875,-32.04037475585938,1.481521606445312,19.00979614257812,33943.73919875,2.05936444492313,0.5985872228645527,-0.0153935407235945,36.24036407470703,-26.46118927001953,7.393428802490234,-32.04340362548828,14.34135723114014,24.54440307617188,XArbitraryZVertical,0.2565030729376679,-0.1455639054476368,-0.8178382610434889,-0.4941235059810343,0.563409149646759,0.0153929330408573,-0.826034665107727,0,0,0,-1,-1,33938.63080725,unknown,2,2022-06-02T10:42:45.444+02:00,2022-06-02T10:32:51.428+02:00,42,1.845214,0,0,42.60812,0,0,2022-06-02T10:42:50.550+02:00,675852167.9930782,0,6.050781,101.1197,1,0.9
484,2022-06-02T10:42:50.571+02:00,1654159370.003658,53.22899348970873,10.39848353911862,29.18989,0.2229311,0.9364879,-1,-1,3.0,32.0,-9999,33943.75292225,-25.02012634277344,-8.678573608398438,12.52058410644531,33943.74917175,1.977213064068128,0.4245434504601082,0.3509261825608577,36.21771621704102,-9.801676750183104,12.57700824737549,-32.64363861083984,3.183840274810791,20.61455726623535,XArbitraryZVertical,0.0794412736267307,-0.256599136100744,-0.8241983526713067,-0.4985410986097821,0.386801153421402,-0.3437677025794983,-0.8556919097900391,0,0,0,-1,-1,33943.73731175,unknown,2,2022-06-02T10:42:50.550+02:00,2022-06-02T10:32:51.428+02:00,42,1.845214,0,0,42.60812,0,0,2022-06-02T10:42:50.550+02:00,675852170.5495021,0,6.230469,101.1184,1,0.9
485,2022-06-02T10:42:50.581+02:00,1654159370.003658,53.22899348970873,10.39848353911862,29.18989,0.2229311,0.9364879,-1,-1,3.0,32.0,-9999,33943.76289425,-10.48765563964844,-19.42619323730469,1.876754760742188,33943.75914425001,1.991582835753368,0.3548320021025024,0.6638507506021015,20.29037284851074,-4.249015331268311,13.3146276473999,-26.67060470581055,-6.546397686004639,14.40520095825195,XArbitraryZVertical,-0.0344139528853231,-0.3599105430801265,-0.8122066628592411,-0.4578212745116507,0.2736469209194183,-0.6161543726921082,-0.738560140132904,0,0,0,-1,-1,33943.73731175,unknown,2,2022-06-02T10:42:50.550+02:00,2022-06-02T10:32:51.428+02:00,42,1.845214,0,0,42.60812,0,0,2022-06-02T10:42:50.550+02:00,675852170.5495021,0,6.230469,101.1184,1,0.9
486,2022-06-02T10:42:50.590+02:00,1654159370.003658,53.22899348970873,10.39848353911862,29.18989,0.2229311,0.9364879,-1,-1,3.0,32.0,-9999,33943.77286725,-3.5660400390625,-9.001693725585938,-1.155502319335938,33943.76911725001,2.106468366890225,0.2367133072119033,0.8062338253520203,3.031270980834961,-2.046600818634033,10.2518367767334,-12.50461673736572,-18.55103492736816,3.439412832260132,XArbitraryZVertical,-0.098341501428964,-0.3922626008682484,-0.8166947996110046,-0.4116655670698324,0.1623320281505585,-0.7216852903366089,-0.6729180216789246,0,0,0,-1,-1,33943.73731175,unknown,2,2022-06-02T10:42:50.550+02:00,2022-06-02T10:32:51.428+02:00,42,1.845214,0,0,42.60812,0,0,2022-06-02T10:42:50.550+02:00,675852170.5495021,0,6.230469,101.1184,1,0.9
487,2022-06-02T10:42:50.600+02:00,1654159370.003658,53.22899348970873,10.39848353911862,29.18989,0.2229311,0.9364879,-1,-1,3.0,32.0,-9999,33943.78284025,-5.30914306640625,-1.762252807617188,-1.95916748046875,33943.77909025001,2.210952119744713,0.1662445404823281,0.8221267553129885,-1.200976729393005,3.54503870010376,5.987448215484619,-3.736278295516968,-9.696619033813477,-0.3675530552864075,XArbitraryZVertical,-0.1106600957289351,-0.3900180335327346,-0.8312892862333663,-0.3802611352852604,0.1126362979412079,-0.7325950860977173,-0.671280562877655,0,0,0,-1,-1,33943.73731175,unknown,2,2022-06-02T10:42:50.550+02:00,2022-06-02T10:32:51.428+02:00,42,1.845214,0,0,42.60812,0,0,2022-06-02T10:42:50.550+02:00,675852170.5495021,0,6.230469,101.1184,1,0.9
488,2022-06-02T10:42:50.610+02:00,1654159370.003658,53.22899348970873,10.39848353911862,29.18989,0.2229311,0.9364879,-1,-1,3.0,32.0,-9999,33943.79281225,-5.603225708007812,-0.5224456787109375,-1.319229125976562,33943.78906225001,2.305633793700173,0.1505658367635913,0.8140093406197555,-2.721248388290405,6.691142082214355,6.366964817047119,-5.230565547943115,-1.568455934524536,-1.192577719688416,XArbitraryZVertical,-0.0971086187435295,-0.3887920955589072,-0.8489626146600919,-0.344489873874944,0.1029867082834244,-0.7270457744598389,-0.6788212656974792,0,0,0,-1,-1,33943.73731175,unknown,2,2022-06-02T10:42:50.550+02:00,2022-06-02T10:32:51.428+02:00,42,1.845214,0,0,42.60812,0,0,2022-06-02T10:42:50.550+02:00,675852170.5495021,0,6.230469,101.1184,1,0.9
489,2022-06-02T10:42:50.620+02:00,1654159370.003658,53.22899348970873,10.39848353911862,29.18989,0.2229311,0.9364879,-1,-1,3.0,32.0,-9999,33943.80278525,-5.56402587890625,-0.7706756591796875,0.125762939453125,33943.79903525001,2.41186691413943,0.1494095734400786,0.7788326328037537,-6.714015483856201,8.168706893920898,7.386649608612061,-5.730135917663574,0.2225906252861023,-0.781287431716919,XArbitraryZVertical,-0.0705865734684008,-0.3783056661218345,-0.8719321212005527,-0.302715637706769,0.1059446781873703,-0.7024490237236023,-0.7038047313690186,0,0,0,-1,-1,33943.73731175,unknown,2,2022-06-02T10:42:50.550+02:00,2022-06-02T10:32:51.428+02:00,42,1.845214,0,0,42.60812,0,0,2022-06-02T10:42:50.550+02:00,675852170.5495021,0,6.230469,101.1184,1,0.9
490,2022-06-02T10:42:50.630+02:00,1654159370.003658,53.22899348970873,10.39848353911862,29.18989,0.2229311,0.9364879,-1,-1,3.0,32.0,-9999,33943.81275825,-5.537109375,1.119125366210938,1.021499633789062,33943.80900825,2.539115972607064,0.1451651573633564,0.7069517968288201,-9.957818984985352,7.911660194396973,9.056958198547363,-5.672335624694824,-0.1903246641159058,0.7292309403419495,XArbitraryZVertical,-0.0374648081674179,-0.3498891161352017,-0.9010182100714924,-0.2536537073077715,0.1099883913993835,-0.6495190858840942,-0.752348005771637,0,0,0,-1,-1,33943.73731175,unknown,2,2022-06-02T10:42:50.550+02:00,2022-06-02T10:32:51.428+02:00,42,1.845214,0,0,42.60812,0,0,2022-06-02T10:42:50.550+02:00,675852170.5495021,0,6.230469,101.1184,1,0.9
491,2022-06-02T10:42:50.640+02:00,1654159370.003658,53.22899348970873,10.39848353911862,29.18989,0.2229311,0.9364879,-1,-1,3.0,32.0,-9999,33943.82273125,-5.044113159179688,2.470169067382812,1.809417724609375,33943.81898025001,2.678142274659788,0.1305912178790063,0.620850973745082,-9.532495498657228,6.308577060699463,10.08516120910645,-5.664451599121094,1.408738613128662,1.733124136924744,XArbitraryZVertical,-0.0095324949953645,-0.3109344251994499,-0.9293553141154204,-0.198815654908446,0.1059191152453423,-0.5817275643348694,-0.8064578175544739,0,0,0,-1,-1,33943.73731175,unknown,2,2022-06-02T10:42:50.550+02:00,2022-06-02T10:32:51.428+02:00,42,1.845214,0,0,42.60812,0,0,2022-06-02T10:42:50.550+02:00,675852170.5495021,0,6.230469,101.1184,1,0.9
492,2022-06-02T10:42:50.650+02:00,1654159370.003658,53.22899348970873,10.39848353911862,29.18989,0.2229311,0.9364879,-1,-1,3.0,32.0,-9999,33943.83270325,-4.23065185546875,2.674118041992188,1.861373901367188,33943.82895325,2.808221177395949,0.1104138162408955,0.5580853498195012,-5.359195232391357,4.017223834991455,9.822299003601074,-5.239192008972168,2.92441463470459,2.55746054649353,XArbitraryZVertical,0.0066800922085454,-0.2800050215930434,-0.9490730828567744,-0.1442667204255322,0.0934706032276153,-0.5295630097389221,-0.843105137348175,0,0,0,-1,-1,33943.73731175,unknown,2,2022-06-02T10:42:50.550+02:00,2022-06-02T10:32:51.428+02:00,42,1.845214,0,0,42.60812,0,0,2022-06-02T10:42:50.550+02:00,675852170.5495021,0,6.230469,101.1184,1,0.9
493,2022-06-02T10:42:50.660+02:00,1654159370.003658,53.22899348970873,10.39848353911862,29.18989,0.2229311,0.9364879,-1,-1,3.0,32.0,-9999,33943.84267625,-3.841293334960938,2.349960327148438,1.356552124023438,33943.83892625,2.920992813176848,0.0773077716560242,0.5402556250800562,0.0265505909919738,1.095650434494019,8.972257614135742,-4.383659839630127,3.194851398468018,2.782063484191895,XArbitraryZVertical,0.0076641217199154,-0.2691344204591516,-0.9582999316182492,-0.0957557039617453,0.066231369972229,-0.5143552422523499,-0.8550158739089966,0,0,0,-1,-1,33943.73731175,unknown,2,2022-06-02T10:42:50.550+02:00,2022-06-02T10:32:51.428+02:00,42,1.845214,0,0,42.60812,0,0,2022-06-02T10:42:50.550+02:00,675852170.5495021,0,6.230469,101.1184,1,0.9
494,2022-06-02T10:42:50.670+02:00,1654159370.003658,53.22899348970873,10.39848353911862,29.18989,0.2229311,0.9364879,-1,-1,3.0,32.0,-9999,33943.85264925,-4.171951293945312,1.557037353515625,1.38494873046875,33943.84889825,3.019048050971748,0.0226287712350234,0.5675685275577463,4.244965553283691,-1.587173819541931,8.049723625183105,-3.880620956420898,2.944703102111816,2.218132019042969,XArbitraryZVertical,-0.006302608368452,-0.280112338494734,-0.9583339108086064,-0.0556191097206005,0.019079191610217,-0.5375834107398987,-0.8429946899414062,0,0,0,-1,-1,33943.73731175,unknown,2,2022-06-02T10:42:50.550+02:00,2022-06-02T10:32:51.428+02:00,42,1.845214,0,0,42.60812,0,0,2022-06-02T10:42:50.550+02:00,675852170.5495021,0,6.230469,101.1184,1,0.9
495,2022-06-02T10:42:50.680+02:00,1654159370.003658,53.22899348970873,10.39848353911862,29.18989,0.2229311,0.9364879,-1,-1,3.0,32.0,-9999,33943.86262125,-4.953643798828125,0.3976898193359375,0.9776458740234376,33943.85887125,3.112660096784619,-0.0500243297939042,0.6203128504288185,6.31367015838623,-2.193298101425171,7.35386323928833,-4.040580749511719,2.281286716461182,2.214381694793701,XArbitraryZVertical,-0.0282274374540981,-0.3047356798297695,-0.9517779798816364,-0.0214035516383275,-0.0406876541674137,-0.5812897682189941,-0.8126787543296814,0,0,0,-1,-1,33943.73731175,unknown,2,2022-06-02T10:42:50.550+02:00,2022-06-02T10:32:51.428+02:00,42,1.845214,0,0,42.60812,0,0,2022-06-02T10:42:50.550+02:00,675852170.5495021,0,6.230469,101.1184,1,0.9
496,2022-06-02T10:42:50.690+02:00,1654159370.003658,53.22899348970873,10.39848353911862,29.18989,0.2229311,0.9364879,-1,-1,3.0,32.0,-9999,33943.87259425,-5.013458251953125,-0.3379364013671875,0.45550537109375,33943.86884425,-3.075120759121166,-0.1259348350979995,0.6807312589941957,6.949292659759521,-1.390633583068848,6.769789695739746,-4.78578519821167,1.147992372512817,1.817848801612854,XArbitraryZVertical,-0.048211980133701,-0.3349572269165599,-0.940943112942744,0.0102664182284445,-0.0976070836186409,-0.6293614506721497,-0.7709585428237915,0,0,0,-1,-1,33943.73731175,unknown,2,2022-06-02T10:42:50.550+02:00,2022-06-02T10:32:51.428+02:00,42,1.845214,0,0,42.60812,0,0,2022-06-02T10:42:50.550+02:00,675852170.5495021,0,6.230469,101.1184,1,0.9
497,2022-06-02T10:42:50.700+02:00,1654159370.003658,53.22899348970873,10.39848353911862,29.18989,0.2229311,0.9364879,-1,-1,3.0,32.0,-9999,33943.88256725,-4.694549560546875,-0.9286651611328124,0.110687255859375,33943.87881625,-2.975815930382474,-0.2005207542148565,0.7363863482860439,6.345731258392334,-0.6327521204948425,6.341563701629639,-4.899104118347168,0.4089043736457825,1.235103368759155,XArbitraryZVertical,-0.0634133675337277,-0.3646248413625798,-0.9280895573196658,0.0409540506772778,-0.1475722938776016,-0.671614944934845,-0.7260549664497375,0,0,0,-1,-1,33943.73731175,unknown,2,2022-06-02T10:42:50.550+02:00,2022-06-02T10:32:51.428+02:00,42,1.845214,0,0,42.60812,0,0,2022-06-02T10:42:50.550+02:00,675852170.5495021,0,6.230469,101.1184,1,0.9
498,2022-06-02T10:42:50.710+02:00,1654159370.003658,53.22899348970873,10.39848353911862,29.18989,0.2229311,0.9364879,-1,-1,3.0,32.0,-9999,33943.89253925,-4.623077392578125,-1.330535888671875,-0.0677490234375,33943.88878925,-2.875241620667574,-0.2729657710421826,0.7752661741721851,4.542660236358643,0.015850082039833,6.123590469360352,-4.532822608947754,-0.1580954790115356,0.8313910961151123,XArbitraryZVertical,-0.0751247314653165,-0.3878929732640957,-0.9159043980158788,0.0708125616681089,-0.1925495266914368,-0.6999062299728394,-0.6877906322479248,0,0,0,-1,-1,33943.73731175,unknown,2,2022-06-02T10:42:50.550+02:00,2022-06-02T10:32:51.428+02:00,42,1.845214,0,0,42.60812,0,0,2022-06-02T10:42:50.550+02:00,675852170.5495021,0,6.230469,101.1184,1,0.9
499,2022-06-02T10:42:50.720+02:00,1654159370.003658,53.22899348970873,10.39848353911862,29.18989,0.2229311,0.9364879,-1,-1,3.0,32.0,-9999,33943.90251225,-4.523284912109375,-1.15728759765625,-0.206024169921875,33943.89876225,-2.778605106665052,-0.336014150786695,0.7898708994274316,2.398485660552979,1.037839412689209,6.113447666168213,-4.389139652252197,-0.5943793058395386,0.6120038032531738,XArbitraryZVertical,-0.0833416054470419,-0.4009601396387452,-0.906690903376282,0.1009785130649264,-0.2321068644523621,-0.7102624177932739,-0.6645702719688416,0,0,0,-1,-1,33943.73731175,unknown,2,2022-06-02T10:42:50.550+02:00,2022-06-02T10:32:51.428+02:00,42,1.845214,0,0,42.60812,0,0,2022-06-02T10:42:50.550+02:00,675852170.5495021,0,6.230469,101.1184,1,0.9
500,2022-06-02T10:42:50.730+02:00,1654159370.003658,53.22899348970873,10.39848353911862,29.18989,0.2229311,0.9364879,-1,-1,3.0,32.0,-9999,33943.91248525,-4.147918701171875,-0.6915130615234375,-0.196136474609375,33943.90873425,-2.689285532219192,-0.3848846902127029,0.7836931944520458,1.056321501731873,1.766355872154236,6.156258583068848,-4.288384437561035,-0.5044423341751099,0.4684585332870483,XArbitraryZVertical,-0.0882075167827437,-0.4049360018486302,-0.9004230566052196,0.1322294684293033,-0.2659371197223663,-0.7059001326560974,-0.6564925312995911,0,0,0,-1,-1,33943.73731175,unknown,2,2022-06-02T10:42:50.550+02:00,2022-06-02T10:32:51.428+02:00,42,1.845214,0,0,42.60812,0,0,2022-06-02T10:42:50.550+02:00,675852170.5495021,0,6.230469,101.1184,1,0.9
501,2022-06-02T10:42:50.740+02:00,1654159370.003658,53.22899348970873,10.39848353911862,29.18989,0.2229311,0.9364879,-1,-1,3.0,32.0,-9999,33943.92245725,-3.950958251953125,-0.6560821533203125,-0.037200927734375,33943.91870725,-2.606659336223198,-0.4239965946241525,0.7663766028151611,0.4756793677806854,1.963150382041931,6.052774906158447,-3.898786306381226,-0.0424935817718505,0.4467512369155884,XArbitraryZVertical,-0.0916150552384899,-0.404090058669727,-0.8952652202912856,0.1637621221967933,-0.2963888347148895,-0.6935294270515442,-0.6566358208656311,0,0,0,-1,-1,33943.73731175,unknown,2,2022-06-02T10:42:50.550+02:00,2022-06-02T10:32:51.428+02:00,42,1.845214,0,0,42.60812,0,0,2022-06-02T10:42:50.550+02:00,675852170.5495021,0,6.230469,101.1184,1,0.9
502,2022-06-02T10:42:50.750+02:00,1654159370.003658,53.22899348970873,10.39848353911862,29.18989,0.2229311,0.9364879,-1,-1,3.0,32.0,-9999,33943.93243025,-3.9403076171875,-0.8559722900390625,0.1062774658203125,33943.92868025,-2.531079048035953,-0.4555237739223162,0.7441252356875182,0.2428221851587296,2.116765737533569,5.824933052062988,-3.634678363800049,0.0416473746299743,0.6030466556549072,XArbitraryZVertical,-0.0941888494271356,-0.4009944409552253,-0.8902357835063267,0.1944533689273753,-0.3236500024795532,-0.6773285269737244,-0.6606638431549072,0,0,0,-1,-1,33943.73731175,unknown,2,2022-06-02T10:42:50.550+02:00,2022-06-02T10:32:51.428+02:00,42,1.845214,0,0,42.60812,0,0,2022-06-02T10:42:50.550+02:00,675852170.5495021,0,6.230469,101.1184,1,0.9
503,2022-06-02T10:42:50.760+02:00,1654159370.003658,53.22899348970873,10.39848353911862,29.18989,0.2229311,0.9364879,-1,-1,3.0,32.0,-9999,33943.94240325,-3.869247436523438,-0.92608642578125,0.079681396484375,33943.93865225,-2.461681239129601,-0.4798006404898826,0.7207163511340748,0.2330236434936523,2.319416046142578,5.53189754486084,-3.595230102539062,-0.1779370903968811,0.760446310043335,XArbitraryZVertical,-0.095410832982043,-0.3970489101754363,-0.884887441269626,0.2241052058973109,-0.3468171656131744,-0.6599230766296387,-0.6664978861808777,0,0,0,-1,-1,33943.73731175,unknown,2,2022-06-02T10:42:50.550+02:00,2022-06-02T10:32:51.428+02:00,42,1.845214,0,0,42.60812,0,0,2022-06-02T10:42:50.550+02:00,675852170.5495021,0,6.230469,101.1184,1,0.9
504,2022-06-02T10:42:50.770+02:00,1654159370.003658,53.22899348970873,10.39848353911862,29.18989,0.2229311,0.9364879,-1,-1,3.0,32.0,-9999,33943.95237525,-3.688690185546875,-0.9986419677734376,0.016387939453125,33943.94862525,-2.397544878729579,-0.4985696429850094,0.6974951588473302,0.2680679261684418,2.254735708236694,5.281700611114502,-3.518667459487915,-0.2753179669380188,0.7673131227493286,XArbitraryZVertical,-0.0956221055320772,-0.3927860251707858,-0.8790955847320732,0.2525203801154562,-0.36649489402771,-0.6422998309135437,-0.6731510758399963,0,0,0,-1,-1,33943.73731175,unknown,2,2022-06-02T10:42:50.550+02:00,2022-06-02T10:32:51.428+02:00,42,1.845214,0,0,42.60812,0,0,2022-06-02T10:42:50.550+02:00,675852170.5495021,0,6.230469,101.1184,1,0.9
505,2022-06-02T10:42:50.780+02:00,1654159370.003658,53.22899348970873,10.39848353911862,29.18989,0.2229311,0.9364879,-1,-1,3.0,32.0,-9999,33943.96234825,-3.452316284179688,-0.96185302734375,0.131378173828125,33943.95859825,-2.337372882168936,-0.5152441682755897,0.6752843003198787,0.360089898109436,2.058046340942383,5.042098045349121,-3.330026388168335,-0.3701962828636169,0.695811927318573,XArbitraryZVertical,-0.0958567065770961,-0.388862390402988,-0.8726555648606515,0.2794098248661366,-0.3846037089824677,-0.6251192688941956,-0.6791950464248657,0,0,0,-1,-1,33943.73731175,unknown,2,2022-06-02T10:42:50.550+02:00,2022-06-02T10:32:51.428+02:00,42,1.845214,0,0,42.60812,0,0,2022-06-02T10:42:50.550+02:00,675852170.5495021,0,6.230469,101.1184,1,0.9
506,2022-06-02T10:42:50.790+02:00,1654159370.003658,53.22899348970873,10.39848353911862,29.18989,0.2229311,0.9364879,-1,-1,3.0,32.0,-9999,33943.97232125,-3.226547241210938,-0.989105224609375,0.22943115234375,33943.96857025,-2.281048580691903,-0.5301190858824144,0.654323425811046,0.4391253292560577,1.933586478233337,4.760680675506592,-3.083951234817505,-0.3589677810668945,0.794952392578125,XArbitraryZVertical,-0.09609798059534,-0.3853409577851314,-0.8657038037460245,0.3046875555302488,-0.4012019634246826,-0.6086225509643555,-0.6845550537109375,0,0,0,-1,-1,33943.73731175,unknown,2,2022-06-02T10:42:50.550+02:00,2022-06-02T10:32:51.428+02:00,42,1.845214,0,0,42.60812,0,0,2022-06-02T10:42:50.550+02:00,675852170.5495021,0,6.230469,101.1184,1,0.9
507,2022-06-02T10:42:50.800+02:00,1654159370.003658,53.22899348970873,10.39848353911862,29.18989,0.2229311,0.9364879,-1,-1,3.0,32.0,-9999,33943.98229325,-2.956222534179688,-1.138198852539062,0.2119598388671875,33943.97854325,-2.227762116886041,-0.5431179189328735,0.6351421268543023,0.6542916297912598,1.888091564178467,4.559571743011475,-2.836097240447998,-0.3839725255966187,0.9159575700759888,XArbitraryZVertical,-0.0959659362585068,-0.3823808383697907,-0.8582541888579033,0.3285956680390284,-0.4160237014293671,-0.5932919383049011,-0.689150869846344,0,0,0,-1,-1,33943.73731175,unknown,2,2022-06-02T10:42:50.550+02:00,2022-06-02T10:32:51.428+02:00,42,1.845214,0,0,42.60812,0,0,2022-06-02T10:42:50.550+02:00,675852170.5495021,0,6.230469,101.1184,1,0.9
508,2022-06-02T10:42:50.810+02:00,1654159370.003658,53.22899348970873,10.39848353911862,29.18989,0.2229311,0.9364879,-1,-1,3.0,32.0,-9999,33943.99226625,-2.580963134765625,-1.314865112304688,0.0919189453125,33943.98851625,-2.176204632433794,-0.555335349886097,0.6186942692099742,0.9513387680053712,1.681688904762268,4.276377201080322,-2.571156740188599,-0.5374749302864075,0.9096231460571288,XArbitraryZVertical,-0.0953733730667163,-0.3805206435882986,-0.8501222964885266,0.3512836196121193,-0.4294993877410889,-0.579971969127655,-0.6922159194946289,0,0,0,-1,-1,33943.73731175,unknown,2,2022-06-02T10:42:50.550+02:00,2022-06-02T10:32:51.428+02:00,42,1.845214,0,0,42.60812,0,0,2022-06-02T10:42:50.550+02:00,675852170.5495021,0,6.230469,101.1184,1,0.9
509,2022-06-02T10:42:50.820+02:00,1654159370.003658,53.22899348970873,10.39848353911862,29.18989,0.2229311,0.9364879,-1,-1,3.0,32.0,-9999,33944.00223925,-2.412399291992188,-1.432357788085938,-0.05853271484375,33943.99848825,-2.126387508732265,-0.5693214912889597,0.6076253175685092,1.535706996917725,1.268808960914612,3.809249639511108,-2.179666042327881,-0.726077675819397,0.8031396269798279,XArbitraryZVertical,-0.094617823411256,-0.3811749068750941,-0.8411691733841417,0.3717360914479629,-0.442572146654129,-0.5709194540977478,-0.6915063261985779,0,0,0,-1,-1,33943.73731175,unknown,2,2022-06-02T10:42:50.550+02:00,2022-06-02T10:32:51.428+02:00,42,1.845214,0,0,42.60812,0,0,2022-06-02T10:42:50.550+02:00,675852170.5495021,0,6.230469,101.1184,1,0.9
510,2022-06-02T10:42:50.830+02:00,1654159370.003658,53.22899348970873,10.39848353911862,29.18989,0.2229311,0.9364879,-1,-1,3.0,32.0,-9999,33944.01221125,-2.406173706054688,-1.679946899414062,-0.15936279296875,33944.00846125,-2.07785171159349,-0.5853986832242271,0.603227674034657,2.068461418151855,1.077475786209106,3.415301561355591,-1.963381290435791,-0.8470795154571533,0.6452655792236328,XArbitraryZVertical,-0.0932072076306887,-0.3848615851035661,-0.8314220135614321,0.3897839447607749,-0.4550147950649261,-0.5673034191131592,-0.6863879561424255,0,0,0,-1,-1,33943.73731175,unknown,2,2022-06-02T10:42:50.550+02:00,2022-06-02T10:32:51.428+02:00,42,1.845214,0,0,42.60812,0,0,2022-06-02T10:42:50.550+02:00,675852170.5495021,0,6.230469,101.1184,1,0.9
511,2022-06-02T10:42:50.840+02:00,1654159370.003658,53.22899348970873,10.39848353911862,29.18989,0.2229311,0.9364879,-1,-1,3.0,32.0,-9999,33944.02218425,-2.314239501953125,-2.019729614257812,-0.1739044189453125,33944.01843425,-2.031058474078816,-0.6013326295994488,0.6025597941422858,2.071698665618896,1.056675434112549,3.079187631607056,-1.94238543510437,-1.069416165351868,0.5266227722167969,XArbitraryZVertical,-0.0909103084924467,-0.3899406585561971,-0.8214096075269625,0.4061623890247806,-0.4661076664924622,-0.5667533278465271,-0.6793631911277771,0,0,0,-1,-1,33943.73731175,unknown,2,2022-06-02T10:42:50.550+02:00,2022-06-02T10:32:51.428+02:00,42,1.845214,0,0,42.60812,0,0,2022-06-02T10:42:50.550+02:00,675852170.5495021,0,6.230469,101.1184,1,0.9
512,2022-06-02T10:42:50.850+02:00,1654159370.003658,53.22899348970873,10.39848353911862,29.18989,0.2229311,0.9364879,-1,-1,3.0,32.0,-9999,33944.03215725,-2.159347534179688,-2.221527099609375,-0.2119903564453125,33944.02840625,-1.990418147539289,-0.6139293499841851,0.600746539545752,1.428550601005554,1.028056263923645,2.641225337982178,-1.856262445449829,-1.415942668914795,0.4989229440689087,XArbitraryZVertical,-0.088604644579693,-0.3937140576063461,-0.8125210176406389,0.420651943111171,-0.4752194285392761,-0.5652584433555603,-0.6742768883705139,0,0,0,-1,-1,33943.73731175,unknown,2,2022-06-02T10:42:50.550+02:00,2022-06-02T10:32:51.428+02:00,42,1.845214,0,0,42.60812,0,0,2022-06-02T10:42:50.550+02:00,675852170.5495021,0,6.230469,101.1184,1,0.9
513,2022-06-02T10:42:50.860+02:00,1654159370.003658,53.22899348970873,10.39848353911862,29.18989,0.2229311,0.9364879,-1,-1,3.0,32.0,-9999,33944.04212925,-2.019195556640625,-2.167526245117188,-0.2756500244140625,33944.03837925,-1.958656696310672,-0.6217184829654552,0.5961172971475318,0.8876868486404419,0.992088496685028,2.167331695556641,-1.696307778358459,-1.649641156196594,0.4701144695281982,XArbitraryZVertical,-0.0868260063218575,-0.3951250702051556,-0.8055738129024406,0.4328837034896319,-0.4819759130477905,-0.5614336729049683,-0.672674834728241,0,0,0,-1,-1,33943.73731175,unknown,2,2022-06-02T10:42:50.550+02:00,2022-06-02T10:32:51.428+02:00,42,1.845214,0,0,42.60812,0,0,2022-06-02T10:42:50.550+02:00,675852170.5495021,0,6.230469,101.1184,1,0.9
514,2022-06-02T10:42:50.870+02:00,1654159370.003658,53.22899348970873,10.39848353911862,29.18989,0.2229311,0.9364879,-1,-1,3.0,32.0,-9999,33944.05210225,-1.850875854492188,-1.959625244140625,-0.186279296875,33944.04835225,-1.934297878179978,-0.6255132190294849,0.5909992285737984,0.6771975755691528,0.9892868399620056,1.721640586853027,-1.548833012580872,-1.633101224899292,0.3989917039871216,XArbitraryZVertical,-0.0850368234356647,-0.3952061819524614,-0.800243687557091,0.4429343491772452,-0.486201137304306,-0.5571910738945007,-0.6731616258621216,0,0,0,-1,-1,33943.73731175,unknown,2,2022-06-02T10:42:50.550+02:00,2022-06-02T10:32:51.428+02:00,42,1.845214,0,0,42.60812,0,0,2022-06-02T10:42:50.550+02:00,675852170.5495021,0,6.230469,101.1184,1,0.9
515,2022-06-02T10:42:50.880+02:00,1654159370.003658,53.22899348970873,10.39848353911862,29.18989,0.2229311,0.9364879,-1,-1,3.0,32.0,-9999,33944.06207525,-1.635147094726562,-1.936721801757812,-0.12274169921875,33944.05832425,-1.9152496526218,-0.6260414252974283,0.5879626927980518,0.7551325559616089,1.019227147102356,1.215343832969666,-1.388186693191528,-1.419164180755615,0.4750844836235046,XArbitraryZVertical,-0.0823857350898797,-0.3950648736537761,-0.7960531364001182,0.4510384922435735,-0.4875457882881165,-0.5546669960021973,-0.6742726564407349,0,0,0,-1,-1,33943.73731175,unknown,2,2022-06-02T10:42:50.550+02:00,2022-06-02T10:32:51.428+02:00,42,1.845214,0,0,42.60812,0,0,2022-06-02T10:42:50.550+02:00,675852170.5495021,0,6.230469,101.1184,1,0.9
516,2022-06-02T10:42:50.890+02:00,1654159370.003658,53.22899348970873,10.39848353911862,29.18989,0.2229311,0.9364879,-1,-1,3.0,32.0,-9999,33944.07204725,-1.464920043945312,-1.91064453125,-0.1053619384765625,33944.06829725,-1.899916357963455,-0.6249896301682384,0.5889688828359209,0.8672503232955933,0.8680658936500549,0.7403573989868164,-1.174257040023804,-1.383033752441406,0.546173632144928,XArbitraryZVertical,-0.078634672671415,-0.3957909765562257,-0.7925866411600875,0.457135185231309,-0.4865095317363739,-0.5555039048194885,-0.6743322014808655,0,0,0,-1,-1,33943.73731175,unknown,2,2022-06-02T10:42:50.550+02:00,2022-06-02T10:32:51.428+02:00,42,1.845214,0,0,42.60812,0,0,2022-06-02T10:42:50.550+02:00,675852170.5495021,0,6.230469,101.1184,1,0.9
517,2022-06-02T10:42:50.900+02:00,1654159370.003658,53.22899348970873,10.39848353911862,29.18989,0.2229311,0.9364879,-1,-1,3.0,32.0,-9999,33944.08202025,-1.353195190429688,-1.877960205078125,-0.1130218505859375,33944.07827025,-1.888629112369571,-0.6237207925306797,0.5932443212195472,0.932104468345642,0.629588782787323,0.2895832359790802,-0.9978090524673462,-1.353635311126709,0.5691179037094116,XArbitraryZVertical,-0.0746026125692501,-0.3974002793365619,-0.7899302506308019,0.4609964283033799,-0.4842619299888611,-0.5590539574623108,-0.6730149388313293,0,0,0,-1,-1,33943.73731175,unknown,2,2022-06-02T10:42:50.550+02:00,2022-06-02T10:32:51.428+02:00,42,1.845214,0,0,42.60812,0,0,2022-06-02T10:42:50.550+02:00,675852170.5495021,0,6.230469,101.1184,1,0.9
518,2022-06-02T10:42:50.910+02:00,1654159370.003658,53.22899348970873,10.39848353911862,29.18989,0.2229311,0.9364879,-1,-1,3.0,32.0,-9999,33944.09199325,-1.28955078125,-1.782974243164062,-0.1193695068359375,33944.08824225,-1.881346518658719,-0.622823315543838,0.6004051627057241,0.9247320294380188,0.3678019046783447,-0.1442981660366058,-0.8838174343109131,-1.320765376091003,0.5556327104568481,XArbitraryZVertical,-0.0706212118365188,-0.399903007197087,-0.7880874298120221,0.4626106114658547,-0.4813101291656494,-0.5649768114089966,-0.6701804399490356,0,0,0,-1,-1,33943.73731175,unknown,2,2022-06-02T10:42:50.550+02:00,2022-06-02T10:32:51.428+02:00,42,1.845214,0,0,42.60812,0,0,2022-06-02T10:42:50.550+02:00,675852170.5495021,0,6.230469,101.1184,1,0.9
519,2022-06-02T10:42:50.919+02:00,1654159370.003658,53.22899348970873,10.39848353911862,29.18989,0.2229311,0.9364879,-1,-1,3.0,32.0,-9999,33944.10196525,-1.2799072265625,-1.692596435546875,-0.145233154296875,33944.09821525,-1.878496431139019,-0.6218499857570985,0.6097473658024054,0.8660076856613159,0.1625325530767441,-0.565036416053772,-0.8165359497070312,-1.222719192504883,0.5507898330688477,XArbitraryZVertical,-0.0668180685041772,-0.4029524499461992,-0.7871973644633844,0.4620445029590683,-0.4775619506835938,-0.5726603865623474,-0.6663293242454529,0,0,0,-1,-1,33943.73731175,unknown,2,2022-06-02T10:42:50.550+02:00,2022-06-02T10:32:51.428+02:00,42,1.845214,0,0,42.60812,0,0,2022-06-02T10:42:50.550+02:00,675852170.5495021,0,6.230469,101.1184,1,0.9
520,2022-06-02T10:42:50.930+02:00,1654159370.003658,53.22899348970873,10.39848353911862,29.18989,0.2229311,0.9364879,-1,-1,3.0,32.0,-9999,33944.11193825,-1.29803466796875,-1.575332641601562,-0.151885986328125,33944.10818825,-1.880136035749938,-0.6198604021061106,0.6206826989781081,0.7489767074584961,0.0434005707502365,-0.918206751346588,-0.8069415092468262,-1.12354850769043,0.5184491872787476,XArbitraryZVertical,-0.0630304338929236,-0.4061484759006075,-0.7873062882679894,0.4595862302918917,-0.4725690186023712,-0.5815906524658203,-0.6621411442756653,0,0,0,-1,-1,33943.73731175,unknown,2,2022-06-02T10:42:50.550+02:00,2022-06-02T10:32:51.428+02:00,42,1.845214,0,0,42.60812,0,0,2022-06-02T10:42:50.550+02:00,675852170.5495021,0,6.230469,101.1184,1,0.9
