,loggingTime(txt),locationTimestamp_since1970(s),locationLatitude(WGS84),locationLongitude(WGS84),locationAltitude(m),locationSpeed(m/s),locationSpeedAccuracy(m/s),locationCourse(°),locationCourseAccuracy(°),locationVerticalAccuracy(m),locationHorizontalAccuracy(m),locationFloor(Z),accelerometerTimestamp_sinceReboot(s),accelerometerAccelerationX(G),accelerometerAccelerationY(G),accelerometerAccelerationZ(G),motionTimestamp_sinceReboot(s),motionYaw(rad),motionRoll(rad),motionPitch(rad),motionRotationRateX(rad/s),motionRotationRateY(rad/s),motionRotationRateZ(rad/s),motionUserAccelerationX(G),motionUserAccelerationY(G),motionUserAccelerationZ(G),motionAttitudeReferenceFrame(txt),motionQuaternionX(R),motionQuaternionY(R),motionQuaternionZ(R),motionQuaternionW(R),motionGravityX(G),motionGravityY(G),motionGravityZ(G),motionMagneticFieldX(µT),motionMagneticFieldY(µT),motionMagneticFieldZ(µT),motionHeading(°),motionMagneticFieldCalibrationAccuracy(Z),activityTimestamp_sinceReboot(s),activity(txt),activityActivityConfidence(Z),activityActivityStartDate(txt),pedometerStartDate(txt),pedometerNumberofSteps(N),pedometerAverageActivePace(s/m),pedometerCurrentPace(s/m),pedometerCurrentCadence(steps/s),pedometerDistance(m),pedometerFloorAscended(N),pedometerFloorDescended(N),pedometerEndDate(txt),altimeterTimestamp_sinceReboot(s),altimeterReset(bool),altimeterRelativeAltitude(m),altimeterPressure(kPa),batteryState(N),batteryLevel(R)
362,2022-06-02T10:43:24.498+02:00,1654159404.00062,53.22915740566808,10.39850018448023,36.8321,0.6988474,0.5406967,358.3063416698033,23.87184555998067,3,6.000906205260658,-9999,33977.679961375,0.0362701416015625,1.652740478515625,-1.574569702148438,33977.676211375,0.4710196689147396,0.8105647022755558,-0.0315559371938271,-17.14229583740234,11.6746883392334,-5.029248237609863,-0.6965141296386719,1.332173109054565,-0.988881289958954,XArbitraryZVertical,0.1060879240175506,-0.3799634541657658,-0.2083606372442467,-0.8949631024380971,0.7243156433105469,0.0315507017076015,-0.6887462735176086,0,0,0,-1,-1,33976.922382375,unknown,2,2022-06-02T10:43:23.735+02:00,2022-06-02T10:32:51.428+02:00,49,2.040457,0,0,47.95379,0,0,2022-06-02T10:43:23.735+02:00,675852203.7350348,0,7.558594,101.1031,1,0.9
363,2022-06-02T10:43:24.508+02:00,1654159404.00062,53.22915740566808,10.39850018448023,36.8321,0.6988474,0.5406967,358.3063416698033,23.87184555998067,3,6.000906205260658,-9999,33977.689934375,-0.0429229736328125,1.7333984375,-1.440994262695312,33977.686184375,0.5737997768686458,0.9406248217253084,-0.1814810210676541,-17.71482849121094,12.09175109863281,-4.891563415527344,-0.7574878334999084,1.445001840591431,-1.009536027908325,XArbitraryZVertical,0.2051849358832665,-0.4099954250170307,-0.2118327718526156,-0.8630930992021287,0.7946582436561584,0.1804864704608917,-0.579605758190155,0,0,0,-1,-1,33976.922382375,unknown,2,2022-06-02T10:43:23.735+02:00,2022-06-02T10:32:51.428+02:00,49,2.040457,0,0,47.95379,0,0,2022-06-02T10:43:23.735+02:00,675852203.7350348,0,7.558594,101.1031,1,0.9
364,2022-06-02T10:43:24.518+02:00,1654159404.00062,53.22915740566808,10.39850018448023,36.8321,0.6988474,0.5406967,358.3063416698033,23.87184555998067,3,6.000906205260658,-9999,33977.699907375,-0.2296295166015625,1.686676025390625,-1.307205200195312,33977.696156375,0.6994692968745063,1.093940320255942,-0.3133306036998592,-16.86346054077148,12.4115047454834,-4.73340368270874,-0.8714159727096558,1.43301260471344,-1.012425065040588,XArbitraryZVertical,0.3012242090124252,-0.4369707474956695,-0.2128368744716096,-0.8203785515478564,0.8451861143112183,0.3082287907600403,-0.4366410970687866,0,0,0,-1,-1,33976.922382375,unknown,2,2022-06-02T10:43:23.735+02:00,2022-06-02T10:32:51.428+02:00,49,2.040457,0,0,47.95379,0,0,2022-06-02T10:43:23.735+02:00,675852203.7350348,0,7.558594,101.1031,1,0.9
365,2022-06-02T10:43:24.528+02:00,1654159404.00062,53.22915740566808,10.39850018448023,36.8321,0.6988474,0.5406967,358.3063416698033,23.87184555998067,3,6.000906205260658,-9999,33977.70988037501,-0.416839599609375,1.950973510742188,-0.7479248046875,33977.706129375,0.8411149136717508,1.270000742966909,-0.4191398595347,-15.78482818603516,12.62966728210449,-4.819743633270264,-1.072271227836609,1.266716003417969,-1.083919167518616,XArbitraryZVertical,0.3897695536013842,-0.4612620701614819,-0.2088435661274688,-0.7692213813708215,0.8724270462989807,0.4069749116897583,-0.2706339955329895,0,0,0,-1,-1,33976.922382375,unknown,2,2022-06-02T10:43:23.735+02:00,2022-06-02T10:32:51.428+02:00,49,2.040457,0,0,47.95379,0,0,2022-06-02T10:43:23.735+02:00,675852203.7350348,0,7.558594,101.1031,1,0.9
366,2022-06-02T10:43:24.538+02:00,1654159404.00062,53.22915740566808,10.39850018448023,36.8321,0.6988474,0.5406967,358.3063416698033,23.87184555998067,3,6.000906205260658,-9999,33977.719852375,-0.621368408203125,2.160202026367188,-0.1755523681640625,33977.716102375,0.9985388323150988,1.467528196058006,-0.4994038517730686,-15.27653121948242,12.89327430725098,-5.282597064971924,-1.271354198455811,1.43932580947876,-0.7246448993682861,XArbitraryZVertical,0.4718036728324388,-0.4818235310621479,-0.1992605452680175,-0.7110151550662621,0.8731913566589355,0.478902280330658,-0.0904947593808174,0,0,0,-1,-1,33976.922382375,unknown,2,2022-06-02T10:43:23.735+02:00,2022-06-02T10:32:51.428+02:00,49,2.040457,0,0,47.95379,0,0,2022-06-02T10:43:23.735+02:00,675852203.7350348,0,7.558594,101.1031,1,0.9
367,2022-06-02T10:43:24.548+02:00,1654159404.00062,53.22915740566808,10.39850018448023,36.8321,0.6988474,0.5406967,358.3063416698033,23.87184555998067,3,6.000906205260658,-9999,33977.72982537501,-0.9680938720703124,2.41839599609375,0.4481201171875,33977.726075375,1.176687642040472,1.687372309567663,-0.5553575869387467,-15.65367412567139,13.1312313079834,-6.14640998840332,-1.434444546699524,1.610524415969849,-0.3463598787784576,XArbitraryZVertical,0.5503218620232653,-0.4965498309686153,-0.1844109524435828,-0.645427415623014,0.8439444899559021,0.5272471904754639,0.0988317728042602,0,0,0,-1,-1,33976.922382375,unknown,2,2022-06-02T10:43:23.735+02:00,2022-06-02T10:32:51.428+02:00,49,2.040457,0,0,47.95379,0,0,2022-06-02T10:43:23.735+02:00,675852203.7350348,0,7.558594,101.1031,1,0.9
368,2022-06-02T10:43:24.558+02:00,1654159404.00062,53.22915740566808,10.39850018448023,36.8321,0.6988474,0.5406967,358.3063416698033,23.87184555998067,3,6.000906205260658,-9999,33977.73979837501,-1.474090576171875,2.708114624023438,1.206527709960938,33977.736047375,1.38352100746542,1.931524255079668,-0.5819303732430444,-17.15885734558105,13.37939929962158,-7.315757751464844,-1.69623327255249,1.829421281814575,0.0679176151752471,XArbitraryZVertical,0.6282673712458797,-0.5027028707490406,-0.1658654626312759,-0.5701391804500839,0.7816368937492371,0.5496376156806946,0.2948601245880127,0,0,0,-1,-1,33976.922382375,unknown,2,2022-06-02T10:43:23.735+02:00,2022-06-02T10:32:51.428+02:00,49,2.040457,0,0,47.95379,0,0,2022-06-02T10:43:23.735+02:00,675852203.7350348,0,7.558594,101.1031,1,0.9
369,2022-06-02T10:43:24.568+02:00,1654159404.00062,53.22915740566808,10.39850018448023,36.8321,0.6988474,0.5406967,358.3063416698033,23.87184555998067,3,6.000906205260658,-9999,33977.74977037501,-2.067398071289062,2.953018188476562,2.267623901367188,33977.746020375,1.616516573424714,2.193984585311337,-0.5661093292354543,-18.77972793579102,13.71225166320801,-8.431565284729004,-2.089226722717285,2.14115309715271,0.607565701007843,XArbitraryZVertical,0.7058507250628537,-0.498059944044787,-0.1451269973983683,-0.4823373253230328,0.6853417754173279,0.5363523960113525,0.4925779104232788,0,0,0,-1,-1,33976.922382375,unknown,2,2022-06-02T10:43:23.735+02:00,2022-06-02T10:32:51.428+02:00,49,2.040457,0,0,47.95379,0,0,2022-06-02T10:43:23.735+02:00,675852203.7350348,0,7.558594,101.1031,1,0.9
370,2022-06-02T10:43:24.577+02:00,1654159404.00062,53.22915740566808,10.39850018448023,36.8321,0.6988474,0.5406967,358.3063416698033,23.87184555998067,3,6.000906205260658,-9999,33977.75974337501,-2.55316162109375,3.102676391601562,3.450347900390625,33977.755993375,1.847271477682391,2.449932806505788,-0.5016314935065512,-18.87188148498535,13.81377220153809,-9.309727668762209,-2.554781436920166,2.436471223831177,1.440910339355469,XArbitraryZVertical,0.7778052138000843,-0.4823581159220852,-0.121191578922997,-0.384268543655794,0.559237003326416,0.4808566570281982,0.6753005981445312,0,0,0,-1,-1,33976.922382375,unknown,2,2022-06-02T10:43:23.735+02:00,2022-06-02T10:32:51.428+02:00,49,2.040457,0,0,47.95379,0,0,2022-06-02T10:43:23.735+02:00,675852203.7350348,0,7.558594,101.1031,1,0.9
371,2022-06-02T10:43:24.587+02:00,1654159404.00062,53.22915740566808,10.39850018448023,36.8321,0.6988474,0.5406967,358.3063416698033,23.87184555998067,3,6.000906205260658,-9999,33977.76971637501,-2.964981079101562,2.85418701171875,4.757461547851562,33977.765965375,2.045533721189956,2.672577176868482,-0.4033113571715374,-16.8885555267334,13.19879531860352,-9.792322158813477,-2.916611909866333,2.715977907180786,2.489782333374023,XArbitraryZVertical,0.8376153401544385,-0.4567522712508522,-0.0928191443221314,-0.2848902418281844,0.4157420098781586,0.3924661576747894,0.8204441666603088,0,0,0,-1,-1,33976.922382375,unknown,2,2022-06-02T10:43:23.735+02:00,2022-06-02T10:32:51.428+02:00,49,2.040457,0,0,47.95379,0,0,2022-06-02T10:43:23.735+02:00,675852203.7350348,0,7.558594,101.1031,1,0.9
372,2022-06-02T10:43:24.597+02:00,1654159404.00062,53.22915740566808,10.39850018448023,36.8321,0.6988474,0.5406967,358.3063416698033,23.87184555998067,3,6.000906205260658,-9999,33977.77968837501,-3.25823974609375,2.415725708007812,6.739089965820312,33977.775938375,2.204001819284993,2.850538745521087,-0.3006056690580421,-13.13239192962646,11.31892108917236,-10.27697944641113,-3.193588495254517,2.600797653198242,3.645119190216064,XArbitraryZVertical,0.882542339955151,-0.4226249137289531,-0.0609721392617606,-0.1969511515913656,0.2740939259529114,0.2960987687110901,0.9149855971336364,0,0,0,-1,-1,33976.922382375,unknown,2,2022-06-02T10:43:23.735+02:00,2022-06-02T10:32:51.428+02:00,49,2.040457,0,0,47.95379,0,0,2022-06-02T10:43:23.735+02:00,675852203.7350348,0,7.558594,101.1031,1,0.9
373,2022-06-02T10:43:24.608+02:00,1654159404.00062,53.22915740566808,10.39850018448023,36.8321,0.6988474,0.5406967,358.3063416698033,23.87184555998067,3,6.000906205260658,-9999,33977.78966091667,-3.70751953125,1.7122802734375,8.933563232421875,33977.78591091667,2.335964369877206,2.981877531444991,-0.2161665953616557,-9.034777641296388,8.125531196594238,-10.91454601287842,-3.376313447952271,2.274023056030273,5.4960618019104,XArbitraryZVertical,0.9150518060771192,-0.3805626859796181,-0.0308071802703714,-0.1300118441148822,0.1553356498479843,0.2144870162010193,0.964295506477356,0,0,0,-1,-1,33976.922382375,unknown,2,2022-06-02T10:43:23.735+02:00,2022-06-02T10:32:51.428+02:00,49,2.040457,0,0,47.95379,0,0,2022-06-02T10:43:23.735+02:00,675852203.7350348,0,7.558594,101.1031,1,0.9
374,2022-06-02T10:43:24.617+02:00,1654159404.00062,53.22915740566808,10.39850018448023,36.8321,0.6988474,0.5406967,358.3063416698033,23.87184555998067,3,6.000906205260658,-9999,33977.79963391667,-4.612777709960938,1.386749267578125,10.99458312988281,33977.79588291667,2.46008310748927,3.062747787401896,-0.1576252247473008,-5.639865875244141,3.210525512695312,-12.05856513977051,-3.695050477981567,1.64402163028717,7.682213306427002,XArbitraryZVertical,0.9398841348260112,-0.3299778738029288,-0.0107394700724771,-0.0872771895897356,0.0777867957949638,0.1569733172655106,0.9845351576805116,0,0,0,-1,-1,33976.922382375,unknown,2,2022-06-02T10:43:23.735+02:00,2022-06-02T10:32:51.428+02:00,49,2.040457,0,0,47.95379,0,0,2022-06-02T10:43:23.735+02:00,675852203.7350348,0,7.558594,101.1031,1,0.9
375,2022-06-02T10:43:24.627+02:00,1654159404.00062,53.22915740566808,10.39850018448023,36.8321,0.6988474,0.5406967,358.3063416698033,23.87184555998067,3,6.000906205260658,-9999,33977.80960591667,-5.76690673828125,1.737472534179688,11.52107238769531,33977.80585591667,2.590500445740104,3.078179830846931,-0.1182507160188251,-3.989928960800171,-3.964200735092163,-13.22616672515869,-4.551254749298096,1.266317248344421,9.794761657714844,XArbitraryZVertical,0.9606221342865734,-0.2696579671966825,-0.0143829941985827,-0.0654431613847979,0.0629277825355529,0.1179753243923187,0.9910206198692322,0,0,0,-1,-1,33976.922382375,unknown,2,2022-06-02T10:43:23.735+02:00,2022-06-02T10:32:51.428+02:00,49,2.040457,0,0,47.95379,0,0,2022-06-02T10:43:23.735+02:00,675852203.7350348,0,7.558594,101.1031,1,0.9
376,2022-06-02T10:43:24.637+02:00,1654159404.00062,53.22915740566808,10.39850018448023,36.8321,0.6988474,0.5406967,358.3063416698033,23.87184555998067,3,6.000906205260658,-9999,33977.81957891667,-7.097305297851562,2.836959838867188,9.992919921875,33977.81582891667,2.728119059039235,3.010434730127028,-0.0987250075431303,-2.222194671630859,-12.63801860809326,-13.67417240142822,-5.746509075164795,1.531272292137146,10.57229995727539,XArbitraryZVertical,0.9760763489160926,-0.2014119058729497,-0.053951781495646,-0.0616231381113403,0.1301453858613968,0.0985647141933441,0.9865835905075072,0,0,0,-1,-1,33976.922382375,unknown,2,2022-06-02T10:43:23.735+02:00,2022-06-02T10:32:51.428+02:00,49,2.040457,0,0,47.95379,0,0,2022-06-02T10:43:23.735+02:00,675852203.7350348,0,7.558594,101.1031,1,0.9
377,2022-06-02T10:43:24.647+02:00,1654159404.00062,53.22915740566808,10.39850018448023,36.8321,0.6988474,0.5406967,358.3063416698033,23.87184555998067,3,6.000906205260658,-9999,33977.82955191667,-8.81475830078125,3.703994750976562,7.164581298828125,33977.82580091667,2.860659544386797,2.852593742633768,-0.1213048025155465,1.403444886207581,-22.00283432006836,-13.0986852645874,-7.186584949493408,2.587961673736572,9.356696128845217,XArbitraryZVertical,0.9792518690266137,-0.129648771391555,-0.1339187004053697,-0.079515964735356,0.2828985750675201,0.1210075244307518,0.9514860510826112,0,0,0,-1,-1,33976.922382375,unknown,2,2022-06-02T10:43:23.735+02:00,2022-06-02T10:32:51.428+02:00,49,2.040457,0,0,47.95379,0,0,2022-06-02T10:43:23.735+02:00,675852203.7350348,0,7.558594,101.1031,1,0.9
378,2022-06-02T10:43:24.657+02:00,1654159404.00062,53.22915740566808,10.39850018448023,36.8321,0.6988474,0.5406967,358.3063416698033,23.87184555998067,3,6.000906205260658,-9999,33977.83952391667,-11.14532470703125,4.171844482421875,3.787612915039062,33977.83577391667,2.966867659117348,2.605234998164875,-0.2020137105488644,5.010924339294434,-30.08812713623047,-12.96289920806885,-9.099066734313965,3.42664623260498,6.696737766265869,XArbitraryZVertical,0.958013011844076,-0.0570868078210102,-0.2541363248806402,-0.1198617123676825,0.5006168484687805,0.2006424963474274,0.842095673084259,0,0,0,-1,-1,33976.922382375,unknown,2,2022-06-02T10:43:23.735+02:00,2022-06-02T10:32:51.428+02:00,49,2.040457,0,0,47.95379,0,0,2022-06-02T10:43:23.735+02:00,675852203.7350348,0,7.558594,101.1031,1,0.9
379,2022-06-02T10:43:24.667+02:00,1654159404.00062,53.22915740566808,10.39850018448023,36.8321,0.6988474,0.5406967,358.3063416698033,23.87184555998067,3,6.000906205260658,-9999,33977.84949691667,-15.99705505371094,5.898788452148438,1.420379638671875,33977.84574691667,3.01991091522827,2.306219793843027,-0.3356823271275449,9.585406303405762,-33.16009521484375,-11.79926586151123,-11.41011905670166,3.755486488342285,3.568906784057617,XArbitraryZVertical,0.9036385744602112,0.0128445526288741,-0.3899223461274193,-0.1767281427001353,0.7001577615737915,0.329413503408432,0.6334553360939026,0,0,0,-1,-1,33976.922382375,unknown,2,2022-06-02T10:43:23.735+02:00,2022-06-02T10:32:51.428+02:00,49,2.040457,0,0,47.95379,0,0,2022-06-02T10:43:23.735+02:00,675852203.7350348,0,7.558594,101.1031,1,0.9
380,2022-06-02T10:43:24.677+02:00,1654159404.00062,53.22915740566808,10.39850018448023,36.8321,0.6988474,0.5406967,358.3063416698033,23.87184555998067,3,6.000906205260658,-9999,33977.85946991667,-22.62409973144531,7.3514404296875,1.880630493164062,33977.85571991667,2.928058376162132,1.92305582793981,-0.4914143725220791,22.57804489135742,-34.87469863891602,-6.208940982818604,-16.01183891296387,5.17863941192627,1.329902172088623,XArbitraryZVertical,0.8057409967174776,0.0536418569667834,-0.5306622148850813,-0.257490901423267,0.8275279998779297,0.4718733727931976,0.3041920065879822,0,0,0,-1,-1,33976.922382375,unknown,2,2022-06-02T10:43:23.735+02:00,2022-06-02T10:32:51.428+02:00,49,2.040457,0,0,47.95379,0,0,2022-06-02T10:43:23.735+02:00,675852203.7350348,0,7.558594,101.1031,1,0.9
381,2022-06-02T10:43:24.687+02:00,1654159404.00062,53.22915740566808,10.39850018448023,36.8321,0.6988474,0.5406967,358.3063416698033,23.87184555998067,3,6.000906205260658,-9999,33977.86944291667,-29.39979553222656,6.707931518554688,5.772857666015625,33977.86569191667,2.621258775115872,1.420306765199691,-0.537694407589438,31.6856746673584,-34.75573348999023,1.983701825141907,-22.68252754211426,6.678837299346924,1.711591720581055,XArbitraryZVertical,0.6591896609917532,0.0329472729280469,-0.6618754825805082,-0.355393253002342,0.8491844534873962,0.5121570825576782,-0.1287669390439987,0,0,0,-1,-1,33976.922382375,unknown,2,2022-06-02T10:43:23.735+02:00,2022-06-02T10:32:51.428+02:00,49,2.040457,0,0,47.95379,0,0,2022-06-02T10:43:23.735+02:00,675852203.7350348,0,7.558594,101.1031,1,0.9
382,2022-06-02T10:43:24.697+02:00,1654159404.00062,53.22915740566808,10.39850018448023,36.8321,0.6988474,0.5406967,358.3063416698033,23.87184555998067,3,6.000906205260658,-9999,33977.87941491667,-29.31393432617188,12.02239990234375,10.69184875488281,33977.87566491667,2.301791740062094,0.9317784850305966,-0.3324609879639614,36.30956268310547,-34.65104293823242,14.33843994140625,-29.6705322265625,6.508087158203125,5.877378463745117,XArbitraryZVertical,0.464805607347206,-0.0456190160639203,-0.7742627246277975,-0.4270736461203966,0.7587286829948425,0.3263702392578125,-0.5637493133544922,0,0,0,-1,-1,33976.922382375,unknown,2,2022-06-02T10:43:23.735+02:00,2022-06-02T10:32:51.428+02:00,49,2.040457,0,0,47.95379,0,0,2022-06-02T10:43:23.735+02:00,675852203.7350348,0,7.558594,101.1031,1,0.9
383,2022-06-02T10:43:24.707+02:00,1654159404.00062,53.22915740566808,10.39850018448023,36.8321,0.6988474,0.5406967,358.3063416698033,23.87184555998067,3,6.000906205260658,-9999,33977.88938791667,-32.06594848632812,4.632064819335938,22.12191772460938,33977.88563791667,2.146477407831911,0.5786641579341261,0.0189695449031877,36.24271774291992,-26.76211929321289,7.700653076171875,-29.35926246643066,11.11802864074707,10.15421295166016,XArbitraryZVertical,0.2463683510733811,-0.1441560464077115,-0.8434789479866411,-0.4550437840688152,0.5468076467514038,-0.0189684070646762,-0.8370433449745178,0,0,0,-1,-1,33976.922382375,unknown,2,2022-06-02T10:43:23.735+02:00,2022-06-02T10:32:51.428+02:00,49,2.040457,0,0,47.95379,0,0,2022-06-02T10:43:23.735+02:00,675852203.7350348,0,7.558594,101.1031,1,0.9
384,2022-06-02T10:43:24.717+02:00,1654159404.00062,53.22915740566808,10.39850018448023,36.8321,0.6988474,0.5406967,358.3063416698033,23.87184555998067,3,6.000906205260658,-9999,33977.89936091667,-23.11235046386719,-12.54219055175781,22.99093627929688,33977.89560991667,2.046481113908273,0.4666388662351988,0.376856265813452,36.17739868164062,-0.6674829721450806,10.69543743133545,-32.60947799682617,7.213213920593262,21.85906982421875,XArbitraryZVertical,0.0990371039108071,-0.2738330713818625,-0.8385090155486179,-0.4605538130188067,0.4183167517185211,-0.3679991662502289,-0.8304141759872437,0,0,0,-1,-1,33976.922382375,unknown,2,2022-06-02T10:43:23.735+02:00,2022-06-02T10:32:51.428+02:00,49,2.040457,0,0,47.95379,0,0,2022-06-02T10:43:23.735+02:00,675852203.7350348,0,7.558594,101.1031,1,0.9
385,2022-06-02T10:43:24.727+02:00,1654159404.00062,53.22915740566808,10.39850018448023,36.8321,0.6988474,0.5406967,358.3063416698033,23.87184555998067,3,6.000906205260658,-9999,33977.90933291667,-8.951370239257812,-18.60464477539062,7.5272216796875,33977.90558291667,1.957246185850898,0.5688064969994909,0.7480313937714308,36.14930725097656,10.23186492919922,11.90612030029297,-25.25313568115234,-10.28841590881348,24.43099403381348,XArbitraryZVertical,0.020977425075028,-0.4367551584212975,-0.7985613415068561,-0.4136479453828809,0.394829273223877,-0.6801970601081848,-0.6176097393035889,0,0,0,-1,-1,33976.922382375,unknown,2,2022-06-02T10:43:23.735+02:00,2022-06-02T10:32:51.428+02:00,49,2.040457,0,0,47.95379,0,0,2022-06-02T10:43:23.735+02:00,675852203.7350348,0,7.558594,101.1031,1,0.9
386,2022-06-02T10:43:24.737+02:00,1654159404.00062,53.22915740566808,10.39850018448023,36.8321,0.6988474,0.5406967,358.3063416698033,23.87184555998067,3,6.000906205260658,-9999,33977.91930591667,-1.420303344726562,-10.94718933105469,-3.440231323242188,33977.91555591667,1.766606690105712,0.7895137770428053,1.063955495608015,19.29201126098633,0.4738595485687256,9.085065841674805,-10.76236152648926,-17.74404907226562,10.27044582366943,XArbitraryZVertical,-0.0409905907388474,-0.5721944045060694,-0.7386078685565994,-0.3540788839973864,0.3446519672870636,-0.8742823600769043,-0.3418266773223877,0,0,0,-1,-1,33976.922382375,unknown,2,2022-06-02T10:43:23.735+02:00,2022-06-02T10:32:51.428+02:00,49,2.040457,0,0,47.95379,0,0,2022-06-02T10:43:23.735+02:00,675852203.7350348,0,7.558594,101.1031,1,0.9
387,2022-06-02T10:43:24.747+02:00,1654159404.00062,53.22915740566808,10.39850018448023,36.8321,0.6988474,0.5406967,358.3063416698033,23.87184555998067,3,6.000906205260658,-9999,33977.92927891667,-3.252151489257812,-5.075881958007812,-2.034423828125,33977.92552791667,1.724385424004232,0.829544995619211,1.135938513291534,-5.107711791992188,0.7336498498916626,-0.9471120238304138,-1.972978830337524,-11.0806188583374,-2.602691888809204,XArbitraryZVertical,-0.0624492568318625,-0.5948722871638996,-0.7268598013940363,-0.3374935838596934,0.3107474446296692,-0.9069299697875975,-0.2844541072845459,0,0,0,-1,-1,33976.922382375,unknown,2,2022-06-02T10:43:23.735+02:00,2022-06-02T10:32:51.428+02:00,49,2.040457,0,0,47.95379,0,0,2022-06-02T10:43:23.735+02:00,675852203.7350348,0,7.558594,101.1031,1,0.9
388,2022-06-02T10:43:24.757+02:00,1654159404.00062,53.22915740566808,10.39850018448023,36.8321,0.6988474,0.5406967,358.3063416698033,23.87184555998067,3,6.000906205260658,-9999,33977.93925091667,-4.365325927734375,-4.0714111328125,1.168319702148438,33977.93550091667,1.852607516930183,0.7119562247165975,1.042535004742368,-13.591477394104,-1.71762216091156,-1.928051829338074,-3.330314874649048,-4.505440711975098,-2.330638885498047,XArbitraryZVertical,-0.0388283693277238,-0.5547022194103393,-0.7540404793827302,-0.3496009644928099,0.3292925357818604,-0.8636847138404846,-0.3815956115722656,0,0,0,-1,-1,33976.922382375,unknown,2,2022-06-02T10:43:23.735+02:00,2022-06-02T10:32:51.428+02:00,49,2.040457,0,0,47.95379,0,0,2022-06-02T10:43:23.735+02:00,675852203.7350348,0,7.558594,101.1031,1,0.9
389,2022-06-02T10:43:24.767+02:00,1654159404.00062,53.22915740566808,10.39850018448023,36.8321,0.6988474,0.5406967,358.3063416698033,23.87184555998067,3,6.000906205260658,-9999,33977.94922391667,-6.201416015625,1.4993896484375,0.360626220703125,33977.94547391667,2.002195650392413,0.5873117325234671,0.953202870388178,-10.48968029022217,2.157714366912842,3.579845428466797,-4.537875175476074,-3.615145444869995,1.692429423332214,XArbitraryZVertical,-0.0202776681094135,-0.5084960387046072,-0.787817659280457,-0.3469350366323912,0.3208799660205841,-0.8152743577957153,-0.4820411801338196,0,0,0,-1,-1,33976.922382375,unknown,2,2022-06-02T10:43:23.735+02:00,2022-06-02T10:32:51.428+02:00,49,2.040457,0,0,47.95379,0,0,2022-06-02T10:43:23.735+02:00,675852203.7350348,0,7.558594,101.1031,1,0.9
390,2022-06-02T10:43:24.777+02:00,1654159404.00062,53.22915740566808,10.39850018448023,36.8321,0.6988474,0.5406967,358.3063416698033,23.87184555998067,3,6.000906205260658,-9999,33977.95919691667,-8.28216552734375,5.289138793945312,0.669403076171875,33977.95544591667,2.152608158604492,0.5034847197668013,0.8876971131241015,-9.590964317321776,5.347144603729248,5.025068759918213,-6.23044490814209,1.458603620529175,0.9232945442199708,XArbitraryZVertical,0.0006369306875602,-0.4728250679898506,-0.8206301954650113,-0.320939423067858,0.3045417666435242,-0.7756202220916748,-0.5528721213340759,0,0,0,-1,-1,33976.922382375,unknown,2,2022-06-02T10:43:23.735+02:00,2022-06-02T10:32:51.428+02:00,49,2.040457,0,0,47.95379,0,0,2022-06-02T10:43:23.735+02:00,675852203.7350348,0,7.558594,101.1031,1,0.9
391,2022-06-02T10:43:24.787+02:00,1654159404.00062,53.22915740566808,10.39850018448023,36.8321,0.6988474,0.5406967,358.3063416698033,23.87184555998067,3,6.000906205260658,-9999,33977.96916891667,-9.017684936523438,3.392181396484375,1.158111572265625,33977.96541891667,2.262249619506439,0.4937236114767068,0.8622929883495587,-1.714285969734192,9.353578567504885,5.062290191650391,-8.349660873413086,5.99366569519043,1.19446325302124,XArbitraryZVertical,0.0283971218610047,-0.4611936609412731,-0.8406276539517052,-0.2825583821418671,0.3083710670471191,-0.7593365907669067,-0.5729880332946777,0,0,0,-1,-1,33976.922382375,unknown,2,2022-06-02T10:43:23.735+02:00,2022-06-02T10:32:51.428+02:00,49,2.040457,0,0,47.95379,0,0,2022-06-02T10:43:23.735+02:00,675852203.7350348,0,7.558594,101.1031,1,0.9
392,2022-06-02T10:43:24.797+02:00,1654159404.00062,53.22915740566808,10.39850018448023,36.8321,0.6988474,0.5406967,358.3063416698033,23.87184555998067,3,6.000906205260658,-9999,33977.97914191667,-7.444122314453125,0.283355712890625,1.486221313476562,33977.97539191667,2.344078698578294,0.533246313518925,0.8849087389004392,0.1680271178483963,10.61514282226562,6.13679027557373,-9.42153549194336,4.539283752441406,1.643753051757812,XArbitraryZVertical,0.0590544978304242,-0.4730749274769158,-0.8471775770135289,-0.2345270336556145,0.3219570219516754,-0.7738571763038635,-0.5454253554344177,0,0,0,-1,-1,33976.922382375,unknown,2,2022-06-02T10:43:23.735+02:00,2022-06-02T10:32:51.428+02:00,49,2.040457,0,0,47.95379,0,0,2022-06-02T10:43:23.735+02:00,675852203.7350348,0,7.558594,101.1031,1,0.9
393,2022-06-02T10:43:24.807+02:00,1654159404.00062,53.22915740566808,10.39850018448023,36.8321,0.6988474,0.5406967,358.3063416698033,23.87184555998067,3,6.000906205260658,-9999,33977.98911491667,-7.34783935546875,0.5045928955078125,1.902755737304688,33977.98536491667,2.42482513596113,0.5717867655479228,0.917569731488676,-0.1987499445676804,9.723062515258787,6.046817302703857,-7.954211711883545,1.304365634918213,1.958895087242126,XArbitraryZVertical,0.0877543681918445,-0.4865789769342416,-0.8493535193439499,-0.184766680681995,0.3288761377334595,-0.7941269874572754,-0.5110801458358765,0,0,0,-1,-1,33976.922382375,unknown,2,2022-06-02T10:43:23.735+02:00,2022-06-02T10:32:51.428+02:00,49,2.040457,0,0,47.95379,0,0,2022-06-02T10:43:23.735+02:00,675852203.7350348,0,7.558594,101.1031,1,0.9
394,2022-06-02T10:43:24.817+02:00,1654159404.00062,53.22915740566808,10.39850018448023,36.8321,0.6988474,0.5406967,358.3063416698033,23.87184555998067,3,6.000906205260658,-9999,33977.99908791667,-7.400711059570312,0.0398406982421875,2.603912353515625,33977.99533691667,2.513175294558676,0.5968631561864056,0.9525426562904662,0.3507339358329773,9.66441249847412,6.447039127349854,-7.57676362991333,1.260509490966797,2.323958396911621,XArbitraryZVertical,0.1130740436208763,-0.4975082972030354,-0.8495032866065259,-0.1343277919773515,0.3257719278335571,-0.8148918747901917,-0.4793995022773743,0,0,0,-1,-1,33976.922382375,unknown,2,2022-06-02T10:43:23.735+02:00,2022-06-02T10:32:51.428+02:00,49,2.040457,0,0,47.95379,0,0,2022-06-02T10:43:23.735+02:00,675852203.7350348,0,7.558594,101.1031,1,0.9
395,2022-06-02T10:43:24.827+02:00,1654159404.00062,53.22915740566808,10.39850018448023,36.8321,0.6988474,0.5406967,358.3063416698033,23.87184555998067,3,6.000906205260658,-9999,33978.00905991667,-6.1983642578125,-0.36688232421875,2.92724609375,33978.00530991667,2.601325119292214,0.6191396146303885,0.995234307343619,1.038579106330872,9.387210845947266,6.650041580200195,-7.833564758300781,0.9709818363189696,2.959155559539795,XArbitraryZVertical,0.1366675297003694,-0.5095943451933905,-0.8454068374648132,-0.0832039746370345,0.3158798813819885,-0.8388864994049072,-0.4432711899280548,0,0,0,-1,-1,33976.922382375,unknown,2,2022-06-02T10:43:23.735+02:00,2022-06-02T10:32:51.428+02:00,49,2.040457,0,0,47.95379,0,0,2022-06-02T10:43:23.735+02:00,675852203.7350348,0,7.558594,101.1031,1,0.9
396,2022-06-02T10:43:24.837+02:00,1654159404.00062,53.22915740566808,10.39850018448023,36.8321,0.6988474,0.5406967,358.3063416698033,23.87184555998067,3,6.000906205260658,-9999,33978.01903291667,-5.695785522460938,-0.383392333984375,2.683349609375,33978.01528291667,2.686108309223281,0.6381118845765054,1.045291360690825,1.899317741394043,8.955205917358398,6.337882518768311,-6.61736536026001,0.5148051977157593,3.331219911575317,XArbitraryZVertical,0.1577626461055544,-0.5231088002903217,-0.8368774769753361,-0.0332309658507233,0.298822820186615,-0.8650707602500916,-0.4029362499713898,0,0,0,-1,-1,33976.922382375,unknown,2,2022-06-02T10:43:23.735+02:00,2022-06-02T10:32:51.428+02:00,49,2.040457,0,0,47.95379,0,0,2022-06-02T10:43:23.735+02:00,675852203.7350348,0,7.558594,101.1031,1,0.9
397,2022-06-02T10:43:24.847+02:00,1654159404.00062,53.22915740566808,10.39850018448023,36.8321,0.6988474,0.5406967,358.3063416698033,23.87184555998067,3,6.000906205260658,-9999,33978.02900591667,-5.275741577148438,-0.780242919921875,2.563583374023438,33978.02525491667,2.757422505113584,0.663753521872858,1.099965076598636,2.60101580619812,8.7643461227417,5.778263568878174,-6.019124031066895,0.5144824981689453,3.072678089141846,XArbitraryZVertical,0.1783255854110011,-0.5380912517801675,-0.8236996938079437,0.0132911935309658,0.2794696986675262,-0.8911915421485901,-0.3573155701160431,0,0,0,-1,-1,33976.922382375,unknown,2,2022-06-02T10:43:23.735+02:00,2022-06-02T10:32:51.428+02:00,49,2.040457,0,0,47.95379,0,0,2022-06-02T10:43:23.735+02:00,675852203.7350348,0,7.558594,101.1031,1,0.9
398,2022-06-02T10:43:24.857+02:00,1654159404.00062,53.22915740566808,10.39850018448023,36.8321,0.6988474,0.5406967,358.3063416698033,23.87184555998067,3,6.000906205260658,-9999,33978.03897791667,-4.742630004882812,-1.373855590820312,2.409561157226562,33978.03522791667,2.820664703320996,0.6928711153371823,1.154703080311274,2.374940872192383,8.482589721679688,5.390361309051514,-5.600003242492676,0.2131674885749817,2.88276743888855,XArbitraryZVertical,0.1988295743487276,-0.552242538363116,-0.8076158703913177,0.0570219778438283,0.2581759095191956,-0.914674997329712,-0.3109899461269379,0,0,0,-1,-1,33976.922382375,unknown,2,2022-06-02T10:43:23.735+02:00,2022-06-02T10:32:51.428+02:00,49,2.040457,0,0,47.95379,0,0,2022-06-02T10:43:23.735+02:00,675852203.7350348,0,7.558594,101.1031,1,0.9
399,2022-06-02T10:43:24.867+02:00,1654159404.00062,53.22915740566808,10.39850018448023,36.8321,0.6988474,0.5406967,358.3063416698033,23.87184555998067,3,6.000906205260658,-9999,33978.04895091667,-4.492095947265625,-1.79315185546875,2.116348266601562,33978.04520091667,2.895851179493463,0.704621903605064,1.202645934345753,1.158941864967346,7.776146411895752,5.210845470428467,-5.034524440765381,-0.3720896244049072,2.712920904159546,XArbitraryZVertical,0.2173149545277157,-0.5618556045892985,-0.7920312641114663,0.0988891622339425,0.2331176102161407,-0.9329946041107178,-0.2741849720478058,0,0,0,-1,-1,33976.922382375,unknown,2,2022-06-02T10:43:23.735+02:00,2022-06-02T10:32:51.428+02:00,49,2.040457,0,0,47.95379,0,0,2022-06-02T10:43:23.735+02:00,675852203.7350348,0,7.558594,101.1031,1,0.9
400,2022-06-02T10:43:24.877+02:00,1654159404.00062,53.22915740566808,10.39850018448023,36.8321,0.6988474,0.5406967,358.3063416698033,23.87184555998067,3,6.000906205260658,-9999,33978.05892391667,-4.62078857421875,-1.7716064453125,1.745071411132812,33978.05517291667,3.005800914450674,0.6751443300558477,1.238062769788122,-0.500668466091156,7.063493251800537,5.167905807495117,-4.704893589019775,-0.812964677810669,2.413037061691284,XArbitraryZVertical,0.2319747492140804,-0.5645370423105132,-0.7797425016850839,0.13959702265023,0.204145759344101,-0.9451529979705812,-0.2549712955951691,0,0,0,-1,-1,33976.922382375,unknown,2,2022-06-02T10:43:23.735+02:00,2022-06-02T10:32:51.428+02:00,49,2.040457,0,0,47.95379,0,0,2022-06-02T10:43:23.735+02:00,675852203.7350348,0,7.558594,101.1031,1,0.9
401,2022-06-02T10:43:24.887+02:00,1654159404.00062,53.22915740566808,10.39850018448023,36.8321,0.6988474,0.5406967,358.3063416698033,23.87184555998067,3,6.000906205260658,-9999,33978.06889591667,-4.841659545898438,-1.356109619140625,1.508224487304688,33978.06514591667,-3.122459626758687,0.5969018593146059,1.259690370635371,-1.764413833618164,6.793840408325195,5.315939426422119,-4.764238357543945,-0.8523409366607666,2.042897939682007,XArbitraryZVertical,0.2429940004744756,-0.5606820024544648,-0.7707021510153796,0.1805763830228119,0.1720601469278336,-0.951995611190796,-0.2531792223453522,0,0,0,-1,-1,33976.922382375,unknown,2,2022-06-02T10:43:23.735+02:00,2022-06-02T10:32:51.428+02:00,49,2.040457,0,0,47.95379,0,0,2022-06-02T10:43:23.735+02:00,675852203.7350348,0,7.558594,101.1031,1,0.9
402,2022-06-02T10:43:24.897+02:00,1654159404.00062,53.22915740566808,10.39850018448023,36.8321,0.6988474,0.5406967,358.3063416698033,23.87184555998067,3,6.000906205260658,-9999,33978.07886891667,-4.86663818359375,-1.014358520507812,1.502227783203125,33978.07511891667,-2.931319643971461,0.4824314830830672,1.269750101246452,-2.384156227111816,6.816751003265381,5.615462779998779,-4.960411071777344,-0.4569910168647766,1.785626888275146,XArbitraryZVertical,0.2517111881398275,-0.5525420289139513,-0.7626503965003638,0.2229419985313875,0.1375656276941299,-0.9550268054008484,-0.2626775801181793,0,0,0,-1,-1,33976.922382375,unknown,2,2022-06-02T10:43:23.735+02:00,2022-06-02T10:32:51.428+02:00,49,2.040457,0,0,47.95379,0,0,2022-06-02T10:43:23.735+02:00,675852203.7350348,0,7.558594,101.1031,1,0.9
403,2022-06-02T10:43:24.907+02:00,1654159404.00062,53.22915740566808,10.39850018448023,36.8321,0.6988474,0.5406967,358.3063416698033,23.87184555998067,3,6.000906205260658,-9999,33978.08884191667,-4.847259521484375,-0.88250732421875,1.488006591796875,33978.08509091667,-2.716841818954226,0.3454502697159343,1.269931633646469,-2.685599088668823,6.830837249755859,6.048739433288574,-4.972037792205811,-0.0922216176986694,1.77410876750946,XArbitraryZVertical,0.2584257461807368,-0.5420301614580338,-0.7538054845212898,0.2668270920793846,0.1003488227725029,-0.9550805687904358,-0.2788388729095459,0,0,0,-1,-1,33976.922382375,unknown,2,2022-06-02T10:43:23.735+02:00,2022-06-02T10:32:51.428+02:00,49,2.040457,0,0,47.95379,0,0,2022-06-02T10:43:23.735+02:00,675852203.7350348,0,7.558594,101.1031,1,0.9
404,2022-06-02T10:43:24.917+02:00,1654159404.00062,53.22915740566808,10.39850018448023,36.8321,0.6988474,0.5406967,358.3063416698033,23.87184555998067,3,6.000906205260658,-9999,33978.09881391667,-4.697723388671875,-0.832183837890625,1.48907470703125,33978.09506391667,-2.494229073181652,0.2014518261272792,1.260739588382717,-2.661054611206055,6.868751525878906,6.392831325531006,-4.913116455078125,0.0544890761375427,1.788642883300781,XArbitraryZVertical,0.2635394012504297,-0.5301657244672209,-0.7431269851931328,0.3118231013621246,0.0610506422817707,-0.9523162841796876,-0.2989425659179688,0,0,0,-1,-1,33976.922382375,unknown,2,2022-06-02T10:43:23.735+02:00,2022-06-02T10:32:51.428+02:00,49,2.040457,0,0,47.95379,0,0,2022-06-02T10:43:23.735+02:00,675852203.7350348,0,7.558594,101.1031,1,0.9
405,2022-06-02T10:43:24.929+02:00,1654159404.00062,53.22915740566808,10.39850018448023,36.8321,0.6988474,0.5406967,358.3063416698033,23.87184555998067,3,6.000906205260658,-9999,33978.10878691667,-4.46087646484375,-1.151046752929688,1.514511108398438,33978.10503691667,-2.275268366770874,0.0612761042737712,1.245171231230183,-2.280393362045288,6.733096599578857,6.7388596534729,-4.745557308197021,0.1301290988922119,1.81232762336731,XArbitraryZVertical,0.2672403380781749,-0.5185867317585142,-0.7295009898492719,0.3570416724298484,0.0195900350809097,-0.9474509358406068,-0.3193008005619049,0,0,0,-1,-1,33976.922382375,unknown,2,2022-06-02T10:43:23.735+02:00,2022-06-02T10:32:51.428+02:00,49,2.040457,0,0,47.95379,0,0,2022-06-02T10:43:23.735+02:00,675852203.7350348,0,7.558594,101.1031,1,0.9
406,2022-06-02T10:43:24.937+02:00,1654159404.00062,53.22915740566808,10.39850018448023,36.8321,0.6988474,0.5406967,358.3063416698033,23.87184555998067,3,6.000906205260658,-9999,33978.11875991667,-4.222030639648438,-1.620086669921875,1.620376586914062,33978.11500891667,-2.07149633323944,-0.0648812631510021,1.222034420002384,-2.361689805984497,6.553217887878418,6.729580402374268,-4.465819358825684,-0.1556167006492615,1.844677686691284,XArbitraryZVertical,0.2695126203609056,-0.5068088069843125,-0.7137128635766662,0.4013997602187938,-0.0221566185355186,-0.939796507358551,-0.3410155475139618,0,0,0,-1,-1,33976.922382375,unknown,2,2022-06-02T10:43:23.735+02:00,2022-06-02T10:32:51.428+02:00,49,2.040457,0,0,47.95379,0,0,2022-06-02T10:43:23.735+02:00,675852203.7350348,0,7.558594,101.1031,1,0.9
407,2022-06-02T10:43:24.946+02:00,1654159404.00062,53.22915740566808,10.39850018448023,36.8321,0.6988474,0.5406967,358.3063416698033,23.87184555998067,3,6.000906205260658,-9999,33978.12873191667,-3.864471435546875,-1.944183349609375,1.617813110351562,33978.12498191667,-1.896615945763622,-0.1645733779960224,1.189618846145497,-2.618166208267212,6.208875179290771,6.409194946289062,-4.195964813232422,-0.6377364993095398,1.977689743041992,XArbitraryZVertical,0.2703037131293933,-0.4933987118224158,-0.6974768762516,0.443868959306555,-0.0609475672245025,-0.9282272458076476,-0.3669872283935547,0,0,0,-1,-1,33976.922382375,unknown,2,2022-06-02T10:43:23.735+02:00,2022-06-02T10:32:51.428+02:00,49,2.040457,0,0,47.95379,0,0,2022-06-02T10:43:23.735+02:00,675852203.7350348,0,7.558594,101.1031,1,0.9
408,2022-06-02T10:43:24.957+02:00,1654159404.00062,53.22915740566808,10.39850018448023,36.8321,0.6988474,0.5406967,358.3063416698033,23.87184555998067,3,6.000906205260658,-9999,33978.13870491667,-3.3648681640625,-2.180801391601562,1.570266723632812,33978.13495491667,-1.75311545732332,-0.2368398343076229,1.15173870108534,-2.534920454025269,5.800192832946777,6.125046253204346,-3.824297666549683,-1.000025033950806,2.017840147018433,XArbitraryZVertical,0.2698182605040461,-0.4789860731040158,-0.6812384006701653,0.483409433674559,-0.0954716503620147,-0.9134727716445924,-0.3955408930778503,0,0,0,-1,-1,33976.922382375,unknown,2,2022-06-02T10:43:23.735+02:00,2022-06-02T10:32:51.428+02:00,49,2.040457,0,0,47.95379,0,0,2022-06-02T10:43:23.735+02:00,675852203.7350348,0,7.558594,101.1031,1,0.9
409,2022-06-02T10:43:24.966+02:00,1654159404.00062,53.22915740566808,10.39850018448023,36.8321,0.6988474,0.5406967,358.3063416698033,23.87184555998067,3,6.000906205260658,-9999,33978.14867791667,-2.958206176757812,-2.49652099609375,1.53887939453125,33978.14492691667,-1.632240652968252,-0.29087813933198,1.112810861074916,-2.348100662231445,5.284476757049561,5.815487384796143,-3.299939155578613,-1.246212959289551,2.0029296875,XArbitraryZVertical,0.2683293150291903,-0.4649892284963185,-0.6645106443486022,0.5198173066513524,-0.1268035173416138,-0.8969449996948242,-0.4235687851905823,0,0,0,-1,-1,33976.922382375,unknown,2,2022-06-02T10:43:23.735+02:00,2022-06-02T10:32:51.428+02:00,49,2.040457,0,0,47.95379,0,0,2022-06-02T10:43:23.735+02:00,675852203.7350348,0,7.558594,101.1031,1,0.9
410,2022-06-02T10:43:24.976+02:00,1654159404.00062,53.22915740566808,10.39850018448023,36.8321,0.6988474,0.5406967,358.3063416698033,23.87184555998067,3,6.000906205260658,-9999,33978.15865091667,-2.61181640625,-2.782150268554688,1.480056762695312,33978.15489991667,-1.533361065371893,-0.3289787728664154,1.072020047743029,-2.67353343963623,4.688742637634277,5.360888957977295,-2.845898389816284,-1.58301305770874,1.991547584533691,XArbitraryZVertical,0.2651889703976429,-0.4509162669929538,-0.6486318655842631,0.5528345849533465,-0.1545441746711731,-0.8781685829162598,-0.4526986479759216,0,0,0,-1,-1,33976.922382375,unknown,2,2022-06-02T10:43:23.735+02:00,2022-06-02T10:32:51.428+02:00,49,2.040457,0,0,47.95379,0,0,2022-06-02T10:43:23.735+02:00,675852203.7350348,0,7.558594,101.1031,1,0.9
411,2022-06-02T10:43:24.986+02:00,1654159404.00062,53.22915740566808,10.39850018448023,36.8321,0.6988474,0.5406967,358.3063416698033,23.87184555998067,3,6.000906205260658,-9999,33978.16862291667,-2.1314697265625,-2.88275146484375,1.37872314453125,33978.16487291667,-1.454937331044034,-0.3535519576971436,1.02874889530445,-2.846481323242188,4.008538246154785,4.897730350494385,-2.484574556350708,-1.89183521270752,1.977619767189026,XArbitraryZVertical,0.2599122900429214,-0.436410710685271,-0.6345290420772488,0.5825497626073844,-0.1786181181669235,-0.8566542267799377,-0.4839825928211212,0,0,0,-1,-1,33976.922382375,unknown,2,2022-06-02T10:43:23.735+02:00,2022-06-02T10:32:51.428+02:00,49,2.040457,0,0,47.95379,0,0,2022-06-02T10:43:23.735+02:00,675852203.7350348,0,7.558594,101.1031,1,0.9
412,2022-06-02T10:43:24.996+02:00,1654159404.00062,53.22915740566808,10.39850018448023,36.8321,0.6988474,0.5406967,358.3063416698033,23.87184555998067,3,6.000906205260658,-9999,33978.17859591667,-1.728485107421875,-2.712722778320312,1.345779418945312,33978.17484591667,-1.392786913061019,-0.3704959838320899,0.9859745335464616,-2.7753746509552,3.130835294723511,4.354428768157959,-1.991673469543457,-2.056646585464478,1.906408309936523,XArbitraryZVertical,0.2527733666933862,-0.4228582873789847,-0.6222777410481553,0.6083312546372104,-0.1998853385448456,-0.8338104486465454,-0.5145930051803589,0,0,0,-1,-1,33976.922382375,unknown,2,2022-06-02T10:43:23.735+02:00,2022-06-02T10:32:51.428+02:00,49,2.040457,0,0,47.95379,0,0,2022-06-02T10:43:23.735+02:00,675852203.7350348,0,7.558594,101.1031,1,0.9
413,2022-06-02T10:43:25.007+02:00,1654159404.00062,53.22915740566808,10.39850018448023,36.8321,0.6988474,0.5406967,358.3063416698033,23.87184555998067,3,6.000906205260658,-9999,33978.18856891667,-1.455169677734375,-2.54547119140625,1.357086181640625,33978.18481791667,-1.342705594454999,-0.3846417617789604,0.9474946247105138,-2.252619504928589,2.321439266204834,3.811400651931763,-1.551770448684692,-1.924799799919128,1.883353710174561,XArbitraryZVertical,0.2448272601746773,-0.4117345101179163,-0.6116084115983735,0.6296583136283553,-0.2190272957086563,-0.8119556307792664,-0.5410686135292053,0,0,0,-1,-1,33976.922382375,unknown,2,2022-06-02T10:43:23.735+02:00,2022-06-02T10:32:51.428+02:00,49,2.040457,0,0,47.95379,0,0,2022-06-02T10:43:23.735+02:00,675852203.7350348,0,7.558594,101.1031,1,0.9
414,2022-06-02T10:43:25.016+02:00,1654159404.00062,53.22915740566808,10.39850018448023,36.8321,0.6988474,0.5406967,358.3063416698033,23.87184555998067,3,6.000906205260658,-9999,33978.19854091667,-1.244094848632812,-2.49249267578125,1.336318969726562,33978.19479091667,-1.29949874630061,-0.399709075312928,0.9163769616004306,-1.55185604095459,1.626496195793152,3.343426465988159,-1.247682809829712,-1.767664194107056,1.919085502624512,XArbitraryZVertical,0.2374661641974955,-0.4040433205802087,-0.6017056737076282,0.6467683041545584,-0.2368753552436829,-0.7934014797210693,-0.5607176423072815,0,0,0,-1,-1,33976.922382375,unknown,2,2022-06-02T10:43:23.735+02:00,2022-06-02T10:32:51.428+02:00,49,2.040457,0,0,47.95379,0,0,2022-06-02T10:43:23.735+02:00,675852203.7350348,0,7.558594,101.1031,1,0.9
415,2022-06-02T10:43:25.026+02:00,1654159404.00062,53.22915740566808,10.39850018448023,36.8321,0.6988474,0.5406967,358.3063416698033,23.87184555998067,3,6.000906205260658,-9999,33978.20851391667,-1.062515258789062,-2.472030639648438,1.308868408203125,33978.20476391667,-1.261615618253437,-0.4166778240097385,0.892531861235169,-0.9993189573287964,0.920830249786377,2.861691236495972,-1.015055656433105,-1.713219404220581,1.912319779396057,XArbitraryZVertical,0.2309588523132336,-0.3997238663887183,-0.5926208146726675,0.6600601565090511,-0.253941535949707,-0.7786628603935242,-0.5737577080726624,0,0,0,-1,-1,33976.922382375,unknown,2,2022-06-02T10:43:23.735+02:00,2022-06-02T10:32:51.428+02:00,49,2.040457,0,0,47.95379,0,0,2022-06-02T10:43:23.735+02:00,675852203.7350348,0,7.558594,101.1031,1,0.9
416,2022-06-02T10:43:25.036+02:00,1654159404.00062,53.22915740566808,10.39850018448023,36.8321,0.6988474,0.5406967,358.3063416698033,23.87184555998067,3,6.000906205260658,-9999,33978.21848691667,-0.9729156494140624,-2.422256469726562,1.186126708984375,33978.21473591667,-1.23058682095154,-0.4361485265322393,0.8739071364201776,-0.8078104853630066,-0.0477669760584831,2.241084337234497,-0.8104290962219238,-1.714312791824341,1.898797273635864,XArbitraryZVertical,0.2242430094784157,-0.3985473552448175,-0.5853458813474374,0.6695112074303405,-0.2711443901062012,-0.7668425440788269,-0.5817501544952393,0,0,0,-1,-1,33976.922382375,unknown,2,2022-06-02T10:43:23.735+02:00,2022-06-02T10:32:51.428+02:00,49,2.040457,0,0,47.95379,0,0,2022-06-02T10:43:23.735+02:00,675852203.7350348,0,7.558594,101.1031,1,0.9
417,2022-06-02T10:43:25.046+02:00,1654159404.00062,53.22915740566808,10.39850018448023,36.8321,0.6988474,0.5406967,358.3063416698033,23.87184555998067,3,6.000906205260658,-9999,33978.22845891667,-1.045074462890625,-2.397842407226562,0.991363525390625,33978.22470891667,-1.209528613260942,-0.458040281689759,0.8596593858910074,-0.5821583271026611,-1.114116311073303,1.454472541809082,-0.6877326369285583,-1.665719509124756,1.793439388275146,XArbitraryZVertical,0.216517864355752,-0.4005145353828577,-0.5811789645436816,0.6744917895876124,-0.288616269826889,-0.7576202750205994,-0.5854162573814392,0,0,0,-1,-1,33976.922382375,unknown,2,2022-06-02T10:43:23.735+02:00,2022-06-02T10:32:51.428+02:00,49,2.040457,0,0,47.95379,0,0,2022-06-02T10:43:23.735+02:00,675852203.7350348,0,7.558594,101.1031,1,0.9
418,2022-06-02T10:43:25.056+02:00,1654159404.00062,53.22915740566808,10.39850018448023,36.8321,0.6988474,0.5406967,358.3063416698033,23.87184555998067,3,6.000906205260658,-9999,33978.23843191667,-1.269454956054688,-2.329345703125,0.8279876708984375,33978.23468191667,-1.197707711896367,-0.4823148607176546,0.8509602614027215,-0.2533068954944611,-1.914177298545837,0.7408042550086975,-0.719680905342102,-1.651177644729614,1.598657965660095,XArbitraryZVertical,0.2084425523964336,-0.4056156644986355,-0.5800030227995866,0.6749993913490029,-0.3057860434055328,-0.7519137859344482,-0.5840552449226379,0,0,0,-1,-1,33976.922382375,unknown,2,2022-06-02T10:43:23.735+02:00,2022-06-02T10:32:51.428+02:00,49,2.040457,0,0,47.95379,0,0,2022-06-02T10:43:23.735+02:00,675852203.7350348,0,7.558594,101.1031,1,0.9
419,2022-06-02T10:43:25.066+02:00,1654159404.00062,53.22915740566808,10.39850018448023,36.8321,0.6988474,0.5406967,358.3063416698033,23.87184555998067,3,6.000906205260658,-9999,33978.24840491667,-1.5234375,-2.252517700195312,0.6804962158203125,33978.24465391667,-1.192558336594379,-0.5074690666394804,0.8476666886792441,-0.0549658834934234,-2.314914226531982,0.178775280714035,-0.9148845076560974,-1.591051340103149,1.425035715103149,XArbitraryZVertical,0.2008994723295848,-0.4128789451340337,-0.5809092771209036,0.6720973256803603,-0.3215809464454651,-0.7497383952140808,-0.5783407688140869,0,0,0,-1,-1,33976.922382375,unknown,2,2022-06-02T10:43:23.735+02:00,2022-06-02T10:32:51.428+02:00,49,2.040457,0,0,47.95379,0,0,2022-06-02T10:43:23.735+02:00,675852203.7350348,0,7.558594,101.1031,1,0.9
420,2022-06-02T10:43:25.076+02:00,1654159404.00062,53.22915740566808,10.39850018448023,36.8321,0.6988474,0.5406967,358.3063416698033,23.87184555998067,3,6.000906205260658,-9999,33978.25837691667,-1.719879150390625,-2.199737548828125,0.5193023681640625,33978.25462691667,-1.194454867661659,-0.530201063875295,0.8474822515160297,-0.1256333887577057,-2.529601097106934,-0.3953926563262939,-1.158618450164795,-1.508699655532837,1.27452278137207,XArbitraryZVertical,0.1938125271949434,-0.4206378167474314,-0.5837900754872496,0.6668505702001438,-0.334713488817215,-0.7496163249015808,-0.5710010528564453,0,0,0,-1,-1,33976.922382375,unknown,2,2022-06-02T10:43:23.735+02:00,2022-06-02T10:32:51.428+02:00,49,2.040457,0,0,47.95379,0,0,2022-06-02T10:43:23.735+02:00,675852203.7350348,0,7.558594,101.1031,1,0.9
421,2022-06-02T10:43:25.086+02:00,1654159404.00062,53.22915740566808,10.39850018448023,36.8321,0.6988474,0.5406967,358.3063416698033,23.87184555998067,3,6.000906205260658,-9999,33978.26834991667,-1.8233642578125,-2.013671875,0.4665985107421875,33978.26459991667,-1.205530933879367,-0.5480117742440114,0.8487656143080929,-0.4195154309272766,-2.699052810668945,-0.981983244419098,-1.355287075042725,-1.463310480117798,1.099360346794128,XArbitraryZVertical,0.1867452002230314,-0.4278578532133857,-0.5891422628284446,0.6595266473054671,-0.3443283438682556,-0.7504651546478271,-0.5641278028488159,0,0,0,-1,-1,33976.922382375,unknown,2,2022-06-02T10:43:23.735+02:00,2022-06-02T10:32:51.428+02:00,49,2.040457,0,0,47.95379,0,0,2022-06-02T10:43:23.735+02:00,675852203.7350348,0,7.558594,101.1031,1,0.9
