,loggingTime(txt),locationTimestamp_since1970(s),locationLatitude(WGS84),locationLongitude(WGS84),locationAltitude(m),locationSpeed(m/s),locationSpeedAccuracy(m/s),locationCourse(°),locationCourseAccuracy(°),locationVerticalAccuracy(m),locationHorizontalAccuracy(m),locationFloor(Z),accelerometerTimestamp_sinceReboot(s),accelerometerAccelerationX(G),accelerometerAccelerationY(G),accelerometerAccelerationZ(G),motionTimestamp_sinceReboot(s),motionYaw(rad),motionRoll(rad),motionPitch(rad),motionRotationRateX(rad/s),motionRotationRateY(rad/s),motionRotationRateZ(rad/s),motionUserAccelerationX(G),motionUserAccelerationY(G),motionUserAccelerationZ(G),motionAttitudeReferenceFrame(txt),motionQuaternionX(R),motionQuaternionY(R),motionQuaternionZ(R),motionQuaternionW(R),motionGravityX(G),motionGravityY(G),motionGravityZ(G),motionMagneticFieldX(µT),motionMagneticFieldY(µT),motionMagneticFieldZ(µT),motionHeading(°),motionMagneticFieldCalibrationAccuracy(Z),activityTimestamp_sinceReboot(s),activity(txt),activityActivityConfidence(Z),activityActivityStartDate(txt),pedometerStartDate(txt),pedometerNumberofSteps(N),pedometerAverageActivePace(s/m),pedometerCurrentPace(s/m),pedometerCurrentCadence(steps/s),pedometerDistance(m),pedometerFloorAscended(N),pedometerFloorDescended(N),pedometerEndDate(txt),altimeterTimestamp_sinceReboot(s),altimeterReset(bool),altimeterRelativeAltitude(m),altimeterPressure(kPa),batteryState(N),batteryLevel(R)
483,2022-06-02T10:44:29.829+02:00,1654159469.00046,53.229030462205,10.3985868072452,36.82214,0.06491444,0.4523487,234.4057538992881,112.0996926155979,3,6.000906205260658,-9999,34039.25391566667,0.1744537353515625,1.628768920898438,-1.581802368164062,34039.25016466667,-0.1062264225020468,0.7873695836232792,-0.0226963308774772,-15.06685066223145,10.43081569671631,-4.848303318023682,-0.4773598909378052,1.180033922195435,-1.130423069000244,XArbitraryZVertical,-0.0098979692165092,-0.3835846905310353,0.0533707915902424,-0.921909049870032,0.7083169221878052,0.0226943828165531,-0.7055296301841736,0,0,0,-1,-1,34024.227381875,unknown,2,2022-06-02T10:44:14.797+02:00,2022-06-02T10:32:51.428+02:00,59,2.035977,0,0,55.92561,0,0,2022-06-02T10:44:14.797+02:00,675852267.5609292,0,10.19141,101.0714,1,0.9
484,2022-06-02T10:44:29.839+02:00,1654159469.00046,53.229030462205,10.3985868072452,36.82214,0.06491444,0.4523487,234.4057538992881,112.0996926155979,3,6.000906205260658,-9999,34039.26388766667,0.0691070556640625,1.988372802734375,-1.383956909179688,34039.26013766667,-0.0184289916452857,0.9031535654738638,-0.1689811298475821,-17.46074485778809,11.025390625,-5.445511341094971,-0.5934799909591675,1.409107685089111,-1.001361012458801,XArbitraryZVertical,0.0719209345031712,-0.4355093002378336,0.0450861187633412,-0.89617321680838,0.77409827709198,0.1681780815124512,-0.6103180646896362,0,0,0,-1,-1,34024.227381875,unknown,2,2022-06-02T10:44:14.797+02:00,2022-06-02T10:32:51.428+02:00,59,2.035977,0,0,55.92561,0,0,2022-06-02T10:44:14.797+02:00,675852267.5609292,0,10.19141,101.0714,1,0.9
485,2022-06-02T10:44:29.849+02:00,1654159469.00046,53.229030462205,10.3985868072452,36.82214,0.06491444,0.4523487,234.4057538992881,112.0996926155979,3,6.000906205260658,-9999,34039.27386066667,-0.1031036376953125,2.2999267578125,-1.08935546875,34039.27011066667,0.1052017516027144,1.045981779409783,-0.3189679176400956,-19.17023468017578,11.5144567489624,-5.883749961853027,-0.7332944273948669,1.630733966827393,-0.9369099140167236,XArbitraryZVertical,0.1633177150240877,-0.48521924006747,0.0342404150556969,-0.8583223434618332,0.8217648863792419,0.3135867118835449,-0.4757792353630066,0,0,0,-1,-1,34024.227381875,unknown,2,2022-06-02T10:44:14.797+02:00,2022-06-02T10:32:51.428+02:00,59,2.035977,0,0,55.92561,0,0,2022-06-02T10:44:14.797+02:00,675852267.5609292,0,10.19141,101.0714,1,0.9
486,2022-06-02T10:44:29.859+02:00,1654159469.00046,53.229030462205,10.3985868072452,36.82214,0.06491444,0.4523487,234.4057538992881,112.0996926155979,3,6.000906205260658,-9999,34039.28383366667,-0.30291748046875,2.430755615234375,-0.689971923828125,34039.28008266667,0.2665662195898978,1.22440782289182,-0.4553861376453863,-19.42336273193359,11.9076099395752,-6.214951992034912,-0.9294201135635376,1.829767823219299,-0.8272820711135864,XArbitraryZVertical,0.2574923963405014,-0.5303256740050949,0.022623691144001,-0.8074282791140535,0.8447490334510803,0.4398091435432434,-0.3049046993255615,0,0,0,-1,-1,34024.227381875,unknown,2,2022-06-02T10:44:14.797+02:00,2022-06-02T10:32:51.428+02:00,59,2.035977,0,0,55.92561,0,0,2022-06-02T10:44:14.797+02:00,675852267.5609292,0,10.19141,101.0714,1,0.9
487,2022-06-02T10:44:29.869+02:00,1654159469.00046,53.229030462205,10.3985868072452,36.82214,0.06491444,0.4523487,234.4057538992881,112.0996926155979,3,6.000906205260658,-9999,34039.29380566667,-0.6257781982421875,2.608596801757812,-0.2525482177734375,34039.29005566667,0.4619805889851135,1.440280923422654,-0.5630980375073128,-18.84358596801758,12.11170196533203,-6.631528377532959,-1.104877710342407,1.886525392532349,-0.6299997568130493,XArbitraryZVertical,0.3483516448135162,-0.5688808265327534,0.0130464530428773,-0.7448862757836678,0.8384135365486145,0.5338084697723389,-0.1100514754652977,0,0,0,-1,-1,34024.227381875,unknown,2,2022-06-02T10:44:14.797+02:00,2022-06-02T10:32:51.428+02:00,59,2.035977,0,0,55.92561,0,0,2022-06-02T10:44:14.797+02:00,675852267.5609292,0,10.19141,101.0714,1,0.9
488,2022-06-02T10:44:29.878+02:00,1654159469.00046,53.229030462205,10.3985868072452,36.82214,0.06491444,0.4523487,234.4057538992881,112.0996926155979,3,6.000906205260658,-9999,34039.30377866667,-1.034927368164062,2.848526000976562,0.57012939453125,34039.30002866667,0.686085213498154,1.68881522058619,-0.6339148666985555,-18.44748115539551,12.2414026260376,-7.297913074493408,-1.385834217071533,1.983731031417847,-0.4182789325714111,XArbitraryZVertical,0.4338721673235113,-0.5993241569141725,0.0071572269134809,-0.6726918677582818,0.8001103401184082,0.5923035740852356,0.0948690026998519,0,0,0,-1,-1,34024.227381875,unknown,2,2022-06-02T10:44:14.797+02:00,2022-06-02T10:32:51.428+02:00,59,2.035977,0,0,55.92561,0,0,2022-06-02T10:44:14.797+02:00,675852267.5609292,0,10.19141,101.0714,1,0.9
489,2022-06-02T10:44:29.888+02:00,1654159469.00046,53.229030462205,10.3985868072452,36.82214,0.06491444,0.4523487,234.4057538992881,112.0996926155979,3,6.000906205260658,-9999,34039.31375166667,-1.611679077148438,3.158981323242188,1.536514282226562,34039.31000166667,0.9351617355677192,1.963340186615433,-0.6617067918792534,-18.68869590759277,12.53161525726318,-8.133828163146973,-1.706628441810608,2.206000804901123,0.1446235775947571,XArbitraryZVertical,0.5155466873514188,-0.620574836502104,0.0042403090705179,-0.5908305371048387,0.7289369702339172,0.614464282989502,0.3018030226230621,0,0,0,-1,-1,34024.227381875,unknown,2,2022-06-02T10:44:14.797+02:00,2022-06-02T10:32:51.428+02:00,59,2.035977,0,0,55.92561,0,0,2022-06-02T10:44:14.797+02:00,675852267.5609292,0,10.19141,101.0714,1,0.9
490,2022-06-02T10:44:29.898+02:00,1654159469.00046,53.229030462205,10.3985868072452,36.82214,0.06491444,0.4523487,234.4057538992881,112.0996926155979,3,6.000906205260658,-9999,34039.32372466667,-2.224655151367188,3.44171142578125,2.467620849609375,34039.31997366667,1.19389707702697,2.247276764133524,-0.6398027798618998,-19.08362197875977,12.77838039398193,-9.141565322875977,-2.154359340667725,2.51497745513916,0.915313720703125,XArbitraryZVertical,0.5936014701585491,-0.6314674742512049,0.0037821639154485,-0.4988705748699629,0.6255508661270142,0.5970372557640076,0.5022277235984802,0,0,0,-1,-1,34024.227381875,unknown,2,2022-06-02T10:44:14.797+02:00,2022-06-02T10:32:51.428+02:00,59,2.035977,0,0,55.92561,0,0,2022-06-02T10:44:14.797+02:00,675852267.5609292,0,10.19141,101.0714,1,0.9
491,2022-06-02T10:44:29.908+02:00,1654159469.00046,53.229030462205,10.3985868072452,36.82214,0.06491444,0.4523487,234.4057538992881,112.0996926155979,3,6.000906205260658,-9999,34039.33369666667,-2.864639282226562,3.619949340820312,3.433517456054688,34039.32994666667,1.438653368154742,2.515214901935884,-0.5667340914630701,-19.11062812805176,12.87349414825439,-10.08170413970947,-2.645458936691284,2.883820533752441,1.668265342712402,XArbitraryZVertical,0.6666283477787316,-0.630360586602227,0.0051897043807281,-0.397775488931398,0.4945647716522217,0.5368795990943909,0.6834956407546997,0,0,0,-1,-1,34024.227381875,unknown,2,2022-06-02T10:44:14.797+02:00,2022-06-02T10:32:51.428+02:00,59,2.035977,0,0,55.92561,0,0,2022-06-02T10:44:14.797+02:00,675852267.5609292,0,10.19141,101.0714,1,0.9
492,2022-06-02T10:44:29.918+02:00,1654159469.00046,53.229030462205,10.3985868072452,36.82214,0.06491444,0.4523487,234.4057538992881,112.0996926155979,3,6.000906205260658,-9999,34039.34366966667,-3.523483276367188,3.628173828125,4.886184692382812,34039.33991966667,1.645671709058423,2.743953753697832,-0.4583716189488318,-17.29344940185547,12.40866661071777,-10.83868885040283,-3.128381729125977,3.145814180374146,2.463385581970215,XArbitraryZVertical,0.7303644278724173,-0.6164177288831452,0.0104689106048276,-0.2940874059025043,0.3472691476345062,0.4424884021282196,0.8268060088157654,0,0,0,-1,-1,34024.227381875,unknown,2,2022-06-02T10:44:14.797+02:00,2022-06-02T10:32:51.428+02:00,59,2.035977,0,0,55.92561,0,0,2022-06-02T10:44:14.797+02:00,675852267.5609292,0,10.19141,101.0714,1,0.9
493,2022-06-02T10:44:29.929+02:00,1654159469.00046,53.229030462205,10.3985868072452,36.82214,0.06491444,0.4523487,234.4057538992881,112.0996926155979,3,6.000906205260658,-9999,34039.35364266667,-4.091110229492188,3.307601928710938,6.781265258789062,34039.34989166667,1.812292386904845,2.92677034046468,-0.3435674010051387,-13.676438331604,10.94658088684082,-11.56652450561523,-3.641114950180054,3.321690559387207,3.75739049911499,XArbitraryZVertical,0.7823805848580095,-0.5897787670963422,0.0216831084108382,-0.1989259952558889,0.2007157653570175,0.3368481397628784,0.9199167490005492,0,0,0,-1,-1,34024.227381875,unknown,2,2022-06-02T10:44:14.797+02:00,2022-06-02T10:32:51.428+02:00,59,2.035977,0,0,55.92561,0,0,2022-06-02T10:44:14.797+02:00,675852267.5609292,0,10.19141,101.0714,1,0.9
494,2022-06-02T10:44:29.938+02:00,1654159469.00046,53.229030462205,10.3985868072452,36.82214,0.06491444,0.4523487,234.4057538992881,112.0996926155979,3,6.000906205260658,-9999,34039.36361466667,-4.560195922851562,2.823837280273438,8.708084106445312,34039.35986466667,1.95315090749966,3.063085930948171,-0.2475849656453863,-9.249058723449709,7.951198101043701,-12.4014368057251,-4.105880737304688,3.112404346466064,5.567689418792725,XArbitraryZVertical,0.8243236944712806,-0.5511359770008077,0.0368091821626003,-0.1240347423530656,0.0760346576571464,0.2450632899999619,0.9665208458900452,0,0,0,-1,-1,34024.227381875,unknown,2,2022-06-02T10:44:14.797+02:00,2022-06-02T10:32:51.428+02:00,59,2.035977,0,0,55.92561,0,0,2022-06-02T10:44:14.797+02:00,675852267.5609292,0,10.19141,101.0714,1,0.9
495,2022-06-02T10:44:29.948+02:00,1654159469.00046,53.229030462205,10.3985868072452,36.82214,0.06491444,0.4523487,234.4057538992881,112.0996926155979,3,6.000906205260658,-9999,34039.37358766667,-5.34613037109375,2.674041748046875,10.37417602539062,34039.36983766667,2.08790070033948,-3.134788993291177,-0.1790643610963865,-5.442704200744629,3.241591215133667,-13.56995487213135,-4.488788604736328,2.708670854568481,7.501440048217773,XArbitraryZVertical,0.8607771424467676,-0.5010556712430747,0.0478860031287153,-0.0755839458698656,-0.0066948244348168,0.1781089752912521,0.9839881658554076,0,0,0,-1,-1,34024.227381875,unknown,2,2022-06-02T10:44:14.797+02:00,2022-06-02T10:32:51.428+02:00,59,2.035977,0,0,55.92561,0,0,2022-06-02T10:44:14.797+02:00,675852267.5609292,0,10.19141,101.0714,1,0.9
496,2022-06-02T10:44:29.958+02:00,1654159469.00046,53.229030462205,10.3985868072452,36.82214,0.06491444,0.4523487,234.4057538992881,112.0996926155979,3,6.000906205260658,-9999,34039.38356066667,-6.600784301757812,3.167160034179688,11.37055969238281,34039.37980966667,2.230324605270657,-3.113497980803357,-0.1330495566282062,-3.311207294464111,-3.582309246063232,-14.79355525970459,-5.188084602355957,2.505099058151245,9.168622970581056,XArbitraryZVertical,0.8954966508106879,-0.4398536575748914,0.0418344858174691,-0.0535207228341632,-0.0278427116572856,0.1326573640108109,0.9907709956169128,0,0,0,-1,-1,34024.227381875,unknown,2,2022-06-02T10:44:14.797+02:00,2022-06-02T10:32:51.428+02:00,59,2.035977,0,0,55.92561,0,0,2022-06-02T10:44:14.797+02:00,675852267.5609292,0,10.19141,101.0714,1,0.9
497,2022-06-02T10:44:29.968+02:00,1654159469.00046,53.229030462205,10.3985868072452,36.82214,0.06491444,0.4523487,234.4057538992881,112.0996926155979,3,6.000906205260658,-9999,34039.39353266667,-8.271774291992188,3.900009155273438,10.68487548828125,34039.38978266667,2.383139680043504,3.1119172918643,-0.1095668626924752,-1.268761992454529,-11.84806156158447,-15.50547122955322,-6.450421810150146,3.002270221710205,10.34298229217529,XArbitraryZVertical,0.9277562752324368,-0.3688512342978502,0.0065062639524849,-0.0563445847238561,0.0294930841773748,0.1093477681279182,0.9935658574104308,0,0,0,-1,-1,34024.227381875,unknown,2,2022-06-02T10:44:14.797+02:00,2022-06-02T10:32:51.428+02:00,59,2.035977,0,0,55.92561,0,0,2022-06-02T10:44:14.797+02:00,675852267.5609292,0,10.19141,101.0714,1,0.9
498,2022-06-02T10:44:29.978+02:00,1654159469.00046,53.229030462205,10.3985868072452,36.82214,0.06491444,0.4523487,234.4057538992881,112.0996926155979,3,6.000906205260658,-9999,34039.40350566667,-10.49237060546875,4.586181640625,7.951522827148438,34039.39975566667,2.534805120603957,2.965925490204323,-0.1265107347307348,2.012019634246826,-20.97948265075684,-14.8072452545166,-8.21192741394043,3.669785976409912,9.929096221923828,XArbitraryZVertical,0.9504046084041604,-0.2917219125390359,-0.0647340677867578,-0.0862486506744622,0.1733683496713638,0.1261735409498215,0.9767411947250366,0,0,0,-1,-1,34024.227381875,unknown,2,2022-06-02T10:44:14.797+02:00,2022-06-02T10:32:51.428+02:00,59,2.035977,0,0,55.92561,0,0,2022-06-02T10:44:14.797+02:00,675852267.5609292,0,10.19141,101.0714,1,0.9
499,2022-06-02T10:44:29.988+02:00,1654159469.00046,53.229030462205,10.3985868072452,36.82214,0.06491444,0.4523487,234.4057538992881,112.0996926155979,3,6.000906205260658,-9999,34039.41347866667,-13.79989624023438,5.168365478515625,3.586593627929688,34039.40972766667,2.658182773461814,2.732079232529438,-0.2079185536377119,6.865482330322266,-29.34834289550781,-13.51200866699219,-10.56649780273438,4.312527656555176,7.464746475219727,XArbitraryZVertical,0.9505669826993688,-0.212606466849576,-0.1720327537089879,-0.1470565924569286,0.3895876705646515,0.2064237296581268,0.8975582122802734,0,0,0,-1,-1,34024.227381875,unknown,2,2022-06-02T10:44:14.797+02:00,2022-06-02T10:32:51.428+02:00,59,2.035977,0,0,55.92561,0,0,2022-06-02T10:44:14.797+02:00,675852267.5609292,0,10.19141,101.0714,1,0.9
500,2022-06-02T10:44:29.998+02:00,1654159469.00046,53.229030462205,10.3985868072452,36.82214,0.06491444,0.4523487,234.4057538992881,112.0996926155979,3,6.000906205260658,-9999,34039.42345066667,-19.34866333007812,6.142959594726562,-0.4186859130859375,34039.41970066667,2.712128553195929,2.429177975950455,-0.3510042494380884,12.35315132141113,-34.07793045043945,-10.38486385345459,-13.87323760986328,4.712891101837158,3.478520393371582,XArbitraryZVertical,0.9146096090921358,-0.1371523061084232,-0.3006098073591674,-0.2330500638224226,0.6138079166412354,0.3438409864902496,0.7106429934501648,0,0,0,-1,-1,34024.227381875,unknown,2,2022-06-02T10:44:14.797+02:00,2022-06-02T10:32:51.428+02:00,59,2.035977,0,0,55.92561,0,0,2022-06-02T10:44:14.797+02:00,675852267.5609292,0,10.19141,101.0714,1,0.9
501,2022-06-02T10:44:30.008+02:00,1654159469.00046,53.229030462205,10.3985868072452,36.82214,0.06491444,0.4523487,234.4057538992881,112.0996926155979,3,6.000906205260658,-9999,34039.43342366667,-25.57429504394531,6.763916015625,-2.461273193359375,34039.42967366667,2.623516206285924,2.044477149391343,-0.4994819919530573,20.02792549133301,-34.87788772583008,-3.001743793487549,-19.36430740356445,5.562670230865479,-0.3834678530693054,XArbitraryZVertical,0.8322335464748399,-0.0872072467896214,-0.434402191714794,-0.3332819976437655,0.7811773419380188,0.4789708852767944,0.4004355669021606,0,0,0,-1,-1,34024.227381875,unknown,2,2022-06-02T10:44:14.797+02:00,2022-06-02T10:32:51.428+02:00,59,2.035977,0,0,55.92561,0,0,2022-06-02T10:44:14.797+02:00,675852267.5609292,0,10.19141,101.0714,1,0.9
502,2022-06-02T10:44:30.018+02:00,1654159469.00046,53.229030462205,10.3985868072452,36.82214,0.06491444,0.4523487,234.4057538992881,112.0996926155979,3,6.000906205260658,-9999,34039.44339666667,-27.72280883789062,9.83843994140625,2.491241455078125,34039.43964666667,2.351863712607168,1.557934857566856,-0.5484752478926943,31.43056488037109,-34.74860763549805,3.616716146469116,-25.61765480041504,6.172979831695557,-2.582729578018188,XArbitraryZVertical,0.6983872920571933,-0.0822670325008736,-0.5591422763572935,-0.439143647015569,0.8532497882843018,0.5213867425918579,-0.0109746512025594,0,0,0,-1,-1,34024.227381875,unknown,2,2022-06-02T10:44:14.797+02:00,2022-06-02T10:32:51.428+02:00,59,2.035977,0,0,55.92561,0,0,2022-06-02T10:44:14.797+02:00,675852267.5609292,0,10.19141,101.0714,1,0.9
503,2022-06-02T10:44:30.029+02:00,1654159469.00046,53.229030462205,10.3985868072452,36.82214,0.06491444,0.4523487,234.4057538992881,112.0996926155979,3,6.000906205260658,-9999,34039.45336966667,-31.40153503417969,19.84698486328125,18.58819580078125,34039.44961866667,2.018747086322571,1.061095633990226,-0.3367088647934713,36.32651138305664,-34.63569641113281,17.11890029907227,-28.73371124267578,8.271653175354004,2.023155450820923,XArbitraryZVertical,0.4992216529257191,-0.1432434825321151,-0.6746680367594503,-0.52448261587451,0.8238751888275146,0.3303825557231903,-0.460518091917038,0,0,0,-1,-1,34024.227381875,unknown,2,2022-06-02T10:44:14.797+02:00,2022-06-02T10:32:51.428+02:00,59,2.035977,0,0,55.92561,0,0,2022-06-02T10:44:14.797+02:00,675852267.5609292,0,10.19141,101.0714,1,0.9
504,2022-06-02T10:44:30.058+02:00,1654159469.00046,53.229030462205,10.3985868072452,36.82214,0.06491444,0.4523487,234.4057538992881,112.0996926155979,3,6.000906205260658,-9999,34039.46334166667,-31.02728271484375,9.367904663085938,22.59710693359375,34039.45959166667,1.809351059718459,0.6794897214441836,-0.019773883144325,36.27060699462891,-33.01488494873047,8.980295181274414,-31.45092010498047,19.44095039367676,17.57125854492188,XArbitraryZVertical,0.267754063645493,-0.1985876412807195,-0.739211706810146,-0.5851810590821487,0.6282733082771301,0.019772594794631,-0.7777414321899414,0,0,0,-1,-1,34024.227381875,unknown,2,2022-06-02T10:44:14.797+02:00,2022-06-02T10:32:51.428+02:00,59,2.035977,0,0,55.92561,0,0,2022-06-02T10:44:14.797+02:00,675852267.5609292,0,10.19141,101.0714,1,0.9
505,2022-06-02T10:44:30.061+02:00,1654159469.00046,53.229030462205,10.3985868072452,36.82214,0.06491444,0.4523487,234.4057538992881,112.0996926155979,3,6.000906205260658,-9999,34039.47331466667,-23.20964050292969,-11.10430908203125,16.80938720703125,34039.46956466667,1.70071011813382,0.4560808090900593,0.3218049609755261,30.52458953857422,-15.22632884979248,6.946099281311035,-32.12192535400391,11.78193187713623,23.56707572937012,XArbitraryZVertical,0.0647433976497699,-0.2644975174491293,-0.7464968290259234,-0.6071177819999107,0.4178237617015839,-0.3162793815135956,-0.8516986966133118,0,0,0,-1,-1,34024.227381875,unknown,2,2022-06-02T10:44:14.797+02:00,2022-06-02T10:32:51.428+02:00,59,2.035977,0,0,55.92561,0,0,2022-06-02T10:44:14.797+02:00,675852267.5609292,0,10.19141,101.0714,1,0.9
506,2022-06-02T10:44:30.063+02:00,1654159469.00046,53.229030462205,10.3985868072452,36.82214,0.06491444,0.4523487,234.4057538992881,112.0996926155979,3,6.000906205260658,-9999,34039.48328766667,-10.8330078125,-15.63114929199219,2.553573608398438,34039.47953666667,1.694965388597931,0.3743758137655748,0.5738647006866323,17.06866836547852,-4.219704151153564,13.09765243530273,-24.74438285827637,-7.873927593231201,19.26102638244629,XArbitraryZVertical,-0.050247318136784,-0.3265805532599348,-0.7412695145041798,-0.5842430185550682,0.3071112036705017,-0.5428817272186279,-0.7816407084465027,0,0,0,-1,-1,34024.227381875,unknown,2,2022-06-02T10:44:14.797+02:00,2022-06-02T10:32:51.428+02:00,59,2.035977,0,0,55.92561,0,0,2022-06-02T10:44:14.797+02:00,675852267.5609292,0,10.19141,101.0714,1,0.9
507,2022-06-02T10:44:30.068+02:00,1654159469.00046,53.229030462205,10.3985868072452,36.82214,0.06491444,0.4523487,234.4057538992881,112.0996926155979,3,6.000906205260658,-9999,34039.49325966667,-6.266677856445312,-5.008682250976562,-1.330230712890625,34039.48950966667,1.796050370444046,0.2831886159701149,0.7146325130124958,5.250884532928467,-1.405295133590698,9.747072219848633,-12.46370983123779,-16.36469459533691,4.399656772613525,XArbitraryZVertical,-0.112374686781004,-0.3531962600807754,-0.7561252328194676,-0.5393504542555797,0.2110544592142105,-0.6553398966789246,-0.7252486348152161,0,0,0,-1,-1,34024.227381875,unknown,2,2022-06-02T10:44:14.797+02:00,2022-06-02T10:32:51.428+02:00,59,2.035977,0,0,55.92561,0,0,2022-06-02T10:44:14.797+02:00,675852267.5609292,0,10.19141,101.0714,1,0.9
508,2022-06-02T10:44:30.078+02:00,1654159469.00046,53.229030462205,10.3985868072452,36.82214,0.06491444,0.4523487,234.4057538992881,112.0996926155979,3,6.000906205260658,-9999,34039.50323266667,-5.880645751953125,-2.996017456054688,-1.854827880859375,34039.49948266667,1.882689961247439,0.2324473881418118,0.7599719771774787,0.6432071328163147,3.605323076248169,6.032527446746826,-6.547775745391846,-5.039843559265137,-0.4158550500869751,XArbitraryZVertical,-0.1298288608885377,-0.3611981386493145,-0.7709471866120761,-0.508252765924124,0.1669775098562241,-0.6889011263847351,-0.7053607702255249,0,0,0,-1,-1,34024.227381875,unknown,2,2022-06-02T10:44:14.797+02:00,2022-06-02T10:32:51.428+02:00,59,2.035977,0,0,55.92561,0,0,2022-06-02T10:44:14.797+02:00,675852267.5609292,0,10.19141,101.0714,1,0.9
509,2022-06-02T10:44:30.088+02:00,1654159469.00046,53.229030462205,10.3985868072452,36.82214,0.06491444,0.4523487,234.4057538992881,112.0996926155979,3,6.000906205260658,-9999,34039.51320566667,-5.508651733398438,-1.423614501953125,-0.83880615234375,34039.50945466667,1.982583575932846,0.2167893877074449,0.7654308493042163,-3.222327947616577,6.786951541900635,8.158026695251465,-6.157451629638672,-2.404778003692627,-1.16357696056366,XArbitraryZVertical,-0.1193282606083168,-0.3655926314439047,-0.7937675539780857,-0.4712069176311848,0.1551017463207245,-0.692847728729248,-0.7042055726051331,0,0,0,-1,-1,34024.227381875,unknown,2,2022-06-02T10:44:14.797+02:00,2022-06-02T10:32:51.428+02:00,59,2.035977,0,0,55.92561,0,0,2022-06-02T10:44:14.797+02:00,675852267.5609292,0,10.19141,101.0714,1,0.9
510,2022-06-02T10:44:30.098+02:00,1654159469.00046,53.229030462205,10.3985868072452,36.82214,0.06491444,0.4523487,234.4057538992881,112.0996926155979,3,6.000906205260658,-9999,34039.52317766667,-5.831207275390625,0.5738983154296875,1.0765380859375,34039.51942766667,2.109992995727521,0.2059209475238284,0.7289673370277744,-7.856496810913086,8.386231422424316,8.770204544067383,-5.659295558929443,-1.034507513046265,-0.357572078704834,XArbitraryZVertical,-0.0913556913938782,-0.3558113133962837,-0.826519536925259,-0.426518372329588,0.1525055915117264,-0.6660997867584229,-0.730104923248291,0,0,0,-1,-1,34024.227381875,unknown,2,2022-06-02T10:44:14.797+02:00,2022-06-02T10:32:51.428+02:00,59,2.035977,0,0,55.92561,0,0,2022-06-02T10:44:14.797+02:00,675852267.5609292,0,10.19141,101.0714,1,0.9
511,2022-06-02T10:44:30.107+02:00,1654159469.00046,53.229030462205,10.3985868072452,36.82214,0.06491444,0.4523487,234.4057538992881,112.0996926155979,3,6.000906205260658,-9999,34039.53315066667,-6.038497924804688,1.089569091796875,1.6524658203125,34039.52940066667,2.258251189243587,0.1977484252085378,0.6577833895574502,-10.25630474090576,8.82997989654541,10.7133960723877,-5.954878330230713,1.044240832328796,1.713488101959229,XArbitraryZVertical,-0.0529324295321098,-0.3305066190127102,-0.8650331397250663,-0.3737395563216023,0.1554701775312424,-0.6113642454147339,-0.7759270668029785,0,0,0,-1,-1,34024.227381875,unknown,2,2022-06-02T10:44:14.797+02:00,2022-06-02T10:32:51.428+02:00,59,2.035977,0,0,55.92561,0,0,2022-06-02T10:44:14.797+02:00,675852267.5609292,0,10.19141,101.0714,1,0.9
512,2022-06-02T10:44:30.121+02:00,1654159469.00046,53.229030462205,10.3985868072452,36.82214,0.06491444,0.4523487,234.4057538992881,112.0996926155979,3,6.000906205260658,-9999,34039.54312366667,-5.5189208984375,2.023910522460938,2.568023681640625,34039.53937266667,2.418248991560998,0.1863139988532465,0.5731087050868398,-11.25305461883545,7.261569499969482,11.67715263366699,-6.202607154846191,1.525141477584839,2.396814823150635,XArbitraryZVertical,-0.0161216854603773,-0.2947896921543581,-0.9025812606602416,-0.3133467318301082,0.1556405127048492,-0.5422466397285461,-0.8256782293319702,0,0,0,-1,-1,34024.227381875,unknown,2,2022-06-02T10:44:14.797+02:00,2022-06-02T10:32:51.428+02:00,59,2.035977,0,0,55.92561,0,0,2022-06-02T10:44:14.797+02:00,675852267.5609292,0,10.19141,101.0714,1,0.9
513,2022-06-02T10:44:30.128+02:00,1654159469.00046,53.229030462205,10.3985868072452,36.82214,0.06491444,0.4523487,234.4057538992881,112.0996926155979,3,6.000906205260658,-9999,34039.55309566667,-4.857391357421875,2.351913452148438,3.053955078125,34039.54934566667,2.574317382966356,0.1660452954161626,0.4911791207887479,-9.216596603393556,4.464940547943115,11.78718662261963,-5.769201755523682,2.4288649559021,3.30469274520874,XArbitraryZVertical,0.0094199419867844,-0.2551206350272255,-0.933671606929204,-0.2511612468176381,0.1457431018352509,-0.4716659486293793,-0.8696494698524475,0,0,0,-1,-1,34039.54160366667,running,2,2022-06-02T10:44:30.112+02:00,2022-06-02T10:32:51.428+02:00,59,2.035977,0,0,55.92561,0,0,2022-06-02T10:44:14.797+02:00,675852270.111413,0,10.35156,101.0683,1,0.9
514,2022-06-02T10:44:30.138+02:00,1654159469.00046,53.229030462205,10.3985868072452,36.82214,0.06491444,0.4523487,234.4057538992881,112.0996926155979,3,6.000906205260658,-9999,34039.56306866667,-4.469497680664062,2.79364013671875,2.457321166992188,34039.55931866667,2.709376183129017,0.1337833596918838,0.4379014054602843,-4.748857021331787,1.138051748275757,10.48117637634277,-5.040690422058105,2.718442916870117,3.961790561676025,XArbitraryZVertical,0.0172571243705274,-0.2256693733594425,-0.9544016245889836,-0.1946619652326174,0.1207989454269409,-0.4240398108959198,-0.8975510597229004,0,0,0,-1,-1,34039.54160366667,running,2,2022-06-02T10:44:30.112+02:00,2022-06-02T10:32:51.428+02:00,59,2.035977,0,0,55.92561,0,0,2022-06-02T10:44:14.797+02:00,675852270.111413,0,10.35156,101.0683,1,0.9
515,2022-06-02T10:44:30.148+02:00,1654159469.00046,53.229030462205,10.3985868072452,36.82214,0.06491444,0.4523487,234.4057538992881,112.0996926155979,3,6.000906205260658,-9999,34039.57304166667,-4.458694458007812,2.409042358398438,2.212600708007812,34039.56929166667,2.818384682231844,0.0840296412730492,0.429410616035357,0.8318322896957397,-1.871667146682739,9.050415992736816,-4.579698085784912,3.186522483825684,3.44396710395813,XArbitraryZVertical,0.0062519965943789,-0.2167009377441136,-0.9648978588926856,-0.1482359637156568,0.076310820877552,-0.4163349866867065,-0.90600323677063,0,0,0,-1,-1,34039.54160366667,running,2,2022-06-02T10:44:30.112+02:00,2022-06-02T10:32:51.428+02:00,59,2.035977,0,0,55.92561,0,0,2022-06-02T10:44:14.797+02:00,675852270.111413,0,10.35156,101.0683,1,0.9
516,2022-06-02T10:44:30.158+02:00,1654159469.00046,53.229030462205,10.3985868072452,36.82214,0.06491444,0.4523487,234.4057538992881,112.0996926155979,3,6.000906205260658,-9999,34039.58301466667,-4.654617309570312,1.5352783203125,1.995315551757812,34039.57926366667,2.909408451496098,0.0165429112559986,0.4633106108949417,4.832594871520996,-3.688009738922119,7.821733474731445,-4.456540107727051,2.952527284622192,3.113556385040283,XArbitraryZVertical,-0.0185964962739167,-0.2289682217336236,-0.9669232781905236,-0.1108472978178788,0.0147982472553849,-0.4469121396541595,-0.8944554328918457,0,0,0,-1,-1,34039.54160366667,running,2,2022-06-02T10:44:30.112+02:00,2022-06-02T10:32:51.428+02:00,59,2.035977,0,0,55.92561,0,0,2022-06-02T10:44:14.797+02:00,675852270.111413,0,10.35156,101.0683,1,0.9
517,2022-06-02T10:44:30.168+02:00,1654159470.000458,53.22902889195694,10.3985697647722,36.83111,0.126726,0.6558399,214.6507567817252,45.61571256634663,3,6.000906205260658,-9999,34039.59298666667,-4.871368408203125,0.9592132568359376,1.3668212890625,34039.58923666667,2.994978708195565,-0.0649331486850118,0.5221453845472449,7.161993980407715,-4.430789947509766,7.062873840332031,-4.569002628326416,2.138419628143311,2.916178941726685,XArbitraryZVertical,-0.0501715355857805,-0.254991210991923,-0.9623975463956091,-0.0790783765156603,-0.0562413446605205,-0.4987407922744751,-0.8649246096611023,0,0,0,-1,-1,34039.54160366667,running,2,2022-06-02T10:44:30.112+02:00,2022-06-02T10:32:51.428+02:00,59,2.035977,0,0,55.92561,0,0,2022-06-02T10:44:14.797+02:00,675852270.111413,0,10.35156,101.0683,1,0.9
518,2022-06-02T10:44:30.178+02:00,1654159470.000458,53.22902889195694,10.3985697647722,36.83111,0.126726,0.6558399,214.6507567817252,45.61571256634663,3,6.000906205260658,-9999,34039.60295966667,-4.926910400390625,0.492523193359375,0.9898834228515624,34039.59920966667,3.085169411849577,-0.156823396663452,0.5917239403622754,8.172356605529785,-4.344216823577881,6.692554950714111,-4.721675872802734,1.568946838378906,2.263322353363037,XArbitraryZVertical,-0.0830972905479603,-0.2884393648075207,-0.9525884391868508,-0.049728931809744,-0.1296274662017822,-0.5577926635742188,-0.8197951316833496,0,0,0,-1,-1,34039.54160366667,running,2,2022-06-02T10:44:30.112+02:00,2022-06-02T10:32:51.428+02:00,59,2.035977,0,0,55.92561,0,0,2022-06-02T10:44:14.797+02:00,675852270.111413,0,10.35156,101.0683,1,0.9
519,2022-06-02T10:44:30.187+02:00,1654159470.000458,53.22902889195694,10.3985697647722,36.83111,0.126726,0.6558399,214.6507567817252,45.61571256634663,3,6.000906205260658,-9999,34039.61293266667,-5.020904541015625,-0.151123046875,0.65753173828125,34039.60918166667,-3.098595011247729,-0.2551984173985299,0.6567394450665424,7.791756629943848,-3.643401622772217,6.512750625610352,-4.72219181060791,1.180224657058716,1.785380244255066,XArbitraryZVertical,-0.1135496910939694,-0.322393916803085,-0.9395393461090008,-0.020846577264672,-0.1999271810054779,-0.6105377674102783,-0.7663372755050659,0,0,0,-1,-1,34039.54160366667,running,2,2022-06-02T10:44:30.112+02:00,2022-06-02T10:32:51.428+02:00,59,2.035977,0,0,55.92561,0,0,2022-06-02T10:44:14.797+02:00,675852270.111413,0,10.35156,101.0683,1,0.9
520,2022-06-02T10:44:30.197+02:00,1654159470.000458,53.22902889195694,10.3985697647722,36.83111,0.126726,0.6558399,214.6507567817252,45.61571256634663,3,6.000906205260658,-9999,34039.62290466667,-5.170318603515625,-0.4315185546875,0.1765899658203125,34039.61915466667,-2.991221532818391,-0.3540782357234452,0.7059483889263778,6.59005880355835,-2.561296701431274,6.480593681335449,-4.737866878509521,0.5614603161811829,1.428724765777588,XArbitraryZVertical,-0.1392305538085009,-0.3517388048568376,-0.9256454315158744,0.0086726425491598,-0.2638572752475739,-0.6487558484077454,-0.7137893438339233,0,0,0,-1,-1,34039.54160366667,running,2,2022-06-02T10:44:30.112+02:00,2022-06-02T10:32:51.428+02:00,59,2.035977,0,0,55.92561,0,0,2022-06-02T10:44:14.797+02:00,675852270.111413,0,10.35156,101.0683,1,0.9
521,2022-06-02T10:44:30.207+02:00,1654159470.000458,53.22902889195694,10.3985697647722,36.83111,0.126726,0.6558399,214.6507567817252,45.61571256634663,3,6.000906205260658,-9999,34039.63287766667,-5.13006591796875,-0.6772003173828125,-0.0276336669921875,34039.62912766667,-2.882482664249367,-0.445011023854285,0.7334848360730478,4.745011329650879,-1.251556158065796,6.468930721282959,-4.837089061737061,0.2574445009231567,0.8950912952423096,XArbitraryZVertical,-0.1590894531872957,-0.3734192874889387,-0.9130798741701068,0.0391631270540844,-0.3197712898254395,-0.6694623827934265,-0.6704971790313721,0,0,0,-1,-1,34039.54160366667,running,2,2022-06-02T10:44:30.112+02:00,2022-06-02T10:32:51.428+02:00,59,2.035977,0,0,55.92561,0,0,2022-06-02T10:44:14.797+02:00,675852270.111413,0,10.35156,101.0683,1,0.9
522,2022-06-02T10:44:30.217+02:00,1654159470.000458,53.22902889195694,10.3985697647722,36.83111,0.126726,0.6558399,214.6507567817252,45.61571256634663,3,6.000906205260658,-9999,34039.64285066667,-4.819931030273438,-1.0333251953125,-0.061431884765625,34039.63909966667,-2.782814713344182,-0.5177097601874312,0.7351323149288985,2.403077363967896,0.0801349729299545,6.539692401885986,-4.784071922302246,0.0446629524230957,0.6320892572402954,XArbitraryZVertical,-0.1730614023590425,-0.38442108920892,-0.9040498750366384,0.0704558322600683,-0.3670817017555237,-0.6706852912902832,-0.6445403695106506,0,0,0,-1,-1,34039.54160366667,running,2,2022-06-02T10:44:30.112+02:00,2022-06-02T10:32:51.428+02:00,59,2.035977,0,0,55.92561,0,0,2022-06-02T10:44:14.797+02:00,675852270.111413,0,10.35156,101.0683,1,0.9
523,2022-06-02T10:44:30.227+02:00,1654159470.000458,53.22902889195694,10.3985697647722,36.83111,0.126726,0.6558399,214.6507567817252,45.61571256634663,3,6.000906205260658,-9999,34039.65282266667,-4.414398193359375,-0.8180389404296875,0.0546112060546875,34039.64907266667,-2.699326100108193,-0.5668239800232371,0.7118535434331309,0.1527527868747711,1.132614850997925,6.59835147857666,-4.460050582885742,-0.3601284623146057,0.5711301565170288,XArbitraryZVertical,-0.1823439485870685,-0.3839007442232505,-0.8993897033274298,0.1023188486178917,-0.4065571129322052,-0.6532382965087891,-0.6387417912483215,0,0,0,-1,-1,34039.54160366667,running,2,2022-06-02T10:44:30.112+02:00,2022-06-02T10:32:51.428+02:00,59,2.035977,0,0,55.92561,0,0,2022-06-02T10:44:14.797+02:00,675852270.111413,0,10.35156,101.0683,1,0.9
524,2022-06-02T10:44:30.237+02:00,1654159470.000458,53.22902889195694,10.3985697647722,36.83111,0.126726,0.6558399,214.6507567817252,45.61571256634663,3,6.000906205260658,-9999,34039.66279566667,-4.023666381835938,-0.310455322265625,0.1807403564453125,34039.65904566667,-2.631577355601336,-0.5957475618554052,0.6719492471617682,-0.8888675570487976,1.672985196113586,6.504992485046387,-4.028263092041016,-0.2503053545951843,0.6837692260742188,XArbitraryZVertical,-0.1886161144998037,-0.3748726324282663,-0.8977361303865389,0.1340308183455687,-0.4391439855098724,-0.622512698173523,-0.647788941860199,0,0,0,-1,-1,34039.54160366667,running,2,2022-06-02T10:44:30.112+02:00,2022-06-02T10:32:51.428+02:00,59,2.035977,0,0,55.92561,0,0,2022-06-02T10:44:14.797+02:00,675852270.111413,0,10.35156,101.0683,1,0.9
525,2022-06-02T10:44:30.248+02:00,1654159470.000458,53.22902889195694,10.3985697647722,36.83111,0.126726,0.6558399,214.6507567817252,45.61571256634663,3,6.000906205260658,-9999,34039.67276866667,-3.744720458984375,-0.0435943603515625,0.2394866943359375,34039.66901766667,-2.572175274192619,-0.6145782637565079,0.6286177959398592,-0.7276639342308044,1.702930331230164,6.219593524932861,-3.598948955535889,0.216780960559845,0.8287444114685059,XArbitraryZVertical,-0.1933092123590242,-0.3636113599109645,-0.89623696318671,0.1648564612558026,-0.4663890898227692,-0.5880273580551147,-0.6608366370201111,0,0,0,-1,-1,34039.54160366667,running,2,2022-06-02T10:44:30.112+02:00,2022-06-02T10:32:51.428+02:00,59,2.035977,0,0,55.92561,0,0,2022-06-02T10:44:14.797+02:00,675852270.111413,0,10.35156,101.0683,1,0.9
526,2022-06-02T10:44:30.258+02:00,1654159470.000458,53.22902889195694,10.3985697647722,36.83111,0.126726,0.6558399,214.6507567817252,45.61571256634663,3,6.000906205260658,-9999,34039.68274066667,-3.512237548828125,-0.2005615234375,0.273193359375,34039.67899066667,-2.514745536264682,-0.6319562733255434,0.5907192436711522,0.0988132506608963,1.36806333065033,5.903717041015625,-3.286296129226685,0.5028813481330872,0.9043481349945068,XArbitraryZVertical,-0.1975042141874327,-0.354854364267036,-0.8929230348701332,0.1943167245631105,-0.4906204044818878,-0.5569585561752319,-0.6701409220695496,0,0,0,-1,-1,34039.54160366667,running,2,2022-06-02T10:44:30.112+02:00,2022-06-02T10:32:51.428+02:00,59,2.035977,0,0,55.92561,0,0,2022-06-02T10:44:14.797+02:00,675852270.111413,0,10.35156,101.0683,1,0.9
527,2022-06-02T10:44:30.267+02:00,1654159470.000458,53.22902889195694,10.3985697647722,36.83111,0.126726,0.6558399,214.6507567817252,45.61571256634663,3,6.000906205260658,-9999,34039.69271366667,-3.289093017578125,-0.5012969970703125,0.265960693359375,34039.68896366667,-2.455229161620762,-0.6532895696874425,0.5603624366857631,0.980359673500061,0.8225034475326538,5.763337135314941,-3.024445056915283,0.3710927963256836,0.9461718797683716,XArbitraryZVertical,-0.2022462352328925,-0.3503927206719208,-0.8869732448064355,0.2227104434303369,-0.5148462057113647,-0.5314932465553284,-0.6726428270339966,0,0,0,-1,-1,34039.54160366667,running,2,2022-06-02T10:44:30.112+02:00,2022-06-02T10:32:51.428+02:00,59,2.035977,0,0,55.92561,0,0,2022-06-02T10:44:14.797+02:00,675852270.111413,0,10.35156,101.0683,1,0.9
528,2022-06-02T10:44:30.277+02:00,1654159470.000458,53.22902889195694,10.3985697647722,36.83111,0.126726,0.6558399,214.6507567817252,45.61571256634663,3,6.000906205260658,-9999,34039.70268666667,-3.063369750976562,-0.68182373046875,0.356536865234375,34039.69893566667,-2.394827943558534,-0.6794945351938294,0.5355105346409285,1.467229247093201,0.2561244666576385,5.427720546722412,-2.778616905212402,0.0373340249061584,0.931290864944458,XArbitraryZVertical,-0.2082421495165145,-0.3494840642650681,-0.8787554152641085,0.2495696917813061,-0.5404291152954102,-0.510280191898346,-0.6689922213554382,0,0,0,-1,-1,34039.54160366667,running,2,2022-06-02T10:44:30.112+02:00,2022-06-02T10:32:51.428+02:00,59,2.035977,0,0,55.92561,0,0,2022-06-02T10:44:14.797+02:00,675852270.111413,0,10.35156,101.0683,1,0.9
529,2022-06-02T10:44:30.287+02:00,1654159470.000458,53.22902889195694,10.3985697647722,36.83111,0.126726,0.6558399,214.6507567817252,45.61571256634663,3,6.000906205260658,-9999,34039.71265866667,-2.908477783203125,-0.980438232421875,0.358673095703125,34039.70890866667,-2.336169041910631,-0.7078372646026959,0.5144051135315401,1.746524095535278,-0.0163256973028183,5.103975772857666,-2.522315740585327,-0.1640498638153076,1.00638484954834,XArbitraryZVertical,-0.2148472809460295,-0.3508821753634744,-0.8691456012720966,0.2744236778182023,-0.5660479068756104,-0.4920170307159424,-0.6614446640014648,0,0,0,-1,-1,34039.54160366667,running,2,2022-06-02T10:44:30.112+02:00,2022-06-02T10:32:51.428+02:00,59,2.035977,0,0,55.92561,0,0,2022-06-02T10:44:14.797+02:00,675852270.111413,0,10.35156,101.0683,1,0.9
530,2022-06-02T10:44:30.297+02:00,1654159470.000458,53.22902889195694,10.3985697647722,36.83111,0.126726,0.6558399,214.6507567817252,45.61571256634663,3,6.000906205260658,-9999,34039.72263166667,-2.784027099609375,-1.292984008789062,0.295196533203125,34039.71888166667,-2.281218409512251,-0.73539273264574,0.4946933470064805,1.622739911079407,-0.1758580952882767,4.749040126800537,-2.335499286651611,-0.4611970484256744,1.01849365234375,XArbitraryZVertical,-0.2214913197077115,-0.3530007933451648,-0.8590265447640258,0.297330658116248,-0.5904497504234314,-0.4747617840766907,-0.652664065361023,0,0,0,-1,-1,34039.54160366667,running,2,2022-06-02T10:44:30.112+02:00,2022-06-02T10:32:51.428+02:00,59,2.035977,0,0,55.92561,0,0,2022-06-02T10:44:14.797+02:00,675852270.111413,0,10.35156,101.0683,1,0.9
531,2022-06-02T10:44:30.307+02:00,1654159470.000458,53.22902889195694,10.3985697647722,36.83111,0.126726,0.6558399,214.6507567817252,45.61571256634663,3,6.000906205260658,-9999,34039.73260466667,-2.641983032226562,-1.442672729492188,0.2542266845703125,34039.72885366667,-2.232539757456725,-0.7601689307351845,0.4741169563598858,1.203756213188171,-0.2303699851036072,4.381994724273682,-2.183987855911255,-0.8065848350524902,0.9486438632011414,XArbitraryZVertical,-0.2282617098417623,-0.3542688903895418,-0.8492659784957297,0.3180210274966722,-0.6130397319793701,-0.4565529823303223,-0.6447802782058716,0,0,0,-1,-1,34039.54160366667,running,2,2022-06-02T10:44:30.112+02:00,2022-06-02T10:32:51.428+02:00,59,2.035977,0,0,55.92561,0,0,2022-06-02T10:44:14.797+02:00,675852270.111413,0,10.35156,101.0683,1,0.9
532,2022-06-02T10:44:30.317+02:00,1654159470.000458,53.22902889195694,10.3985697647722,36.83111,0.126726,0.6558399,214.6507567817252,45.61571256634663,3,6.000906205260658,-9999,34039.74257766667,-2.435073852539062,-1.581375122070312,0.173980712890625,34039.73882666667,-2.191574664257393,-0.7805888827932485,0.4517043076093676,0.7171111702919006,-0.1995162069797516,4.035436153411865,-2.031629085540771,-0.9923792481422424,0.8937712907791138,XArbitraryZVertical,-0.2350320487606775,-0.3537516604182067,-0.8404908316005275,0.3364445717541389,-0.6331202387809753,-0.4364995360374451,-0.6392393708229065,0,0,0,-1,-1,34039.54160366667,running,2,2022-06-02T10:44:30.112+02:00,2022-06-02T10:32:51.428+02:00,59,2.035977,0,0,55.92561,0,0,2022-06-02T10:44:14.797+02:00,675852270.111413,0,10.35156,101.0683,1,0.9
533,2022-06-02T10:44:30.327+02:00,1654159470.000458,53.22902889195694,10.3985697647722,36.83111,0.126726,0.6558399,214.6507567817252,45.61571256634663,3,6.000906205260658,-9999,34039.75254966667,-2.310867309570312,-1.644073486328125,0.0495452880859375,34039.74879966667,-2.156598421622358,-0.7977651226351449,0.4286406393896752,0.5701268911361694,-0.2726671993732452,3.693506956100464,-1.809195399284363,-1.146193861961365,0.8255935907363892,XArbitraryZVertical,-0.241732920768847,-0.3521342218674791,-0.8324606076535679,0.3529534385846967,-0.651040256023407,-0.41563481092453,-0.6351333856582642,0,0,0,-1,-1,34039.54160366667,running,2,2022-06-02T10:44:30.112+02:00,2022-06-02T10:32:51.428+02:00,59,2.035977,0,0,55.92561,0,0,2022-06-02T10:44:14.797+02:00,675852270.111413,0,10.35156,101.0683,1,0.9
534,2022-06-02T10:44:30.337+02:00,1654159470.000458,53.22902889195694,10.3985697647722,36.83111,0.126726,0.6558399,214.6507567817252,45.61571256634663,3,6.000906205260658,-9999,34039.76252266667,-2.266464233398438,-1.58294677734375,-0.0096435546875,34039.75877266667,-2.125559365246913,-0.8134136542703817,0.408312222659422,0.7292393445968628,-0.3182317614555359,3.183685302734375,-1.652037620544434,-1.249698162078857,0.6937606334686279,XArbitraryZVertical,-0.247873194119265,-0.3511226922084879,-0.8247901166236834,0.3674140479782985,-0.6669015288352966,-0.3970608711242676,-0.6305434703826904,0,0,0,-1,-1,34039.54160366667,running,2,2022-06-02T10:44:30.112+02:00,2022-06-02T10:32:51.428+02:00,59,2.035977,0,0,55.92561,0,0,2022-06-02T10:44:14.797+02:00,675852270.111413,0,10.35156,101.0683,1,0.9
535,2022-06-02T10:44:30.347+02:00,1654159470.000458,53.22902889195694,10.3985697647722,36.83111,0.126726,0.6558399,214.6507567817252,45.61571256634663,3,6.000906205260658,-9999,34039.77249566667,-2.165573120117188,-1.700607299804688,-0.066680908203125,34039.76874466667,-2.097616422023756,-0.8274121557784551,0.3924535971318496,0.8375238180160522,-0.3157837688922882,2.661800384521484,-1.593392372131348,-1.203099370002747,0.619455099105835,XArbitraryZVertical,-0.2527710853361853,-0.3513430375936999,-0.8175498871150064,0.379838339740544,-0.6802130341529846,-0.3824566304683685,-0.6253296732902527,0,0,0,-1,-1,34039.54160366667,running,2,2022-06-02T10:44:30.112+02:00,2022-06-02T10:32:51.428+02:00,59,2.035977,0,0,55.92561,0,0,2022-06-02T10:44:14.797+02:00,675852270.111413,0,10.35156,101.0683,1,0.9
536,2022-06-02T10:44:30.357+02:00,1654159470.000458,53.22902889195694,10.3985697647722,36.83111,0.126726,0.6558399,214.6507567817252,45.61571256634663,3,6.000906205260658,-9999,34039.78246766667,-1.98699951171875,-1.822433471679688,-0.0501861572265625,34039.77871766667,-2.073969125611916,-0.8401127576401354,0.3796616265181413,0.6686834096908569,-0.4802342355251312,2.202503442764282,-1.490838527679443,-1.304534196853638,0.5629549026489258,XArbitraryZVertical,-0.257104155972708,-0.3520937384525849,-0.8110686041547817,0.389993970536691,-0.6916871070861816,-0.3706062138080597,-0.6198549270629883,0,0,0,-1,-1,34039.54160366667,running,2,2022-06-02T10:44:30.112+02:00,2022-06-02T10:32:51.428+02:00,59,2.035977,0,0,55.92561,0,0,2022-06-02T10:44:14.797+02:00,675852270.111413,0,10.35156,101.0683,1,0.9
537,2022-06-02T10:44:30.367+02:00,1654159470.000458,53.22902889195694,10.3985697647722,36.83111,0.126726,0.6558399,214.6507567817252,45.61571256634663,3,6.000906205260658,-9999,34039.79244066667,-1.827178955078125,-1.685577392578125,0.0764312744140625,34039.78869066667,-2.055740828332086,-0.8525886622631168,0.368169649836417,0.3469822704792023,-0.6861532330513,1.771909117698669,-1.308550834655762,-1.46284556388855,0.5507224798202515,XArbitraryZVertical,-0.2619505038619763,-0.3527210294010811,-0.8055075367615658,0.3976525152129238,-0.7025270462036133,-0.3599083423614502,-0.613939642906189,0,0,0,-1,-1,34039.54160366667,running,2,2022-06-02T10:44:30.112+02:00,2022-06-02T10:32:51.428+02:00,59,2.035977,0,0,55.92561,0,0,2022-06-02T10:44:14.797+02:00,675852270.111413,0,10.35156,101.0683,1,0.9
538,2022-06-02T10:44:30.377+02:00,1654159470.000458,53.22902889195694,10.3985697647722,36.83111,0.126726,0.6558399,214.6507567817252,45.61571256634663,3,6.000906205260658,-9999,34039.80241366667,-1.717880249023438,-1.493072509765625,0.134857177734375,34039.79866266667,-2.042848963696358,-0.8647054247606176,0.358061745651081,0.2020980417728424,-0.8195576071739197,1.349348068237305,-1.129700183868408,-1.359684467315674,0.6698610782623291,XArbitraryZVertical,-0.2672139576408751,-0.3531865508965203,-0.800958726325375,0.4028908804358606,-0.7126460075378418,-0.3504595756530762,-0.607711911201477,0,0,0,-1,-1,34039.54160366667,running,2,2022-06-02T10:44:30.112+02:00,2022-06-02T10:32:51.428+02:00,59,2.035977,0,0,55.92561,0,0,2022-06-02T10:44:14.797+02:00,675852270.111413,0,10.35156,101.0683,1,0.9
539,2022-06-02T10:44:30.387+02:00,1654159470.000458,53.22902889195694,10.3985697647722,36.83111,0.126726,0.6558399,214.6507567817252,45.61571256634663,3,6.000906205260658,-9999,34039.81238566667,-1.635696411132812,-1.34344482421875,0.1616973876953125,34039.80863566667,-2.032969278897149,-0.8772052853135509,0.350658857722247,0.2763274908065796,-1.01761782169342,0.98148912191391,-1.008032441139221,-1.170490980148315,0.7332572340965271,XArbitraryZVertical,-0.2724260588428378,-0.3543791626744704,-0.7969717833164549,0.4062455359119532,-0.7221616506576538,-0.3435166478157043,-0.6003988981246948,0,0,0,-1,-1,34039.54160366667,running,2,2022-06-02T10:44:30.112+02:00,2022-06-02T10:32:51.428+02:00,59,2.035977,0,0,55.92561,0,0,2022-06-02T10:44:14.797+02:00,675852270.111413,0,10.35156,101.0683,1,0.9
540,2022-06-02T10:44:30.397+02:00,1654159470.000458,53.22902889195694,10.3985697647722,36.83111,0.126726,0.6558399,214.6507567817252,45.61571256634663,3,6.000906205260658,-9999,34039.82235866667,-1.581344604492188,-1.267333984375,0.225616455078125,34039.81860866667,-2.024928394339219,-0.891422598469476,0.3467216353383514,0.4046455323696136,-1.273650407791138,0.5935366153717041,-0.912600874900818,-1.019894361495972,0.7447099685668945,XArbitraryZVertical,-0.2776975650110431,-0.3569674657798212,-0.7932040868384264,0.4077812879818882,-0.7316709756851196,-0.3398163616657257,-0.5909165740013123,0,0,0,-1,-1,34039.54160366667,running,2,2022-06-02T10:44:30.112+02:00,2022-06-02T10:32:51.428+02:00,59,2.035977,0,0,55.92561,0,0,2022-06-02T10:44:14.797+02:00,675852270.111413,0,10.35156,101.0683,1,0.9
541,2022-06-02T10:44:30.407+02:00,1654159470.000458,53.22902889195694,10.3985697647722,36.83111,0.126726,0.6558399,214.6507567817252,45.61571256634663,3,6.000906205260658,-9999,34039.83233166667,-1.554855346679688,-1.30755615234375,0.2085113525390625,34039.82858066667,-2.018790288802118,-0.907303392178077,0.3464698039758664,0.4849845170974731,-1.493187308311462,0.1730747371912003,-0.8454873561859131,-0.9289446473121644,0.7989870309829712,XArbitraryZVertical,-0.2829477154676415,-0.3609746903331395,-0.7897151708280468,0.4074160312913536,-0.7410299777984619,-0.3395795226097107,-0.5792757272720337,0,0,0,-1,-1,34039.54160366667,running,2,2022-06-02T10:44:30.112+02:00,2022-06-02T10:32:51.428+02:00,59,2.035977,0,0,55.92561,0,0,2022-06-02T10:44:14.797+02:00,675852270.111413,0,10.35156,101.0683,1,0.9
542,2022-06-02T10:44:30.417+02:00,1654159470.000458,53.22902889195694,10.3985697647722,36.83111,0.126726,0.6558399,214.6507567817252,45.61571256634663,3,6.000906205260658,-9999,34039.84230366667,-1.580657958984375,-1.32135009765625,0.19189453125,34039.83855366667,-2.014581899673857,-0.9248567287935248,0.3496317173624469,0.5036231875419617,-1.742819309234619,-0.1949573457241058,-0.8067082166671753,-0.9589160680770874,0.7793061137199402,XArbitraryZVertical,-0.2882524912320512,-0.3662584786293996,-0.7865130660284425,0.4051696611954683,-0.7502223253250122,-0.3425518274307251,-0.5655304789543152,0,0,0,-1,-1,34039.54160366667,running,2,2022-06-02T10:44:30.112+02:00,2022-06-02T10:32:51.428+02:00,59,2.035977,0,0,55.92561,0,0,2022-06-02T10:44:14.797+02:00,675852270.111413,0,10.35156,101.0683,1,0.9
