,loggingTime(txt),locationTimestamp_since1970(s),locationLatitude(WGS84),locationLongitude(WGS84),locationAltitude(m),locationSpeed(m/s),locationSpeedAccuracy(m/s),locationCourse(°),locationCourseAccuracy(°),locationVerticalAccuracy(m),locationHorizontalAccuracy(m),locationFloor(Z),accelerometerTimestamp_sinceReboot(s),accelerometerAccelerationX(G),accelerometerAccelerationY(G),accelerometerAccelerationZ(G),motionTimestamp_sinceReboot(s),motionYaw(rad),motionRoll(rad),motionPitch(rad),motionRotationRateX(rad/s),motionRotationRateY(rad/s),motionRotationRateZ(rad/s),motionUserAccelerationX(G),motionUserAccelerationY(G),motionUserAccelerationZ(G),motionAttitudeReferenceFrame(txt),motionQuaternionX(R),motionQuaternionY(R),motionQuaternionZ(R),motionQuaternionW(R),motionGravityX(G),motionGravityY(G),motionGravityZ(G),motionMagneticFieldX(µT),motionMagneticFieldY(µT),motionMagneticFieldZ(µT),motionHeading(°),motionMagneticFieldCalibrationAccuracy(Z),activityTimestamp_sinceReboot(s),activity(txt),activityActivityConfidence(Z),activityActivityStartDate(txt),pedometerStartDate(txt),pedometerNumberofSteps(N),pedometerAverageActivePace(s/m),pedometerCurrentPace(s/m),pedometerCurrentCadence(steps/s),pedometerDistance(m),pedometerFloorAscended(N),pedometerFloorDescended(N),pedometerEndDate(txt),altimeterTimestamp_sinceReboot(s),altimeterReset(bool),altimeterRelativeAltitude(m),altimeterPressure(kPa),batteryState(N),batteryLevel(R)
360,2022-06-02T10:45:42.130+02:00,1654159541.466886,53.22898310691163,10.3982211464966,36.68831,0.2882999,0.9978049,-1,-1,3.0,32.0,-9999,34111.5556075,0.3143768310546875,1.939163208007812,-0.151580810546875,34111.5468715,0.3753351245611471,1.305620903269574,-0.543050023480803,-16.30124855041504,6.68209171295166,-5.572779178619385,-0.3037049174308777,1.349858045578003,-0.0451256930828094,XArbitraryZVertical,0.3184860572428105,-0.5351440244533137,0.0172746227637422,-0.7822333100310432,0.8262115120887756,0.5167496204376221,-0.2243750095367432,0,0,0,-1,-1,34111.0256935,walking,2,2022-06-02T10:45:41.596+02:00,2022-06-02T10:32:51.428+02:00,64,2.305696,0,0,60.10083,0,0,2022-06-02T10:45:41.595+02:00,675852341.5954719,0,11.46094,101.0547,1,0.89
361,2022-06-02T10:45:42.140+02:00,1654159541.466886,53.22898310691163,10.3982211464966,36.68831,0.2882999,0.9978049,-1,-1,3.0,32.0,-9999,34111.5655805,0.0937347412109375,1.838623046875,0.0667266845703125,34111.5568435,0.556297755491267,1.474738614340477,-0.6282161260650649,-16.42390251159668,7.068273544311523,-5.711141586303711,-0.4649391174316406,1.35602331161499,-0.0898970365524292,XArbitraryZVertical,0.3954970325339624,-0.5520713469962245,0.0064409396476121,-0.7340013171931221,0.8053474426269531,0.5877023935317993,-0.0775986537337303,0,0,0,-1,-1,34111.0256935,walking,2,2022-06-02T10:45:41.596+02:00,2022-06-02T10:32:51.428+02:00,64,2.305696,0,0,60.10083,0,0,2022-06-02T10:45:41.595+02:00,675852341.5954719,0,11.46094,101.0547,1,0.89
362,2022-06-02T10:45:42.150+02:00,1654159541.466886,53.22898310691163,10.3982211464966,36.68831,0.2882999,0.9978049,-1,-1,3.0,32.0,-9999,34111.5755535,-0.1757965087890625,1.7764892578125,0.4820098876953125,34111.5668165,0.7616875578662028,1.672396577626325,-0.6851769887443612,-16.13877105712891,7.321720600128174,-5.74337100982666,-0.6474656462669373,1.217821717262268,-0.0472539663314819,XArbitraryZVertical,0.4688466357363557,-0.5651991625117054,-0.0032409444541478,-0.6787652664330376,0.7703141570091248,0.6328100562095642,0.0785345211625099,0,0,0,-1,-1,34111.0256935,walking,2,2022-06-02T10:45:41.596+02:00,2022-06-02T10:32:51.428+02:00,64,2.305696,0,0,60.10083,0,0,2022-06-02T10:45:41.595+02:00,675852341.5954719,0,11.46094,101.0547,1,0.89
363,2022-06-02T10:45:42.160+02:00,1654159541.466886,53.22898310691163,10.3982211464966,36.68831,0.2882999,0.9978049,-1,-1,3.0,32.0,-9999,34111.5855255,-0.4604339599609375,1.746353149414062,1.08343505859375,34111.5767895,0.9802455086886808,1.887198284936219,-0.708509154228628,-15.78238105773926,7.518924713134766,-5.779778957366943,-0.8626774549484253,1.130166053771973,0.1806654930114746,XArbitraryZVertical,0.53709110448792,-0.574165516947063,-0.0113048291649165,-0.6178506095818405,0.7216404676437378,0.6507024168968201,0.2362657934427261,0,0,0,-1,-1,34111.0256935,walking,2,2022-06-02T10:45:41.596+02:00,2022-06-02T10:32:51.428+02:00,64,2.305696,0,0,60.10083,0,0,2022-06-02T10:45:41.595+02:00,675852341.5954719,0,11.46094,101.0547,1,0.89
364,2022-06-02T10:45:42.170+02:00,1654159541.466886,53.22898310691163,10.3982211464966,36.68831,0.2882999,0.9978049,-1,-1,3.0,32.0,-9999,34111.5954985,-0.7400054931640625,1.80950927734375,1.730239868164062,34111.5867615,1.199280008783434,2.105347257396184,-0.6968371861587448,-15.72687149047852,7.749851226806641,-5.926535129547119,-1.084623336791992,1.101994276046753,0.6123785376548767,XArbitraryZVertical,0.6004020706280013,-0.5786723222736151,-0.0178422807388812,-0.5516678873234903,0.6598949432373047,0.6417953968048096,0.3906885981559753,0,0,0,-1,-1,34111.0256935,walking,2,2022-06-02T10:45:41.596+02:00,2022-06-02T10:32:51.428+02:00,64,2.305696,0,0,60.10083,0,0,2022-06-02T10:45:41.595+02:00,675852341.5954719,0,11.46094,101.0547,1,0.89
365,2022-06-02T10:45:42.180+02:00,1654159541.466886,53.22898310691163,10.3982211464966,36.68831,0.2882999,0.9978049,-1,-1,3.0,32.0,-9999,34111.6054715,-1.064697265625,1.865814208984375,2.282989501953125,34111.5967345,1.407253594711189,2.314011616836365,-0.6507021960440394,-15.92243576049805,7.963489055633545,-6.112447261810303,-1.290339231491089,1.195600628852844,1.115495443344116,XArbitraryZVertical,0.6593048408120646,-0.5783700614619081,-0.0233379769315686,-0.4798548399151759,0.5858410000801086,0.605745255947113,0.5383896231651306,0,0,0,-1,-1,34111.0256935,walking,2,2022-06-02T10:45:41.596+02:00,2022-06-02T10:32:51.428+02:00,64,2.305696,0,0,60.10083,0,0,2022-06-02T10:45:41.595+02:00,675852341.5954719,0,11.46094,101.0547,1,0.89
366,2022-06-02T10:45:42.190+02:00,1654159541.466886,53.22898310691163,10.3982211464966,36.68831,0.2882999,0.9978049,-1,-1,3.0,32.0,-9999,34111.6154435,-1.382308959960938,1.803482055664062,2.815567016601562,34111.6067075,1.593655751745947,2.502194831886507,-0.5737375185085706,-15.90015316009521,8.174575805664062,-6.316141128540039,-1.522329688072205,1.321437120437622,1.543107032775879,XArbitraryZVertical,0.7133197120625158,-0.5728501695618609,-0.0278158009520889,-0.4027951672187209,0.5011656880378723,0.5427749156951904,0.6739646792411804,0,0,0,-1,-1,34111.0256935,walking,2,2022-06-02T10:45:41.596+02:00,2022-06-02T10:32:51.428+02:00,64,2.305696,0,0,60.10083,0,0,2022-06-02T10:45:41.595+02:00,675852341.5954719,0,11.46094,101.0547,1,0.89
367,2022-06-02T10:45:42.200+02:00,1654159541.466886,53.22898310691163,10.3982211464966,36.68831,0.2882999,0.9978049,-1,-1,3.0,32.0,-9999,34111.6254165,-1.739608764648438,1.585357666015625,3.408309936523438,34111.6166795,1.751472515941183,2.663292888688309,-0.4755258088198342,-15.28430652618408,8.1714506149292,-6.485017776489258,-1.753274917602539,1.36091947555542,1.954614877700806,XArbitraryZVertical,0.7608964254572796,-0.5618517623407364,-0.0302596497856181,-0.3231772686517165,0.409204363822937,0.4578059911727905,0.7892815470695496,0,0,0,-1,-1,34111.0256935,walking,2,2022-06-02T10:45:41.596+02:00,2022-06-02T10:32:51.428+02:00,64,2.305696,0,0,60.10083,0,0,2022-06-02T10:45:41.595+02:00,675852341.5954719,0,11.46094,101.0547,1,0.89
368,2022-06-02T10:45:42.210+02:00,1654159541.466886,53.22898310691163,10.3982211464966,36.68831,0.2882999,0.9978049,-1,-1,3.0,32.0,-9999,34111.6353885,-2.154876708984375,1.43829345703125,4.111984252929688,34111.6266525,1.880858614464191,2.79671984385116,-0.3670936736383467,-14.02113914489746,7.851107597351074,-6.553427219390869,-2.009766340255737,1.253476619720459,2.446718454360962,XArbitraryZVertical,0.8009226718755099,-0.5456471175465194,-0.030290403662822,-0.2446927884947783,0.3155523836612701,0.3589042723178864,0.8784158229827881,0,0,0,-1,-1,34111.0256935,walking,2,2022-06-02T10:45:41.596+02:00,2022-06-02T10:32:51.428+02:00,64,2.305696,0,0,60.10083,0,0,2022-06-02T10:45:41.595+02:00,675852341.5954719,0,11.46094,101.0547,1,0.89
369,2022-06-02T10:45:42.220+02:00,1654159541.466886,53.22898310691163,10.3982211464966,36.68831,0.2882999,0.9978049,-1,-1,3.0,32.0,-9999,34111.6453615,-2.584030151367188,1.313568115234375,4.979766845703125,34111.6366245,1.986557318167423,2.905051714569095,-0.2608765806533663,-12.08107948303223,7.23345422744751,-6.664968490600586,-2.326891422271729,1.200888991355896,3.075479030609131,XArbitraryZVertical,0.8332789059129266,-0.5246682069476545,-0.0275043539900199,-0.1720845745163663,0.2264122068881989,0.2579275667667389,0.9392609000205994,0,0,0,-1,-1,34111.0256935,walking,2,2022-06-02T10:45:41.596+02:00,2022-06-02T10:32:51.428+02:00,64,2.305696,0,0,60.10083,0,0,2022-06-02T10:45:41.595+02:00,675852341.5954719,0,11.46094,101.0547,1,0.89
370,2022-06-02T10:45:42.230+02:00,1654159541.466886,53.22898310691163,10.3982211464966,36.68831,0.2882999,0.9978049,-1,-1,3.0,32.0,-9999,34111.6553345,-2.956100463867188,1.217666625976562,5.905303955078125,34111.6465975,2.075064972972153,2.990356655282362,-0.1673174997686716,-9.59270191192627,6.016037940979004,-6.742617130279541,-2.681087970733643,1.156383752822876,3.890606880187988,XArbitraryZVertical,0.8588974886670122,-0.4996849923243912,-0.0224723865619252,-0.1100225249684943,0.1485561579465866,0.1665379106998444,0.9747799634933472,0,0,0,-1,-1,34111.0256935,walking,2,2022-06-02T10:45:41.596+02:00,2022-06-02T10:32:51.428+02:00,64,2.305696,0,0,60.10083,0,0,2022-06-02T10:45:41.595+02:00,675852341.5954719,0,11.46094,101.0547,1,0.89
371,2022-06-02T10:45:42.240+02:00,1654159541.466886,53.22898310691163,10.3982211464966,36.68831,0.2882999,0.9978049,-1,-1,3.0,32.0,-9999,34111.6653065,-3.252090454101562,1.082412719726562,6.748016357421875,34111.6565705,2.153711404984993,3.051898120547794,-0.0939033287341853,-6.874273777008057,4.197925567626953,-7.053025245666504,-2.999595403671265,1.13739001750946,4.799148559570312,XArbitraryZVertical,0.8796144254399021,-0.471247865294752,-0.0172008078349876,-0.0625143644309355,0.0891796797513961,0.0937653854489326,0.9915921688079834,0,0,0,-1,-1,34111.0256935,walking,2,2022-06-02T10:45:41.596+02:00,2022-06-02T10:32:51.428+02:00,64,2.305696,0,0,60.10083,0,0,2022-06-02T10:45:41.595+02:00,675852341.5954719,0,11.46094,101.0547,1,0.89
372,2022-06-02T10:45:42.250+02:00,1654159541.466886,53.22898310691163,10.3982211464966,36.68831,0.2882999,0.9978049,-1,-1,3.0,32.0,-9999,34111.6752795,-3.5040283203125,0.87176513671875,7.300445556640625,34111.6665425,2.230338373685587,3.086433019970267,-0.0441780952445838,-4.191308498382568,1.590461015701294,-7.534091949462891,-3.277093172073364,1.056635856628418,5.660408020019531,XArbitraryZVertical,0.8976928011774061,-0.4392040233630843,-0.0150418317359173,-0.0319578101649419,0.0550778843462467,0.0441637262701988,0.9975050687789916,0,0,0,-1,-1,34111.0256935,walking,2,2022-06-02T10:45:41.596+02:00,2022-06-02T10:32:51.428+02:00,64,2.305696,0,0,60.10083,0,0,2022-06-02T10:45:41.595+02:00,675852341.5954719,0,11.46094,101.0547,1,0.89
373,2022-06-02T10:45:42.260+02:00,1654159541.466886,53.22898310691163,10.3982211464966,36.68831,0.2882999,0.9978049,-1,-1,3.0,32.0,-9999,34111.6852515,-3.860824584960938,0.4245758056640625,7.524612426757812,34111.6765155,2.309290002855328,3.088473819583733,-0.0173527132147891,-2.065397977828979,-1.707383871078491,-7.977398872375488,-3.521530628204346,0.8968021869659424,6.253742694854736,XArbitraryZVertical,0.914387689932684,-0.4038747929030653,-0.0207827662802044,-0.0186677454176971,0.0530858747661113,0.0173518415540456,0.998439371585846,0,0,0,-1,-1,34111.0256935,walking,2,2022-06-02T10:45:41.596+02:00,2022-06-02T10:32:51.428+02:00,64,2.305696,0,0,60.10083,0,0,2022-06-02T10:45:41.595+02:00,675852341.5954719,0,11.46094,101.0547,1,0.89
374,2022-06-02T10:45:42.270+02:00,1654159541.466886,53.22898310691163,10.3982211464966,36.68831,0.2882999,0.9978049,-1,-1,3.0,32.0,-9999,34111.6952245,-4.470230102539062,0.69873046875,7.49462890625,34111.6864875,2.391566976165897,3.054120206210018,-0.0117968852532282,-0.076949343085289,-5.490341663360596,-8.444652557373047,-3.899244546890259,0.459669440984726,6.509873867034912,XArbitraryZVertical,0.9296914010993542,-0.3656878849523074,-0.0385245749077586,-0.0214977530282627,0.0873548686504364,0.0117966113612055,0.9961074590682985,0,0,0,-1,-1,34111.0256935,walking,2,2022-06-02T10:45:41.596+02:00,2022-06-02T10:32:51.428+02:00,64,2.305696,0,0,60.10083,0,0,2022-06-02T10:45:41.595+02:00,675852341.5954719,0,11.46094,101.0547,1,0.89
375,2022-06-02T10:45:42.279+02:00,1654159541.466886,53.22898310691163,10.3982211464966,36.68831,0.2882999,0.9978049,-1,-1,3.0,32.0,-9999,34111.7051975,-5.179306030273438,1.542068481445312,6.9039306640625,34111.6964605,2.475990289116301,2.979010659460518,-0.0285946242497412,1.262781858444214,-9.992826461791992,-8.809868812561035,-4.534358978271484,0.5849499106407166,6.542597770690918,XArbitraryZVertical,0.9422928013657588,-0.3244824366971705,-0.0720829651432877,-0.03999289812222,0.1618005037307739,0.028590727597475,0.9864091277122498,0,0,0,-1,-1,34111.0256935,walking,2,2022-06-02T10:45:41.596+02:00,2022-06-02T10:32:51.428+02:00,64,2.305696,0,0,60.10083,0,0,2022-06-02T10:45:41.595+02:00,675852341.5954719,0,11.46094,101.0547,1,0.89
376,2022-06-02T10:45:42.289+02:00,1654159541.466886,53.22898310691163,10.3982211464966,36.68831,0.2882999,0.9978049,-1,-1,3.0,32.0,-9999,34111.7151695,-5.8475341796875,2.089614868164062,5.494232177734375,34111.7064335,2.558574515614277,2.857063779289449,-0.0659509171553262,2.370955944061279,-15.29306983947754,-8.912127494812012,-5.378087043762207,1.368331432342529,6.050517082214355,XArbitraryZVertical,0.9489629609928868,-0.2798624756817444,-0.1263498375093732,-0.0719860946344688,0.2800950407981873,0.0659031197428703,0.957707405090332,0,0,0,-1,-1,34111.0256935,walking,2,2022-06-02T10:45:41.596+02:00,2022-06-02T10:32:51.428+02:00,64,2.305696,0,0,60.10083,0,0,2022-06-02T10:45:41.595+02:00,675852341.5954719,0,11.46094,101.0547,1,0.89
377,2022-06-02T10:45:42.299+02:00,1654159541.466886,53.22898310691163,10.3982211464966,36.68831,0.2882999,0.9978049,-1,-1,3.0,32.0,-9999,34111.7251425,-7.1572265625,2.619033813476562,3.585311889648438,34111.7164055,2.630514514939549,2.685362215334735,-0.1230507603507171,3.160750389099121,-20.42698669433594,-8.57453441619873,-6.193537712097168,1.920853853225708,4.822813510894775,XArbitraryZVertical,0.9441941877993862,-0.2322998819075299,-0.203245363328058,-0.1150018806136696,0.4372360408306122,0.1227404698729515,0.8909317851066589,0,0,0,-1,-1,34111.0256935,walking,2,2022-06-02T10:45:41.596+02:00,2022-06-02T10:32:51.428+02:00,64,2.305696,0,0,60.10083,0,0,2022-06-02T10:45:41.595+02:00,675852341.5954719,0,11.46094,101.0547,1,0.89
378,2022-06-02T10:45:42.309+02:00,1654159541.466886,53.22898310691163,10.3982211464966,36.68831,0.2882999,0.9978049,-1,-1,3.0,32.0,-9999,34111.7351155,-9.790557861328123,3.31500244140625,1.538314819335938,34111.7263785,2.6874361943337,2.471084858330125,-0.1954444767596424,2.985443592071533,-24.1159610748291,-8.992992401123047,-7.536586284637451,2.331050634384155,3.075557231903076,XArbitraryZVertical,0.922921440193702,-0.1803073491550027,-0.2982908436616464,-0.16348662960382,0.6095536947250366,0.1942025721073151,0.768589437007904,0,0,0,-1,-1,34111.0256935,walking,2,2022-06-02T10:45:41.596+02:00,2022-06-02T10:32:51.428+02:00,64,2.305696,0,0,60.10083,0,0,2022-06-02T10:45:41.595+02:00,675852341.5954719,0,11.46094,101.0547,1,0.89
379,2022-06-02T10:45:42.319+02:00,1654159541.466886,53.22898310691163,10.3982211464966,36.68831,0.2882999,0.9978049,-1,-1,3.0,32.0,-9999,34111.7450875,-12.29425048828125,3.832138061523438,0.5720977783203125,34111.7363515,2.740333561245521,2.228001108812312,-0.2852269791507254,2.5142662525177,-27.30544090270996,-11.27380084991455,-10.17043685913086,2.978481769561768,1.194003343582153,XArbitraryZVertical,0.8830331735366383,-0.1156050918865004,-0.402418702860158,-0.2120070800852147,0.7597163319587708,0.2813752591609955,0.5862242579460144,0,0,0,-1,-1,34111.0256935,walking,2,2022-06-02T10:45:41.596+02:00,2022-06-02T10:32:51.428+02:00,64,2.305696,0,0,60.10083,0,0,2022-06-02T10:45:41.595+02:00,675852341.5954719,0,11.46094,101.0547,1,0.89
380,2022-06-02T10:45:42.330+02:00,1654159541.466886,53.22898310691163,10.3982211464966,36.68831,0.2882999,0.9978049,-1,-1,3.0,32.0,-9999,34111.7550605,-15.97550964355469,3.814178466796875,1.2552490234375,34111.7463235,2.769779832586058,1.953640609731593,-0.4006695228988454,4.765015125274658,-28.8086109161377,-10.99117469787598,-12.8132152557373,3.364191770553589,0.2648055553436279,XArbitraryZVertical,0.818739088024908,-0.0406632902224555,-0.5085344908913846,-0.263449189064585,0.8541395664215088,0.3900349140167236,0.343974381685257,0,0,0,-1,-1,34111.0256935,walking,2,2022-06-02T10:45:41.596+02:00,2022-06-02T10:32:51.428+02:00,64,2.305696,0,0,60.10083,0,0,2022-06-02T10:45:41.595+02:00,675852341.5954719,0,11.46094,101.0547,1,0.89
381,2022-06-02T10:45:42.339+02:00,1654159541.466886,53.22898310691163,10.3982211464966,36.68831,0.2882999,0.9978049,-1,-1,3.0,32.0,-9999,34111.7650325,-15.48509216308594,5.088668823242188,1.832061767578125,34111.7562965,2.709838864805634,1.632123705040833,-0.516925906838176,11.93035697937012,-30.8874626159668,-10.14908123016357,-16.38571357727051,3.386725664138794,1.160204648971558,XArbitraryZVertical,0.7254191900607261,0.0201876744990052,-0.6070831260792857,-0.3237430513418282,0.8677082657814026,0.4942100346088409,0.0532810874283313,0,0,0,-1,-1,34111.0256935,walking,2,2022-06-02T10:45:41.596+02:00,2022-06-02T10:32:51.428+02:00,64,2.305696,0,0,60.10083,0,0,2022-06-02T10:45:41.595+02:00,675852341.5954719,0,11.46094,101.0547,1,0.89
382,2022-06-02T10:45:42.349+02:00,1654159541.466886,53.22898310691163,10.3982211464966,36.68831,0.2882999,0.9978049,-1,-1,3.0,32.0,-9999,34111.7750055,-16.17984008789062,14.28007507324219,10.17648315429688,34111.7662685,2.451222136847117,1.157944556063542,-0.5596877163820188,32.37858200073242,-34.78559875488281,-4.687600612640381,-16.60306358337402,3.910698413848877,1.89821720123291,XArbitraryZVertical,0.5730867942491498,0.039611726037813,-0.7058729187900697,-0.4144223035203022,0.7762209177017212,0.5309215784072876,-0.3400048613548279,0,0,0,-1,-1,34111.0256935,walking,2,2022-06-02T10:45:41.596+02:00,2022-06-02T10:32:51.428+02:00,64,2.305696,0,0,60.10083,0,0,2022-06-02T10:45:41.595+02:00,675852341.5954719,0,11.46094,101.0547,1,0.89
383,2022-06-02T10:45:42.359+02:00,1654159541.466886,53.22898310691163,10.3982211464966,36.68831,0.2882999,0.9978049,-1,-1,3.0,32.0,-9999,34111.7849785,-20.14970397949219,7.61572265625,11.84092712402344,34111.7762415,2.138923637325732,0.667896379123841,-0.3506130962522908,36.22024154663086,-34.72967529296875,-0.0551216378808021,-16.19789886474609,13.15733528137207,9.83942699432373,XArbitraryZVertical,0.3622248233897713,-0.0106153845150112,-0.7883231738996866,-0.4972193411799694,0.581656813621521,0.3434736728668213,-0.737360954284668,0,0,0,-1,-1,34111.0256935,walking,2,2022-06-02T10:45:41.596+02:00,2022-06-02T10:32:51.428+02:00,64,2.305696,0,0,60.10083,0,0,2022-06-02T10:45:41.595+02:00,675852341.5954719,0,11.46094,101.0547,1,0.89
384,2022-06-02T10:45:42.369+02:00,1654159541.466886,53.22898310691163,10.3982211464966,36.68831,0.2882999,0.9978049,-1,-1,3.0,32.0,-9999,34111.7949505,-13.72547912597656,-0.5902252197265625,14.84280395507812,34111.7862145,1.931736915089481,0.3191546291000171,-0.0496342382622584,36.15582656860352,-24.37334442138672,-5.05126953125,-20.70298004150391,8.865760803222656,12.77117729187012,XArbitraryZVertical,0.1445954151523916,-0.0701878310979061,-0.8095998326928951,-0.5645475472395964,0.3133775889873505,0.0496138595044612,-0.948331654071808,0,0,0,-1,-1,34111.0256935,walking,2,2022-06-02T10:45:41.596+02:00,2022-06-02T10:32:51.428+02:00,64,2.305696,0,0,60.10083,0,0,2022-06-02T10:45:41.595+02:00,675852341.5954719,0,11.46094,101.0547,1,0.89
385,2022-06-02T10:45:42.379+02:00,1654159541.466886,53.22898310691163,10.3982211464966,36.68831,0.2882999,0.9978049,-1,-1,3.0,32.0,-9999,34111.8049235,-11.51808166503906,-10.36378479003906,10.52053833007812,34111.7961865,1.835255093421849,0.1662910263950962,0.2971477099087882,36.15036010742188,-8.854443550109863,2.195329189300537,-14.54927825927734,0.6051567792892456,15.59427642822266,XArbitraryZVertical,-0.0244182867165024,-0.1670658144060947,-0.7901706144154416,-0.589171495611068,0.1582716107368469,-0.2927941083908081,-0.9429855346679688,0,0,0,-1,-1,34111.0256935,walking,2,2022-06-02T10:45:41.596+02:00,2022-06-02T10:32:51.428+02:00,64,2.305696,0,0,60.10083,0,0,2022-06-02T10:45:41.595+02:00,675852341.5954719,0,11.46094,101.0547,1,0.89
386,2022-06-02T10:45:42.389+02:00,1654159541.466886,53.22898310691163,10.3982211464966,36.68831,0.2882999,0.9978049,-1,-1,3.0,32.0,-9999,34111.8148965,-7.999557495117188,-14.27407836914062,2.502944946289062,34111.8061595,1.818080330710713,0.1345988219493826,0.6347200869980286,26.44155693054199,0.7267239093780518,2.776914834976196,-11.78080177307129,-8.112462043762207,12.34199142456055,XArbitraryZVertical,-0.1409234439124514,-0.284891785666618,-0.7607168882141165,-0.5659390351126792,0.1080570742487907,-0.5929521322250366,-0.7979544997215271,0,0,0,-1,-1,34111.0256935,walking,2,2022-06-02T10:45:41.596+02:00,2022-06-02T10:32:51.428+02:00,64,2.305696,0,0,60.10083,0,0,2022-06-02T10:45:41.595+02:00,675852341.5954719,0,11.46094,101.0547,1,0.89
387,2022-06-02T10:45:42.399+02:00,1654159541.466886,53.22898310691163,10.3982211464966,36.68831,0.2882999,0.9978049,-1,-1,3.0,32.0,-9999,34111.8248685,-3.249404907226562,-6.752395629882812,0.023162841796875,34111.8161325,1.820067943814813,0.1802766779408395,0.815239520561192,10.35005378723145,7.368839263916016,3.363614797592163,-8.802831649780273,-14.38131713867188,3.873266458511353,XArbitraryZVertical,-0.1770588496965096,-0.3624351900676799,-0.7437942552682459,-0.5329737346378166,0.1229461655020714,-0.7278898358345032,-0.67458176612854,0,0,0,-1,-1,34111.0256935,walking,2,2022-06-02T10:45:41.596+02:00,2022-06-02T10:32:51.428+02:00,64,2.305696,0,0,60.10083,0,0,2022-06-02T10:45:41.595+02:00,675852341.5954719,0,11.46094,101.0547,1,0.89
388,2022-06-02T10:45:42.409+02:00,1654159541.466886,53.22898310691163,10.3982211464966,36.68831,0.2882999,0.9978049,-1,-1,3.0,32.0,-9999,34111.8348415,-2.316543579101562,-2.977630615234375,0.3140869140625,34111.8261045,1.844358477527967,0.2444394831831234,0.8892485270173581,4.466606616973877,8.440691947937012,2.572392702102661,-3.816956520080566,-6.708417415618896,0.6935586929321289,XArbitraryZVertical,-0.1701793360866176,-0.4067001164168154,-0.7457477648295615,-0.4994940642900497,0.1524668633937836,-0.7765985131263733,-0.6112680435180664,0,0,0,-1,-1,34111.0256935,walking,2,2022-06-02T10:45:41.596+02:00,2022-06-02T10:32:51.428+02:00,64,2.305696,0,0,60.10083,0,0,2022-06-02T10:45:41.595+02:00,675852341.5954719,0,11.46094,101.0547,1,0.89
389,2022-06-02T10:45:42.419+02:00,1654159541.466886,53.22898310691163,10.3982211464966,36.68831,0.2882999,0.9978049,-1,-1,3.0,32.0,-9999,34111.8448135,-4.235122680664062,-1.093353271484375,0.671356201171875,34111.8360775,1.86581659145858,0.3065080549664169,0.9229850926741212,1.486907243728638,7.326333045959473,1.924720287322998,-2.396646499633789,-2.495409727096558,0.8312078714370728,XArbitraryZVertical,-0.152252462448919,-0.4349255315749131,-0.7513637318887244,-0.4723469119669965,0.1820775121450424,-0.7974064946174622,-0.575317919254303,0,0,0,-1,-1,34111.0256935,walking,2,2022-06-02T10:45:41.596+02:00,2022-06-02T10:32:51.428+02:00,64,2.305696,0,0,60.10083,0,0,2022-06-02T10:45:41.595+02:00,675852341.5954719,0,11.46094,101.0547,1,0.89
390,2022-06-02T10:45:42.429+02:00,1654159541.466886,53.22898310691163,10.3982211464966,36.68831,0.2882999,0.9978049,-1,-1,3.0,32.0,-9999,34111.8547865,-4.872634887695312,-0.0117340087890625,1.141555786132812,34111.8460495,1.895460687888161,0.3591683547107613,0.9387598887248731,0.6786730289459229,8.259483337402344,2.552372694015503,-4.200106620788574,-0.4748359322547913,1.16473913192749,XArbitraryZVertical,-0.1303358470196303,-0.4543867310830224,-0.7597635803790822,-0.4464354977663577,0.2076598703861237,-0.8068260550498962,-0.553090512752533,0,0,0,-1,-1,34111.0256935,walking,2,2022-06-02T10:45:41.596+02:00,2022-06-02T10:32:51.428+02:00,64,2.305696,0,0,60.10083,0,0,2022-06-02T10:45:41.595+02:00,675852341.5954719,0,11.46094,101.0547,1,0.89
391,2022-06-02T10:45:42.439+02:00,1654159541.466886,53.22898310691163,10.3982211464966,36.68831,0.2882999,0.9978049,-1,-1,3.0,32.0,-9999,34111.8647595,-4.39324951171875,-0.3996734619140625,1.222183227539062,34111.8560225,1.94203651081973,0.4086874265619573,0.9562789460172936,0.5664072036743164,8.860644340515137,3.81003999710083,-5.147937774658203,0.7540329694747925,1.614514350891113,XArbitraryZVertical,-0.1055989852347693,-0.4736123872496175,-0.7703436781333015,-0.413655425004647,0.2291296422481537,-0.8170518279075623,-0.529080331325531,0,0,0,-1,-1,34111.0256935,walking,2,2022-06-02T10:45:41.596+02:00,2022-06-02T10:32:51.428+02:00,64,2.305696,0,0,60.10083,0,0,2022-06-02T10:45:41.595+02:00,675852341.5954719,0,11.46094,101.0547,1,0.89
392,2022-06-02T10:45:42.449+02:00,1654159541.466886,53.22898310691163,10.3982211464966,36.68831,0.2882999,0.9978049,-1,-1,3.0,32.0,-9999,34111.8747315,-4.447235107421875,-1.206405639648438,0.7626495361328125,34111.8659955,2.011302451682952,0.4356003270709472,0.976280645046265,-0.3761946856975555,7.866893768310547,4.987009048461914,-4.651943683624268,0.5277453660964966,1.761678814888,XArbitraryZVertical,-0.0840545356822119,-0.4889103325166969,-0.7825273443241867,-0.3762346527443013,0.2363400757312775,-0.8284198641777039,-0.5078030228614807,0,0,0,-1,-1,34111.0256935,walking,2,2022-06-02T10:45:41.596+02:00,2022-06-02T10:32:51.428+02:00,64,2.305696,0,0,60.10083,0,0,2022-06-02T10:45:41.595+02:00,675852341.5954719,0,11.46094,101.0547,1,0.89
393,2022-06-02T10:45:42.459+02:00,1654159541.466886,53.22898310691163,10.3982211464966,36.68831,0.2882999,0.9978049,-1,-1,3.0,32.0,-9999,34111.8847045,-4.148422241210938,-1.23138427734375,0.8105926513671875,34111.8759675,2.109052093213091,0.429503486729612,0.9862540537454682,-2.430055856704712,7.250438690185547,5.658788681030273,-4.680349349975586,-0.2964521050453186,1.299808502197266,XArbitraryZVertical,-0.0650634460903123,-0.494891901281651,-0.7982533432186203,-0.3371057656533411,0.229787603020668,-0.8339647650718689,-0.5016974806785583,0,0,0,-1,-1,34111.0256935,walking,2,2022-06-02T10:45:41.596+02:00,2022-06-02T10:32:51.428+02:00,64,2.305696,0,0,60.10083,0,0,2022-06-02T10:45:41.595+02:00,675852341.5954719,0,11.46094,101.0547,1,0.89
394,2022-06-02T10:45:42.469+02:00,1654159541.466886,53.22898310691163,10.3982211464966,36.68831,0.2882999,0.9978049,-1,-1,3.0,32.0,-9999,34111.8946775,-3.741729736328125,-1.224136352539062,1.175003051757812,34111.8859405,2.228472937899895,0.3994624834468473,0.9838871086296486,-3.131403207778931,6.723359107971191,6.209698677062988,-4.418186187744141,-0.4337164163589478,1.285870909690857,XArbitraryZVertical,-0.0471311260517396,-0.4926291607905875,-0.8167245619904967,-0.2967426109978896,0.2153818309307098,-0.8326563239097595,-0.5101903080940247,0,0,0,-1,-1,34111.0256935,walking,2,2022-06-02T10:45:41.596+02:00,2022-06-02T10:32:51.428+02:00,64,2.305696,0,0,60.10083,0,0,2022-06-02T10:45:41.595+02:00,675852341.5954719,0,11.46094,101.0547,1,0.89
395,2022-06-02T10:45:42.479+02:00,1654159541.466886,53.22898310691163,10.3982211464966,36.68831,0.2882999,0.9978049,-1,-1,3.0,32.0,-9999,34111.9046495,-3.46240234375,-1.471725463867188,1.337173461914062,34111.8959135,2.353137628270331,0.360632507880327,0.9802967635319318,-2.639586448669434,6.290035247802734,6.404947280883789,-3.97858715057373,-0.3647261261940002,1.65149974822998,XArbitraryZVertical,-0.0317950501364277,-0.4883735342078303,-0.833808382975447,-0.2554288188909162,0.1964673846960068,-0.8306626081466675,-0.5209607481956482,0,0,0,-1,-1,34111.0256935,walking,2,2022-06-02T10:45:41.596+02:00,2022-06-02T10:32:51.428+02:00,64,2.305696,0,0,60.10083,0,0,2022-06-02T10:45:41.595+02:00,675852341.5954719,0,11.46094,101.0547,1,0.89
396,2022-06-02T10:45:42.489+02:00,1654159541.466886,53.22898310691163,10.3982211464966,36.68831,0.2882999,0.9978049,-1,-1,3.0,32.0,-9999,34111.9146225,-3.01495361328125,-1.540771484375,1.145156860351562,34111.9058855,2.474721102692597,0.3216996716861498,0.9802622183509152,-1.896314859390259,6.209137439727783,6.30610990524292,-3.679056167602539,-0.62013179063797,1.863903284072876,XArbitraryZVertical,-0.0185613597183263,-0.485319745675778,-0.8475926027746804,-0.2137922749721144,0.1760502755641937,-0.8306434154510498,-0.528240442276001,0,0,0,-1,-1,34111.0256935,walking,2,2022-06-02T10:45:41.596+02:00,2022-06-02T10:32:51.428+02:00,64,2.305696,0,0,60.10083,0,0,2022-06-02T10:45:41.595+02:00,675852341.5954719,0,11.46094,101.0547,1,0.89
397,2022-06-02T10:45:42.499+02:00,1654159541.466886,53.22898310691163,10.3982211464966,36.68831,0.2882999,0.9978049,-1,-1,3.0,32.0,-9999,34111.9245945,-2.698867797851562,-1.593704223632812,0.7535552978515625,34111.9158585,2.586298377510487,0.2896929406848273,0.9844123434563468,-1.020869612693787,5.905704021453857,5.775356292724609,-3.232959747314453,-0.7023009061813354,1.719687700271606,XArbitraryZVertical,-0.0058378426400056,-0.4845803834455814,-0.8573625620450923,-0.1734283472270355,0.1580696552991867,-0.8329470753669739,-0.5302955508232117,0,0,0,-1,-1,34111.0256935,walking,2,2022-06-02T10:45:41.596+02:00,2022-06-02T10:32:51.428+02:00,64,2.305696,0,0,60.10083,0,0,2022-06-02T10:45:41.595+02:00,675852341.5954719,0,11.46094,101.0547,1,0.89
398,2022-06-02T10:45:42.509+02:00,1654159541.466886,53.22898310691163,10.3982211464966,36.68831,0.2882999,0.9978049,-1,-1,3.0,32.0,-9999,34111.9345675,-2.641494750976562,-1.763839721679688,0.4521331787109375,34111.9258305,2.685389212434462,0.2627890038194584,0.9933678638196268,-0.2685698270797729,5.297717094421387,5.22874116897583,-2.860660314559937,-0.7427430748939514,1.325364112854004,XArbitraryZVertical,0.00537757212123,-0.4862155179557207,-0.8631304434454403,-0.1362775511995556,0.1418036073446274,-0.8378691673278809,-0.5271310806274414,0,0,0,-1,-1,34111.0256935,walking,2,2022-06-02T10:45:41.596+02:00,2022-06-02T10:32:51.428+02:00,64,2.305696,0,0,60.10083,0,0,2022-06-02T10:45:41.595+02:00,675852341.5954719,0,11.46094,101.0547,1,0.89
399,2022-06-02T10:45:42.519+02:00,1654159541.466886,53.22898310691163,10.3982211464966,36.68831,0.2882999,0.9978049,-1,-1,3.0,32.0,-9999,34111.9445405,-2.594940185546875,-2.024490356445312,0.2788238525390625,34111.9358035,2.774900551788389,0.2377588955655412,1.00559321850831,0.2053274363279343,4.812079429626465,4.801106929779053,-2.770492553710938,-0.8919398784637451,1.008618593215942,XArbitraryZVertical,0.0149435411664925,-0.4894041906676329,-0.8658909850647464,-0.1024361580602097,0.1261443197727203,-0.8444798588752747,-0.5205204486846924,0,0,0,-1,-1,34111.0256935,walking,2,2022-06-02T10:45:41.596+02:00,2022-06-02T10:32:51.428+02:00,64,2.305696,0,0,60.10083,0,0,2022-06-02T10:45:41.595+02:00,675852341.5954719,0,11.46094,101.0547,1,0.89
400,2022-06-02T10:45:42.529+02:00,1654159541.466886,53.22898310691163,10.3982211464966,36.68831,0.2882999,0.9978049,-1,-1,3.0,32.0,-9999,34111.9545125,-2.5528564453125,-2.286834716796875,0.22479248046875,34111.9457765,2.858769376040647,0.2123887474496977,1.018836600337632,0.3452817499637604,4.399882316589355,4.489240646362305,-2.71069073677063,-1.136828660964966,0.8023850321769714,XArbitraryZVertical,0.0232674801465699,-0.4931238981367183,-0.8667302665617639,-0.0711777486634504,0.1105321571230888,-0.851498544216156,-0.5125749111175537,0,0,0,-1,-1,34111.0256935,walking,2,2022-06-02T10:45:41.596+02:00,2022-06-02T10:32:51.428+02:00,64,2.305696,0,0,60.10083,0,0,2022-06-02T10:45:41.595+02:00,675852341.5954719,0,11.46094,101.0547,1,0.89
401,2022-06-02T10:45:42.539+02:00,1654159541.466886,53.22898310691163,10.3982211464966,36.68831,0.2882999,0.9978049,-1,-1,3.0,32.0,-9999,34111.9644855,-2.469345092773438,-2.397201538085938,0.246856689453125,34111.9557485,2.939606549005176,0.1862080055290894,1.02915910398319,-0.0357952937483787,4.209136486053467,4.204960823059082,-2.654449462890625,-1.402564167976379,0.7352806329727173,XArbitraryZVertical,0.031111319631808,-0.4956997951310327,-0.866926424323768,-0.0418613686259179,0.0954437926411628,-0.8568657636642456,-0.50662761926651,0,0,0,-1,-1,34111.0256935,walking,2,2022-06-02T10:45:41.596+02:00,2022-06-02T10:32:51.428+02:00,64,2.305696,0,0,60.10083,0,0,2022-06-02T10:45:41.595+02:00,675852341.5954719,0,11.46094,101.0547,1,0.89
402,2022-06-02T10:45:42.549+02:00,1654159541.466886,53.22898310691163,10.3982211464966,36.68831,0.2882999,0.9978049,-1,-1,3.0,32.0,-9999,34111.9744575,-2.29022216796875,-2.4447021484375,0.33221435546875,34111.9657215,3.020571812058534,0.1580079742882579,1.032788300334982,-0.6949249505996704,4.0878586769104,4.144751071929932,-2.565402746200562,-1.533251881599426,0.745514452457428,XArbitraryZVertical,0.0387397151433174,-0.495457141712239,-0.8676625920926347,-0.0135278665784222,0.0806309580802917,-0.8587311506271362,-0.5060428977012634,0,0,0,-1,-1,34111.0256935,walking,2,2022-06-02T10:45:41.596+02:00,2022-06-02T10:32:51.428+02:00,64,2.305696,0,0,60.10083,0,0,2022-06-02T10:45:41.595+02:00,675852341.5954719,0,11.46094,101.0547,1,0.89
403,2022-06-02T10:45:42.559+02:00,1654159541.466886,53.22898310691163,10.3982211464966,36.68831,0.2882999,0.9978049,-1,-1,3.0,32.0,-9999,34111.984430625,-2.1656494140625,-2.637832641601562,0.4009552001953125,34111.9756935,3.102655089675997,0.1278249149003102,1.028318037478825,-1.396222829818726,3.975165843963623,4.1004958152771,-2.379852533340454,-1.572157025337219,0.8344665169715881,XArbitraryZVertical,0.0460459288304492,-0.4917882146349065,-0.8693758029086632,0.0144890445432546,0.065811350941658,-0.8564318418502808,-0.5120482444763184,0,0,0,-1,-1,34111.0256935,walking,2,2022-06-02T10:45:41.596+02:00,2022-06-02T10:32:51.428+02:00,64,2.305696,0,0,60.10083,0,0,2022-06-02T10:45:41.595+02:00,675852341.5954719,0,11.46094,101.0547,1,0.89
404,2022-06-02T10:45:42.569+02:00,1654159541.466886,53.22898310691163,10.3982211464966,36.68831,0.2882999,0.9978049,-1,-1,3.0,32.0,-9999,34111.994403625,-2.087356567382812,-2.6295166015625,0.43115234375,34111.98566662501,-3.099087910581795,0.0973661643610457,1.015390162517499,-2.166527271270752,3.876682996749878,4.067776679992676,-2.225346565246582,-1.770171642303467,0.917125165462494,XArbitraryZVertical,0.0528352750258245,-0.4845749158631727,-0.8721323023126178,0.0422016408129364,0.0512589886784553,-0.849686324596405,-0.5247911810874939,0,0,0,-1,-1,34111.0256935,walking,2,2022-06-02T10:45:41.596+02:00,2022-06-02T10:32:51.428+02:00,64,2.305696,0,0,60.10083,0,0,2022-06-02T10:45:41.595+02:00,675852341.5954719,0,11.46094,101.0547,1,0.89
405,2022-06-02T10:45:42.579+02:00,1654159541.466886,53.22898310691163,10.3982211464966,36.68831,0.2882999,0.9978049,-1,-1,3.0,32.0,-9999,34112.004375625,-1.915740966796875,-2.379730224609375,0.4218597412109375,34111.99563962501,-3.020093423421926,0.068718001749015,0.9933796369064636,-2.882160425186157,3.728375434875488,4.05132532119751,-2.139577627182007,-1.811965703964233,0.9730398058891296,XArbitraryZVertical,0.0590589719997573,-0.4735246393780561,-0.8760311433363785,0.0696838288329241,0.0374809764325618,-0.8378755450248718,-0.5445728898048401,0,0,0,-1,-1,34111.0256935,walking,2,2022-06-02T10:45:41.596+02:00,2022-06-02T10:32:51.428+02:00,64,2.305696,0,0,60.10083,0,0,2022-06-02T10:45:41.595+02:00,675852341.5954719,0,11.46094,101.0547,1,0.89
406,2022-06-02T10:45:42.589+02:00,1654159541.466886,53.22898310691163,10.3982211464966,36.68831,0.2882999,0.9978049,-1,-1,3.0,32.0,-9999,34112.014348625,-1.8038330078125,-2.202987670898438,0.3581085205078125,34112.00561162501,-2.945141992114874,0.0423263350173586,0.9658725851478592,-2.989861726760864,3.446363687515259,3.979850769042969,-1.960694074630737,-1.586802124977112,0.9960466027259828,XArbitraryZVertical,0.0641816419606607,-0.4602017593145465,-0.8802052420983919,0.0966122537376546,0.0240637771785259,-0.8225454688072205,-0.5681900978088379,0,0,0,-1,-1,34111.0256935,walking,2,2022-06-02T10:45:41.596+02:00,2022-06-02T10:32:51.428+02:00,64,2.305696,0,0,60.10083,0,0,2022-06-02T10:45:41.595+02:00,675852341.5954719,0,11.46094,101.0547,1,0.89
407,2022-06-02T10:45:42.599+02:00,1654159541.466886,53.22898310691163,10.3982211464966,36.68831,0.2882999,0.9978049,-1,-1,3.0,32.0,-9999,34112.024320625,-1.784713745117188,-2.170364379882812,0.2550506591796875,34112.01558462501,-2.877691801715919,0.0201539681818219,0.9395830443901514,-2.491150617599487,3.144027233123779,3.671019554138184,-1.822927713394165,-1.413040041923523,0.9576348662376404,XArbitraryZVertical,0.0684648108605356,-0.447560236987037,-0.8832665100820483,0.1218303054448483,0.0118925487622618,-0.8073121309280396,-0.5900048017501831,0,0,0,-1,-1,34111.0256935,walking,2,2022-06-02T10:45:41.596+02:00,2022-06-02T10:32:51.428+02:00,64,2.305696,0,0,60.10083,0,0,2022-06-02T10:45:41.595+02:00,675852341.5954719,0,11.46094,101.0547,1,0.89
408,2022-06-02T10:45:42.608+02:00,1654159541.466886,53.22898310691163,10.3982211464966,36.68831,0.2882999,0.9978049,-1,-1,3.0,32.0,-9999,34112.034293625,-1.756744384765625,-2.3031005859375,0.175048828125,34112.02555662501,-2.819262685718622,0.0035543491668463,0.9184721727705508,-1.80578887462616,2.926465272903442,3.291438341140747,-1.787085056304932,-1.369845151901245,0.8754027485847473,XArbitraryZVertical,0.0727019743621684,-0.4372629315326358,-0.8846471836476892,0.1446196041645011,0.0021576096769422,-0.7946751117706299,-0.6070311069488525,0,0,0,-1,-1,34111.0256935,walking,2,2022-06-02T10:45:41.596+02:00,2022-06-02T10:32:51.428+02:00,64,2.305696,0,0,60.10083,0,0,2022-06-02T10:45:41.595+02:00,675852341.5954719,0,11.46094,101.0547,1,0.89
409,2022-06-02T10:45:42.619+02:00,1654159541.466886,53.22898310691163,10.3982211464966,36.68831,0.2882999,0.9978049,-1,-1,3.0,32.0,-9999,34112.044266625,-1.664764404296875,-2.587234497070312,0.19793701171875,34112.03552962501,-2.769095826807191,-0.0076127395633061,0.9039008718093138,-1.105939507484436,2.785615921020508,2.879631519317627,-1.758093357086182,-1.490529894828796,0.8001418709754944,XArbitraryZVertical,0.0775035988355489,-0.4297991747554155,-0.8843407215542758,0.1649467905559409,-0.0047088121064007,-0.7857457399368286,-0.6185317039489746,0,0,0,-1,-1,34111.0256935,walking,2,2022-06-02T10:45:41.596+02:00,2022-06-02T10:32:51.428+02:00,64,2.305696,0,0,60.10083,0,0,2022-06-02T10:45:41.595+02:00,675852341.5954719,0,11.46094,101.0547,1,0.89
410,2022-06-02T10:45:42.640+02:00,1654159541.466886,53.22898310691163,10.3982211464966,36.68831,0.2882999,0.9978049,-1,-1,3.0,32.0,-9999,34112.054238625,-1.491912841796875,-2.828643798828125,0.3437347412109375,34112.04550262501,-2.726650550684933,-0.0134812022542915,0.8952992650920915,-0.6145085096359253,2.716861486434937,2.424760818481445,-1.672372102737427,-1.768950700759888,0.8128963708877563,XArbitraryZVertical,0.0832124480428211,-0.4248075601451766,-0.8827158785228345,0.1828301268525531,-0.0084293419495224,-0.7803962230682373,-0.6252284646034241,0,0,0,-1,-1,34111.0256935,walking,2,2022-06-02T10:45:41.596+02:00,2022-06-02T10:32:51.428+02:00,64,2.305696,0,0,60.10083,0,0,2022-06-02T10:45:41.595+02:00,675852341.5954719,0,11.46094,101.0547,1,0.89
411,2022-06-02T10:45:42.646+02:00,1654159541.466886,53.22898310691163,10.3982211464966,36.68831,0.2882999,0.9978049,-1,-1,3.0,32.0,-9999,34112.064211625,-1.283294677734375,-2.837371826171875,0.505157470703125,34112.05547462501,-2.691934647880418,-0.0136859936201492,0.8892175935489838,-0.5906625986099243,2.635554075241089,1.971748113632202,-1.508818626403809,-2.03135871887207,0.9525774717330932,XArbitraryZVertical,0.0898629848983403,-0.4206473661408932,-0.8806936792604505,0.1983914769008167,-0.0086221788078546,-0.7765790820121765,-0.6299608945846558,0,0,0,-1,-1,34111.0256935,walking,2,2022-06-02T10:45:41.596+02:00,2022-06-02T10:32:51.428+02:00,64,2.305696,0,0,60.10083,0,0,2022-06-02T10:45:41.595+02:00,675852341.5954719,0,11.46094,101.0547,1,0.89
412,2022-06-02T10:45:42.654+02:00,1654159541.466886,53.22898310691163,10.3982211464966,36.68831,0.2882999,0.9978049,-1,-1,3.0,32.0,-9999,34112.074184625,-1.090408325195312,-2.73486328125,0.562896728515625,34112.06544762501,-2.663904660509056,-0.0100155105438402,0.881871951693036,-0.8743892312049866,2.452459573745728,1.603132009506226,-1.302135348320007,-2.07627534866333,1.126031875610352,XArbitraryZVertical,0.096567432540405,-0.4157367138164341,-0.8791746220248055,0.211872193418633,-0.0063668270595371,-0.7719302177429199,-0.6356754302978516,0,0,0,-1,-1,34111.0256935,walking,2,2022-06-02T10:45:41.596+02:00,2022-06-02T10:32:51.428+02:00,64,2.305696,0,0,60.10083,0,0,2022-06-02T10:45:41.595+02:00,675852341.5954719,0,11.46094,101.0547,1,0.89
413,2022-06-02T10:45:42.658+02:00,1654159541.466886,53.22898310691163,10.3982211464966,36.68831,0.2882999,0.9978049,-1,-1,3.0,32.0,-9999,34112.084156625,-0.9267730712890624,-2.584701538085938,0.54339599609375,34112.075420625,-2.641717956185819,-0.0040126788170655,0.8715576851560577,-1.166345477104187,2.148870944976807,1.264426112174988,-1.110637545585632,-1.985277891159058,1.203780174255371,XArbitraryZVertical,0.1026451756703653,-0.4094495437403856,-0.8785812170411632,0.2234059656028692,-0.0025826946366578,-0.7653324604034424,-0.6436300873756409,0,0,0,-1,-1,34111.0256935,walking,2,2022-06-02T10:45:41.596+02:00,2022-06-02T10:32:51.428+02:00,64,2.305696,0,0,60.10083,0,0,2022-06-02T10:45:41.595+02:00,675852341.5954719,0,11.46094,101.0547,1,0.89
414,2022-06-02T10:45:42.668+02:00,1654159541.466886,53.22898310691163,10.3982211464966,36.68831,0.2882999,0.9978049,-1,-1,3.0,32.0,-9999,34112.094129625,-0.8230438232421875,-2.450469970703125,0.439453125,34112.08539262501,-2.624631868564457,0.0022193167210344,0.8584692445850722,-1.45379364490509,1.705907940864563,0.9627956748008728,-0.945481300354004,-1.846626996994019,1.203506708145142,XArbitraryZVertical,0.1073546165899898,-0.4020912713844424,-0.8789591244654616,0.2328701414567785,0.0014505371218547,-0.7568429708480835,-0.6535952091217041,0,0,0,-1,-1,34111.0256935,walking,2,2022-06-02T10:45:41.596+02:00,2022-06-02T10:32:51.428+02:00,64,2.305696,0,0,60.10083,0,0,2022-06-02T10:45:41.595+02:00,675852341.5954719,0,11.46094,101.0547,1,0.89
415,2022-06-02T10:45:42.678+02:00,1654159541.466886,53.22898310691163,10.3982211464966,36.68831,0.2882999,0.9978049,-1,-1,3.0,32.0,-9999,34112.104101625,-0.7823944091796875,-2.32269287109375,0.258544921875,34112.095365625,-2.611850156454593,0.0072067821488374,0.8431026077223579,-1.617806315422058,1.216304421424866,0.7249612808227539,-0.8374961614608765,-1.720620632171631,1.12216329574585,XArbitraryZVertical,0.1102888324422588,-0.3940435840611605,-0.880242865601449,0.2402886110558685,0.0047935447655618,-0.7467104196548462,-0.6651320457458496,0,0,0,-1,-1,34111.0256935,walking,2,2022-06-02T10:45:41.596+02:00,2022-06-02T10:32:51.428+02:00,64,2.305696,0,0,60.10083,0,0,2022-06-02T10:45:41.595+02:00,675852341.5954719,0,11.46094,101.0547,1,0.89
416,2022-06-02T10:45:42.688+02:00,1654159541.466886,53.22898310691163,10.3982211464966,36.68831,0.2882999,0.9978049,-1,-1,3.0,32.0,-9999,34112.114074625,-0.795135498046875,-2.221054077148438,0.1269073486328125,34112.10533762501,-2.602611221154588,0.0101422676089867,0.8267819597727021,-1.636119961738586,0.7568228244781494,0.4722120761871338,-0.7922080755233765,-1.599785089492798,0.9594845175743104,XArbitraryZVertical,0.1114283097299971,-0.3859762331410612,-0.8821571770650742,0.2457740238439008,0.0068687023594975,-0.7357558012008667,-0.6772121787071228,0,0,0,-1,-1,34111.0256935,walking,2,2022-06-02T10:45:41.596+02:00,2022-06-02T10:32:51.428+02:00,64,2.305696,0,0,60.10083,0,0,2022-06-02T10:45:41.595+02:00,675852341.5954719,0,11.46094,101.0547,1,0.89
417,2022-06-02T10:45:42.698+02:00,1654159541.466886,53.22898310691163,10.3982211464966,36.68831,0.2882999,0.9978049,-1,-1,3.0,32.0,-9999,34112.124047625,-0.8402099609375,-2.12078857421875,0.0533447265625,34112.115310625,-2.597916279320138,0.0123639008596553,0.8113367088195288,-1.46292769908905,0.3890341520309448,0.1277156621217728,-0.7996656894683838,-1.512035489082336,0.8260045051574707,XArbitraryZVertical,0.1114295428246873,-0.3786092031598942,-0.884426219269872,0.2490559145602697,0.0085126962512731,-0.7252081632614136,-0.6884770393371582,0,0,0,-1,-1,34111.0256935,walking,2,2022-06-02T10:45:41.596+02:00,2022-06-02T10:32:51.428+02:00,64,2.305696,0,0,60.10083,0,0,2022-06-02T10:45:41.595+02:00,675852341.5954719,0,11.46094,101.0547,1,0.89
418,2022-06-02T10:45:42.708+02:00,1654159541.466886,53.22898310691163,10.3982211464966,36.68831,0.2882999,0.9978049,-1,-1,3.0,32.0,-9999,34112.134019625,-0.874969482421875,-2.071731567382812,-0.011871337890625,34112.125283625,-2.59872979639336,0.0156043862465588,0.7981129868990521,-1.158431172370911,0.1537712812423706,-0.2823011577129364,-0.8455328941345215,-1.413110256195068,0.7613744735717773,XArbitraryZVertical,0.1110969017701243,-0.372384769979824,-0.8868529525225648,0.2499577101506827,0.0108923418447375,-0.7160401344299316,-0.6979741454124451,0,0,0,-1,-1,34111.0256935,walking,2,2022-06-02T10:45:41.596+02:00,2022-06-02T10:32:51.428+02:00,64,2.305696,0,0,60.10083,0,0,2022-06-02T10:45:41.595+02:00,675852341.5954719,0,11.46094,101.0547,1,0.89
419,2022-06-02T10:45:42.718+02:00,1654159542.473972,53.22899968724206,10.39828820509175,36.75933,0.2882999,0.9029921,-1,-1,3.0,32.0,-9999,34112.143992625,-0.90380859375,-1.995712280273438,-0.0561981201171875,34112.135255625,-2.605422321537312,0.0209146110266759,0.7886745585643851,-0.7116395235061646,-0.0442224889993667,-0.6991366744041443,-0.8865501880645752,-1.368720531463623,0.6996729969978333,XArbitraryZVertical,0.1110721685448983,-0.3678952999291145,-0.8891597890632094,0.2484165436355183,0.014739254489541,-0.7094197273254395,-0.704632043838501,0,0,0,-1,-1,34111.0256935,walking,2,2022-06-02T10:45:41.596+02:00,2022-06-02T10:32:51.428+02:00,64,2.305696,0,0,60.10083,0,0,2022-06-02T10:45:41.595+02:00,675852341.5954719,0,11.46094,101.0547,1,0.89
