,loggingTime(txt),locationTimestamp_since1970(s),locationLatitude(WGS84),locationLongitude(WGS84),locationAltitude(m),locationSpeed(m/s),locationSpeedAccuracy(m/s),locationCourse(°),locationCourseAccuracy(°),locationVerticalAccuracy(m),locationHorizontalAccuracy(m),locationFloor(Z),accelerometerTimestamp_sinceReboot(s),accelerometerAccelerationX(G),accelerometerAccelerationY(G),accelerometerAccelerationZ(G),motionTimestamp_sinceReboot(s),motionYaw(rad),motionRoll(rad),motionPitch(rad),motionRotationRateX(rad/s),motionRotationRateY(rad/s),motionRotationRateZ(rad/s),motionUserAccelerationX(G),motionUserAccelerationY(G),motionUserAccelerationZ(G),motionAttitudeReferenceFrame(txt),motionQuaternionX(R),motionQuaternionY(R),motionQuaternionZ(R),motionQuaternionW(R),motionGravityX(G),motionGravityY(G),motionGravityZ(G),motionMagneticFieldX(µT),motionMagneticFieldY(µT),motionMagneticFieldZ(µT),motionHeading(°),motionMagneticFieldCalibrationAccuracy(Z),activityTimestamp_sinceReboot(s),activity(txt),activityActivityConfidence(Z),activityActivityStartDate(txt),pedometerStartDate(txt),pedometerNumberofSteps(N),pedometerAverageActivePace(s/m),pedometerCurrentPace(s/m),pedometerCurrentCadence(steps/s),pedometerDistance(m),pedometerFloorAscended(N),pedometerFloorDescended(N),pedometerEndDate(txt),altimeterTimestamp_sinceReboot(s),altimeterReset(bool),altimeterRelativeAltitude(m),altimeterPressure(kPa),batteryState(N),batteryLevel(R)
245,2022-05-12T10:41:07.325+02:00,1652344861.330887,53.22900912729391,10.39845714346542,38.91323,-1.0,-1.0,-1.0,-1.0,44.20492935180664,594.6807376196829,-9999,3326.4770835,0.1368408203125,0.4197998046875,2.949371337890625,3326.4720855,0.0891961638350027,2.488417334207258,0.0090760633478329,-5.432993412017822,7.051144123077393,-2.216979265213013,-0.3512926697731018,0.4477972388267517,1.866015434265137,XArbitraryZVertical,-0.0407718973173525,0.9462560027297028,0.0185966263160986,0.3202990483775094,0.6076862215995789,-0.0090759387239813,0.7941255569458008,0,0,0,-1,-1,3324.760816791667,walking,2,2022-05-12T10:41:05.608+02:00,2022-05-11T22:15:20.957+02:00,914,0.8930088,0.8266059,1.729005,688.5342,0,0,2022-05-12T10:41:05.608+02:00,674037665.6075398,0,-3.41,100.9478,1,0.94
246,2022-05-12T10:41:07.335+02:00,1652344861.330887,53.22900912729391,10.39845714346542,38.91323,-1.0,-1.0,-1.0,-1.0,44.20492935180664,594.6807376196829,-9999,3326.4870785,-0.01446533203125,0.3873748779296875,3.225204467773438,3326.4820805,0.1408352570841538,2.557995836460981,0.0417913763411772,-5.858440399169922,7.112105846405029,-2.402998447418213,-0.4137070178985596,0.4615796506404877,2.11561393737793,XArbitraryZVertical,-0.0613746704145969,0.9555688960299644,0.0401975781940535,0.2854915399315939,0.5505478978157043,-0.0417792126536369,0.8337575197219849,0,0,0,-1,-1,3324.760816791667,walking,2,2022-05-12T10:41:05.608+02:00,2022-05-11T22:15:20.957+02:00,914,0.8930088,0.8266059,1.729005,688.5342,0,0,2022-05-12T10:41:05.608+02:00,674037665.6075398,0,-3.41,100.9478,1,0.94
247,2022-05-12T10:41:07.345+02:00,1652344861.330887,53.22900912729391,10.39845714346542,38.91323,-1.0,-1.0,-1.0,-1.0,44.20492935180664,594.6807376196829,-9999,3326.4970735,-0.1769866943359375,0.3617095947265625,3.495223999023438,3326.4920755,0.1934513603763295,2.626134879564209,0.0798744498108313,-6.125062465667725,7.096685409545898,-2.589715719223022,-0.5058268308639526,0.4671650230884552,2.357911348342896,XArbitraryZVertical,-0.0831815825289476,0.9626668892687708,0.0630233035025449,0.2497629229231304,0.4913617372512817,-0.0797895416617393,0.8672934174537659,0,0,0,-1,-1,3324.760816791667,walking,2,2022-05-12T10:41:05.608+02:00,2022-05-11T22:15:20.957+02:00,914,0.8930088,0.8266059,1.729005,688.5342,0,0,2022-05-12T10:41:05.608+02:00,674037665.6075398,0,-3.41,100.9478,1,0.94
248,2022-05-12T10:41:07.355+02:00,1652344861.330887,53.22900912729391,10.39845714346542,38.91323,-1.0,-1.0,-1.0,-1.0,44.20492935180664,594.6807376196829,-9999,3326.5070685,-0.3624114990234375,0.3451385498046875,3.727813720703125,3326.5020705,0.2463133010306847,2.691213049245166,0.1219894466164292,-6.211950778961182,6.966246128082275,-2.838884830474854,-0.6090589761734009,0.4833973050117493,2.601632595062256,XArbitraryZVertical,-0.1060131808830101,0.967241952991588,0.0863471542019611,0.2138888338709115,0.4320723712444305,-0.1216871067881584,0.893591582775116,0,0,0,-1,-1,3324.760816791667,walking,2,2022-05-12T10:41:05.608+02:00,2022-05-11T22:15:20.957+02:00,914,0.8930088,0.8266059,1.729005,688.5342,0,0,2022-05-12T10:41:05.608+02:00,674037665.6075398,0,-3.41,100.9478,1,0.94
249,2022-05-12T10:41:07.365+02:00,1652344861.330887,53.22900912729391,10.39845714346542,38.91323,-1.0,-1.0,-1.0,-1.0,44.20492935180664,594.6807376196829,-9999,3326.5170635,-0.5609130859375,0.32122802734375,3.924331665039062,3326.5120655,0.2996593697791105,2.751878425554556,0.1663675228399965,-6.191245555877686,6.688959121704102,-3.199881315231323,-0.7370899319648743,0.5107402801513672,2.815567970275879,XArbitraryZVertical,-0.1300307078724744,0.9691310613055316,0.1094048075626289,0.1786272976405346,0.3746784925460815,-0.1656011193990707,0.9122459888458252,0,0,0,-1,-1,3324.760816791667,walking,2,2022-05-12T10:41:05.608+02:00,2022-05-11T22:15:20.957+02:00,914,0.8930088,0.8266059,1.729005,688.5342,0,0,2022-05-12T10:41:05.608+02:00,674037665.6075398,0,-3.41,100.9478,1,0.94
250,2022-05-12T10:41:07.375+02:00,1652344861.330887,53.22900912729391,10.39845714346542,38.91323,-1.0,-1.0,-1.0,-1.0,44.20492935180664,594.6807376196829,-9999,3326.5270585,-0.8059844970703125,0.2817230224609375,4.110397338867188,3326.5220605,0.3546627722392244,2.806331801939039,0.2116656799651427,-6.098456382751465,6.251112937927246,-3.718360900878906,-0.8825857639312744,0.5313172340393066,3.001082420349121,XArbitraryZVertical,-0.1556091010450588,0.96819972991209,0.1317889291171469,0.1449379067240976,0.321672797203064,-0.210088700056076,0.9232498407363892,0,0,0,-1,-1,3324.760816791667,walking,2,2022-05-12T10:41:05.608+02:00,2022-05-11T22:15:20.957+02:00,914,0.8930088,0.8266059,1.729005,688.5342,0,0,2022-05-12T10:41:05.608+02:00,674037665.6075398,0,-3.41,100.9478,1,0.94
251,2022-05-12T10:41:07.385+02:00,1652344861.330887,53.22900912729391,10.39845714346542,38.91323,-1.0,-1.0,-1.0,-1.0,44.20492935180664,594.6807376196829,-9999,3326.5370535,-1.098403930664062,0.1835479736328125,4.328643798828125,3326.5320555,0.4128012364695863,2.852334201144775,0.2561383178192647,-5.802072048187256,5.624166488647461,-4.332146644592285,-1.081920266151428,0.5350703001022339,3.183210849761963,XArbitraryZVertical,-0.1831207832467344,0.96439632503156,0.1529982646993678,0.1140099292414686,0.2759358286857605,-0.2533467411994934,0.9271869659423828,0,0,0,-1,-1,3324.760816791667,walking,2,2022-05-12T10:41:05.608+02:00,2022-05-11T22:15:20.957+02:00,914,0.8930088,0.8266059,1.729005,688.5342,0,0,2022-05-12T10:41:05.608+02:00,674037665.6075398,0,-3.41,100.9478,1,0.94
252,2022-05-12T10:41:07.395+02:00,1652344861.330887,53.22900912729391,10.39845714346542,38.91323,-1.0,-1.0,-1.0,-1.0,44.20492935180664,594.6807376196829,-9999,3326.5470485,-1.317657470703125,0.0183563232421875,4.53204345703125,3326.5420505,0.4755190129450415,2.887515836067943,0.2972449850748558,-5.326379299163818,4.82282018661499,-5.125730037689209,-1.338733434677124,0.476435661315918,3.403193473815918,XArbitraryZVertical,-0.2128192430165285,0.957827408602181,0.1722620267552021,0.0871806953605253,0.2403294742107391,-0.2928871214389801,0.9254507422447203,0,0,0,-1,-1,3324.760816791667,walking,2,2022-05-12T10:41:05.608+02:00,2022-05-11T22:15:20.957+02:00,914,0.8930088,0.8266059,1.729005,688.5342,0,0,2022-05-12T10:41:05.608+02:00,674037665.6075398,0,-3.41,100.9478,1,0.94
253,2022-05-12T10:41:07.405+02:00,1652344861.330887,53.22900912729391,10.39845714346542,38.91323,-1.0,-1.0,-1.0,-1.0,44.20492935180664,594.6807376196829,-9999,3326.5570435,-1.478500366210938,-0.1839447021484375,4.674758911132812,3326.5520455,0.5453017890608574,2.909185830323302,0.332331619429146,-4.638204574584961,3.814359903335571,-6.101228713989258,-1.535375714302063,0.3446047306060791,3.612173557281494,XArbitraryZVertical,-0.2453165038677602,0.948554227780248,0.1890094872627099,0.0658812996144489,0.2177182585000992,-0.3262479603290558,0.9198706150054932,0,0,0,-1,-1,3324.760816791667,walking,2,2022-05-12T10:41:05.608+02:00,2022-05-11T22:15:20.957+02:00,914,0.8930088,0.8266059,1.729005,688.5342,0,0,2022-05-12T10:41:05.608+02:00,674037665.6075398,0,-3.41,100.9478,1,0.94
254,2022-05-12T10:41:07.415+02:00,1652344861.330887,53.22900912729391,10.39845714346542,38.91323,-1.0,-1.0,-1.0,-1.0,44.20492935180664,594.6807376196829,-9999,3326.5670385,-1.64483642578125,-0.4232330322265625,4.862991333007812,3326.5620405,0.6247286605168475,2.913748659535839,0.3583583297806161,-3.850230693817139,2.444026947021484,-7.312812328338623,-1.690029144287109,0.1667931377887726,3.762487888336182,XArbitraryZVertical,-0.281150213209292,0.9365309829612914,0.2028727139915938,0.0520288404720106,0.2115286588668823,-0.3507373332977295,0.9122714400291444,0,0,0,-1,-1,3324.760816791667,walking,2,2022-05-12T10:41:05.608+02:00,2022-05-11T22:15:20.957+02:00,914,0.8930088,0.8266059,1.729005,688.5342,0,0,2022-05-12T10:41:05.608+02:00,674037665.6075398,0,-3.41,100.9478,1,0.94
255,2022-05-12T10:41:07.425+02:00,1652344861.330887,53.22900912729391,10.39845714346542,38.91323,-1.0,-1.0,-1.0,-1.0,44.20492935180664,594.6807376196829,-9999,3326.5770335,-2.059249877929688,-0.713592529296875,5.103240966796875,3326.5720355,0.7176718290110548,2.895856942658944,0.3742972502823634,-3.337828874588013,0.5560490489006042,-8.874266624450684,-1.871263742446899,-0.0576139688491821,3.960188388824463,XArbitraryZVertical,-0.3211004613304754,0.9210299874877288,0.2151832827104513,0.0479008773595782,0.2264271974563599,-0.3656185269355774,0.9028034806251526,0,0,0,-1,-1,3324.760816791667,walking,2,2022-05-12T10:41:05.608+02:00,2022-05-11T22:15:20.957+02:00,914,0.8930088,0.8266059,1.729005,688.5342,0,0,2022-05-12T10:41:05.608+02:00,674037665.6075398,0,-3.41,100.9478,1,0.94
256,2022-05-12T10:41:07.435+02:00,1652344861.330887,53.22900912729391,10.39845714346542,38.91323,-1.0,-1.0,-1.0,-1.0,44.20492935180664,594.6807376196829,-9999,3326.5870285,-2.608047485351562,-0.6391143798828125,5.24005126953125,3326.5820305,0.8281303494233955,2.847688610060468,0.3771719407273301,-2.541484355926514,-2.160849571228027,-10.85453987121582,-2.32857871055603,-0.3452994227409363,4.213397026062012,XArbitraryZVertical,-0.3658111567140868,0.9006133711157397,0.2276445337577839,0.0570605217693954,0.269328773021698,-0.3682926595211029,0.8898444771766663,0,0,0,-1,-1,3324.760816791667,walking,2,2022-05-12T10:41:05.608+02:00,2022-05-11T22:15:20.957+02:00,914,0.8930088,0.8266059,1.729005,688.5342,0,0,2022-05-12T10:41:05.608+02:00,674037665.6075398,0,-3.41,100.9478,1,0.94
257,2022-05-12T10:41:07.445+02:00,1652344861.330887,53.22900912729391,10.39845714346542,38.91323,-1.0,-1.0,-1.0,-1.0,44.20492935180664,594.6807376196829,-9999,3326.5970235,-3.150115966796875,0.285186767578125,5.141998291015625,3326.5920255,0.9558842131898078,2.762764527069884,0.3574997471656767,-1.589608550071716,-5.742801189422607,-13.02285671234131,-2.954497098922729,-0.2891808450222015,4.369695663452148,XArbitraryZVertical,-0.4148035426033158,0.8735652552156945,0.2402739087578764,0.084204585699932,0.3464493453502655,-0.3499331474304199,0.8703564405441284,0,0,0,-1,-1,3324.760816791667,walking,2,2022-05-12T10:41:05.608+02:00,2022-05-11T22:15:20.957+02:00,914,0.8930088,0.8266059,1.729005,688.5342,0,0,2022-05-12T10:41:05.608+02:00,674037665.6075398,0,-3.41,100.9478,1,0.94
258,2022-05-12T10:41:07.455+02:00,1652344861.330887,53.22900912729391,10.39845714346542,38.91323,-1.0,-1.0,-1.0,-1.0,44.20492935180664,594.6807376196829,-9999,3326.6070185,-3.568115234375,1.18963623046875,4.632217407226562,3326.6020205,1.096126487763932,2.636792289052316,0.3094106026482535,-1.04707396030426,-10.30431175231934,-14.993821144104,-3.610782861709595,0.5896843671798706,4.308291435241699,XArbitraryZVertical,-0.4656565211229864,0.8366706688767819,0.2559167129880362,0.1328648141355937,0.4606667459011078,-0.3044972717761993,0.8337076306343079,0,0,0,-1,-1,3324.760816791667,walking,2,2022-05-12T10:41:05.608+02:00,2022-05-11T22:15:20.957+02:00,914,0.8930088,0.8266059,1.729005,688.5342,0,0,2022-05-12T10:41:05.608+02:00,674037665.6075398,0,-3.41,100.9478,1,0.94
259,2022-05-12T10:41:07.465+02:00,1652344861.330887,53.22900912729391,10.39845714346542,38.91323,-1.0,-1.0,-1.0,-1.0,44.20492935180664,594.6807376196829,-9999,3326.6170135,-3.840011596679688,1.264999389648438,3.262680053710938,3326.6120155,1.235690807786884,2.471341163823587,0.2294494834681042,-0.4370630085468292,-15.27744007110596,-16.2381534576416,-4.173018455505371,1.417078018188477,3.869090795516968,XArbitraryZVertical,-0.5127694055468277,0.7865311352115402,0.2773853469589926,0.2037006808916021,0.6049032807350159,-0.2274414747953415,0.7631273865699768,0,0,0,-1,-1,3324.760816791667,walking,2,2022-05-12T10:41:05.608+02:00,2022-05-11T22:15:20.957+02:00,914,0.8930088,0.8266059,1.729005,688.5342,0,0,2022-05-12T10:41:05.608+02:00,674037665.6075398,0,-3.41,100.9478,1,0.94
260,2022-05-12T10:41:07.475+02:00,1652344861.330887,53.22900912729391,10.39845714346542,38.91323,-1.0,-1.0,-1.0,-1.0,44.20492935180664,594.6807376196829,-9999,3326.6270085,-4.203216552734375,1.32781982421875,1.38421630859375,3326.6220105,1.353777760367,2.274130497445404,0.111336512000148,1.437124848365784,-20.02882766723633,-16.77608489990234,-4.59798002243042,1.376106381416321,2.61992073059082,XArbitraryZVertical,-0.5492633353366375,0.7208950835215948,0.3021867201220173,0.29547139245724,0.7579679489135742,-0.1111066341400146,0.6427598595619202,0,0,0,-1,-1,3324.760816791667,walking,2,2022-05-12T10:41:05.608+02:00,2022-05-11T22:15:20.957+02:00,914,0.8930088,0.8266059,1.729005,688.5342,0,0,2022-05-12T10:41:05.608+02:00,674037665.6075398,0,-3.41,100.9478,1,0.94
261,2022-05-12T10:41:07.485+02:00,1652344861.330887,53.22900912729391,10.39845714346542,38.91323,-1.0,-1.0,-1.0,-1.0,44.20492935180664,594.6807376196829,-9999,3326.6370035,-4.751327514648438,2.850250244140625,0.388214111328125,3326.6320055,1.418214994091228,2.047094412463846,-0.0400154614025362,5.101741313934326,-24.70207023620605,-15.40969562530518,-5.091203689575195,1.28781533241272,0.9260915517807008,XArbitraryZVertical,-0.563850591371944,0.6411982742827292,0.3257888180537732,0.4059543840651142,0.887986958026886,0.0400047823786735,0.4581254422664642,0,0,0,-1,-1,3324.760816791667,walking,2,2022-05-12T10:41:05.608+02:00,2022-05-11T22:15:20.957+02:00,914,0.8930088,0.8266059,1.729005,688.5342,0,0,2022-05-12T10:41:05.608+02:00,674037665.6075398,0,-3.41,100.9478,1,0.94
262,2022-05-12T10:41:07.495+02:00,1652344861.330887,53.22900912729391,10.39845714346542,38.91323,-1.0,-1.0,-1.0,-1.0,44.20492935180664,594.6807376196829,-9999,3326.6469985,-6.965133666992188,5.688674926757812,0.8522796630859375,3326.6420005,1.398539373843046,1.774119440426797,-0.1918197925298785,8.825533866882324,-28.95705604553223,-12.12961292266846,-5.712765216827393,2.659605026245117,0.1899931281805038,XArbitraryZVertical,-0.5429785644239978,0.551620406637845,0.3479123394337549,0.5290049692475302,0.9614377617836,0.19064562022686,0.1982215940952301,0,0,0,-1,-1,3324.760816791667,walking,2,2022-05-12T10:41:05.608+02:00,2022-05-11T22:15:20.957+02:00,914,0.8930088,0.8266059,1.729005,688.5342,0,0,2022-05-12T10:41:05.608+02:00,674037665.6075398,0,-3.41,100.9478,1,0.94
263,2022-05-12T10:41:07.505+02:00,1652344861.330887,53.22900912729391,10.39845714346542,38.91323,-1.0,-1.0,-1.0,-1.0,44.20492935180664,594.6807376196829,-9999,3326.6569935,-10.20303344726562,4.144561767578125,3.251785278320312,3326.6519955,1.302032345547791,1.449199672815379,-0.3072410744549023,10.46257209777832,-30.9246768951416,-10.68503475189209,-7.911267280578613,5.386245250701904,0.9678974151611328,XArbitraryZVertical,-0.4880847124890974,0.4516245911200701,0.3677236882036286,0.6500676683614727,0.9461337327957152,0.3024300634860992,-0.1156170815229416,0,0,0,-1,-1,3324.760816791667,walking,2,2022-05-12T10:41:05.608+02:00,2022-05-11T22:15:20.957+02:00,914,0.8930088,0.8266059,1.729005,688.5342,0,0,2022-05-12T10:41:05.608+02:00,674037665.6075398,0,-3.41,100.9478,1,0.94
264,2022-05-12T10:41:07.515+02:00,1652344861.330887,53.22900912729391,10.39845714346542,38.91323,-1.0,-1.0,-1.0,-1.0,44.20492935180664,594.6807376196829,-9999,3326.6669885,-11.86383056640625,0.3198089599609375,4.047348022460938,3326.6619905,1.167476887851738,1.095478499359912,-0.3631368456552848,11.15264987945557,-30.52922821044922,-7.109789848327637,-11.0341968536377,3.789353847503662,3.679564237594604,XArbitraryZVertical,-0.4109250261349867,0.3424199739282789,0.3843188125366129,0.7524549436029181,0.8311636447906494,0.3552082479000092,-0.4277783632278442,0,0,0,-1,-1,3324.760816791667,walking,2,2022-05-12T10:41:05.608+02:00,2022-05-11T22:15:20.957+02:00,914,0.8930088,0.8266059,1.729005,688.5342,0,0,2022-05-12T10:41:05.608+02:00,674037665.6075398,0,-3.41,100.9478,1,0.94
265,2022-05-12T10:41:07.525+02:00,1652344861.330887,53.22900912729391,10.39845714346542,38.91323,-1.0,-1.0,-1.0,-1.0,44.20492935180664,594.6807376196829,-9999,3326.6769835,-15.12005615234375,1.515182495117188,1.546890258789062,3326.6719855,1.042417645626157,0.7813431712694161,-0.3394805081435371,10.64208602905273,-22.11923217773438,-3.373991727828979,-12.52787208557129,-0.0131878554821014,4.716797351837158,XArbitraryZVertical,-0.3223489169796389,0.247723110907494,0.3980078650235171,0.8223833846541525,0.6640415787696838,0.3329972922801971,-0.6694488525390625,0,0,0,-1,-1,3324.760816791667,walking,2,2022-05-12T10:41:05.608+02:00,2022-05-11T22:15:20.957+02:00,914,0.8930088,0.8266059,1.729005,688.5342,0,0,2022-05-12T10:41:05.608+02:00,674037665.6075398,0,-3.41,100.9478,1,0.94
266,2022-05-12T10:41:07.535+02:00,1652344861.330887,53.22900912729391,10.39845714346542,38.91323,-1.0,-1.0,-1.0,-1.0,44.20492935180664,594.6807376196829,-9999,3326.6869785,-12.47325134277344,2.44244384765625,-2.157272338867188,3326.6819805,0.948953271953328,0.5783493080648876,-0.2488959163963786,14.89897727966309,-13.58298873901367,0.5188132524490356,-15.64985370635986,1.268848896026611,2.358453273773193,XArbitraryZVertical,-0.2351053331270149,0.1973426944222417,0.4030307415198745,0.8621760891212281,0.5297976732254028,0.246334046125412,-0.8115626573562622,0,0,0,-1,-1,3324.760816791667,walking,2,2022-05-12T10:41:05.608+02:00,2022-05-11T22:15:20.957+02:00,914,0.8930088,0.8266059,1.729005,688.5342,0,0,2022-05-12T10:41:05.608+02:00,674037665.6075398,0,-3.41,100.9478,1,0.94
267,2022-05-12T10:41:07.545+02:00,1652344861.330887,53.22900912729391,10.39845714346542,38.91323,-1.0,-1.0,-1.0,-1.0,44.20492935180664,594.6807376196829,-9999,3326.6969735,-9.3209228515625,0.8931732177734375,-2.7017822265625,3326.6919755,0.880509076367047,0.4608796451137274,-0.09676206862587,18.08834266662598,-7.706789016723633,2.735643863677979,-12.91590690612793,2.345833301544189,-1.26580023765564,XArbitraryZVertical,-0.139819686433881,0.186318244825067,0.404426004253395,0.8844070409253885,0.4426557719707489,0.0966111421585083,-0.8914719223976135,0,0,0,-1,-1,3324.760816791667,walking,2,2022-05-12T10:41:05.608+02:00,2022-05-11T22:15:20.957+02:00,914,0.8930088,0.8266059,1.729005,688.5342,0,0,2022-05-12T10:41:05.608+02:00,674037665.6075398,0,-3.41,100.9478,1,0.94
268,2022-05-12T10:41:07.555+02:00,1652344861.330887,53.22900912729391,10.39845714346542,38.91323,-1.0,-1.0,-1.0,-1.0,44.20492935180664,594.6807376196829,-9999,3326.7069685,-6.514801025390625,-1.020736694335938,-2.581680297851562,3326.7019705,0.8393924425690332,0.4041664459948412,0.0880410408806349,18.49397659301758,-3.598386287689209,5.10323429107666,-9.712652206420898,0.981101095676422,-1.7859126329422,XArbitraryZVertical,-0.0423375843039001,0.2006808218801748,0.4068702541283805,0.89016376266758,0.3917293846607208,-0.0879273489117622,-0.9158694744110109,0,0,0,-1,-1,3324.760816791667,walking,2,2022-05-12T10:41:05.608+02:00,2022-05-11T22:15:20.957+02:00,914,0.8930088,0.8266059,1.729005,688.5342,0,0,2022-05-12T10:41:05.608+02:00,674037665.6075398,0,-3.41,100.9478,1,0.94
269,2022-05-12T10:41:07.565+02:00,1652344861.330887,53.22900912729391,10.39845714346542,38.91323,-1.0,-1.0,-1.0,-1.0,44.20492935180664,594.6807376196829,-9999,3326.7169635,-3.98333740234375,-3.1328125,-2.7200927734375,3326.7119655,0.8315489249217931,0.3845529107411426,0.2701182712688414,15.35115051269531,-0.6711534261703491,7.344882488250732,-6.876342296600342,-0.7538907527923584,-1.688326358795166,XArbitraryZVertical,0.0444277276484387,0.2266037287828934,0.4163834412889937,0.8793758376418639,0.361541748046875,-0.2668454349040985,-0.8933538794517517,0,0,0,-1,-1,3324.760816791667,walking,2,2022-05-12T10:41:05.608+02:00,2022-05-11T22:15:20.957+02:00,914,0.8930088,0.8266059,1.729005,688.5342,0,0,2022-05-12T10:41:05.608+02:00,674037665.6075398,0,-3.41,100.9478,1,0.94
270,2022-05-12T10:41:07.575+02:00,1652344861.330887,53.22900912729391,10.39845714346542,38.91323,-1.0,-1.0,-1.0,-1.0,44.20492935180664,594.6807376196829,-9999,3326.7269585,-2.260604858398438,-3.881668090820312,-3.072280883789062,3326.7219605,0.8598910347211266,0.3769292145752632,0.4142724263702105,9.239449501037598,0.8520910739898682,8.15478801727295,-4.320269107818604,-2.730288028717041,-1.868945837020874,XArbitraryZVertical,0.1072082097653307,0.250864285574128,0.4357119469174857,0.8577462354228162,0.3369320034980774,-0.4025239944458008,-0.8511469960212708,0,0,0,-1,-1,3324.760816791667,walking,2,2022-05-12T10:41:05.608+02:00,2022-05-11T22:15:20.957+02:00,914,0.8930088,0.8266059,1.729005,688.5342,0,0,2022-05-12T10:41:05.608+02:00,674037665.6075398,0,-3.41,100.9478,1,0.94
271,2022-05-12T10:41:07.585+02:00,1652344861.330887,53.22900912729391,10.39845714346542,38.91323,-1.0,-1.0,-1.0,-1.0,44.20492935180664,594.6807376196829,-9999,3326.7369535,-1.298263549804688,-3.088287353515625,-3.275146484375,3326.7319555,0.9202223056734152,0.3573530277274417,0.4999534014893021,3.075249671936035,0.4272234439849854,8.110783576965332,-2.567586898803711,-3.402283191680908,-2.250117778778076,XArbitraryZVertical,0.1416592683142521,0.2623949142284328,0.4627903134355238,0.8348094609640826,0.3069824278354645,-0.4793846309185028,-0.8221631050109863,0,0,0,-1,-1,3324.760816791667,walking,2,2022-05-12T10:41:05.608+02:00,2022-05-11T22:15:20.957+02:00,914,0.8930088,0.8266059,1.729005,688.5342,0,0,2022-05-12T10:41:05.608+02:00,674037665.6075398,0,-3.41,100.9478,1,0.94
272,2022-05-12T10:41:07.595+02:00,1652344861.330887,53.22900912729391,10.39845714346542,38.91323,-1.0,-1.0,-1.0,-1.0,44.20492935180664,594.6807376196829,-9999,3326.7469485,-1.217514038085938,-1.916168212890625,-3.016326904296875,3326.7419505,1.002997319925159,0.3163418891794584,0.5354577176919176,-0.8172010779380798,-0.4024671018123627,7.888252735137939,-1.565813183784485,-2.578052282333374,-2.457786560058594,XArbitraryZVertical,0.1560465866460294,0.2587845408131531,0.4943638126926057,0.8150364808412245,0.2675501108169556,-0.5102347731590271,-0.8173600435256958,0,0,0,-1,-1,3324.760816791667,walking,2,2022-05-12T10:41:05.608+02:00,2022-05-11T22:15:20.957+02:00,914,0.8930088,0.8266059,1.729005,688.5342,0,0,2022-05-12T10:41:05.608+02:00,674037665.6075398,0,-3.41,100.9478,1,0.94
273,2022-05-12T10:41:07.608+02:00,1652344861.330887,53.22900912729391,10.39845714346542,38.91323,-1.0,-1.0,-1.0,-1.0,44.20492935180664,594.6807376196829,-9999,3326.7569435,-1.10638427734375,-1.746719360351562,-2.627792358398438,3326.7519455,1.096074472957833,0.2629198541554532,0.5400822315111495,-2.633888244628906,-0.6670305728912354,7.70258617401123,-1.440422058105469,-1.401961326599121,-2.18813419342041,XArbitraryZVertical,0.1599172206445012,0.2456217313088012,0.5276463255202543,0.797299101316244,0.2229084968566895,-0.5142065286636353,-0.8281928896903992,0,0,0,-1,-1,3324.760816791667,walking,2,2022-05-12T10:41:05.608+02:00,2022-05-11T22:15:20.957+02:00,914,0.8930088,0.8266059,1.729005,688.5342,0,0,2022-05-12T10:41:05.608+02:00,674037665.6075398,0,-3.41,100.9478,1,0.94
274,2022-05-12T10:41:07.615+02:00,1652344861.640396,53.22876975701092,10.39802456520569,39.52603,-1.0,-1.0,-1.0,-1.0,24.86264991760254,36.0,-9999,3326.7669385,-0.7934112548828125,-1.610336303710938,-2.274826049804688,3326.7619405,1.188798888711349,0.2090627572367192,0.5291150866749944,-3.101883172988892,-0.6750919222831726,7.294880867004395,-1.285546183586121,-1.241949439048767,-1.783334970474243,XArbitraryZVertical,0.159052365125647,0.2290711935816315,0.5601809689898215,0.7800166546535159,0.179162472486496,-0.5047696232795715,-0.8444574475288391,0,0,0,-1,-1,3324.760816791667,walking,2,2022-05-12T10:41:05.608+02:00,2022-05-11T22:15:20.957+02:00,914,0.8930088,0.8266059,1.729005,688.5342,0,0,2022-05-12T10:41:05.608+02:00,674037665.6075398,0,-3.41,100.9478,1,0.94
275,2022-05-12T10:41:07.625+02:00,1652344861.640396,53.22876975701092,10.39802456520569,39.52603,-1.0,-1.0,-1.0,-1.0,24.86264991760254,36.0,-9999,3326.7769335,-0.7852020263671875,-1.26055908203125,-2.135055541992188,3326.7719355,1.274618113071459,0.1593675835860421,0.5132006963817386,-2.668484926223755,-0.6806498169898987,6.748520851135254,-0.9316612482070924,-1.119367837905884,-1.414688348770142,XArbitraryZVertical,0.1575130429703706,0.212416377710756,0.5899624211025637,0.7628979996309267,0.1382504999637604,-0.4909681379795074,-0.8601378202438354,0,0,0,-1,-1,3324.760816791667,walking,2,2022-05-12T10:41:05.608+02:00,2022-05-11T22:15:20.957+02:00,914,0.8930088,0.8266059,1.729005,688.5342,0,0,2022-05-12T10:41:05.608+02:00,674037665.6075398,0,-3.41,100.9478,1,0.94
276,2022-05-12T10:41:07.635+02:00,1652344861.640396,53.22876975701092,10.39802456520569,39.52603,-1.0,-1.0,-1.0,-1.0,24.86264991760254,36.0,-9999,3326.7869285,-0.89520263671875,-0.9730072021484376,-2.05718994140625,3326.7819305,1.351831028233334,0.1163235693317834,0.5009651674749569,-1.544407725334167,-0.4019569754600525,6.312308788299561,-0.8870011568069458,-0.7802865505218506,-1.263863682746887,XArbitraryZVertical,0.1578148412208911,0.1987423635684666,0.6163040165840336,0.7454967277741038,0.1017997190356255,-0.4802723228931427,-0.8711919188499451,0,0,0,-1,-1,3324.760816791667,walking,2,2022-05-12T10:41:05.608+02:00,2022-05-11T22:15:20.957+02:00,914,0.8930088,0.8266059,1.729005,688.5342,0,0,2022-05-12T10:41:05.608+02:00,674037665.6075398,0,-3.41,100.9478,1,0.94
277,2022-05-12T10:41:07.645+02:00,1652344861.640396,53.22876975701092,10.39802456520569,39.52603,-1.0,-1.0,-1.0,-1.0,24.86264991760254,36.0,-9999,3326.7969235,-0.8750762939453125,-1.009201049804688,-1.942092895507812,3326.7919255,1.422414007595436,0.0801312474569637,0.4977318140236774,-0.348804384469986,-0.0836439654231071,5.958003044128418,-0.9655354619026184,-0.4955732226371765,-1.181341767311096,XArbitraryZVertical,0.1611043337090958,0.1900559248562116,0.6396053186351197,0.7272064644760574,0.0703334137797355,-0.4774338006973267,-0.8758482933044434,0,0,0,-1,-1,3324.760816791667,walking,2,2022-05-12T10:41:05.608+02:00,2022-05-11T22:15:20.957+02:00,914,0.8930088,0.8266059,1.729005,688.5342,0,0,2022-05-12T10:41:05.608+02:00,674037665.6075398,0,-3.41,100.9478,1,0.94
278,2022-05-12T10:41:07.655+02:00,1652344861.640396,53.22876975701092,10.39802456520569,39.52603,-1.0,-1.0,-1.0,-1.0,24.86264991760254,36.0,-9999,3326.8069185,-0.8939666748046875,-1.10552978515625,-1.879302978515625,3326.8019205,1.487829745367385,0.0500596896503027,0.5025000634607538,0.5165213942527771,0.3469159305095673,5.578594207763672,-0.9189287424087524,-0.5275828838348389,-1.06680965423584,XArbitraryZVertical,0.1664636626931434,0.1861401658945423,0.6602850608212466,0.7082834319587152,0.0438530519604682,-0.4816180467605591,-0.8752833604812622,0,0,0,-1,-1,3324.760816791667,walking,2,2022-05-12T10:41:05.608+02:00,2022-05-11T22:15:20.957+02:00,914,0.8930088,0.8266059,1.729005,688.5342,0,0,2022-05-12T10:41:05.608+02:00,674037665.6075398,0,-3.41,100.9478,1,0.94
279,2022-05-12T10:41:07.665+02:00,1652344861.640396,53.22876975701092,10.39802456520569,39.52603,-1.0,-1.0,-1.0,-1.0,24.86264991760254,36.0,-9999,3326.8169135,-0.9139251708984376,-1.260513305664062,-1.838790893554688,3326.8119155,1.549215244856418,0.0254710943183831,0.5121782432613841,0.9748238921165466,0.696011483669281,5.225763320922852,-0.9161663055419922,-0.6154525279998779,-1.007906675338745,XArbitraryZVertical,0.1724001335007637,0.1859570528634477,0.6788763025290572,0.6890756384751724,0.0222002193331718,-0.4900771379470825,-0.8713963627815247,0,0,0,-1,-1,3324.760816791667,walking,2,2022-05-12T10:41:05.608+02:00,2022-05-11T22:15:20.957+02:00,914,0.8930088,0.8266059,1.729005,688.5342,0,0,2022-05-12T10:41:05.608+02:00,674037665.6075398,0,-3.41,100.9478,1,0.94
280,2022-05-12T10:41:07.675+02:00,1652344861.640396,53.22876975701092,10.39802456520569,39.52603,-1.0,-1.0,-1.0,-1.0,24.86264991760254,36.0,-9999,3326.8269085,-0.92236328125,-1.371841430664062,-1.753662109375,3326.8219105,1.60762709412331,0.0048532293263766,0.523268186963207,1.048315405845642,0.9541575908660888,4.96727991104126,-0.9181283712387084,-0.7607995271682739,-0.9726104736328124,XArbitraryZVertical,0.1778125606437742,0.1878628811252323,0.6959384470982556,0.6698955072377678,0.0042038052342832,-0.4997136890888214,-0.8661804795265198,0,0,0,-1,-1,3324.760816791667,walking,2,2022-05-12T10:41:05.608+02:00,2022-05-11T22:15:20.957+02:00,914,0.8930088,0.8266059,1.729005,688.5342,0,0,2022-05-12T10:41:05.608+02:00,674037665.6075398,0,-3.41,100.9478,1,0.94
281,2022-05-12T10:41:07.685+02:00,1652344861.640396,53.22876975701092,10.39802456520569,39.52603,-1.0,-1.0,-1.0,-1.0,24.86264991760254,36.0,-9999,3326.8369035,-0.9041748046875,-1.370269775390625,-1.675094604492188,3326.8319055,1.663713209745866,-0.0129024137520467,0.5325880419380037,0.8409192562103271,1.13763689994812,4.722707271575928,-0.9112476110458374,-0.8640767335891724,-0.8922380208969116,XArbitraryZVertical,0.1818348644049563,0.1903260724051304,0.7119706950848969,0.6510067671105625,-0.0111150676384568,-0.5077646374702454,-0.8614241480827332,0,0,0,-1,-1,3324.760816791667,walking,2,2022-05-12T10:41:05.608+02:00,2022-05-11T22:15:20.957+02:00,914,0.8930088,0.8266059,1.729005,688.5342,0,0,2022-05-12T10:41:05.608+02:00,674037665.6075398,0,-3.41,100.9478,1,0.94
282,2022-05-12T10:41:07.695+02:00,1652344861.640396,53.22876975701092,10.39802456520569,39.52603,-1.0,-1.0,-1.0,-1.0,24.86264991760254,36.0,-9999,3326.8468985,-0.8438262939453125,-1.303268432617188,-1.562362670898438,3326.8419005,1.717392501483764,-0.0285047432745794,0.538560968255051,0.5426755547523499,1.214651584625244,4.490309238433838,-0.8797076940536499,-0.857368528842926,-0.8169957399368286,XArbitraryZVertical,0.1842179231333755,0.1923909896755786,0.7271596805948987,0.632683412533049,-0.0244665164500474,-0.5129011869430542,-0.8580989241600037,0,0,0,-1,-1,3324.760816791667,walking,2,2022-05-12T10:41:05.608+02:00,2022-05-11T22:15:20.957+02:00,914,0.8930088,0.8266059,1.729005,688.5342,0,0,2022-05-12T10:41:05.608+02:00,674037665.6075398,0,-3.41,100.9478,1,0.94
283,2022-05-12T10:41:07.705+02:00,1652344861.640396,53.22876975701092,10.39802456520569,39.52603,-1.0,-1.0,-1.0,-1.0,24.86264991760254,36.0,-9999,3326.8568935,-0.8010711669921875,-1.167587280273438,-1.462188720703125,3326.8518955,1.768414463943683,-0.0425245801135,0.5411786359777575,0.3144513964653015,1.221728205680847,4.236527919769287,-0.8073887825012207,-0.7881218791007996,-0.7060354351997375,XArbitraryZVertical,0.1852484951393866,0.1936991380967932,0.7415000465645427,0.6150946613814995,-0.0364369228482246,-0.5151465535163879,-0.8563272953033447,0,0,0,-1,-1,3324.760816791667,walking,2,2022-05-12T10:41:05.608+02:00,2022-05-11T22:15:20.957+02:00,914,0.8930088,0.8266059,1.729005,688.5342,0,0,2022-05-12T10:41:05.608+02:00,674037665.6075398,0,-3.41,100.9478,1,0.94
284,2022-05-12T10:41:07.715+02:00,1652344861.640396,53.22876975701092,10.39802456520569,39.52603,-1.0,-1.0,-1.0,-1.0,24.86264991760254,36.0,-9999,3326.8668885,-0.77276611328125,-1.038055419921875,-1.379974365234375,3326.8618905,1.816553503197399,-0.0552138025717355,0.5418979925975718,0.2558085918426514,1.200611472129822,3.998388767242432,-0.7537911534309387,-0.6518242955207825,-0.6067629456520081,XArbitraryZVertical,0.1855374691377686,0.1945840913039328,0.7548465374222654,0.5982638850895214,-0.0472793616354465,-0.515762984752655,-0.8554257750511169,0,0,0,-1,-1,3324.760816791667,walking,2,2022-05-12T10:41:05.608+02:00,2022-05-11T22:15:20.957+02:00,914,0.8930088,0.8266059,1.729005,688.5342,0,0,2022-05-12T10:41:05.608+02:00,674037665.6075398,0,-3.41,100.9478,1,0.94
285,2022-05-12T10:41:07.725+02:00,1652344861.640396,53.22876975701092,10.39802456520569,39.52603,-1.0,-1.0,-1.0,-1.0,24.86264991760254,36.0,-9999,3326.8768835,-0.76971435546875,-0.9735565185546876,-1.312225341796875,3326.8718855,1.86201223841414,-0.0667180847574216,0.5422722112842728,0.2992461323738098,1.19393265247345,3.785224676132202,-0.7156612873077393,-0.5219719409942627,-0.5253417491912842,XArbitraryZVertical,0.1855894365618335,0.1955511543324788,0.7671505697788533,0.5820622206783447,-0.0571042075753212,-0.5160835385322571,-0.8546326160430908,0,0,0,-1,-1,3324.760816791667,walking,2,2022-05-12T10:41:05.608+02:00,2022-05-11T22:15:20.957+02:00,914,0.8930088,0.8266059,1.729005,688.5342,0,0,2022-05-12T10:41:05.608+02:00,674037665.6075398,0,-3.41,100.9478,1,0.94
286,2022-05-12T10:41:07.735+02:00,1652344861.640396,53.22876975701092,10.39802456520569,39.52603,-1.0,-1.0,-1.0,-1.0,24.86264991760254,36.0,-9999,3326.8868785,-0.7811279296875,-0.9252471923828124,-1.232818603515625,3326.8818805,1.90560133427712,-0.077381289719154,0.54298103030369,0.3742729723453522,1.177759885787964,3.653295755386353,-0.703528106212616,-0.4568660259246826,-0.4586151838302612,XArbitraryZVertical,0.1856326443931755,0.1968131852005258,0.778590528678878,0.5662172077761032,-0.0661856159567832,-0.5166905522346497,-0.8536101579666138,0,0,0,-1,-1,3324.760816791667,walking,2,2022-05-12T10:41:05.608+02:00,2022-05-11T22:15:20.957+02:00,914,0.8930088,0.8266059,1.729005,688.5342,0,0,2022-05-12T10:41:05.608+02:00,674037665.6075398,0,-3.41,100.9478,1,0.94
287,2022-05-12T10:41:07.745+02:00,1652344861.640396,53.22876975701092,10.39802456520569,39.52603,-1.0,-1.0,-1.0,-1.0,24.86264991760254,36.0,-9999,3326.8968735,-0.8023834228515625,-0.8434295654296875,-1.151016235351562,3326.8918755,1.947783498591865,-0.0875836621464501,0.5439824146632106,0.413811057806015,1.14972448348999,3.536459922790527,-0.7062817811965942,-0.4076996445655823,-0.3804439306259155,XArbitraryZVertical,0.1857360292909264,0.1982795729321198,0.7892998647359815,0.5506297777743475,-0.0748455747961998,-0.5175476670265198,-0.8523746728897095,0,0,0,-1,-1,3324.760816791667,walking,2,2022-05-12T10:41:05.608+02:00,2022-05-11T22:15:20.957+02:00,914,0.8930088,0.8266059,1.729005,688.5342,0,0,2022-05-12T10:41:05.608+02:00,674037665.6075398,0,-3.41,100.9478,1,0.94
288,2022-05-12T10:41:07.755+02:00,1652344861.640396,53.22876975701092,10.39802456520569,39.52603,-1.0,-1.0,-1.0,-1.0,24.86264991760254,36.0,-9999,3326.9068685,-0.8324737548828125,-0.7518310546875,-1.0633544921875,3326.9018715,1.988832970110278,-0.0973070038707506,0.5450680111087848,0.4595854580402374,1.162605047225952,3.444486141204834,-0.7193076014518738,-0.3249534368515015,-0.2999692559242249,XArbitraryZVertical,0.1857954793603219,0.1998913343291281,0.7994058310152845,0.5352327507676394,-0.0830752030014991,-0.5184762477874756,-0.8510469794273376,0,0,0,-1,-1,3324.760816791667,walking,2,2022-05-12T10:41:05.608+02:00,2022-05-11T22:15:20.957+02:00,914,0.8930088,0.8266059,1.729005,688.5342,0,0,2022-05-12T10:41:05.608+02:00,674037665.6075398,0,-3.41,100.9478,1,0.94
289,2022-05-12T10:41:07.765+02:00,1652344861.640396,53.22876975701092,10.39802456520569,39.52603,-1.0,-1.0,-1.0,-1.0,24.86264991760254,36.0,-9999,3326.9168635,-0.8511505126953125,-0.7088165283203125,-0.9907684326171876,3326.9118655,2.029219554713577,-0.1065946229328668,0.5464254335629155,0.513286292552948,1.177249073982239,3.398490428924561,-0.741572380065918,-0.232194721698761,-0.2138163447380066,XArbitraryZVertical,0.1858174574405736,0.2017493505853149,0.8090241128124961,0.5198551160947351,-0.0909007415175437,-0.5196365118026733,-0.8495381474494934,0,0,0,-1,-1,3324.760816791667,walking,2,2022-05-12T10:41:05.608+02:00,2022-05-11T22:15:20.957+02:00,914,0.8930088,0.8266059,1.729005,688.5342,0,0,2022-05-12T10:41:05.608+02:00,674037665.6075398,0,-3.41,100.9478,1,0.94
290,2022-05-12T10:41:07.775+02:00,1652344861.640396,53.22876975701092,10.39802456520569,39.52603,-1.0,-1.0,-1.0,-1.0,24.86264991760254,36.0,-9999,3326.9268585,-0.8699188232421875,-0.6695404052734375,-0.9048614501953124,3326.9218605,2.069185710190307,-0.1154020657337082,0.547797141291401,0.511787474155426,1.222815752029419,3.360212087631226,-0.7528526782989502,-0.188008725643158,-0.1427726745605469,XArbitraryZVertical,0.1856826384080505,0.2037746255877471,0.8182633662799024,0.5044234361492762,-0.0982972085475921,-0.5208079814910889,-0.8479956984519958,0,0,0,-1,-1,3324.760816791667,walking,2,2022-05-12T10:41:05.608+02:00,2022-05-11T22:15:20.957+02:00,914,0.8930088,0.8266059,1.729005,688.5342,0,0,2022-05-12T10:41:05.608+02:00,674037665.6075398,0,-3.41,100.9478,1,0.94
291,2022-05-12T10:41:07.785+02:00,1652344861.640396,53.22876975701092,10.39802456520569,39.52603,-1.0,-1.0,-1.0,-1.0,24.86264991760254,36.0,-9999,3326.9368535,-0.8885345458984375,-0.625701904296875,-0.8273468017578125,3326.9318555,2.108614525169251,-0.1233255101623427,0.5486731292604228,0.4651690423488617,1.305394172668457,3.298755884170532,-0.764961302280426,-0.1479849815368652,-0.0581241846084594,XArbitraryZVertical,0.1851100518175578,0.2058292073100231,0.8272063839642684,0.4889769867650673,-0.1049569398164749,-0.5215556025505066,-0.8467372059822083,0,0,0,-1,-1,3324.760816791667,walking,2,2022-05-12T10:41:05.608+02:00,2022-05-11T22:15:20.957+02:00,914,0.8930088,0.8266059,1.729005,688.5342,0,0,2022-05-12T10:41:05.608+02:00,674037665.6075398,0,-3.41,100.9478,1,0.94
292,2022-05-12T10:41:07.795+02:00,1652344861.640396,53.22876975701092,10.39802456520569,39.52603,-1.0,-1.0,-1.0,-1.0,24.86264991760254,36.0,-9999,3326.9468485,-0.8848419189453125,-0.5922393798828125,-0.774383544921875,3326.9418515,2.147171066932924,-0.1297844591524171,0.548986746457869,0.4277183413505554,1.423085451126099,3.22453498840332,-0.778131365776062,-0.1038789749145508,0.0185326337814331,XArbitraryZVertical,0.1838777277344519,0.2079646293899083,0.8358475070654562,0.4736019564441785,-0.1104025691747665,-0.5218231081962585,-0.8458793759346008,0,0,0,-1,-1,3324.760816791667,walking,2,2022-05-12T10:41:05.608+02:00,2022-05-11T22:15:20.957+02:00,914,0.8930088,0.8266059,1.729005,688.5342,0,0,2022-05-12T10:41:05.608+02:00,674037665.6075398,0,-3.41,100.9478,1,0.94
293,2022-05-12T10:41:07.805+02:00,1652344861.640396,53.22876975701092,10.39802456520569,39.52603,-1.0,-1.0,-1.0,-1.0,24.86264991760254,36.0,-9999,3326.9568435,-0.861785888671875,-0.6028900146484375,-0.7826690673828125,3326.9518465,2.18472398136053,-0.1348250820459806,0.5488473212198003,0.3875602185726166,1.477912783622742,3.145403385162354,-0.7701666355133057,-0.0705354213714599,0.0710006952285766,XArbitraryZVertical,0.1820390725527644,0.2101657843125912,0.8441548497845018,0.4583611102564014,-0.1146746873855591,-0.5217041969299316,-0.8453842401504517,0,0,0,-1,-1,3324.760816791667,walking,2,2022-05-12T10:41:05.608+02:00,2022-05-11T22:15:20.957+02:00,914,0.8930088,0.8266059,1.729005,688.5342,0,0,2022-05-12T10:41:05.608+02:00,674037665.6075398,0,-3.41,100.9478,1,0.94
294,2022-05-12T10:41:07.815+02:00,1652344861.640396,53.22876975701092,10.39802456520569,39.52603,-1.0,-1.0,-1.0,-1.0,24.86264991760254,36.0,-9999,3326.9668385,-0.839324951171875,-0.622528076171875,-0.77520751953125,3326.9618415,2.22133835872443,-0.1390901968071192,0.5481437745048234,0.3067114353179932,1.498108863830566,3.071718454360962,-0.743455171585083,-0.0817863941192627,0.0625816583633422,XArbitraryZVertical,0.1798345557034413,0.2122125623650304,0.8521179240056217,0.4433063345460866,-0.1183301508426666,-0.5211038589477539,-0.8452507257461548,0,0,0,-1,-1,3324.760816791667,walking,2,2022-05-12T10:41:05.608+02:00,2022-05-11T22:15:20.957+02:00,914,0.8930088,0.8266059,1.729005,688.5342,0,0,2022-05-12T10:41:05.608+02:00,674037665.6075398,0,-3.41,100.9478,1,0.94
295,2022-05-12T10:41:07.825+02:00,1652344861.640396,53.22876975701092,10.39802456520569,39.52603,-1.0,-1.0,-1.0,-1.0,24.86264991760254,36.0,-9999,3326.9768335,-0.80828857421875,-0.6417388916015625,-0.786590576171875,3326.9718355,2.256929499169183,-0.1424644218328744,0.5463634862686596,0.2016350477933884,1.535678148269653,2.997687578201294,-0.7180113196372986,-0.1029447913169861,0.0705561637878418,XArbitraryZVertical,0.1771298380322289,0.2138766124259493,0.859816244337952,0.4284834022284875,-0.121313065290451,-0.5195835828781128,-0.845763623714447,0,0,0,-1,-1,3324.760816791667,walking,2,2022-05-12T10:41:05.608+02:00,2022-05-11T22:15:20.957+02:00,914,0.8930088,0.8266059,1.729005,688.5342,0,0,2022-05-12T10:41:05.608+02:00,674037665.6075398,0,-3.41,100.9478,1,0.94
296,2022-05-12T10:41:07.835+02:00,1652344861.640396,53.22876975701092,10.39802456520569,39.52603,-1.0,-1.0,-1.0,-1.0,24.86264991760254,36.0,-9999,3326.9868285,-0.757232666015625,-0.6759796142578125,-0.7822723388671875,3326.9818315,2.29147583850215,-0.1448107883418251,0.5436148826031445,0.10114386677742,1.579860687255859,2.929502248764038,-0.6847851872444153,-0.1245060563087463,0.0602961182594299,XArbitraryZVertical,0.1739063953819079,0.2152051107876599,0.8672604201909152,0.4138875742803238,-0.1235028281807899,-0.51723313331604,-0.8468866348266602,0,0,0,-1,-1,3324.760816791667,walking,2,2022-05-12T10:41:05.608+02:00,2022-05-11T22:15:20.957+02:00,914,0.8930088,0.8266059,1.729005,688.5342,0,0,2022-05-12T10:41:05.608+02:00,674037665.6075398,0,-3.41,100.9478,1,0.94
297,2022-05-12T10:41:07.845+02:00,1652344861.640396,53.22876975701092,10.39802456520569,39.52603,-1.0,-1.0,-1.0,-1.0,24.86264991760254,36.0,-9999,3326.9968235,-0.6753387451171875,-0.7091064453125,-0.768585205078125,3326.9918265,2.324946304086713,-0.1461737420744949,0.5397856723674611,-0.0210231561213731,1.603442549705505,2.858802556991577,-0.6322875618934631,-0.1620277166366577,0.0663985610008239,XArbitraryZVertical,0.1701800863552208,0.2161095750301417,0.8744712546954988,0.3995441817857099,-0.1249445378780365,-0.5139521360397339,-0.8486707806587219,0,0,0,-1,-1,3324.760816791667,walking,2,2022-05-12T10:41:05.608+02:00,2022-05-11T22:15:20.957+02:00,914,0.8930088,0.8266059,1.729005,688.5342,0,0,2022-05-12T10:41:05.608+02:00,674037665.6075398,0,-3.41,100.9478,1,0.94
298,2022-05-12T10:41:07.855+02:00,1652344861.640396,53.22876975701092,10.39802456520569,39.52603,-1.0,-1.0,-1.0,-1.0,24.86264991760254,36.0,-9999,3327.0068185,-0.5802764892578125,-0.716094970703125,-0.741607666015625,3327.0018215,2.357309064559582,-0.1467228062612158,0.5348692813196656,-0.1460223495960236,1.585984230041504,2.782477140426636,-0.5495598316192627,-0.1993781328201294,0.0825062990188598,XArbitraryZVertical,0.1660437031839945,0.2165265897621429,0.8814436830815607,0.3854906567014434,-0.125778391957283,-0.5097286105155945,-0.8510914444923401,0,0,0,-1,-1,3324.760816791667,walking,2,2022-05-12T10:41:05.608+02:00,2022-05-11T22:15:20.957+02:00,914,0.8930088,0.8266059,1.729005,688.5342,0,0,2022-05-12T10:41:05.608+02:00,674037665.6075398,0,-3.41,100.9478,1,0.94
299,2022-05-12T10:41:07.865+02:00,1652344861.640396,53.22876975701092,10.39802456520569,39.52603,-1.0,-1.0,-1.0,-1.0,24.86264991760254,36.0,-9999,3327.0168135,-0.498291015625,-0.763824462890625,-0.7265777587890625,3327.0118165,2.388090304200508,-0.1469706281504131,0.528815315920373,-0.2804442048072815,1.484424233436584,2.643295764923096,-0.4538370370864868,-0.2115843892097473,0.112489640712738,XArbitraryZVertical,0.1617843539862935,0.2162804377723744,0.8880682829015557,0.37199900957816,-0.1264388859272003,-0.5045108199119568,-0.8540971875190735,0,0,0,-1,-1,3324.760816791667,walking,2,2022-05-12T10:41:05.608+02:00,2022-05-11T22:15:20.957+02:00,914,0.8930088,0.8266059,1.729005,688.5342,0,0,2022-05-12T10:41:05.608+02:00,674037665.6075398,0,-3.41,100.9478,1,0.94
300,2022-05-12T10:41:07.875+02:00,1652344861.640396,53.22876975701092,10.39802456520569,39.52603,-1.0,-1.0,-1.0,-1.0,24.86264991760254,36.0,-9999,3327.0268085,-0.438201904296875,-0.7952117919921875,-0.703704833984375,3327.0218105,2.417050406584584,-0.1473838441252323,0.5213114031900512,-0.4618267714977264,1.33175003528595,2.543666839599609,-0.3709462881088257,-0.265807032585144,0.131187915802002,XArbitraryZVertical,0.157606716819125,0.2151216525188123,0.8943314717258677,0.3592411706406586,-0.1273441910743713,-0.4980177581310272,-0.8577656149864197,0,0,0,-1,-1,3324.760816791667,walking,2,2022-05-12T10:41:05.608+02:00,2022-05-11T22:15:20.957+02:00,914,0.8930088,0.8266059,1.729005,688.5342,0,0,2022-05-12T10:41:05.608+02:00,674037665.6075398,0,-3.41,100.9478,1,0.94
301,2022-05-12T10:41:07.885+02:00,1652344861.640396,53.22876975701092,10.39802456520569,39.52603,-1.0,-1.0,-1.0,-1.0,24.86264991760254,36.0,-9999,3327.0368035,-0.4241485595703125,-0.77642822265625,-0.6882476806640625,3327.0318065,2.444709085114182,-0.1486136317536386,0.5123409328214161,-0.6044430732727051,1.161218762397766,2.4703688621521,-0.3091461062431335,-0.3049931824207306,0.1582872271537781,XArbitraryZVertical,0.1537731448437346,0.2129738022707708,0.9003028015360496,0.3470603469639978,-0.1290552616119385,-0.4902189373970032,-0.8619919419288635,0,0,0,-1,-1,3324.760816791667,walking,2,2022-05-12T10:41:05.608+02:00,2022-05-11T22:15:20.957+02:00,914,0.8930088,0.8266059,1.729005,688.5342,0,0,2022-05-12T10:41:05.608+02:00,674037665.6075398,0,-3.41,100.9478,1,0.94
302,2022-05-12T10:41:07.895+02:00,1652344861.640396,53.22876975701092,10.39802456520569,39.52603,-1.0,-1.0,-1.0,-1.0,24.86264991760254,36.0,-9999,3327.0467985,-0.417877197265625,-0.7352294921875,-0.6690673828125,3327.0418015,2.470662329023893,-0.150253493775014,0.5022365423057317,-0.6980547904968262,1.02949857711792,2.323242425918579,-0.292944610118866,-0.2950415015220642,0.1783850789070129,XArbitraryZVertical,0.1502227432093297,0.2100400021389039,0.9059210045656138,0.3355942875062924,-0.1312034279108047,-0.4813870787620544,-0.8666326403617859,0,0,0,-1,-1,3324.760816791667,walking,2,2022-05-12T10:41:05.608+02:00,2022-05-11T22:15:20.957+02:00,914,0.8930088,0.8266059,1.729005,688.5342,0,0,2022-05-12T10:41:05.608+02:00,674037665.6075398,0,-3.41,100.9478,1,0.94
303,2022-05-12T10:41:07.905+02:00,1652344861.640396,53.22876975701092,10.39802456520569,39.52603,-1.0,-1.0,-1.0,-1.0,24.86264991760254,36.0,-9999,3327.0567935,-0.4572296142578125,-0.6279449462890625,-0.6913604736328125,3327.0517965,2.495013672548541,-0.1522480174963918,0.4923117893602792,-0.5938892364501953,0.916623592376709,2.208479166030884,-0.2842269837856293,-0.2625654637813568,0.2019816040992737,XArbitraryZVertical,0.1471261479602525,0.2069527988028118,0.9110628755981812,0.3247905753476453,-0.1336497068405151,-0.4726643860340118,-0.8710488677024841,0,0,0,-1,-1,3324.760816791667,walking,2,2022-05-12T10:41:05.608+02:00,2022-05-11T22:15:20.957+02:00,914,0.8930088,0.8266059,1.729005,688.5342,0,0,2022-05-12T10:41:05.608+02:00,674037665.6075398,0,-3.41,100.9478,1,0.94
304,2022-05-12T10:41:07.915+02:00,1652344861.640396,53.22876975701092,10.39802456520569,39.52603,-1.0,-1.0,-1.0,-1.0,24.86264991760254,36.0,-9999,3327.0667885,-0.498321533203125,-0.5968017578125,-0.6686859130859375,3327.0617905,2.517926215063196,-0.1538238765064383,0.4840329372649197,-0.4163269698619843,0.9094117283821106,2.050739765167236,-0.3216120004653931,-0.162592738866806,0.1833138465881348,XArbitraryZVertical,0.1443107831940035,0.2045416580773273,0.9156536045413808,0.314508695749641,-0.1356171220541,-0.4653525948524475,-0.8746742010116577,0,0,0,-1,-1,3324.760816791667,walking,2,2022-05-12T10:41:05.608+02:00,2022-05-11T22:15:20.957+02:00,914,0.8930088,0.8266059,1.729005,688.5342,0,0,2022-05-12T10:41:05.608+02:00,674037665.6075398,0,-3.41,100.9478,1,0.94
