,loggingTime(txt),locationTimestamp_since1970(s),locationLatitude(WGS84),locationLongitude(WGS84),locationAltitude(m),locationSpeed(m/s),locationSpeedAccuracy(m/s),locationCourse(°),locationCourseAccuracy(°),locationVerticalAccuracy(m),locationHorizontalAccuracy(m),locationFloor(Z),accelerometerTimestamp_sinceReboot(s),accelerometerAccelerationX(G),accelerometerAccelerationY(G),accelerometerAccelerationZ(G),motionTimestamp_sinceReboot(s),motionYaw(rad),motionRoll(rad),motionPitch(rad),motionRotationRateX(rad/s),motionRotationRateY(rad/s),motionRotationRateZ(rad/s),motionUserAccelerationX(G),motionUserAccelerationY(G),motionUserAccelerationZ(G),motionAttitudeReferenceFrame(txt),motionQuaternionX(R),motionQuaternionY(R),motionQuaternionZ(R),motionQuaternionW(R),motionGravityX(G),motionGravityY(G),motionGravityZ(G),motionMagneticFieldX(µT),motionMagneticFieldY(µT),motionMagneticFieldZ(µT),motionHeading(°),motionMagneticFieldCalibrationAccuracy(Z),activityTimestamp_sinceReboot(s),activity(txt),activityActivityConfidence(Z),activityActivityStartDate(txt),pedometerStartDate(txt),pedometerNumberofSteps(N),pedometerAverageActivePace(s/m),pedometerCurrentPace(s/m),pedometerCurrentCadence(steps/s),pedometerDistance(m),pedometerFloorAscended(N),pedometerFloorDescended(N),pedometerEndDate(txt),altimeterTimestamp_sinceReboot(s),altimeterReset(bool),altimeterRelativeAltitude(m),altimeterPressure(kPa),batteryState(N),batteryLevel(R)
243,2022-05-12T10:44:33.169+02:00,1652345070.402758,53.22884337515871,10.39840442129448,41.77914,0.21,1.32,317.109375,5.51573463216943,64.0,30.0,-9999,3487.15747925,0.4264984130859375,0.747039794921875,1.5308837890625,3487.15248225,-2.594554079687405,2.022942218011626,-0.1036421520847111,-2.730491876602173,5.275288105010986,0.8729854226112366,-0.3691415786743164,0.5427371263504028,1.014132261276245,XArbitraryZVertical,0.8075846139385741,0.255114297266276,-0.5220632133412734,0.1008655154003837,0.894684910774231,0.1034567058086395,0.4345524311065674,0,0,0,-1,-1,3486.65228225,unknown,2,2022-05-12T10:44:32.662+02:00,2022-05-11T22:15:20.957+02:00,1143,0.8977532,0.7616392,1.735548,854.7967,0,0,2022-05-12T10:44:32.662+02:00,674037872.6622576,0,-3.630001,100.9514,1,0.93
244,2022-05-12T10:44:33.179+02:00,1652345070.402758,53.22884337515871,10.39840442129448,41.77914,0.21,1.32,317.109375,5.51573463216943,64.0,30.0,-9999,3487.16747525,0.3893890380859375,0.69476318359375,1.710540771484375,3487.16247725,-2.574158309013126,2.079168421976691,-0.0829786413776013,-2.774080276489258,5.617875576019287,0.9048352241516112,-0.4440339803695679,0.6641557216644287,1.045802712440491,XArbitraryZVertical,0.8211305145697876,0.2613144513284269,-0.4959186992444517,0.1073507759071927,0.8705325722694397,0.0828834474086761,0.4850811362266541,0,0,0,-1,-1,3486.65228225,unknown,2,2022-05-12T10:44:32.662+02:00,2022-05-11T22:15:20.957+02:00,1143,0.8977532,0.7616392,1.735548,854.7967,0,0,2022-05-12T10:44:32.662+02:00,674037872.6622576,0,-3.630001,100.9514,1,0.93
245,2022-05-12T10:44:33.189+02:00,1652345070.402758,53.22884337515871,10.39840442129448,41.77914,0.21,1.32,317.109375,5.51573463216943,64.0,30.0,-9999,3487.17747025,0.29351806640625,0.67095947265625,2.020309448242188,3487.17247225,-2.554401499584391,2.138932917491989,-0.0609645008954798,-2.893357038497925,6.063374042510986,0.8446587324142456,-0.4519501328468323,0.6338358521461487,1.173478007316589,XArbitraryZVertical,0.8347905506707076,0.2676866001726395,-0.4675484455922984,0.1134333418887849,0.8413392305374146,0.0609267428517341,0.5370627641677856,0,0,0,-1,-1,3486.65228225,unknown,2,2022-05-12T10:44:32.662+02:00,2022-05-11T22:15:20.957+02:00,1143,0.8977532,0.7616392,1.735548,854.7967,0,0,2022-05-12T10:44:32.662+02:00,674037872.6622576,0,-3.630001,100.9514,1,0.93
246,2022-05-12T10:44:33.199+02:00,1652345070.402758,53.22884337515871,10.39840442129448,41.77914,0.21,1.32,317.109375,5.51573463216943,64.0,30.0,-9999,3487.18746525,0.18756103515625,0.74517822265625,2.373214721679688,3487.18246725,-2.53415453947748,2.203074551939044,-0.0376078150348578,-3.073230504989624,6.587368011474609,0.7206200957298279,-0.5125946998596191,0.6333599090576172,1.42974317073822,XArbitraryZVertical,0.8483884465247797,0.2748094081393102,-0.4364668489033625,0.1192210025337557,0.8061129450798035,0.0375989489257335,0.5905663371086121,0,0,0,-1,-1,3486.65228225,unknown,2,2022-05-12T10:44:32.662+02:00,2022-05-11T22:15:20.957+02:00,1143,0.8977532,0.7616392,1.735548,854.7967,0,0,2022-05-12T10:44:32.662+02:00,674037872.6622576,0,-3.630001,100.9514,1,0.93
247,2022-05-12T10:44:33.209+02:00,1652345070.402758,53.22884337515871,10.39840442129448,41.77914,0.21,1.32,317.109375,5.51573463216943,64.0,30.0,-9999,3487.19746025,0.1457672119140625,0.7097320556640625,2.78790283203125,3487.19246325,-2.513266857927077,2.272971260488078,-0.0133804910464702,-3.228481531143188,7.319398880004883,0.4787614345550537,-0.5758098363876343,0.7317975759506226,1.727392792701721,XArbitraryZVertical,0.8618704847941334,0.2830022050665505,-0.4020566034541342,0.1242563254429461,0.7633710503578186,0.0133800916373729,0.6458219885826111,0,0,0,-1,-1,3486.65228225,unknown,2,2022-05-12T10:44:32.662+02:00,2022-05-11T22:15:20.957+02:00,1143,0.8977532,0.7616392,1.735548,854.7967,0,0,2022-05-12T10:44:32.662+02:00,674037872.6622576,0,-3.630001,100.9514,1,0.93
248,2022-05-12T10:44:33.219+02:00,1652345070.402758,53.22884337515871,10.39840442129448,41.77914,0.21,1.32,317.109375,5.51573463216943,64.0,30.0,-9999,3487.20745525,-0.0203399658203125,0.712005615234375,3.253768920898438,3487.20245825,-2.490340748216977,2.350452617152043,0.0114454108764139,-3.55504298210144,8.185142517089844,0.0780885070562362,-0.5653413534164429,0.7211766242980957,2.084913730621338,XArbitraryZVertical,0.8749768726071677,0.2931040646066723,-0.3633899150364581,0.1282704093601671,0.7111086845397949,-0.0114451609551906,0.7029890418052673,0,0,0,-1,-1,3486.65228225,unknown,2,2022-05-12T10:44:32.662+02:00,2022-05-11T22:15:20.957+02:00,1143,0.8977532,0.7616392,1.735548,854.7967,0,0,2022-05-12T10:44:32.662+02:00,674037872.6622576,0,-3.630001,100.9514,1,0.93
249,2022-05-12T10:44:33.229+02:00,1652345070.402758,53.22884337515871,10.39840442129448,41.77914,0.21,1.32,317.109375,5.51573463216943,64.0,30.0,-9999,3487.21745125,-0.2556915283203125,0.743133544921875,3.705947875976562,3487.21245325,-2.463415730990401,2.43589786975568,0.0380832836888481,-4.028096199035645,9.03597354888916,-0.4188504219055176,-0.6684324741363525,0.7500790953636169,2.493159532546997,XArbitraryZVertical,0.8869870763979123,0.3058735444943649,-0.3198915176128497,0.1317757550659751,0.6480927467346191,-0.03807407990098,0.7606093883514404,0,0,0,-1,-1,3486.65228225,unknown,2,2022-05-12T10:44:32.662+02:00,2022-05-11T22:15:20.957+02:00,1143,0.8977532,0.7616392,1.735548,854.7967,0,0,2022-05-12T10:44:32.662+02:00,674037872.6622576,0,-3.630001,100.9514,1,0.93
250,2022-05-12T10:44:33.239+02:00,1652345070.402758,53.22884337515871,10.39840442129448,41.77914,0.21,1.32,317.109375,5.51573463216943,64.0,30.0,-9999,3487.22744625,-0.5330047607421875,0.691864013671875,4.133209228515625,3487.22244825,-2.430799564992492,2.52855135235669,0.0685708913211691,-4.787149429321289,9.83918571472168,-1.006369948387146,-0.8296968936920166,0.8116500973701477,2.889967918395996,XArbitraryZVertical,0.8968844559459084,0.3218515135177902,-0.2713490357457106,0.1355722923322662,0.5740057826042175,-0.0685171708464622,0.8159802556037903,0,0,0,-1,-1,3486.65228225,unknown,2,2022-05-12T10:44:32.662+02:00,2022-05-11T22:15:20.957+02:00,1143,0.8977532,0.7616392,1.735548,854.7967,0,0,2022-05-12T10:44:32.662+02:00,674037872.6622576,0,-3.630001,100.9514,1,0.93
251,2022-05-12T10:44:33.249+02:00,1652345070.402758,53.22884337515871,10.39840442129448,41.77914,0.21,1.32,317.109375,5.51573463216943,64.0,30.0,-9999,3487.23744125,-0.7679290771484375,0.52105712890625,4.541397094726562,3487.23244325,-2.391994782806304,2.627343695321697,0.1053566042673995,-5.562838554382324,10.59402942657471,-1.596019506454468,-1.022158265113831,0.797025203704834,3.267374277114868,XArbitraryZVertical,0.903642079944936,0.3410990225789339,-0.2176770413513071,0.1403546050833647,0.4891538918018341,-0.1051618009805679,0.8658351302146912,0,0,0,-1,-1,3486.65228225,unknown,2,2022-05-12T10:44:32.662+02:00,2022-05-11T22:15:20.957+02:00,1143,0.8977532,0.7616392,1.735548,854.7967,0,0,2022-05-12T10:44:32.662+02:00,674037872.6622576,0,-3.630001,100.9514,1,0.93
252,2022-05-12T10:44:33.259+02:00,1652345070.402758,53.22884337515871,10.39840442129448,41.77914,0.21,1.32,317.109375,5.51573463216943,64.0,30.0,-9999,3487.24743625,-0.9412078857421876,0.421630859375,4.953170776367188,3487.24243925,-2.348833153484248,2.730947711267564,0.1488571116812179,-5.98578405380249,11.20929336547852,-2.20564866065979,-1.162714958190918,0.6693645119667053,3.63467264175415,XArbitraryZVertical,0.9064417248161392,0.3629402391338628,-0.1594481762920426,0.1456510062610303,0.3947861790657043,-0.1483079791069031,0.906724452972412,0,0,0,-1,-1,3486.65228225,unknown,2,2022-05-12T10:44:32.662+02:00,2022-05-11T22:15:20.957+02:00,1143,0.8977532,0.7616392,1.735548,854.7967,0,0,2022-05-12T10:44:32.662+02:00,674037872.6622576,0,-3.630001,100.9514,1,0.93
253,2022-05-12T10:44:33.289+02:00,1652345070.402758,53.22884337515871,10.39840442129448,41.77914,0.21,1.32,317.109375,5.51573463216943,64.0,30.0,-9999,3487.257432375,-0.9397430419921876,0.2483367919921875,5.420089721679688,3487.25243425,-2.30292764060689,2.837678655239023,0.1964033439928238,-6.039542675018311,11.6862268447876,-2.968989610671997,-1.234711527824402,0.6167734265327454,4.017342090606689,XArbitraryZVertical,0.9045288734414926,0.3869648719074798,-0.098133298590851,0.1498522477627394,0.2935039103031158,-0.1951430886983871,0.9358285665512084,0,0,0,-1,-1,3486.65228225,unknown,2,2022-05-12T10:44:32.662+02:00,2022-05-11T22:15:20.957+02:00,1143,0.8977532,0.7616392,1.735548,854.7967,0,0,2022-05-12T10:44:32.662+02:00,674037872.6622576,0,-3.630001,100.9514,1,0.93
254,2022-05-12T10:44:33.292+02:00,1652345070.999756,53.22884450671564,10.39840425365642,41.82791,0.21,1.53,317.109375,10.4660901105073,64.0,30.0,-9999,3487.267428375,-0.8753814697265625,-0.0875244140625,5.849990844726562,3487.262430375,-2.2543376339978,2.945376903935625,0.2440070935041138,-5.536384582519531,11.94327545166016,-3.938360691070557,-1.128926753997803,0.4899291396141052,4.468332290649414,XArbitraryZVertical,0.897292636818622,0.4132128891042925,-0.0358262340784734,0.1511216419157483,0.1891840547323227,-0.2415929436683655,0.9517579078674316,0,0,0,-1,-1,3486.65228225,unknown,2,2022-05-12T10:44:32.662+02:00,2022-05-11T22:15:20.957+02:00,1143,0.8977532,0.7616392,1.735548,854.7967,0,0,2022-05-12T10:44:32.662+02:00,674037872.6622576,0,-3.630001,100.9514,1,0.93
255,2022-05-12T10:44:33.295+02:00,1652345070.999756,53.22884450671564,10.39840425365642,41.82791,0.21,1.53,317.109375,10.4660901105073,64.0,30.0,-9999,3487.277423375,-0.985107421875,-0.258209228515625,6.1824951171875,3487.272425375,-2.199895390355244,3.04983681239334,0.2880354552698324,-4.648916244506836,11.77180099487305,-5.262800693511963,-0.9632335901260376,0.1965442001819611,4.895220279693604,XArbitraryZVertical,0.8840155149698549,0.4426082208130216,0.0245902860857854,0.1483579369160896,0.0878524929285049,-0.284069150686264,0.9547709226608276,0,0,0,-1,-1,3486.65228225,unknown,2,2022-05-12T10:44:32.662+02:00,2022-05-11T22:15:20.957+02:00,1143,0.8977532,0.7616392,1.735548,854.7967,0,0,2022-05-12T10:44:32.662+02:00,674037872.6622576,0,-3.630001,100.9514,1,0.93
256,2022-05-12T10:44:33.299+02:00,1652345070.999756,53.22884450671564,10.39840425365642,41.82791,0.21,1.53,317.109375,10.4660901105073,64.0,30.0,-9999,3487.287418375,-1.273681640625,-0.4572906494140625,6.679885864257812,3487.282420375,-2.132687832585085,-3.139580973782822,0.3257751927049289,-3.392414569854736,10.94192504882812,-7.296713829040527,-0.9832011461257936,0.0618335902690887,5.23509407043457,XArbitraryZVertical,0.8637719448865838,0.4770730167024341,0.0792493376696427,0.1414886545185819,-0.0019058706238865,-0.3200432956218719,0.9474012851715088,0,0,0,-1,-1,3486.65228225,unknown,2,2022-05-12T10:44:32.662+02:00,2022-05-11T22:15:20.957+02:00,1143,0.8977532,0.7616392,1.735548,854.7967,0,0,2022-05-12T10:44:32.662+02:00,674037872.6622576,0,-3.630001,100.9514,1,0.93
257,2022-05-12T10:44:33.308+02:00,1652345070.999756,53.22884450671564,10.39840425365642,41.82791,0.21,1.53,317.109375,10.4660901105073,64.0,30.0,-9999,3487.297413375,-1.78985595703125,-0.66607666015625,7.263687133789062,3487.292416375,-2.04262730765016,-3.069825121385517,0.3555261918685522,-1.900189638137817,8.929183959960938,-10.00467872619629,-1.206459522247314,-0.109207421541214,5.744835376739502,XArbitraryZVertical,0.835502824624605,0.5190956641705593,0.1224012859742597,0.1322603220844829,-0.0672217234969139,-0.3480837047100067,0.9350505471229552,0,0,0,-1,-1,3486.65228225,unknown,2,2022-05-12T10:44:32.662+02:00,2022-05-11T22:15:20.957+02:00,1143,0.8977532,0.7616392,1.735548,854.7967,0,0,2022-05-12T10:44:32.662+02:00,674037872.6622576,0,-3.630001,100.9514,1,0.93
258,2022-05-12T10:44:33.318+02:00,1652345070.999756,53.22884450671564,10.39840425365642,41.82791,0.21,1.53,317.109375,10.4660901105073,64.0,30.0,-9999,3487.307408375,-2.863265991210938,-0.9575042724609376,7.532608032226562,3487.302411375,-1.920064848861496,-3.038820636973633,0.3784156740916764,-0.5915336012840271,5.996834278106689,-13.24898529052734,-1.694522500038147,-0.2966282665729523,6.339339256286621,XArbitraryZVertical,0.7979879118331896,0.5704291117676202,0.1490472875058002,0.1249435426659466,-0.0953330025076866,-0.3694486916065216,0.9243481755256652,0,0,0,-1,-1,3486.65228225,unknown,2,2022-05-12T10:44:32.662+02:00,2022-05-11T22:15:20.957+02:00,1143,0.8977532,0.7616392,1.735548,854.7967,0,0,2022-05-12T10:44:32.662+02:00,674037872.6622576,0,-3.630001,100.9514,1,0.93
259,2022-05-12T10:44:33.328+02:00,1652345070.999756,53.22884450671564,10.39840425365642,41.82791,0.21,1.53,317.109375,10.4660901105073,64.0,30.0,-9999,3487.317404375,-4.47625732421875,0.122650146484375,7.4556884765625,3487.312406375,-1.758528612972355,-3.057995452199505,0.3931176834553705,0.4916893243789673,2.288212776184082,-16.87144660949707,-2.786134958267212,-0.5744343996047974,6.612114429473877,XArbitraryZVertical,0.7495738872357476,0.631178132133068,0.1560017976729649,0.1241640704546909,-0.0771304592490196,-0.3830701410770416,0.9204937219619752,0,0,0,-1,-1,3486.65228225,unknown,2,2022-05-12T10:44:32.662+02:00,2022-05-11T22:15:20.957+02:00,1143,0.8977532,0.7616392,1.735548,854.7967,0,0,2022-05-12T10:44:32.662+02:00,674037872.6622576,0,-3.630001,100.9514,1,0.93
260,2022-05-12T10:44:33.338+02:00,1652345070.999756,53.22884450671564,10.39840425365642,41.82791,0.21,1.53,317.109375,10.4660901105073,64.0,30.0,-9999,3487.327399375,-6.087127685546875,1.650680541992188,7.292953491210938,3487.322401375,-1.55507339098248,-3.134413092642327,0.3935512879971007,1.041918635368347,-2.027412891387939,-20.60133934020996,-4.469625949859619,0.5061204433441162,6.532158851623535,XArbitraryZVertical,0.6874834951628425,0.6993792287515507,0.1417965385903121,0.1346443390772898,-0.0066306516528129,-0.3834706246852875,0.9235297441482544,0,0,0,-1,-1,3486.65228225,unknown,2,2022-05-12T10:44:32.662+02:00,2022-05-11T22:15:20.957+02:00,1143,0.8977532,0.7616392,1.735548,854.7967,0,0,2022-05-12T10:44:32.662+02:00,674037872.6622576,0,-3.630001,100.9514,1,0.93
261,2022-05-12T10:44:33.349+02:00,1652345070.999756,53.22884450671564,10.39840425365642,41.82791,0.21,1.53,317.109375,10.4660901105073,64.0,30.0,-9999,3487.337394375,-7.342864990234375,2.539535522460938,6.943634033203125,3487.332396375,-1.31671236700061,3.012535574992043,0.3732777784616162,0.275037407875061,-7.480111122131348,-23.61827659606934,-6.206963539123535,2.015349864959717,6.369559764862061,XArbitraryZVertical,0.6094056706220342,0.7683239187470767,0.1077029406318187,0.1634116362935892,0.1198365688323975,-0.3646694421768188,0.9233938455581664,0,0,0,-1,-1,3486.65228225,unknown,2,2022-05-12T10:44:32.662+02:00,2022-05-11T22:15:20.957+02:00,1143,0.8977532,0.7616392,1.735548,854.7967,0,0,2022-05-12T10:44:32.662+02:00,674037872.6622576,0,-3.630001,100.9514,1,0.93
262,2022-05-12T10:44:33.359+02:00,1652345070.999756,53.22884450671564,10.39840425365642,41.82791,0.21,1.53,317.109375,10.4660901105073,64.0,30.0,-9999,3487.347389375,-8.631744384765625,2.486663818359375,6.003677368164062,3487.342392375,-1.061005997632505,2.817503475037736,0.3225934842446406,-0.9589546322822572,-14.05140018463135,-25.46017074584961,-7.644883155822754,2.856562852859497,6.044590950012207,XArbitraryZVertical,0.515206349508688,0.8270937573482354,0.0561383596697803,0.2175477394621347,0.3020190894603729,-0.3170273303985596,0.8990433216094971,0,0,0,-1,-1,3486.65228225,unknown,2,2022-05-12T10:44:32.662+02:00,2022-05-11T22:15:20.957+02:00,1143,0.8977532,0.7616392,1.735548,854.7967,0,0,2022-05-12T10:44:32.662+02:00,674037872.6622576,0,-3.630001,100.9514,1,0.93
263,2022-05-12T10:44:33.369+02:00,1652345070.999756,53.22884450671564,10.39840425365642,41.82791,0.21,1.53,317.109375,10.4660901105073,64.0,30.0,-9999,3487.357384375,-10.00506591796875,2.23187255859375,4.805282592773438,3487.352387375,-0.8182521060330542,2.574350110385152,0.2158200786967951,0.7163670063018799,-21.39491271972656,-25.72174835205078,-9.156587600708008,2.700812578201294,5.179856777191162,XArbitraryZVertical,0.4073441097071227,0.8637018770445833,-0.0158082737460921,0.2963781967858111,0.5248436331748962,-0.2141485512256622,0.8238202929496765,0,0,0,-1,-1,3486.65228225,unknown,2,2022-05-12T10:44:32.662+02:00,2022-05-11T22:15:20.957+02:00,1143,0.8977532,0.7616392,1.735548,854.7967,0,0,2022-05-12T10:44:32.662+02:00,674037872.6622576,0,-3.630001,100.9514,1,0.93
264,2022-05-12T10:44:33.379+02:00,1652345070.999756,53.22884450671564,10.39840425365642,41.82791,0.21,1.53,317.109375,10.4660901105073,64.0,30.0,-9999,3487.367380375,-12.38856506347656,2.355224609375,4.904937744140625,3487.362382375,-0.6572524634529268,2.302916692523273,0.0311655941506876,7.702397346496582,-28.28636360168457,-22.36439323425293,-10.74846363067627,2.263033390045166,4.137158870697021,XArbitraryZVertical,0.3007492534641525,0.8623292432745605,-0.1179202962752955,0.3899141664382947,0.7433976531028748,-0.0311605483293533,0.6681236624717712,0,0,0,-1,-1,3486.65228225,unknown,2,2022-05-12T10:44:32.662+02:00,2022-05-11T22:15:20.957+02:00,1143,0.8977532,0.7616392,1.735548,854.7967,0,0,2022-05-12T10:44:32.662+02:00,674037872.6622576,0,-3.630001,100.9514,1,0.93
265,2022-05-12T10:44:33.388+02:00,1652345070.999756,53.22884450671564,10.39840425365642,41.82791,0.21,1.53,317.109375,10.4660901105073,64.0,30.0,-9999,3487.377375375,-17.34233093261719,4.767578125,7.216033935546875,3487.372377375,-0.6563236482997123,1.984338600034612,-0.1956579996088936,16.82072257995605,-34.28793716430664,-16.02336502075195,-13.28679656982422,2.160812854766846,4.510749340057373,XArbitraryZVertical,0.2179823476015132,0.8059638640759221,-0.2528264779544022,0.4888606591747665,0.8982314467430115,0.1944120228290558,0.3941881060600281,0,0,0,-1,-1,3486.65228225,unknown,2,2022-05-12T10:44:32.662+02:00,2022-05-11T22:15:20.957+02:00,1143,0.8977532,0.7616392,1.735548,854.7967,0,0,2022-05-12T10:44:32.662+02:00,674037872.6622576,0,-3.630001,100.9514,1,0.93
266,2022-05-12T10:44:33.398+02:00,1652345070.999756,53.22884450671564,10.39840425365642,41.82791,0.21,1.53,317.109375,10.4660901105073,64.0,30.0,-9999,3487.387370375,-28.97584533691406,5.877044677734375,8.4658203125,3487.382373375,-0.8306266374134167,1.583991317547339,-0.3653525784152255,23.5853157043457,-35.14041137695312,-10.90499114990234,-18.27624702453613,4.410299777984619,7.203709602355957,XArbitraryZVertical,0.1656422654558646,0.6918992033952219,-0.3970042736167388,0.5798497642863335,0.9339165687561036,0.3572786152362823,0.012323735281825,0,0,0,-1,-1,3486.65228225,unknown,2,2022-05-12T10:44:32.662+02:00,2022-05-11T22:15:20.957+02:00,1143,0.8977532,0.7616392,1.735548,854.7967,0,0,2022-05-12T10:44:32.662+02:00,674037872.6622576,0,-3.630001,100.9514,1,0.93
267,2022-05-12T10:44:33.408+02:00,1652345070.999756,53.22884450671564,10.39840425365642,41.82791,0.21,1.53,317.109375,10.4660901105073,64.0,30.0,-9999,3487.397365375,-32.03155517578125,2.06378173828125,8.180130004882812,3487.392368375,-1.125324485186978,1.120711064421168,-0.3831012513524183,30.37514114379883,-35.13351440429688,-4.356821060180664,-29.81098556518555,5.503245830535889,8.869325637817383,XArbitraryZVertical,0.1419265096473916,0.5273555202005528,-0.5291808850144324,0.6494002378733088,0.8351392149925232,0.3737986981868744,-0.4035060405731201,0,0,0,-1,-1,3486.65228225,unknown,2,2022-05-12T10:44:32.662+02:00,2022-05-11T22:15:20.957+02:00,1143,0.8977532,0.7616392,1.735548,854.7967,0,0,2022-05-12T10:44:32.662+02:00,674037872.6622576,0,-3.630001,100.9514,1,0.93
268,2022-05-12T10:44:33.418+02:00,1652345070.999756,53.22884450671564,10.39840425365642,41.82791,0.21,1.53,317.109375,10.4660901105073,64.0,30.0,-9999,3487.407361375,-31.88674926757812,1.273422241210938,3.459335327148438,3487.402363375,-1.390304929099381,0.7020387592439765,-0.1665829687767532,35.15380477905273,-30.8944091796875,6.143388748168945,-32.66839218139648,1.897968053817749,8.933087348937988,XArbitraryZVertical,0.1594822078094855,0.3131877054542181,-0.6213303545605008,0.7003052729548265,0.6368362903594971,0.1658135950565338,-0.7529577612876892,0,0,0,-1,-1,3486.65228225,unknown,2,2022-05-12T10:44:32.662+02:00,2022-05-11T22:15:20.957+02:00,1143,0.8977532,0.7616392,1.735548,854.7967,0,0,2022-05-12T10:44:32.662+02:00,674037872.6622576,0,-3.630001,100.9514,1,0.93
269,2022-05-12T10:44:33.429+02:00,1652345070.999756,53.22884450671564,10.39840425365642,41.82791,0.21,1.53,317.109375,10.4660901105073,64.0,30.0,-9999,3487.417356375,-29.31462097167969,0.344390869140625,7.122238159179688,3487.412358375,-1.515183000993177,0.4702494788112745,0.1694934851603025,35.06571960449219,-14.29969596862793,8.265607833862305,-32.33336639404297,1.442105174064636,4.338016033172607,XArbitraryZVertical,0.219314661889197,0.1120739422516718,-0.6515420184087785,0.717519012308475,0.4466158151626587,-0.1686831116676331,-0.8786810040473938,0,0,0,-1,-1,3486.65228225,unknown,2,2022-05-12T10:44:32.662+02:00,2022-05-11T22:15:20.957+02:00,1143,0.8977532,0.7616392,1.735548,854.7967,0,0,2022-05-12T10:44:32.662+02:00,674037872.6622576,0,-3.630001,100.9514,1,0.93
270,2022-05-12T10:44:33.439+02:00,1652345070.999756,53.22884450671564,10.39840425365642,41.82791,0.21,1.53,317.109375,10.4660901105073,64.0,30.0,-9999,3487.427351375,-19.76437377929688,-14.56423950195312,9.234725952148438,3487.422353375,-1.580463990097527,0.4620077357851467,0.5283429411163557,34.90412902832031,7.573041439056396,13.43055438995361,-29.69958686828613,0.8484936356544495,7.895336627960205,XArbitraryZVertical,0.3358899227821699,-0.0250726552930472,-0.6255818112227283,0.703702164601935,0.3849658966064453,-0.5041029453277588,-0.7730986475944519,0,0,0,-1,-1,3486.65228225,unknown,2,2022-05-12T10:44:32.662+02:00,2022-05-11T22:15:20.957+02:00,1143,0.8977532,0.7616392,1.735548,854.7967,0,0,2022-05-12T10:44:32.662+02:00,674037872.6622576,0,-3.630001,100.9514,1,0.93
271,2022-05-12T10:44:33.448+02:00,1652345070.999756,53.22884450671564,10.39840425365642,41.82791,0.21,1.53,317.109375,10.4660901105073,64.0,30.0,-9999,3487.437346375,-4.920913696289062,-16.68508911132812,1.636367797851562,3487.432349375,-1.598861333214598,0.5842865916222941,0.9177761227934176,33.25022506713867,12.25187397003174,21.57455062866211,-20.09952354431152,-13.76998710632324,9.7415189743042,XArbitraryZVertical,0.4808304163412785,-0.1241199812271519,-0.5266184314129467,0.6899778195623228,0.3351482450962067,-0.7942523956298828,-0.5067926645278931,0,0,0,-1,-1,3486.65228225,unknown,2,2022-05-12T10:44:32.662+02:00,2022-05-11T22:15:20.957+02:00,1143,0.8977532,0.7616392,1.735548,854.7967,0,0,2022-05-12T10:44:32.662+02:00,674037872.6622576,0,-3.630001,100.9514,1,0.93
272,2022-05-12T10:44:33.458+02:00,1652345070.999756,53.22884450671564,10.39840425365642,41.82791,0.21,1.53,317.109375,10.4660901105073,64.0,30.0,-9999,3487.447341375,0.96246337890625,-12.27922058105469,-3.421966552734375,3487.442344375,-1.549487168308068,0.6528956615510414,1.206667053789641,10.60970592498779,9.2637939453125,14.4271764755249,-5.13726282119751,-15.75065517425537,1.919256448745728,XArbitraryZVertical,0.5687656930898964,-0.1872463022117091,-0.4155856029474063,0.6846408697420588,0.216348722577095,-0.9344342350959778,-0.2828888297080994,0,0,0,-1,-1,3486.65228225,unknown,2,2022-05-12T10:44:32.662+02:00,2022-05-11T22:15:20.957+02:00,1143,0.8977532,0.7616392,1.735548,854.7967,0,0,2022-05-12T10:44:32.662+02:00,674037872.6622576,0,-3.630001,100.9514,1,0.93
273,2022-05-12T10:44:33.468+02:00,1652345070.999756,53.22884450671564,10.39840425365642,41.82791,0.21,1.53,317.109375,10.4660901105073,64.0,30.0,-9999,3487.457337375,-0.9862060546875,-8.013931274414062,-3.005340576171875,3487.452339375,-1.286236498180917,0.4444282810137933,1.277363164061083,-6.734653949737549,-0.4660490453243256,8.143614768981934,0.8381062746047974,-11.32196426391602,-3.160824060440063,XArbitraryZVertical,0.5714312151380648,-0.2071111827039725,-0.3645084411804279,0.7054820769552167,0.1243565455079079,-0.9572564959526062,-0.2611426413059235,0,0,0,-1,-1,3486.65228225,unknown,2,2022-05-12T10:44:32.662+02:00,2022-05-11T22:15:20.957+02:00,1143,0.8977532,0.7616392,1.735548,854.7967,0,0,2022-05-12T10:44:32.662+02:00,674037872.6622576,0,-3.630001,100.9514,1,0.93
274,2022-05-12T10:44:33.479+02:00,1652345070.999756,53.22884450671564,10.39840425365642,41.82791,0.21,1.53,317.109375,10.4660901105073,64.0,30.0,-9999,3487.467332375,-4.872650146484375,-5.331146240234375,-2.041748046875,3487.462334375,-1.004697012112742,0.1658593502616907,1.199063447846028,-12.43155288696289,-1.249282598495483,5.179893493652344,-1.046175956726074,-7.082231998443604,-2.6470947265625,XArbitraryZVertical,0.5257727695183452,-0.2108078899739366,-0.355182593686141,0.7436185072661293,0.0599693767726421,-0.9316993355751038,-0.3582460582256317,0,0,0,-1,-1,3486.65228225,unknown,2,2022-05-12T10:44:32.662+02:00,2022-05-11T22:15:20.957+02:00,1143,0.8977532,0.7616392,1.735548,854.7967,0,0,2022-05-12T10:44:32.662+02:00,674037872.6622576,0,-3.630001,100.9514,1,0.93
275,2022-05-12T10:44:33.488+02:00,1652345070.999756,53.22884450671564,10.39840425365642,41.82791,0.21,1.53,317.109375,10.4660901105073,64.0,30.0,-9999,3487.477327375,-7.101486206054688,-1.149154663085938,-1.033798217773438,3487.472330375,-0.8534185747172557,0.0289458985303619,1.092163130990095,-8.842423439025879,1.759246230125427,5.31992769241333,-4.885980606079102,-4.443521022796631,-1.581374645233154,XArbitraryZVertical,0.4778436993369271,-0.2036629068285587,-0.3468063150199874,0.7809688527489105,0.0133296512067318,-0.8876252770423889,-0.4603736400604248,0,0,0,-1,-1,3486.65228225,unknown,2,2022-05-12T10:44:32.662+02:00,2022-05-11T22:15:20.957+02:00,1143,0.8977532,0.7616392,1.735548,854.7967,0,0,2022-05-12T10:44:32.662+02:00,674037872.6622576,0,-3.630001,100.9514,1,0.93
276,2022-05-12T10:44:33.522+02:00,1652345070.999756,53.22884450671564,10.39840425365642,41.82791,0.21,1.53,317.109375,10.4660901105073,64.0,30.0,-9999,3487.487322375,-6.917129516601562,-0.63787841796875,0.306610107421875,3487.482325375,-0.7290913580660214,-0.0346062205739662,1.047927061511237,-0.296935498714447,7.332511425018311,6.601466178894043,-7.084208965301514,-0.282764732837677,-0.5347290635108948,XArbitraryZVertical,0.4620268444841291,-0.1923447716945655,-0.3167359993298085,0.8057377080985961,-0.0172778032720089,-0.8663899302482605,-0.4990693628787994,0,0,0,-1,-1,3486.65228225,unknown,2,2022-05-12T10:44:32.662+02:00,2022-05-11T22:15:20.957+02:00,1143,0.8977532,0.7616392,1.735548,854.7967,0,0,2022-05-12T10:44:32.662+02:00,674037872.6622576,0,-3.630001,100.9514,1,0.93
277,2022-05-12T10:44:33.552+02:00,1652345070.999756,53.22884450671564,10.39840425365642,41.82791,0.21,1.53,317.109375,10.4660901105073,64.0,30.0,-9999,3487.497318375,-4.96173095703125,-1.489501953125,0.937774658203125,3487.492320375,-0.5907373898755044,-0.0688235302946591,1.058564312625176,2.45355224609375,9.344497680664062,6.996014595031738,-6.883424758911133,0.2337744832038879,0.7955734729766846,XArbitraryZVertical,0.4741178648077584,-0.1753009788331543,-0.2677328530497948,0.8202444069115162,-0.0337054394185543,-0.8716527223587036,-0.4889636337757111,0,0,0,-1,-1,3486.65228225,unknown,2,2022-05-12T10:44:32.662+02:00,2022-05-11T22:15:20.957+02:00,1143,0.8977532,0.7616392,1.735548,854.7967,0,0,2022-05-12T10:44:32.662+02:00,674037872.6622576,0,-3.630001,100.9514,1,0.93
278,2022-05-12T10:44:33.572+02:00,1652345070.999756,53.22884450671564,10.39840425365642,41.82791,0.21,1.53,317.109375,10.4660901105073,64.0,30.0,-9999,3487.507313375,-4.860687255859375,-1.464614868164062,0.47186279296875,3487.502315375,-0.439096572285711,-0.1050733126952916,1.077049939895568,2.302458763122559,9.817852973937988,7.239123344421387,-4.912025928497314,-0.6089383959770203,1.409088850021362,XArbitraryZVertical,0.4900506172645786,-0.1555412831686608,-0.2129918836999926,0.8308381151328685,-0.0497056432068347,-0.880563497543335,-0.4713146090507507,0,0,0,-1,-1,3486.65228225,unknown,2,2022-05-12T10:44:32.662+02:00,2022-05-11T22:15:20.957+02:00,1143,0.8977532,0.7616392,1.735548,854.7967,0,0,2022-05-12T10:44:32.662+02:00,674037872.6622576,0,-3.630001,100.9514,1,0.93
279,2022-05-12T10:44:33.577+02:00,1652345070.999756,53.22884450671564,10.39840425365642,41.82791,0.21,1.53,317.109375,10.4660901105073,64.0,30.0,-9999,3487.517308375,-4.82366943359375,-1.40411376953125,0.2554931640625,3487.512310375,-0.2751740530440691,-0.1556410152690386,1.0862298538411,1.560328483581543,8.992363929748535,7.806306838989258,-4.788478374481201,-0.5797377228736877,0.9320567846298218,XArbitraryZVertical,0.5012436132243158,-0.1365931723836852,-0.1568597611981096,0.8399359242510124,-0.0722091197967529,-0.8848769664764404,-0.4601942896842957,0,0,0,-1,-1,3486.65228225,unknown,2,2022-05-12T10:44:32.662+02:00,2022-05-11T22:15:20.957+02:00,1143,0.8977532,0.7616392,1.735548,854.7967,0,0,2022-05-12T10:44:32.662+02:00,674037872.6622576,0,-3.630001,100.9514,1,0.93
280,2022-05-12T10:44:33.580+02:00,1652345070.999756,53.22884450671564,10.39840425365642,41.82791,0.21,1.53,317.109375,10.4660901105073,64.0,30.0,-9999,3487.527303375,-4.5157470703125,-1.525360107421875,0.424591064453125,3487.522306375,-0.1012511103502378,-0.2227675834633441,1.083231625591458,0.8776037096977234,8.412078857421875,8.172892570495605,-4.720169544219971,-0.5206372737884521,0.7123926877975464,XArbitraryZVertical,0.5068503687529835,-0.1210486357336643,-0.1003212190546301,0.8475764399965784,-0.1035002470016479,-0.8834763765335083,-0.4568998515605927,0,0,0,-1,-1,3486.65228225,unknown,2,2022-05-12T10:44:32.662+02:00,2022-05-11T22:15:20.957+02:00,1143,0.8977532,0.7616392,1.735548,854.7967,0,0,2022-05-12T10:44:32.662+02:00,674037872.6622576,0,-3.630001,100.9514,1,0.93
281,2022-05-12T10:44:33.594+02:00,1652345070.999756,53.22884450671564,10.39840425365642,41.82791,0.21,1.53,317.109375,10.4660901105073,64.0,30.0,-9999,3487.537298375,-3.61151123046875,-1.495559692382812,0.763671875,3487.532301375,0.0684247323157059,-0.2900722502898433,1.067904156700115,0.3042416274547577,7.928787708282471,8.173831939697266,-4.377895832061768,-0.6491675972938538,0.8864176869392395,XArbitraryZVertical,0.5075564991687909,-0.1071115475892305,-0.0443777862248312,0.853782355248225,-0.1378514319658279,-0.8761923313140869,-0.4618270397186279,0,0,0,-1,-1,3486.65228225,unknown,2,2022-05-12T10:44:32.662+02:00,2022-05-11T22:15:20.957+02:00,1143,0.8977532,0.7616392,1.735548,854.7967,0,0,2022-05-12T10:44:32.662+02:00,674037872.6622576,0,-3.630001,100.9514,1,0.93
282,2022-05-12T10:44:33.598+02:00,1652345070.999756,53.22884450671564,10.39840425365642,41.82791,0.21,1.53,317.109375,10.4660901105073,64.0,30.0,-9999,3487.547294375,-3.1134033203125,-1.367950439453125,0.871063232421875,3487.542296375,0.2271050010460433,-0.3520146347395078,1.04465126174031,0.2878804206848145,7.346615314483643,8.132514953613281,-3.438356876373291,-0.6308101415634155,1.235080003738403,XArbitraryZVertical,0.5052207901825209,-0.0951190719689949,0.0098888442833597,0.8576752037716209,-0.1731546372175217,-0.8647494316101074,-0.4714086353778839,0,0,0,-1,-1,3486.65228225,unknown,2,2022-05-12T10:44:32.662+02:00,2022-05-11T22:15:20.957+02:00,1143,0.8977532,0.7616392,1.735548,854.7967,0,0,2022-05-12T10:44:32.662+02:00,674037872.6622576,0,-3.630001,100.9514,1,0.93
283,2022-05-12T10:44:33.602+02:00,1652345070.999756,53.22884450671564,10.39840425365642,41.82791,0.21,1.53,317.109375,10.4660901105073,64.0,30.0,-9999,3487.557289375,-2.852981567382812,-1.341064453125,0.7778167724609375,3487.552291375,0.376607018864383,-0.4095749812978055,1.018362033518261,0.527466356754303,6.813034057617188,8.035027503967285,-2.904433488845825,-0.5167005658149719,1.352421045303345,XArbitraryZVertical,0.502077880313711,-0.0850804340534984,0.0626532465465915,0.8583436833104284,-0.2089701294898987,-0.851249635219574,-0.4813582301139832,0,0,0,-1,-1,3486.65228225,unknown,2,2022-05-12T10:44:32.662+02:00,2022-05-11T22:15:20.957+02:00,1143,0.8977532,0.7616392,1.735548,854.7967,0,0,2022-05-12T10:44:32.662+02:00,674037872.6622576,0,-3.630001,100.9514,1,0.93
284,2022-05-12T10:44:33.605+02:00,1652345070.999756,53.22884450671564,10.39840425365642,41.82791,0.21,1.53,317.109375,10.4660901105073,64.0,30.0,-9999,3487.567284375,-2.643722534179688,-1.3446044921875,0.6078948974609375,3487.562286375,0.5135925453567098,-0.4594283577742166,0.990430569801378,0.583283543586731,6.335343360900879,7.642597675323486,-2.609832525253296,-0.5048020482063293,1.269287824630737,XArbitraryZVertical,0.4984481126198839,-0.0762477311700757,0.1129418448031037,0.8561425428383563,-0.243149146437645,-0.8362621665000916,-0.491471529006958,0,0,0,-1,-1,3486.65228225,unknown,2,2022-05-12T10:44:32.662+02:00,2022-05-11T22:15:20.957+02:00,1143,0.8977532,0.7616392,1.735548,854.7967,0,0,2022-05-12T10:44:32.662+02:00,674037872.6622576,0,-3.630001,100.9514,1,0.93
285,2022-05-12T10:44:33.607+02:00,1652345070.999756,53.22884450671564,10.39840425365642,41.82791,0.21,1.53,317.109375,10.4660901105073,64.0,30.0,-9999,3487.577279375,-2.458480834960938,-1.256515502929688,0.441680908203125,3487.572282375,0.6349679230383908,-0.4995316420046291,0.961625733868926,0.5789785385131836,5.746271133422852,7.071516036987305,-2.369636535644531,-0.5244813561439514,1.110164642333984,XArbitraryZVertical,0.494166308703462,-0.068297712428805,0.1595877505007785,0.8518608188618125,-0.274086058139801,-0.8201228976249695,-0.5022701621055603,0,0,0,-1,-1,3486.65228225,unknown,2,2022-05-12T10:44:32.662+02:00,2022-05-11T22:15:20.957+02:00,1143,0.8977532,0.7616392,1.735548,854.7967,0,0,2022-05-12T10:44:32.662+02:00,674037872.6622576,0,-3.630001,100.9514,1,0.93
286,2022-05-12T10:44:33.610+02:00,1652345070.999756,53.22884450671564,10.39840425365642,41.82791,0.21,1.53,317.109375,10.4660901105073,64.0,30.0,-9999,3487.587274375,-2.45391845703125,-1.050064086914062,0.36163330078125,3487.582277375,0.7406489086021943,-0.530655439195931,0.9335410353758992,0.6597368121147156,5.226038455963135,6.422830104827881,-2.157356262207031,-0.4527833461761475,0.9548462629318236,XArbitraryZVertical,0.4895709889533281,-0.0611340462597779,0.2018889493096343,0.8460636531183816,-0.3011245429515839,-0.8037318587303162,-0.5131657719612122,0,0,0,-1,-1,3486.65228225,unknown,2,2022-05-12T10:44:32.662+02:00,2022-05-11T22:15:20.957+02:00,1143,0.8977532,0.7616392,1.735548,854.7967,0,0,2022-05-12T10:44:32.662+02:00,674037872.6622576,0,-3.630001,100.9514,1,0.93
287,2022-05-12T10:44:33.612+02:00,1652345070.999756,53.22884450671564,10.39840425365642,41.82791,0.21,1.53,317.109375,10.4660901105073,64.0,30.0,-9999,3487.597270375,-2.54144287109375,-0.7692413330078125,0.2129058837890625,3487.592272375,0.8333709642622733,-0.5533607161693971,0.9093693178065556,1.016869068145752,5.039780616760254,5.653776168823242,-2.131103038787842,-0.2609473466873169,0.8842086791992188,XArbitraryZVertical,0.4856522488005816,-0.0534223993201029,0.2400790352809921,0.8388385952892896,-0.3228153884410858,-0.7891165018081665,-0.522575855255127,0,0,0,-1,-1,3486.65228225,unknown,2,2022-05-12T10:44:32.662+02:00,2022-05-11T22:15:20.957+02:00,1143,0.8977532,0.7616392,1.735548,854.7967,0,0,2022-05-12T10:44:32.662+02:00,674037872.6622576,0,-3.630001,100.9514,1,0.93
288,2022-05-12T10:44:33.618+02:00,1652345070.999756,53.22884450671564,10.39840425365642,41.82791,0.21,1.53,317.109375,10.4660901105073,64.0,30.0,-9999,3487.607265375,-2.508758544921875,-0.68023681640625,0.05657958984375,3487.602267375,0.916109809072758,-0.569114799598564,0.8921031037530879,1.53466260433197,4.758272171020508,4.898674488067627,-2.203142642974854,0.0091526508331298,0.7417306900024414,XArbitraryZVertical,0.483369616362096,-0.0440587817615896,0.2742698260003024,0.8301739584817344,-0.3383003175258636,-0.7783937454223633,-0.5288252830505371,0,0,0,-1,-1,3486.65228225,unknown,2,2022-05-12T10:44:32.662+02:00,2022-05-11T22:15:20.957+02:00,1143,0.8977532,0.7616392,1.735548,854.7967,0,0,2022-05-12T10:44:32.662+02:00,674037872.6622576,0,-3.630001,100.9514,1,0.93
289,2022-05-12T10:44:33.628+02:00,1652345070.999756,53.22884450671564,10.39840425365642,41.82791,0.21,1.53,317.109375,10.4660901105073,64.0,30.0,-9999,3487.617260375,-2.50750732421875,-0.7825775146484375,-0.0738983154296875,3487.612262375,0.9907021863338508,-0.5809359052004731,0.8810270465064033,1.681861877441406,4.444803237915039,4.244562149047852,-2.159520149230957,0.0911562442779541,0.5885433554649353,XArbitraryZVertical,0.4825770295521234,-0.0337238700300645,0.3045065809268354,0.8205230340070923,-0.3492381870746613,-0.7713928818702698,-0.5319642424583435,0,0,0,-1,-1,3486.65228225,unknown,2,2022-05-12T10:44:32.662+02:00,2022-05-11T22:15:20.957+02:00,1143,0.8977532,0.7616392,1.735548,854.7967,0,0,2022-05-12T10:44:32.662+02:00,674037872.6622576,0,-3.630001,100.9514,1,0.93
290,2022-05-12T10:44:33.640+02:00,1652345070.999756,53.22884450671564,10.39840425365642,41.82791,0.21,1.53,317.109375,10.4660901105073,64.0,30.0,-9999,3487.627255375,-2.496429443359375,-0.7525634765625,-0.194793701171875,3487.622258375,1.056543565237704,-0.5883523395103148,0.8726004114638287,1.547477245330811,4.216519832611084,3.728495359420776,-2.150738477706909,-0.0165741443634033,0.4608490467071533,XArbitraryZVertical,0.4817590993252112,-0.0231135422044214,0.331372068449878,0.8109047975498188,-0.356768786907196,-0.7660031914710999,-0.534747838973999,0,0,0,-1,-1,3486.65228225,unknown,2,2022-05-12T10:44:32.662+02:00,2022-05-11T22:15:20.957+02:00,1143,0.8977532,0.7616392,1.735548,854.7967,0,0,2022-05-12T10:44:32.662+02:00,674037872.6622576,0,-3.630001,100.9514,1,0.93
291,2022-05-12T10:44:33.648+02:00,1652345070.999756,53.22884450671564,10.39840425365642,41.82791,0.21,1.53,317.109375,10.4660901105073,64.0,30.0,-9999,3487.637251375,-2.410903930664062,-0.733978271484375,-0.22186279296875,3487.632253375,1.114061667749249,-0.5908682182552638,0.8650404539093155,1.310830354690552,4.073565006256104,3.310678958892822,-2.135100364685059,0.0085582137107849,0.3438483476638794,XArbitraryZVertical,0.4801305409813639,-0.0123860372607584,0.3555978365977054,0.8017927765761285,-0.3613288402557373,-0.7611215114593506,-0.5386425256729126,0,0,0,-1,-1,3486.65228225,unknown,2,2022-05-12T10:44:32.662+02:00,2022-05-11T22:15:20.957+02:00,1143,0.8977532,0.7616392,1.735548,854.7967,0,0,2022-05-12T10:44:32.662+02:00,674037872.6622576,0,-3.630001,100.9514,1,0.93
292,2022-05-12T10:44:33.658+02:00,1652345070.999756,53.22884450671564,10.39840425365642,41.82791,0.21,1.53,317.109375,10.4660901105073,64.0,30.0,-9999,3487.647246375,-2.284912109375,-0.72259521484375,-0.19696044921875,3487.642248375,1.164082010622697,-0.588880133038208,0.8568180553428454,0.9406576156616212,3.91693377494812,3.036225318908691,-2.04718279838562,0.0217846035957336,0.3226823210716248,XArbitraryZVertical,0.4772036575894357,-0.0019686918121036,0.3778229766352969,0.7934247065713149,-0.3637210428714752,-0.7557626962661743,-0.544545590877533,0,0,0,-1,-1,3486.65228225,unknown,2,2022-05-12T10:44:32.662+02:00,2022-05-11T22:15:20.957+02:00,1143,0.8977532,0.7616392,1.735548,854.7967,0,0,2022-05-12T10:44:32.662+02:00,674037872.6622576,0,-3.630001,100.9514,1,0.93
293,2022-05-12T10:44:33.668+02:00,1652345070.999756,53.22884450671564,10.39840425365642,41.82791,0.21,1.53,317.109375,10.4660901105073,64.0,30.0,-9999,3487.657241375,-2.185333251953125,-0.6034698486328125,-0.1873321533203125,3487.652243375,1.207683596465684,-0.5836353079286968,0.8469999408817755,0.623346745967865,3.694758176803589,2.847462892532349,-1.919980406761169,0.0267019867897033,0.3556503057479858,XArbitraryZVertical,0.4729026557530295,0.0075815400631134,0.3984407024394753,0.7858440224690696,-0.3649315237998962,-0.749297022819519,-0.5526111721992493,0,0,0,-1,-1,3486.65228225,unknown,2,2022-05-12T10:44:32.662+02:00,2022-05-11T22:15:20.957+02:00,1143,0.8977532,0.7616392,1.735548,854.7967,0,0,2022-05-12T10:44:32.662+02:00,674037872.6622576,0,-3.630001,100.9514,1,0.93
294,2022-05-12T10:44:33.678+02:00,1652345070.999756,53.22884450671564,10.39840425365642,41.82791,0.21,1.53,317.109375,10.4660901105073,64.0,30.0,-9999,3487.667236375,-2.160110473632812,-0.52325439453125,-0.194610595703125,3487.662239375,1.246966526824541,-0.5766950400200981,0.836007831156704,0.4264990091323853,3.569806575775146,2.747013092041016,-1.81977653503418,0.138502836227417,0.3746685385704041,XArbitraryZVertical,0.4676918269604518,0.0162407754666133,0.4178504404166997,0.7787180538177589,-0.3655565083026886,-0.7419725656509399,-0.5620011687278748,0,0,0,-1,-1,3486.65228225,unknown,2,2022-05-12T10:44:32.662+02:00,2022-05-11T22:15:20.957+02:00,1143,0.8977532,0.7616392,1.735548,854.7967,0,0,2022-05-12T10:44:32.662+02:00,674037872.6622576,0,-3.630001,100.9514,1,0.93
295,2022-05-12T10:44:33.689+02:00,1652345070.999756,53.22884450671564,10.39840425365642,41.82791,0.21,1.53,317.109375,10.4660901105073,64.0,30.0,-9999,3487.677231375,-2.045654296875,-0.3495330810546875,-0.22601318359375,3487.672234375,1.283821600458124,-0.5685402383879719,0.8250007267673973,0.4438319504261017,3.497458696365356,2.625241041183472,-1.794773697853088,0.2112939953804016,0.3772003054618835,XArbitraryZVertical,0.4620485492472171,0.0246061109833138,0.4364375469268046,0.7716399230419473,-0.3653365671634674,-0.7345482707023621,-0.5718113780021667,0,0,0,-1,-1,3486.65228225,unknown,2,2022-05-12T10:44:32.662+02:00,2022-05-11T22:15:20.957+02:00,1143,0.8977532,0.7616392,1.735548,854.7967,0,0,2022-05-12T10:44:32.662+02:00,674037872.6622576,0,-3.630001,100.9514,1,0.93
296,2022-05-12T10:44:33.698+02:00,1652345070.999756,53.22884450671564,10.39840425365642,41.82791,0.21,1.53,317.109375,10.4660901105073,64.0,30.0,-9999,3487.687227375,-1.913375854492188,-0.28558349609375,-0.22808837890625,3487.682229375,1.320023728890578,-0.560924780095726,0.8156829933284407,0.648604154586792,3.325491905212402,2.548415660858154,-1.681057453155518,0.3786609768867493,0.354333758354187,XArbitraryZVertical,0.4568814840228029,0.032949248956354,0.4541156657929487,0.7641679040730659,-0.3645965754985809,-0.7281938791275024,-0.5803472995758057,0,0,0,-1,-1,3486.65228225,unknown,2,2022-05-12T10:44:32.662+02:00,2022-05-11T22:15:20.957+02:00,1143,0.8977532,0.7616392,1.735548,854.7967,0,0,2022-05-12T10:44:32.662+02:00,674037872.6622576,0,-3.630001,100.9514,1,0.93
297,2022-05-12T10:44:33.708+02:00,1652345070.999756,53.22884450671564,10.39840425365642,41.82791,0.21,1.53,317.109375,10.4660901105073,64.0,30.0,-9999,3487.697222375,-1.78717041015625,-0.2652740478515625,-0.26690673828125,3487.692224375,1.357141739224873,-0.5553503991215666,0.8092087215681114,0.9667717814445496,3.18479585647583,2.465355634689331,-1.549541473388672,0.4381580352783203,0.3582757711410522,XArbitraryZVertical,0.4528783119197062,0.0414601359422477,0.4708952420484838,0.7559366201930027,-0.363834023475647,-0.723741352558136,-0.5863645672798157,0,0,0,-1,-1,3486.65228225,unknown,2,2022-05-12T10:44:32.662+02:00,2022-05-11T22:15:20.957+02:00,1143,0.8977532,0.7616392,1.735548,854.7967,0,0,2022-05-12T10:44:32.662+02:00,674037872.6622576,0,-3.630001,100.9514,1,0.93
298,2022-05-12T10:44:33.718+02:00,1652345070.999756,53.22884450671564,10.39840425365642,41.82791,0.21,1.53,317.109375,10.4660901105073,64.0,30.0,-9999,3487.707217375,-1.619537353515625,-0.3542633056640625,-0.3129730224609375,3487.702219375,1.395401119903197,-0.5522220962295173,0.8059337187783138,1.241075158119202,2.946532011032104,2.38608455657959,-1.423930764198303,0.4562035799026489,0.3226075172424316,XArbitraryZVertical,0.4502452616427572,0.0502183100820466,0.4866877021571085,0.7469220545768872,-0.3632393479347229,-0.7214775085449219,-0.5895146727561951,0,0,0,-1,-1,3486.65228225,unknown,2,2022-05-12T10:44:32.662+02:00,2022-05-11T22:15:20.957+02:00,1143,0.8977532,0.7616392,1.735548,854.7967,0,0,2022-05-12T10:44:32.662+02:00,674037872.6622576,0,-3.630001,100.9514,1,0.93
299,2022-05-12T10:44:33.728+02:00,1652345070.999756,53.22884450671564,10.39840425365642,41.82791,0.21,1.53,317.109375,10.4660901105073,64.0,30.0,-9999,3487.717212375,-1.494384765625,-0.4626617431640625,-0.3783111572265625,3487.712215375,1.434196075156469,-0.5522715298385372,0.8047497362580537,1.353813171386719,2.639953851699829,2.327470302581787,-1.255820631980896,0.3663939237594604,0.2772500514984131,XArbitraryZVertical,0.4488455103828853,0.0585316623617026,0.5013311426378325,0.737413713804198,-0.3637163639068604,-0.7206571698188782,-0.590223491191864,0,0,0,-1,-1,3486.65228225,unknown,2,2022-05-12T10:44:32.662+02:00,2022-05-11T22:15:20.957+02:00,1143,0.8977532,0.7616392,1.735548,854.7967,0,0,2022-05-12T10:44:32.662+02:00,674037872.6622576,0,-3.630001,100.9514,1,0.93
300,2022-05-12T10:44:33.738+02:00,1652345070.999756,53.22884450671564,10.39840425365642,41.82791,0.21,1.53,317.109375,10.4660901105073,64.0,30.0,-9999,3487.727207375,-1.339996337890625,-0.592315673828125,-0.460174560546875,3487.722210375,1.471996044328542,-0.5546573081057377,0.8039292076559789,1.217052459716797,2.295796632766724,2.222865581512451,-1.128949642181396,0.257426381111145,0.2115449905395508,XArbitraryZVertical,0.4480338011438373,0.0658593014411729,0.5148237976523055,0.7279318866829702,-0.3654347658157349,-0.7200880646705627,-0.5898565053939819,0,0,0,-1,-1,3486.65228225,unknown,2,2022-05-12T10:44:32.662+02:00,2022-05-11T22:15:20.957+02:00,1143,0.8977532,0.7616392,1.735548,854.7967,0,0,2022-05-12T10:44:32.662+02:00,674037872.6622576,0,-3.630001,100.9514,1,0.93
301,2022-05-12T10:44:33.748+02:00,1652345070.999756,53.22884450671564,10.39840425365642,41.82791,0.21,1.53,317.109375,10.4660901105073,64.0,30.0,-9999,3487.737203375,-1.292587280273438,-0.713958740234375,-0.51947021484375,3487.732205375,1.50702040311484,-0.5591445412938043,0.8011548381114278,0.8654946684837341,1.877617835998535,2.203883171081543,-0.9708597660064696,0.1258445978164673,0.1297271251678467,XArbitraryZVertical,0.4472013476427231,0.0711331194916398,0.5271013809565782,0.7191072524585472,-0.3691362142562866,-0.7181602120399475,-0.5899020433425903,0,0,0,-1,-1,3486.65228225,unknown,2,2022-05-12T10:44:32.662+02:00,2022-05-11T22:15:20.957+02:00,1143,0.8977532,0.7616392,1.735548,854.7967,0,0,2022-05-12T10:44:32.662+02:00,674037872.6622576,0,-3.630001,100.9514,1,0.93
302,2022-05-12T10:44:33.758+02:00,1652345070.999756,53.22884450671564,10.39840425365642,41.82791,0.21,1.53,317.109375,10.4660901105073,64.0,30.0,-9999,3487.747198375,-1.199005126953125,-0.728302001953125,-0.5849151611328125,3487.742200375,1.538514558679273,-0.5639899081908425,0.7953971885911347,0.5127999782562256,1.665971040725708,2.11662745475769,-0.918392539024353,0.0001829862594604,0.072120726108551,XArbitraryZVertical,0.4457149357390383,0.0744481366493376,0.5385550277326425,0.7111640269485323,-0.3741943538188934,-0.7141416668891907,-0.5915913581848145,0,0,0,-1,-1,3486.65228225,unknown,2,2022-05-12T10:44:32.662+02:00,2022-05-11T22:15:20.957+02:00,1143,0.8977532,0.7616392,1.735548,854.7967,0,0,2022-05-12T10:44:32.662+02:00,674037872.6622576,0,-3.630001,100.9514,1,0.93
