,loggingTime(txt),locationTimestamp_since1970(s),locationLatitude(WGS84),locationLongitude(WGS84),locationAltitude(m),locationSpeed(m/s),locationSpeedAccuracy(m/s),locationCourse(°),locationCourseAccuracy(°),locationVerticalAccuracy(m),locationHorizontalAccuracy(m),locationFloor(Z),accelerometerTimestamp_sinceReboot(s),accelerometerAccelerationX(G),accelerometerAccelerationY(G),accelerometerAccelerationZ(G),motionTimestamp_sinceReboot(s),motionYaw(rad),motionRoll(rad),motionPitch(rad),motionRotationRateX(rad/s),motionRotationRateY(rad/s),motionRotationRateZ(rad/s),motionUserAccelerationX(G),motionUserAccelerationY(G),motionUserAccelerationZ(G),motionAttitudeReferenceFrame(txt),motionQuaternionX(R),motionQuaternionY(R),motionQuaternionZ(R),motionQuaternionW(R),motionGravityX(G),motionGravityY(G),motionGravityZ(G),motionMagneticFieldX(µT),motionMagneticFieldY(µT),motionMagneticFieldZ(µT),motionHeading(°),motionMagneticFieldCalibrationAccuracy(Z),activityTimestamp_sinceReboot(s),activity(txt),activityActivityConfidence(Z),activityActivityStartDate(txt),pedometerStartDate(txt),pedometerNumberofSteps(N),pedometerAverageActivePace(s/m),pedometerCurrentPace(s/m),pedometerCurrentCadence(steps/s),pedometerDistance(m),pedometerFloorAscended(N),pedometerFloorDescended(N),pedometerEndDate(txt),altimeterTimestamp_sinceReboot(s),altimeterReset(bool),altimeterRelativeAltitude(m),altimeterPressure(kPa),batteryState(N),batteryLevel(R)
295,2022-05-12T10:31:09.359+02:00,1652344268.000031,53.22900514588992,10.39835186676159,37.6448,0.0,0.92,60.8203125,96.56686056123024,4,5,-9999,2766.942358125,0.5009765625,0.594329833984375,1.65386962890625,2766.932363125,-1.786133202930331,2.091093928759299,-0.0977114943693591,-3.224534749984741,5.511248111724854,-1.755814790725708,-0.3645240664482117,0.3938529193401337,0.8236987590789795,XArbitraryZVertical,0.6578296629519557,0.5609310867024923,-0.4166398884420164,0.2811187052146275,0.8635326027870178,0.0975560843944549,0.4947670996189117,0,0,0,-1,-1,2759.652976375,walking,2,2022-05-12T10:31:02.069+02:00,2022-05-11T22:15:20.957+02:00,205,0.9472964,0.6030918,1.947791,162.3245,0,0,2022-05-12T10:31:04.627+02:00,674037067.1783804,0,0.4099998,100.903,1,0.97
296,2022-05-12T10:31:09.370+02:00,1652344268.000031,53.22900514588992,10.39835186676159,37.6448,0.0,0.92,60.8203125,96.56686056123024,4,5,-9999,2766.952353125,0.4480133056640625,0.59820556640625,1.8760986328125,2766.942358125,-1.747601650740516,2.152182577187603,-0.0961734986891105,-3.47882604598999,5.977108955383301,-1.995480895042419,-0.3105692863464355,0.4475077390670776,0.91136234998703,XArbitraryZVertical,0.6594152098841642,0.5818025649983224,-0.390778721877783,0.2719734165847353,0.8318405151367188,0.0960253104567527,0.5466452836990356,0,0,0,-1,-1,2759.652976375,walking,2,2022-05-12T10:31:02.069+02:00,2022-05-11T22:15:20.957+02:00,205,0.9472964,0.6030918,1.947791,162.3245,0,0,2022-05-12T10:31:04.627+02:00,674037067.1783804,0,0.4099998,100.903,1,0.97
297,2022-05-12T10:31:09.380+02:00,1652344268.000031,53.22900514588992,10.39835186676159,37.6448,0.0,0.92,60.8203125,96.56686056123024,4,5,-9999,2766.962348125,0.3519439697265625,0.56494140625,2.154403686523438,2766.952353125,-1.705313885843056,2.218664946942734,-0.0922728839084598,-3.888777017593384,6.531513690948486,-2.206794023513794,-0.2930028438568115,0.5021876096725464,1.052948236465454,XArbitraryZVertical,0.6600359992135308,0.6039975242959854,-0.3621095751114587,0.2615649556695631,0.7939798831939697,0.0921420007944107,0.6009210348129272,0,0,0,-1,-1,2759.652976375,walking,2,2022-05-12T10:31:02.069+02:00,2022-05-11T22:15:20.957+02:00,205,0.9472964,0.6030918,1.947791,162.3245,0,0,2022-05-12T10:31:04.627+02:00,674037067.1783804,0,0.4099998,100.903,1,0.97
298,2022-05-12T10:31:09.390+02:00,1652344268.000031,53.22900514588992,10.39835186676159,37.6448,0.0,0.92,60.8203125,96.56686056123024,4,5,-9999,2766.972344125,0.20196533203125,0.557708740234375,2.48138427734375,2766.962348125,-1.658287032651073,2.291097480611872,-0.083540065014159,-4.48638391494751,7.138916969299316,-2.35694432258606,-0.3009722828865051,0.5147624015808105,1.218787670135498,XArbitraryZVertical,0.6594590363689337,0.6275102924640474,-0.3296224859306133,0.2503871038135168,0.748986005783081,0.0834429264068603,0.6573107838630676,0,0,0,-1,-1,2759.652976375,walking,2,2022-05-12T10:31:02.069+02:00,2022-05-11T22:15:20.957+02:00,205,0.9472964,0.6030918,1.947791,162.3245,0,0,2022-05-12T10:31:04.627+02:00,674037067.1783804,0,0.4099998,100.903,1,0.97
299,2022-05-12T10:31:09.399+02:00,1652344268.000031,53.22900514588992,10.39835186676159,37.6448,0.0,0.92,60.8203125,96.56686056123024,4,5,-9999,2766.982339125,0.0210113525390625,0.5971832275390625,2.858139038085938,2766.972344125,-1.606816277421213,2.369556293267458,-0.0679654074778506,-5.097971439361572,7.77628755569458,-2.445197820663452,-0.3440408110618591,0.497028112411499,1.439565896987915,XArbitraryZVertical,0.6574997399067134,0.6520067777486562,-0.292674909957126,0.2385848516204846,0.6959852576255798,0.0679130926728248,0.7148374915122986,0,0,0,-1,-1,2759.652976375,walking,2,2022-05-12T10:31:02.069+02:00,2022-05-11T22:15:20.957+02:00,205,0.9472964,0.6030918,1.947791,162.3245,0,0,2022-05-12T10:31:04.627+02:00,674037067.1783804,0,0.4099998,100.903,1,0.97
300,2022-05-12T10:31:09.410+02:00,1652344268.000031,53.22900514588992,10.39835186676159,37.6448,0.0,0.92,60.8203125,96.56686056123024,4,5,-9999,2766.992334125,-0.2437896728515625,0.6222991943359375,3.262649536132812,2766.982339125,-1.552841839638298,2.453552627609757,-0.0447789377308951,-5.545354843139648,8.413432121276855,-2.498250484466553,-0.4324219822883606,0.5129446387290955,1.70966625213623,XArbitraryZVertical,0.6541199349482377,0.6767467484132152,-0.2513152317914042,0.2257915877823727,0.6343880295753479,0.0447639748454093,0.7717180848121643,0,0,0,-1,-1,2759.652976375,walking,2,2022-05-12T10:31:02.069+02:00,2022-05-11T22:15:20.957+02:00,205,0.9472964,0.6030918,1.947791,162.3245,0,0,2022-05-12T10:31:04.627+02:00,674037067.1783804,0,0.4099998,100.903,1,0.97
301,2022-05-12T10:31:09.419+02:00,1652344268.000031,53.22900514588992,10.39835186676159,37.6448,0.0,0.92,60.8203125,96.56686056123024,4,5,-9999,2767.002329125,-0.5213775634765625,0.5755157470703125,3.697967529296875,2766.992334125,-1.498478200423492,2.541991014539773,-0.0143353165834273,-5.835560321807861,8.94084358215332,-2.53810715675354,-0.5432438850402832,0.5828482508659363,2.032663106918335,XArbitraryZVertical,0.6491357141168557,0.7009713696920349,-0.2061527931648642,0.2115733120262512,0.564255952835083,0.0143348257988691,0.8254760503768921,0,0,0,-1,-1,2759.652976375,walking,2,2022-05-12T10:31:02.069+02:00,2022-05-11T22:15:20.957+02:00,205,0.9472964,0.6030918,1.947791,162.3245,0,0,2022-05-12T10:31:04.627+02:00,674037067.1783804,0,0.4099998,100.903,1,0.97
302,2022-05-12T10:31:09.430+02:00,1652344268.000031,53.22900514588992,10.39835186676159,37.6448,0.0,0.92,60.8203125,96.56686056123024,4,5,-9999,2767.012324125,-0.7977447509765625,0.56097412109375,4.116683959960938,2767.002329125,-1.44567294504601,2.633227083112527,0.0221057998730541,-5.880736827850342,9.327480316162108,-2.62293004989624,-0.7304204106330872,0.6444031000137329,2.389321327209473,XArbitraryZVertical,0.6423045773172774,0.7239535734313892,-0.1583082332986196,0.1956389778300054,0.4866312742233276,-0.0221039988100528,0.873327910900116,0,0,0,-1,-1,2759.652976375,walking,2,2022-05-12T10:31:02.069+02:00,2022-05-11T22:15:20.957+02:00,205,0.9472964,0.6030918,1.947791,162.3245,0,0,2022-05-12T10:31:04.627+02:00,674037067.1783804,0,0.4099998,100.903,1,0.97
303,2022-05-12T10:31:09.439+02:00,1652344268.000031,53.22900514588992,10.39835186676159,37.6448,0.0,0.92,60.8203125,96.56686056123024,4,5,-9999,2767.022319125,-1.076904296875,0.526031494140625,4.5421142578125,2767.012324125,-1.395305473225997,2.725146524810614,0.0618311211551331,-5.752519130706787,9.452208518981934,-2.871845722198486,-0.9251169562339784,0.6373074054718018,2.785182476043701,XArbitraryZVertical,0.633140762162648,0.7453356508997568,-0.1095620638675233,0.1777746505044779,0.4037399888038635,-0.0617917329072952,0.9127849340438844,0,0,0,-1,-1,2759.652976375,walking,2,2022-05-12T10:31:02.069+02:00,2022-05-11T22:15:20.957+02:00,205,0.9472964,0.6030918,1.947791,162.3245,0,0,2022-05-12T10:31:04.627+02:00,674037067.1783804,0,0.4099998,100.903,1,0.97
304,2022-05-12T10:31:09.450+02:00,1652344268.000031,53.22900514588992,10.39835186676159,37.6448,0.0,0.92,60.8203125,96.56686056123024,4,5,-9999,2767.032314125,-1.31781005859375,0.5190887451171875,4.938766479492188,2767.022319125,-1.345635196723216,2.814772774273576,0.1039493476903391,-5.701005458831787,9.27227783203125,-3.339991569519043,-1.11704421043396,0.664736270904541,3.174727916717529,XArbitraryZVertical,0.6206694248899638,0.765341494695627,-0.0611580488678578,0.1590023790585061,0.3193000853061676,-0.1037622466683388,0.9419562816619872,0,0,0,-1,-1,2759.652976375,walking,2,2022-05-12T10:31:02.069+02:00,2022-05-11T22:15:20.957+02:00,205,0.9472964,0.6030918,1.947791,162.3245,0,0,2022-05-12T10:31:04.627+02:00,674037067.1783804,0,0.4099998,100.903,1,0.97
305,2022-05-12T10:31:09.460+02:00,1652344268.000031,53.22900514588992,10.39835186676159,37.6448,0.0,0.92,60.8203125,96.56686056123024,4,5,-9999,2767.042309125,-1.53204345703125,0.512359619140625,5.310928344726562,2767.032314125,-1.29352211541597,2.898829631084319,0.1480940616525447,-5.659472942352295,8.813979148864746,-4.143600940704346,-1.314658045768738,0.6735847592353821,3.582061529159546,XArbitraryZVertical,0.6036804448314803,0.7845994645484117,-0.0141615589806159,0.140617134542029,0.2377543747425079,-0.1475533246994019,0.9600527882575988,0,0,0,-1,-1,2759.652976375,walking,2,2022-05-12T10:31:02.069+02:00,2022-05-11T22:15:20.957+02:00,205,0.9472964,0.6030918,1.947791,162.3245,0,0,2022-05-12T10:31:04.627+02:00,674037067.1783804,0,0.4099998,100.903,1,0.97
306,2022-05-12T10:31:09.469+02:00,1652344268.000031,53.22900514588992,10.39835186676159,37.6448,0.0,0.92,60.8203125,96.56686056123024,4,5,-9999,2767.052304125,-1.735671997070312,0.3372802734375,5.7513427734375,2767.042309125,-1.235527490123757,2.973429841051425,0.1940662547190903,-5.675341129302979,8.049284934997559,-5.228426456451416,-1.482038974761963,0.7119391560554504,3.971379518508911,XArbitraryZVertical,0.5810849360996154,0.8037623036246568,0.0302810663565026,0.1240548788435659,0.1642295271158218,-0.1928503960371017,0.967387080192566,0,0,0,-1,-1,2759.652976375,walking,2,2022-05-12T10:31:02.069+02:00,2022-05-11T22:15:20.957+02:00,205,0.9472964,0.6030918,1.947791,162.3245,0,0,2022-05-12T10:31:04.627+02:00,674037067.1783804,0,0.4099998,100.903,1,0.97
307,2022-05-12T10:31:09.479+02:00,1652344268.000031,53.22900514588992,10.39835186676159,37.6448,0.0,0.92,60.8203125,96.56686056123024,4,5,-9999,2767.062300125,-2.016281127929688,0.108123779296875,6.119796752929688,2767.052304125,-1.168035352658097,3.033604165771854,0.2421679170647455,-5.624287128448486,6.870266437530518,-6.550256252288818,-1.636676669120789,0.7521675229072571,4.345763206481934,XArbitraryZVertical,0.5519836805455454,0.8233448380032469,0.0710822620374098,0.1111966020432145,0.1046338006854057,-0.2398078441619873,0.9651654362678528,0,0,0,-1,-1,2759.652976375,walking,2,2022-05-12T10:31:02.069+02:00,2022-05-11T22:15:20.957+02:00,205,0.9472964,0.6030918,1.947791,162.3245,0,0,2022-05-12T10:31:04.627+02:00,674037067.1783804,0,0.4099998,100.903,1,0.97
308,2022-05-12T10:31:09.490+02:00,1652344268.000031,53.22900514588992,10.39835186676159,37.6448,0.0,0.92,60.8203125,96.56686056123024,4,5,-9999,2767.072295125,-2.498382568359375,-0.290435791015625,6.400115966796875,2767.062300125,-1.087618769830451,3.073654827876708,0.2909528399116751,-5.399020671844482,5.348814487457275,-8.089831352233887,-1.800703763961792,0.6241455078125,4.795581817626953,XArbitraryZVertical,0.5158520239754301,0.8436690289578419,0.1065938390026559,0.1037170563514157,0.0650324448943138,-0.2868651449680328,0.95576149225235,0,0,0,-1,-1,2759.652976375,walking,2,2022-05-12T10:31:02.069+02:00,2022-05-11T22:15:20.957+02:00,205,0.9472964,0.6030918,1.947791,162.3245,0,0,2022-05-12T10:31:04.627+02:00,674037067.1783804,0,0.4099998,100.903,1,0.97
309,2022-05-12T10:31:09.499+02:00,1652344268.000031,53.22900514588992,10.39835186676159,37.6448,0.0,0.92,60.8203125,96.56686056123024,4,5,-9999,2767.082290125,-3.187820434570312,-0.566131591796875,6.584243774414062,2767.072295125,-0.990804600989184,3.087455870814675,0.336478296511815,-4.658907890319824,3.307332754135132,-9.777265548706056,-2.067356586456299,0.4382888078689575,5.17725658416748,XArbitraryZVertical,0.4724891219491302,0.8648840575522383,0.134577102088178,0.1030476087738579,0.0510760359466075,-0.3301649391651154,0.9425408244132996,0,0,0,-1,-1,2759.652976375,walking,2,2022-05-12T10:31:02.069+02:00,2022-05-11T22:15:20.957+02:00,205,0.9472964,0.6030918,1.947791,162.3245,0,0,2022-05-12T10:31:04.627+02:00,674037067.1783804,0,0.4099998,100.903,1,0.97
310,2022-05-12T10:31:09.509+02:00,1652344268.000031,53.22900514588992,10.39835186676159,37.6448,0.0,0.92,60.8203125,96.56686056123024,4,5,-9999,2767.092285125,-4.034103393554688,-0.0287628173828125,6.622604370117188,2767.082290125,-0.8731759932372641,3.066539055004352,0.3685316457113942,-3.039268970489502,0.5686514377593994,-11.91640567779541,-2.568330526351929,0.069810539484024,5.469884872436523,XArbitraryZVertical,0.4216283187424946,0.8873247101632091,0.1503254780735664,0.1108452979662636,0.0699485838413238,-0.3602460622787476,0.9302311539649964,0,0,0,-1,-1,2759.652976375,walking,2,2022-05-12T10:31:02.069+02:00,2022-05-11T22:15:20.957+02:00,205,0.9472964,0.6030918,1.947791,162.3245,0,0,2022-05-12T10:31:04.627+02:00,674037067.1783804,0,0.4099998,100.903,1,0.97
311,2022-05-12T10:31:09.519+02:00,1652344268.000031,53.22900514588992,10.39835186676159,37.6448,0.0,0.92,60.8203125,96.56686056123024,4,5,-9999,2767.102280125,-5.035812377929688,1.31866455078125,6.481185913085938,2767.092285125,-0.730795951770689,3.002584795307015,0.3771227593921922,-1.546931028366089,-3.05575704574585,-14.34741115570068,-3.316643476486206,-0.1978843510150909,5.6634840965271,XArbitraryZVertical,0.3622983743187355,0.910560181167964,0.1502730189756183,0.1305301073691135,0.1288236975669861,-0.3682469427585602,0.920759916305542,0,0,0,-1,-1,2759.652976375,walking,2,2022-05-12T10:31:02.069+02:00,2022-05-11T22:15:20.957+02:00,205,0.9472964,0.6030918,1.947791,162.3245,0,0,2022-05-12T10:31:04.627+02:00,674037067.1783804,0,0.4099998,100.903,1,0.97
312,2022-05-12T10:31:09.530+02:00,1652344268.000031,53.22900514588992,10.39835186676159,37.6448,0.0,0.92,60.8203125,96.56686056123024,4,5,-9999,2767.112275125,-5.675628662109375,2.022384643554688,6.134048461914062,2767.102280125,-0.5632607076898677,2.888191397253883,0.358531690184535,-1.041889786720276,-7.844675540924072,-16.97977638244629,-4.26885986328125,0.3221370875835419,5.716095447540283,XArbitraryZVertical,0.2929199008463069,0.9313713941885968,0.1353535903567281,0.1685968466689898,0.2347570359706879,-0.3508996665477753,0.9065094590187072,0,0,0,-1,-1,2759.652976375,walking,2,2022-05-12T10:31:02.069+02:00,2022-05-11T22:15:20.957+02:00,205,0.9472964,0.6030918,1.947791,162.3245,0,0,2022-05-12T10:31:04.627+02:00,674037067.1783804,0,0.4099998,100.903,1,0.97
313,2022-05-12T10:31:09.539+02:00,1652344268.000031,53.22900514588992,10.39835186676159,37.6448,0.0,0.92,60.8203125,96.56686056123024,4,5,-9999,2767.122270125,-6.580947875976562,2.161056518554688,5.14801025390625,2767.112275125,-0.3782912791235859,2.721942187059335,0.3118143929864216,-1.678351521492004,-13.16761207580566,-19.03521919250488,-5.423605918884277,1.625450968742371,5.611991882324219,XArbitraryZVertical,0.2134311109790752,0.9428915343907336,0.1104746616571928,0.2306477105925862,0.3877940773963928,-0.3067860305309296,0.8691945672035217,0,0,0,-1,-1,2759.652976375,walking,2,2022-05-12T10:31:02.069+02:00,2022-05-11T22:15:20.957+02:00,205,0.9472964,0.6030918,1.947791,162.3245,0,0,2022-05-12T10:31:04.627+02:00,674037067.1783804,0,0.4099998,100.903,1,0.97
314,2022-05-12T10:31:09.549+02:00,1652344268.000031,53.22900514588992,10.39835186676159,37.6448,0.0,0.92,60.8203125,96.56686056123024,4,5,-9999,2767.132265125,-7.617019653320312,1.99407958984375,3.867111206054688,2767.122270125,-0.191153225664774,2.511066221302065,0.2286449623484167,-1.795990824699402,-18.93016815185547,-20.39402770996094,-6.249854564666748,2.249042987823486,5.347352504730225,XArbitraryZVertical,0.1253445730720195,0.93682274643025,0.0785596180328892,0.3169865428556923,0.5742263793945312,-0.2266579568386078,0.7866962552070618,0,0,0,-1,-1,2759.652976375,walking,2,2022-05-12T10:31:02.069+02:00,2022-05-11T22:15:20.957+02:00,205,0.9472964,0.6030918,1.947791,162.3245,0,0,2022-05-12T10:31:04.627+02:00,674037067.1783804,0,0.4099998,100.903,1,0.97
315,2022-05-12T10:31:09.559+02:00,1652344268.000031,53.22900514588992,10.39835186676159,37.6448,0.0,0.92,60.8203125,96.56686056123024,4,5,-9999,2767.142260125,-9.138504028320312,2.201766967773438,2.779083251953125,2767.132265125,-0.0335897368697552,2.267309690249502,0.0987720638304279,0.0379971526563167,-24.37054824829102,-20.02843856811523,-7.344292640686035,2.259668588638306,4.509590148925781,XArbitraryZVertical,0.0360925098667286,0.9043823639010978,0.0376164165508087,0.423526830832218,0.7633450627326965,-0.0986115410923957,0.6384202837944031,0,0,0,-1,-1,2759.652976375,walking,2,2022-05-12T10:31:02.069+02:00,2022-05-11T22:15:20.957+02:00,205,0.9472964,0.6030918,1.947791,162.3245,0,0,2022-05-12T10:31:04.627+02:00,674037067.1783804,0,0.4099998,100.903,1,0.97
316,2022-05-12T10:31:09.569+02:00,1652344268.000031,53.22900514588992,10.39835186676159,37.6448,0.0,0.92,60.8203125,96.56686056123024,4,5,-9999,2767.152255125,-12.75143432617188,4.040802001953125,4.173583984375,2767.142260125,0.0442186000837013,1.992796635798157,-0.076909482688518,6.111855506896973,-30.08451843261719,-18.30306434631348,-8.526594161987305,1.917246460914612,3.458735704421997,XArbitraryZVertical,-0.0394292966096657,0.8382320792013179,-0.0202648837019076,0.5435087204749512,0.909574806690216,0.0768336877226829,0.4083753824234009,0,0,0,-1,-1,2759.652976375,walking,2,2022-05-12T10:31:02.069+02:00,2022-05-11T22:15:20.957+02:00,205,0.9472964,0.6030918,1.947791,162.3245,0,0,2022-05-12T10:31:04.627+02:00,674037067.1783804,0,0.4099998,100.903,1,0.97
317,2022-05-12T10:31:09.580+02:00,1652344268.000031,53.22900514588992,10.39835186676159,37.6448,0.0,0.92,60.8203125,96.56686056123024,4,5,-9999,2767.162250125,-21.30181884765625,4.618392944335938,6.6055908203125,2767.152255125,-0.0188692482075601,1.658859616763434,-0.2608466209707872,15.43467807769775,-33.40606307983398,-14.04961585998535,-10.10093212127686,1.94386887550354,2.694108724594116,XArbitraryZVertical,-0.0809217310889515,0.7320784467433844,-0.1022334584211569,0.6686263463095686,0.9624280333518982,0.2578986287117004,0.084974355995655,0,0,0,-1,-1,2759.652976375,walking,2,2022-05-12T10:31:02.069+02:00,2022-05-11T22:15:20.957+02:00,205,0.9472964,0.6030918,1.947791,162.3245,0,0,2022-05-12T10:31:04.627+02:00,674037067.1783804,0,0.4099998,100.903,1,0.97
318,2022-05-12T10:31:09.589+02:00,1652344268.000031,53.22900514588992,10.39835186676159,37.6448,0.0,0.92,60.8203125,96.56686056123024,4,5,-9999,2767.172246125,-26.35182189941406,3.162841796875,3.41229248046875,2767.162250125,-0.2292924883858715,1.24871995305526,-0.3558733450722749,22.9795093536377,-35.10935974121094,-9.725009918212892,-13.64057922363281,3.69239330291748,4.470287322998047,XArbitraryZVertical,-0.0768462492184142,0.587999067551629,-0.1941383204489642,0.7814488015657085,0.8891447186470032,0.348409116268158,-0.2967034876346588,0,0,0,-1,-1,2759.652976375,walking,2,2022-05-12T10:31:02.069+02:00,2022-05-11T22:15:20.957+02:00,205,0.9472964,0.6030918,1.947791,162.3245,0,0,2022-05-12T10:31:04.627+02:00,674037067.1783804,0,0.4099998,100.903,1,0.97
319,2022-05-12T10:31:09.600+02:00,1652344268.000031,53.22900514588992,10.39835186676159,37.6448,0.0,0.92,60.8203125,96.56686056123024,4,5,-9999,2767.182241125,-25.27999877929688,0.839599609375,-0.9232940673828124,2767.172246125,-0.512800873706455,0.8079208148152249,-0.2724147324217012,32.6959228515625,-34.2147331237793,-4.222376823425293,-21.99801445007324,4.349335670471191,7.271111965179443,XArbitraryZVertical,-0.0220179814272822,0.4083557937676789,-0.282656500311587,0.867678688918129,0.6961961984634399,0.2690578997135162,-0.665521502494812,0,0,0,-1,-1,2759.652976375,walking,2,2022-05-12T10:31:02.069+02:00,2022-05-11T22:15:20.957+02:00,205,0.9472964,0.6030918,1.947791,162.3245,0,0,2022-05-12T10:31:04.627+02:00,674037067.1783804,0,0.4099998,100.903,1,0.97
320,2022-05-12T10:31:09.610+02:00,1652344268.000031,53.22900514588992,10.39835186676159,37.6448,0.0,0.92,60.8203125,96.56686056123024,4,5,-9999,2767.192236125,-17.31817626953125,0.4398651123046875,0.9372711181640624,2767.182241125,-0.7216607068972375,0.4780556466771242,0.0010010820624001,35.16312789916992,-24.39934921264648,2.378819704055786,-26.81187629699707,3.163843154907227,4.300182819366455,XArbitraryZVertical,0.0840427514562019,0.2213401933501476,-0.3429025712443023,0.9090452304728138,0.4600534439086914,-0.0010010818950831,-0.8878906965255737,0,0,0,-1,-1,2759.652976375,walking,2,2022-05-12T10:31:02.069+02:00,2022-05-11T22:15:20.957+02:00,205,0.9472964,0.6030918,1.947791,162.3245,0,0,2022-05-12T10:31:04.627+02:00,674037067.1783804,0,0.4099998,100.903,1,0.97
321,2022-05-12T10:31:09.620+02:00,1652344268.000031,53.22900514588992,10.39835186676159,37.6448,0.0,0.92,60.8203125,96.56686056123024,4,5,-9999,2767.202231125,-11.35282897949219,-5.902816772460938,3.875625610351562,2767.192236125,-0.8303945039688568,0.3137403104273591,0.3360552285012299,35.0952033996582,-11.64297962188721,2.879349231719971,-25.57135391235352,1.169365406036377,-0.02531498670578,XArbitraryZVertical,0.2132800290929497,0.0743101085059219,-0.3688990422935991,0.9016113995245704,0.2913552820682526,-0.3297655582427979,-0.8979792594909668,0,0,0,-1,-1,2759.652976375,walking,2,2022-05-12T10:31:02.069+02:00,2022-05-11T22:15:20.957+02:00,205,0.9472964,0.6030918,1.947791,162.3245,0,0,2022-05-12T10:31:04.627+02:00,674037067.1783804,0,0.4099998,100.903,1,0.97
322,2022-05-12T10:31:09.630+02:00,1652344268.000031,53.22900514588992,10.39835186676159,37.6448,0.0,0.92,60.8203125,96.56686056123024,4,5,-9999,2767.212226125,-5.551864624023438,-11.57221984863281,1.2271728515625,2767.202231125,-0.9024712909483348,0.2909889455974415,0.6774241249552784,32.86577224731445,0.2719696760177612,5.266793727874756,-17.54172706604004,1.066653251647949,1.683704137802124,XArbitraryZVertical,0.3554869410406283,-0.0203083166846444,-0.3636039743284903,0.8608187390821578,0.2235493659973145,-0.6267880201339722,-0.7464331984519958,0,0,0,-1,-1,2759.652976375,walking,2,2022-05-12T10:31:02.069+02:00,2022-05-11T22:15:20.957+02:00,205,0.9472964,0.6030918,1.947791,162.3245,0,0,2022-05-12T10:31:04.627+02:00,674037067.1783804,0,0.4099998,100.903,1,0.97
323,2022-05-12T10:31:09.640+02:00,1652344268.000031,53.22900514588992,10.39835186676159,37.6448,0.0,0.92,60.8203125,96.56686056123024,4,5,-9999,2767.222221125,-0.2272186279296875,-9.100479125976562,-2.0054931640625,2767.212226125,-0.9198042370955338,0.3371410171981613,0.9594469136121048,20.32351493835449,6.062823295593262,9.065088272094728,-11.54269409179688,-5.083942413330078,4.417285919189453,XArbitraryZVertical,0.4737785170360442,-0.0685819549830783,-0.3187898434017474,0.8180486742975538,0.1898647993803024,-0.8188742399215698,-0.5416608452796936,0,0,0,-1,-1,2759.652976375,walking,2,2022-05-12T10:31:02.069+02:00,2022-05-11T22:15:20.957+02:00,205,0.9472964,0.6030918,1.947791,162.3245,0,0,2022-05-12T10:31:04.627+02:00,674037067.1783804,0,0.4099998,100.903,1,0.97
324,2022-05-12T10:31:09.650+02:00,1652344268.000031,53.22900514588992,10.39835186676159,37.6448,0.0,0.92,60.8203125,96.56686056123024,4,5,-9999,2767.232216125,-0.28009033203125,-3.914581298828125,-3.221664428710938,2767.222221125,-0.8657196896718786,0.3588207900293625,1.109952932768526,6.928746223449707,6.495931625366211,5.849743843078613,-5.708032131195068,-10.67654228210449,1.643553972244263,XArbitraryZVertical,0.5342667175438318,-0.0798016597020375,-0.2654325538902717,0.7985841256830608,0.1561668813228607,-0.8956777453422546,-0.4163815379142761,0,0,0,-1,-1,2759.652976375,walking,2,2022-05-12T10:31:02.069+02:00,2022-05-11T22:15:20.957+02:00,205,0.9472964,0.6030918,1.947791,162.3245,0,0,2022-05-12T10:31:04.627+02:00,674037067.1783804,0,0.4099998,100.903,1,0.97
325,2022-05-12T10:31:09.660+02:00,1652344268.000031,53.22900514588992,10.39835186676159,37.6448,0.0,0.92,60.8203125,96.56686056123024,4,5,-9999,2767.242211125,-4.328964233398438,-3.617584228515625,-2.906219482421875,2767.232216125,-0.7642976137571862,0.3035234742373661,1.147147844207211,-2.489486694335938,1.262931227684021,5.116403102874756,-0.3500872254371643,-8.188883781433105,-1.613195538520813,XArbitraryZVertical,0.5450625891063842,-0.0822058871608464,-0.2335179144851953,0.8010108217336234,0.122868150472641,-0.9115951657295228,-0.3922979235649109,0,0,0,-1,-1,2759.652976375,walking,2,2022-05-12T10:31:02.069+02:00,2022-05-11T22:15:20.957+02:00,205,0.9472964,0.6030918,1.947791,162.3245,0,0,2022-05-12T10:31:04.627+02:00,674037067.1783804,0,0.4099998,100.903,1,0.97
326,2022-05-12T10:31:09.669+02:00,1652344268.000031,53.22900514588992,10.39835186676159,37.6448,0.0,0.92,60.8203125,96.56686056123024,4,5,-9999,2767.252206125,-5.101516723632812,-1.137664794921875,-1.48773193359375,2767.242211125,-0.6155306127262921,0.1811687053282677,1.10728245657662,-7.550475597381592,1.843133449554443,5.636490821838379,-0.3606478571891785,-3.020094156265259,-2.781888008117676,XArbitraryZVertical,0.522337844300767,-0.0852921155225078,-0.2112920674365247,0.8217324355487146,0.0805570930242538,-0.8944869637489319,-0.4397768676280975,0,0,0,-1,-1,2759.652976375,walking,2,2022-05-12T10:31:02.069+02:00,2022-05-11T22:15:20.957+02:00,205,0.9472964,0.6030918,1.947791,162.3245,0,0,2022-05-12T10:31:04.627+02:00,674037067.1783804,0,0.4099998,100.903,1,0.97
327,2022-05-12T10:31:09.679+02:00,1652344268.000031,53.22900514588992,10.39835186676159,37.6448,0.0,0.92,60.8203125,96.56686056123024,4,5,-9999,2767.262202125,-3.302017211914062,-0.1168212890625,-0.9242095947265624,2767.252206125,-0.4654811588928714,0.078105810865517,1.042033049351483,-6.484591960906982,3.766986846923828,6.817164897918701,-4.368326187133789,-2.754152536392212,-2.403291702270508,XArbitraryZVertical,0.4917822544437182,-0.0817693029595396,-0.1809789568504589,0.8477680530142279,0.0393616743385791,-0.8634316325187683,-0.5029280185699463,0,0,0,-1,-1,2759.652976375,walking,2,2022-05-12T10:31:02.069+02:00,2022-05-11T22:15:20.957+02:00,205,0.9472964,0.6030918,1.947791,162.3245,0,0,2022-05-12T10:31:04.627+02:00,674037067.1783804,0,0.4099998,100.903,1,0.97
328,2022-05-12T10:31:09.689+02:00,1652344268.000031,53.22900514588992,10.39835186676159,37.6448,0.0,0.92,60.8203125,96.56686056123024,4,5,-9999,2767.272197125,-4.405181884765625,-0.3289337158203125,-0.662109375,2767.262202125,-0.3249456471938031,-0.0060563025147227,0.9985813809396386,-2.968976020812988,3.7692551612854,7.387280464172363,-5.09823751449585,-0.2969609498977661,-0.94624662399292,XArbitraryZVertical,0.4720650149934684,-0.0800737568602808,-0.1434419400926985,0.8661219950138651,-0.0032794408034533,-0.8407036662101746,-0.541485607624054,0,0,0,-1,-1,2759.652976375,walking,2,2022-05-12T10:31:02.069+02:00,2022-05-11T22:15:20.957+02:00,205,0.9472964,0.6030918,1.947791,162.3245,0,0,2022-05-12T10:31:04.627+02:00,674037067.1783804,0,0.4099998,100.903,1,0.97
329,2022-05-12T10:31:09.699+02:00,1652344268.000031,53.22900514588992,10.39835186676159,37.6448,0.0,0.92,60.8203125,96.56686056123024,4,5,-9999,2767.282192125,-3.3896484375,-0.6664276123046875,-0.567291259765625,2767.272197125,-0.1859837674823997,-0.0747510291053225,0.9796409815801176,-0.2597495913505554,5.586472988128662,8.282383918762207,-3.260396003723145,0.713476300239563,-0.3684455752372742,XArbitraryZVertical,0.4650457815003288,-0.0764867683323887,-0.0993861149601756,0.8763587613761893,-0.0416215136647224,-0.8302973508834839,-0.555764377117157,0,0,0,-1,-1,2759.652976375,walking,2,2022-05-12T10:31:02.069+02:00,2022-05-11T22:15:20.957+02:00,205,0.9472964,0.6030918,1.947791,162.3245,0,0,2022-05-12T10:31:04.627+02:00,674037067.1783804,0,0.4099998,100.903,1,0.97
330,2022-05-12T10:31:09.709+02:00,1652344268.000031,53.22900514588992,10.39835186676159,37.6448,0.0,0.92,60.8203125,96.56686056123024,4,5,-9999,2767.292187125,-3.55718994140625,-1.003097534179688,-0.5434112548828125,2767.282192125,-0.0355373875571168,-0.142863595375274,0.974365128789215,0.7992191314697266,5.753052234649658,8.50407886505127,-4.325209140777588,0.4984120726585388,-0.1061386466026306,XArbitraryZVertical,0.4657499939389196,-0.0713540184794555,-0.0490667756322528,0.8806690707326379,-0.079972855746746,-0.8273454308509827,-0.555971086025238,0,0,0,-1,-1,2759.652976375,walking,2,2022-05-12T10:31:02.069+02:00,2022-05-11T22:15:20.957+02:00,205,0.9472964,0.6030918,1.947791,162.3245,0,0,2022-05-12T10:31:04.627+02:00,674037067.1783804,0,0.4099998,100.903,1,0.97
331,2022-05-12T10:31:09.719+02:00,1652344268.000031,53.22900514588992,10.39835186676159,37.6448,0.0,0.92,60.8203125,96.56686056123024,4,5,-9999,2767.302182125,-3.342239379882812,-1.626632690429688,-0.347869873046875,2767.292187125,0.1208977334433539,-0.2144680128789058,0.9689640310885602,1.214659929275513,5.72957706451416,9.111785888671877,-3.269155502319336,0.1578722596168518,-0.0141085386276245,XArbitraryZVertical,0.4679506263690221,-0.0665630736897898,0.0033950181616488,0.8812378456935324,-0.1204932034015656,-0.8242996335029602,-0.5531831383705139,0,0,0,-1,-1,2759.652976375,walking,2,2022-05-12T10:31:02.069+02:00,2022-05-11T22:15:20.957+02:00,205,0.9472964,0.6030918,1.947791,162.3245,0,0,2022-05-12T10:31:04.627+02:00,674037067.1783804,0,0.4099998,100.903,1,0.97
332,2022-05-12T10:31:09.729+02:00,1652344268.000031,53.22900514588992,10.39835186676159,37.6448,0.0,0.92,60.8203125,96.56686056123024,4,5,-9999,2767.312177125,-3.015548706054688,-1.686370849609375,-0.2248382568359375,2767.302182125,0.2826797911506598,-0.2903703126853735,0.956728793929587,0.9817601442337036,5.661395072937012,9.371638298034668,-3.392220973968506,-0.1857861876487732,0.0086642503738403,XArbitraryZVertical,0.4690353634152865,-0.0629908895688238,0.0578071963036844,0.8790315233651115,-0.164969190955162,-0.8173111081123352,-0.5520759224891663,0,0,0,-1,-1,2759.652976375,walking,2,2022-05-12T10:31:02.069+02:00,2022-05-11T22:15:20.957+02:00,205,0.9472964,0.6030918,1.947791,162.3245,0,0,2022-05-12T10:31:04.627+02:00,674037067.1783804,0,0.4099998,100.903,1,0.97
333,2022-05-12T10:31:09.740+02:00,1652344268.000031,53.22900514588992,10.39835186676159,37.6448,0.0,0.92,60.8203125,96.56686056123024,4,5,-9999,2767.322172125,-2.779953002929688,-1.478775024414062,-0.2162322998046875,2767.312177125,0.439077824121555,-0.3612936233046212,0.9353771823476952,0.9098026156425476,5.450020790100098,9.323765754699709,-3.13244104385376,-0.8218094110488892,0.2073276042938232,XArbitraryZVertical,0.4677694352373284,-0.0599401003667652,0.1121760067911296,0.8746517186373172,-0.2097984403371811,-0.8048229813575745,-0.5551978945732117,0,0,0,-1,-1,2759.652976375,walking,2,2022-05-12T10:31:02.069+02:00,2022-05-11T22:15:20.957+02:00,205,0.9472964,0.6030918,1.947791,162.3245,0,0,2022-05-12T10:31:04.627+02:00,674037067.1783804,0,0.4099998,100.903,1,0.97
334,2022-05-12T10:31:09.827+02:00,1652344268.000031,53.22900514588992,10.39835186676159,37.6448,0.0,0.92,60.8203125,96.56686056123024,4,5,-9999,2767.332167125,-2.831497192382812,-1.58709716796875,-0.2108917236328125,2767.322172125,0.5864752071942226,-0.4268498338110733,0.909293208550794,1.085650682449341,4.963859558105469,9.131579399108888,-2.761223793029785,-0.8973007798194885,0.3343462347984314,XArbitraryZVertical,0.4658652541057719,-0.0581129177850333,0.1647539569451323,0.867437967808108,-0.2543250024318695,-0.7890697717666626,-0.5591849088668823,0,0,0,-1,-1,2759.652976375,walking,2,2022-05-12T10:31:02.069+02:00,2022-05-11T22:15:20.957+02:00,205,0.9472964,0.6030918,1.947791,162.3245,0,0,2022-05-12T10:31:04.627+02:00,674037067.1783804,0,0.4099998,100.903,1,0.97
335,2022-05-12T10:31:09.866+02:00,1652344268.000031,53.22900514588992,10.39835186676159,37.6448,0.0,0.92,60.8203125,96.56686056123024,4,5,-9999,2767.342162125,-2.702285766601562,-1.740982055664062,-0.2192840576171875,2767.332167125,0.7237238230102152,-0.4855566204165259,0.8791225674252215,1.031688690185547,4.729207515716553,8.982935905456543,-2.48227858543396,-0.7085952162742615,0.3478713631629944,XArbitraryZVertical,0.4633280531491244,-0.0572280524696709,0.2152923086443606,0.8577303260390797,-0.2976744174957275,-0.7701795101165771,-0.5641041398048401,0,0,0,-1,-1,2759.652976375,walking,2,2022-05-12T10:31:02.069+02:00,2022-05-11T22:15:20.957+02:00,205,0.9472964,0.6030918,1.947791,162.3245,0,0,2022-05-12T10:31:04.627+02:00,674037067.1783804,0,0.4099998,100.903,1,0.97
336,2022-05-12T10:31:09.887+02:00,1652344268.000031,53.22900514588992,10.39835186676159,37.6448,0.0,0.92,60.8203125,96.56686056123024,4,5,-9999,2767.352157125,-2.498672485351562,-1.8267822265625,-0.253570556640625,2767.342162125,0.8492798006369215,-0.5347005437075794,0.8433532304983817,0.686350405216217,4.475770950317383,8.787371635437012,-2.492643356323242,-0.8402197957038879,0.3612554669380188,XArbitraryZVertical,0.458996542312807,-0.0569945789949257,0.2640273113458258,0.8463825599152857,-0.3388536870479584,-0.7468770742416382,-0.5721476078033447,0,0,0,-1,-1,2759.652976375,walking,2,2022-05-12T10:31:02.069+02:00,2022-05-11T22:15:20.957+02:00,205,0.9472964,0.6030918,1.947791,162.3245,0,0,2022-05-12T10:31:04.627+02:00,674037067.1783804,0,0.4099998,100.903,1,0.97
337,2022-05-12T10:31:09.894+02:00,1652344268.000031,53.22900514588992,10.39835186676159,37.6448,0.0,0.92,60.8203125,96.56686056123024,4,5,-9999,2767.362152125,-2.338516235351562,-1.780853271484375,-0.29998779296875,2767.352157125,0.9606737799808748,-0.5732672206749764,0.8013118516599771,0.1371438503265381,4.131677627563477,8.527320861816406,-2.32491660118103,-1.022712230682373,0.3652510046958923,XArbitraryZVertical,0.4520701967385254,-0.0580069316928249,0.3103337038694842,0.8342426315518442,-0.3773689568042755,-0.7182694673538208,-0.5845354795455933,0,0,0,-1,-1,2759.652976375,walking,2,2022-05-12T10:31:02.069+02:00,2022-05-11T22:15:20.957+02:00,205,0.9472964,0.6030918,1.947791,162.3245,0,0,2022-05-12T10:31:04.627+02:00,674037067.1783804,0,0.4099998,100.903,1,0.97
338,2022-05-12T10:31:09.927+02:00,1652344268.000031,53.22900514588992,10.39835186676159,37.6448,0.0,0.92,60.8203125,96.56686056123024,4,5,-9999,2767.372148125,-2.25042724609375,-1.723007202148438,-0.3268585205078125,2767.362152125,1.057326717117204,-0.6019866834569412,0.7537899797538887,-0.4089754223823547,3.691641807556152,8.208202362060547,-2.085796594619751,-1.142374992370605,0.3473623991012573,XArbitraryZVertical,0.4425420630136861,-0.0607438705030123,0.3536786571872145,0.8218140441030852,-0.4128756821155548,-0.6844069361686707,-0.6009334325790405,0,0,0,-1,-1,2759.652976375,walking,2,2022-05-12T10:31:02.069+02:00,2022-05-11T22:15:20.957+02:00,205,0.9472964,0.6030918,1.947791,162.3245,0,0,2022-05-12T10:31:04.627+02:00,674037067.1783804,0,0.4099998,100.903,1,0.97
339,2022-05-12T10:31:09.931+02:00,1652344268.000031,53.22900514588992,10.39835186676159,37.6448,0.0,0.92,60.8203125,96.56686056123024,4,5,-9999,2767.382143125,-2.280426025390625,-1.602462768554688,-0.391448974609375,2767.372148125,1.140183568666184,-0.6227451111760403,0.7021783506611133,-0.9122586846351624,3.211439609527588,7.860487937927246,-1.89322829246521,-1.134970784187317,0.3201367855072021,XArbitraryZVertical,0.4308695890943588,-0.0654895337428987,0.3937149554548859,0.8093523972264898,-0.445287823677063,-0.645882248878479,-0.6201250553131104,0,0,0,-1,-1,2759.652976375,walking,2,2022-05-12T10:31:02.069+02:00,2022-05-11T22:15:20.957+02:00,205,0.9472964,0.6030918,1.947791,162.3245,0,0,2022-05-12T10:31:04.627+02:00,674037067.1783804,0,0.4099998,100.903,1,0.97
340,2022-05-12T10:31:09.937+02:00,1652344268.000031,53.22900514588992,10.39835186676159,37.6448,0.0,0.92,60.8203125,96.56686056123024,4,5,-9999,2767.392138125,-2.416900634765625,-1.380340576171875,-0.4334259033203125,2767.382143125,1.211588538571864,-0.637590196067227,0.6484259008700961,-1.176220893859863,2.788615942001343,7.469459056854248,-1.775983095169067,-1.11907434463501,0.3135849833488464,XArbitraryZVertical,0.417849439087055,-0.0719713004444421,0.4304762734217498,0.7968138207262009,-0.4744440019130707,-0.6039325594902039,-0.6404439806938171,0,0,0,-1,-1,2759.652976375,walking,2,2022-05-12T10:31:02.069+02:00,2022-05-11T22:15:20.957+02:00,205,0.9472964,0.6030918,1.947791,162.3245,0,0,2022-05-12T10:31:04.627+02:00,674037067.1783804,0,0.4099998,100.903,1,0.97
341,2022-05-12T10:31:09.940+02:00,1652344268.000031,53.22900514588992,10.39835186676159,37.6448,0.0,0.92,60.8203125,96.56686056123024,4,5,-9999,2767.402133125,-2.448928833007812,-1.169097900390625,-0.4955596923828125,2767.392138125,1.274184164327271,-0.6467034044397738,0.5958607855586788,-1.087185382843018,2.727033853530884,6.968389987945557,-1.781708478927612,-1.04124116897583,0.2690896391868591,XArbitraryZVertical,0.4044174273350872,-0.0785943486174658,0.464209696655636,0.7840783799354439,-0.4987172484397888,-0.5612214207649231,-0.6605389714241028,0,0,0,-1,-1,2759.652976375,walking,2,2022-05-12T10:31:02.069+02:00,2022-05-11T22:15:20.957+02:00,205,0.9472964,0.6030918,1.947791,162.3245,0,0,2022-05-12T10:31:04.627+02:00,674037067.1783804,0,0.4099998,100.903,1,0.97
342,2022-05-12T10:31:09.945+02:00,1652344268.000031,53.22900514588992,10.39835186676159,37.6448,0.0,0.92,60.8203125,96.56686056123024,4,5,-9999,2767.412128125,-2.3682861328125,-1.147384643554688,-0.529541015625,2767.402133125,1.331132153511859,-0.6497742836459327,0.5487206765792447,-0.6131355166435242,2.824941635131836,6.357078552246094,-1.900713205337524,-0.8587441444396973,0.2459030151367188,XArbitraryZVertical,0.3916938773109587,-0.0831340656378338,0.4952898311391712,0.7709426883528158,-0.5161871910095215,-0.5215961337089539,-0.6793292760848999,0,0,0,-1,-1,2759.652976375,walking,2,2022-05-12T10:31:02.069+02:00,2022-05-11T22:15:20.957+02:00,205,0.9472964,0.6030918,1.947791,162.3245,0,0,2022-05-12T10:31:04.627+02:00,674037067.1783804,0,0.4099998,100.903,1,0.97
343,2022-05-12T10:31:09.948+02:00,1652344268.000031,53.22900514588992,10.39835186676159,37.6448,0.0,0.92,60.8203125,96.56686056123024,4,5,-9999,2767.422123125,-2.23712158203125,-1.2132568359375,-0.5279998779296875,2767.412128125,1.384658691855178,-0.6479572462190005,0.5092755862429985,-0.1109880656003952,2.950263023376465,5.773038387298584,-1.92196249961853,-0.6815527677536011,0.2005769610404968,XArbitraryZVertical,0.3804661291490749,-0.0847171799534563,0.5238852371659403,0.7573723472200683,-0.5269660949707031,-0.4875448942184448,-0.6961370706558228,0,0,0,-1,-1,2759.652976375,walking,2,2022-05-12T10:31:02.069+02:00,2022-05-11T22:15:20.957+02:00,205,0.9472964,0.6030918,1.947791,162.3245,0,0,2022-05-12T10:31:04.627+02:00,674037067.1783804,0,0.4099998,100.903,1,0.97
344,2022-05-12T10:31:09.951+02:00,1652344268.000031,53.22900514588992,10.39835186676159,37.6448,0.0,0.92,60.8203125,96.56686056123024,4,5,-9999,2767.432118125,-2.079299926757812,-1.225921630859375,-0.5169830322265625,2767.422123125,1.43473129763668,-0.641430635246131,0.4765165766397085,0.1571475118398666,3.088633298873901,5.220792293548584,-1.836599826812744,-0.6886978149414062,0.1824395060539246,XArbitraryZVertical,0.3701635982059484,-0.0835970282031318,0.550192421102743,0.743827197820541,-0.5316858887672424,-0.4586865901947021,-0.7119808793067932,0,0,0,-1,-1,2759.652976375,walking,2,2022-05-12T10:31:02.069+02:00,2022-05-11T22:15:20.957+02:00,205,0.9472964,0.6030918,1.947791,162.3245,0,0,2022-05-12T10:31:04.627+02:00,674037067.1783804,0,0.4099998,100.903,1,0.97
345,2022-05-12T10:31:09.953+02:00,1652344268.000031,53.22900514588992,10.39835186676159,37.6448,0.0,0.92,60.8203125,96.56686056123024,4,5,-9999,2767.442113125,-1.950088500976562,-1.241683959960938,-0.5380401611328125,2767.432118125,1.481010582379564,-0.630568051426635,0.4490442522330862,0.3331266641616821,3.226855993270874,4.712579250335693,-1.705969452857971,-0.7791519165039062,0.1996197700500488,XArbitraryZVertical,0.3601890697594092,-0.080335715153849,0.5743481928296265,0.7307080157411353,-0.5311517715454102,-0.4341047406196594,-0.727620005607605,0,0,0,-1,-1,2759.652976375,walking,2,2022-05-12T10:31:02.069+02:00,2022-05-11T22:15:20.957+02:00,205,0.9472964,0.6030918,1.947791,162.3245,0,0,2022-05-12T10:31:04.627+02:00,674037067.1783804,0,0.4099998,100.903,1,0.97
346,2022-05-12T10:31:09.955+02:00,1652344268.000031,53.22900514588992,10.39835186676159,37.6448,0.0,0.92,60.8203125,96.56686056123024,4,5,-9999,2767.452108125,-1.801971435546875,-1.307510375976562,-0.57598876953125,2767.442113125,1.523266672480426,-0.6151735442385261,0.4256668764446507,0.3066870868206024,3.435897588729858,4.251452922821045,-1.55369758605957,-0.8129932284355164,0.2268128991127014,XArbitraryZVertical,0.3499161117920713,-0.0752366849569158,0.5965925930790674,0.7183143634866535,-0.5256019234657288,-0.4129282534122467,-0.7437962889671326,0,0,0,-1,-1,2759.652976375,walking,2,2022-05-12T10:31:02.069+02:00,2022-05-11T22:15:20.957+02:00,205,0.9472964,0.6030918,1.947791,162.3245,0,0,2022-05-12T10:31:04.627+02:00,674037067.1783804,0,0.4099998,100.903,1,0.97
347,2022-05-12T10:31:09.958+02:00,1652344268.000031,53.22900514588992,10.39835186676159,37.6448,0.0,0.92,60.8203125,96.56686056123024,4,5,-9999,2767.462103125,-1.630340576171875,-1.273910522460938,-0.59515380859375,2767.452108125,1.560926306112248,-0.5950738474736409,0.4041942540936312,0.071080669760704,3.609172344207764,3.862941980361938,-1.434689044952393,-0.8484057188034058,0.2233374118804932,XArbitraryZVertical,0.3384412691415986,-0.0690547721297882,0.6171873586736849,0.7069432395110126,-0.5153989791870117,-0.3932780623435974,-0.7613778710365295,0,0,0,-1,-1,2767.323550125,running,2,2022-05-12T10:31:09.740+02:00,2022-05-11T22:15:20.957+02:00,205,0.9472964,0.6030918,1.947791,162.3245,0,0,2022-05-12T10:31:04.627+02:00,674037069.7393887,0,0.6100006,100.9025,1,0.97
348,2022-05-12T10:31:09.961+02:00,1652344268.000031,53.22900514588992,10.39835186676159,37.6448,0.0,0.92,60.8203125,96.56686056123024,4,5,-9999,2767.472098125,-1.469436645507812,-1.214187622070312,-0.5974884033203125,2767.462103125,1.593401319585361,-0.5710166912577384,0.3831910501012715,-0.2910714149475098,3.687487363815308,3.457389116287231,-1.300681471824646,-0.933628261089325,0.2043448090553284,XArbitraryZVertical,0.3254380635204043,-0.0626346406712032,0.6360597233036853,0.696846476381409,-0.5012895464897156,-0.373881995677948,-0.780333936214447,0,0,0,-1,-1,2767.323550125,running,2,2022-05-12T10:31:09.740+02:00,2022-05-11T22:15:20.957+02:00,205,0.9472964,0.6030918,1.947791,162.3245,0,0,2022-05-12T10:31:04.627+02:00,674037069.7393887,0,0.6100006,100.9025,1,0.97
349,2022-05-12T10:31:09.963+02:00,1652344268.000031,53.22900514588992,10.39835186676159,37.6448,0.0,0.92,60.8203125,96.56686056123024,4,5,-9999,2767.482094125,-1.397369384765625,-1.0518798828125,-0.6504058837890625,2767.472098125,1.620144912045672,-0.5442390692433303,0.3617817362713556,-0.703860878944397,3.587675809860229,3.015043258666992,-1.146089196205139,-0.9199692010879515,0.2049875259399414,XArbitraryZVertical,0.3109775474275253,-0.056763888567838,0.6529629938994399,0.6882661390479912,-0.4842509925365448,-0.3539412021636963,-0.8001416325569153,0,0,0,-1,-1,2767.323550125,running,2,2022-05-12T10:31:09.740+02:00,2022-05-11T22:15:20.957+02:00,205,0.9472964,0.6030918,1.947791,162.3245,0,0,2022-05-12T10:31:04.627+02:00,674037069.7393887,0,0.6100006,100.9025,1,0.97
350,2022-05-12T10:31:09.966+02:00,1652344268.000031,53.22900514588992,10.39835186676159,37.6448,0.0,0.92,60.8203125,96.56686056123024,4,5,-9999,2767.492089125,-1.328903198242188,-0.888214111328125,-0.7253875732421875,2767.482094125,1.640902221057033,-0.5162092288273221,0.3401530553642021,-1.049244403839111,3.457419633865356,2.559473276138306,-1.004130125045776,-0.8805561065673828,0.2223773598670959,XArbitraryZVertical,0.2956008584815495,-0.0518372134538015,0.6675609489249942,0.6813924404141237,-0.4653061628341675,-0.3336313962936401,-0.8198660612106323,0,0,0,-1,-1,2767.323550125,running,2,2022-05-12T10:31:09.740+02:00,2022-05-11T22:15:20.957+02:00,205,0.9472964,0.6030918,1.947791,162.3245,0,0,2022-05-12T10:31:04.627+02:00,674037069.7393887,0,0.6100006,100.9025,1,0.97
351,2022-05-12T10:31:09.968+02:00,1652344268.000031,53.22900514588992,10.39835186676159,37.6448,0.0,0.92,60.8203125,96.56686056123024,4,5,-9999,2767.502084125,-1.282180786132812,-0.68975830078125,-0.774627685546875,2767.492089125,1.657168615362936,-0.4877021956283323,0.3187034525109186,-1.201711654663086,3.283738136291504,2.208351135253906,-0.9523690938949584,-0.738544225692749,0.1885193586349487,XArbitraryZVertical,0.2797626818897248,-0.0476453350385388,0.6802156108668803,0.6758474121108848,-0.4449998438358307,-0.3133355677127838,-0.8389255404472351,0,0,0,-1,-1,2767.323550125,running,2,2022-05-12T10:31:09.740+02:00,2022-05-11T22:15:20.957+02:00,205,0.9472964,0.6030918,1.947791,162.3245,0,0,2022-05-12T10:31:04.627+02:00,674037069.7393887,0,0.6100006,100.9025,1,0.97
352,2022-05-12T10:31:09.972+02:00,1652344268.000031,53.22900514588992,10.39835186676159,37.6448,0.0,0.92,60.8203125,96.56686056123024,4,5,-9999,2767.512079125,-1.249496459960938,-0.544464111328125,-0.77264404296875,2767.502084125,1.670448554096562,-0.459947034431138,0.2989921556343977,-1.138551592826843,3.083224534988403,1.846680998802185,-0.9046962261199952,-0.5936567783355713,0.1309326887130737,XArbitraryZVertical,0.2644381301854881,-0.0437285480265469,0.6910927827462658,0.6712311002055515,-0.4242064952850342,-0.2945572137832642,-0.8563205599784851,0,0,0,-1,-1,2767.323550125,running,2,2022-05-12T10:31:09.740+02:00,2022-05-11T22:15:20.957+02:00,205,0.9472964,0.6030918,1.947791,162.3245,0,0,2022-05-12T10:31:04.627+02:00,674037069.7393887,0,0.6100006,100.9025,1,0.97
353,2022-05-12T10:31:09.974+02:00,1652344268.000031,53.22900514588992,10.39835186676159,37.6448,0.0,0.92,60.8203125,96.56686056123024,4,5,-9999,2767.522074125,-1.195175170898438,-0.5136260986328125,-0.7615509033203125,2767.512079125,1.681447610882531,-0.4329239635385035,0.2820028717568027,-1.009451866149902,2.952777862548828,1.534602522850037,-0.8792247772216797,-0.4114782512187958,0.0972591638565063,XArbitraryZVertical,0.2499852552008467,-0.0395450196371316,0.7003850999499673,0.6673862595733026,-0.4029555022716522,-0.2782799601554871,-0.8718871474266052,0,0,0,-1,-1,2767.323550125,running,2,2022-05-12T10:31:09.740+02:00,2022-05-11T22:15:20.957+02:00,205,0.9472964,0.6030918,1.947791,162.3245,0,0,2022-05-12T10:31:04.627+02:00,674037069.7393887,0,0.6100006,100.9025,1,0.97
354,2022-05-12T10:31:09.978+02:00,1652344268.000031,53.22900514588992,10.39835186676159,37.6448,0.0,0.92,60.8203125,96.56686056123024,4,5,-9999,2767.532068041667,-1.1707763671875,-0.4663238525390625,-0.760009765625,2767.522073041667,1.690818399443017,-0.4066601967951703,0.2677894750005196,-0.8369672298431396,2.812803745269775,1.278861284255981,-0.8680497407913208,-0.2798636853694916,0.1130675673484802,XArbitraryZVertical,0.236481193625159,-0.0349387201297589,0.7083854511548462,0.6641130829722268,-0.3814461827278137,-0.2646003365516663,-0.8857118487358093,0,0,0,-1,-1,2767.323550125,running,2,2022-05-12T10:31:09.740+02:00,2022-05-11T22:15:20.957+02:00,205,0.9472964,0.6030918,1.947791,162.3245,0,0,2022-05-12T10:31:04.627+02:00,674037069.7393887,0,0.6100006,100.9025,1,0.97
