,loggingTime(txt),locationTimestamp_since1970(s),locationLatitude(WGS84),locationLongitude(WGS84),locationAltitude(m),locationSpeed(m/s),locationSpeedAccuracy(m/s),locationCourse(°),locationCourseAccuracy(°),locationVerticalAccuracy(m),locationHorizontalAccuracy(m),locationFloor(Z),accelerometerTimestamp_sinceReboot(s),accelerometerAccelerationX(G),accelerometerAccelerationY(G),accelerometerAccelerationZ(G),motionTimestamp_sinceReboot(s),motionYaw(rad),motionRoll(rad),motionPitch(rad),motionRotationRateX(rad/s),motionRotationRateY(rad/s),motionRotationRateZ(rad/s),motionUserAccelerationX(G),motionUserAccelerationY(G),motionUserAccelerationZ(G),motionAttitudeReferenceFrame(txt),motionQuaternionX(R),motionQuaternionY(R),motionQuaternionZ(R),motionQuaternionW(R),motionGravityX(G),motionGravityY(G),motionGravityZ(G),motionMagneticFieldX(µT),motionMagneticFieldY(µT),motionMagneticFieldZ(µT),motionHeading(°),motionMagneticFieldCalibrationAccuracy(Z),activityTimestamp_sinceReboot(s),activity(txt),activityActivityConfidence(Z),activityActivityStartDate(txt),pedometerStartDate(txt),pedometerNumberofSteps(N),pedometerAverageActivePace(s/m),pedometerCurrentPace(s/m),pedometerCurrentCadence(steps/s),pedometerDistance(m),pedometerFloorAscended(N),pedometerFloorDescended(N),pedometerEndDate(txt),altimeterTimestamp_sinceReboot(s),altimeterReset(bool),altimeterRelativeAltitude(m),altimeterPressure(kPa),batteryState(N),batteryLevel(R)
286,2022-05-12T10:31:57.591+02:00,1652344315.999932,53.2289762702335,10.39845219814256,37.35916,0.0,0.87,350.859375,97.00693647964334,4.0,5.0,-9999,2815.17384475,-0.0920867919921875,1.017776489257812,2.2957763671875,2815.16884775,-1.9179124481848,2.040457197445519,-0.1454989429271642,-1.903675317764282,9.299264907836914,-0.7884054780006409,-0.6167353987693787,0.4734674692153931,1.307828426361084,XArbitraryZVertical,0.6739402042892197,0.5193317721229637,-0.4627105125916808,0.2489942135477624,0.8822996616363525,0.1449861228466034,0.4478017687797546,0,0,0,-1,-1,2810.827083875,walking,2,2022-05-12T10:31:53.243+02:00,2022-05-11T22:15:20.957+02:00,268,0.9445748,0.6794919,1.85568,201.4785,0,0,2022-05-12T10:31:53.243+02:00,674037115.7944142,0,1.369999,100.8912,1,0.97
287,2022-05-12T10:31:57.601+02:00,1652344315.999932,53.2289762702335,10.39845219814256,37.35916,0.0,0.87,350.859375,97.00693647964334,4.0,5.0,-9999,2815.18383975,-0.27471923828125,1.099090576171875,2.632431030273438,2815.17884275,-1.891613471680602,2.140627485685061,-0.1427081410676621,-2.866125822067261,9.981321334838867,-1.315044760704041,-0.8147557973861694,0.7514216899871826,1.576086163520813,XArbitraryZVertical,0.6896782399784901,0.5397655263509642,-0.4247495736344618,0.2293142597226607,0.8334329128265381,0.1422242373228073,0.5340058207511902,0,0,0,-1,-1,2810.827083875,walking,2,2022-05-12T10:31:53.243+02:00,2022-05-11T22:15:20.957+02:00,268,0.9445748,0.6794919,1.85568,201.4785,0,0,2022-05-12T10:31:53.243+02:00,674037115.7944142,0,1.369999,100.8912,1,0.97
288,2022-05-12T10:31:57.611+02:00,1652344315.999932,53.2289762702335,10.39845219814256,37.35916,0.0,0.87,350.859375,97.00693647964334,4.0,5.0,-9999,2815.19383475,-0.4002227783203125,1.242782592773438,2.991455078125,2815.18883775,-1.855447620759566,2.248534605003091,-0.1361305738314752,-3.724800109863281,10.55725193023682,-1.841895818710327,-0.9620323777198792,0.9376229047775269,1.848677635192871,XArbitraryZVertical,0.7025094706573131,0.5631131101725005,-0.3815663009592468,0.2092636991771779,0.7717861533164978,0.1357105076313019,0.6212318539619446,0,0,0,-1,-1,2810.827083875,walking,2,2022-05-12T10:31:53.243+02:00,2022-05-11T22:15:20.957+02:00,268,0.9445748,0.6794919,1.85568,201.4785,0,0,2022-05-12T10:31:53.243+02:00,674037115.7944142,0,1.369999,100.8912,1,0.97
289,2022-05-12T10:31:57.621+02:00,1652344315.999932,53.2289762702335,10.39845219814256,37.35916,0.0,0.87,350.859375,97.00693647964334,4.0,5.0,-9999,2815.20383075,-0.54388427734375,1.2589111328125,3.295913696289062,2815.19883275,-1.80988057146945,2.361955279512382,-0.1224808561856811,-4.79907751083374,10.90922546386719,-2.226099729537964,-1.071655988693237,1.069948196411133,2.096923828125,XArbitraryZVertical,0.7116609756906551,0.5886077958948793,-0.3332538755153875,0.1897931850232911,0.6977550387382507,0.1221748515963554,0.7058409452438354,0,0,0,-1,-1,2810.827083875,walking,2,2022-05-12T10:31:53.243+02:00,2022-05-11T22:15:20.957+02:00,268,0.9445748,0.6794919,1.85568,201.4785,0,0,2022-05-12T10:31:53.243+02:00,674037115.7944142,0,1.369999,100.8912,1,0.97
290,2022-05-12T10:31:57.632+02:00,1652344315.999932,53.2289762702335,10.39845219814256,37.35916,0.0,0.87,350.859375,97.00693647964334,4.0,5.0,-9999,2815.21382575,-0.6089324951171875,1.337646484375,3.617538452148438,2815.20882775,-1.756798352835891,2.477660632059365,-0.0988547841430681,-5.675402641296387,11.05049419403076,-2.537745237350464,-1.06889796257019,1.132568120956421,2.361716270446777,XArbitraryZVertical,0.7165260248499783,0.6151875813536349,-0.2803653582334236,0.1718435254491255,0.613210141658783,0.0986938551068306,0.7837306261062622,0,0,0,-1,-1,2810.827083875,walking,2,2022-05-12T10:31:53.243+02:00,2022-05-11T22:15:20.957+02:00,268,0.9445748,0.6794919,1.85568,201.4785,0,0,2022-05-12T10:31:53.243+02:00,674037115.7944142,0,1.369999,100.8912,1,0.97
291,2022-05-12T10:31:57.641+02:00,1652344315.999932,53.2289762702335,10.39845219814256,37.35916,0.0,0.87,350.859375,97.00693647964334,4.0,5.0,-9999,2815.22382075,-0.6513214111328125,1.344863891601562,3.91717529296875,2815.21882275,-1.700527389005313,2.592764127356407,-0.0653177012713645,-6.215977668762207,11.02344608306885,-2.850844860076904,-1.099615812301636,1.244420886039734,2.604126930236816,XArbitraryZVertical,0.717114276298993,0.6414092592385597,-0.2242608666994207,0.1550762090559172,0.520576000213623,0.0652712658047676,0.8513174653053284,0,0,0,-1,-1,2810.827083875,walking,2,2022-05-12T10:31:53.243+02:00,2022-05-11T22:15:20.957+02:00,268,0.9445748,0.6794919,1.85568,201.4785,0,0,2022-05-12T10:31:53.243+02:00,674037115.7944142,0,1.369999,100.8912,1,0.97
292,2022-05-12T10:31:57.651+02:00,1652344315.999932,53.2289762702335,10.39845219814256,37.35916,0.0,0.87,350.859375,97.00693647964334,4.0,5.0,-9999,2815.23381575,-0.639190673828125,1.26019287109375,4.19415283203125,2815.22881775,-1.643847222625658,2.704263133845592,-0.0237072817333023,-6.457160472869873,10.7243185043335,-3.202739953994751,-1.062516689300537,1.327872514724731,2.872353076934814,XArbitraryZVertical,0.7132147058307996,0.6664387125844142,-0.1667558216605965,0.1392007256083226,0.4234029054641724,0.0237050615251064,0.9056315422058104,0,0,0,-1,-1,2810.827083875,walking,2,2022-05-12T10:31:53.243+02:00,2022-05-11T22:15:20.957+02:00,268,0.9445748,0.6794919,1.85568,201.4785,0,0,2022-05-12T10:31:53.243+02:00,674037115.7944142,0,1.369999,100.8912,1,0.97
293,2022-05-12T10:31:57.661+02:00,1652344315.999932,53.2289762702335,10.39845219814256,37.35916,0.0,0.87,350.859375,97.00693647964334,4.0,5.0,-9999,2815.24381075,-0.617218017578125,1.104248046875,4.491546630859375,2815.23881375,-1.587708298042922,2.808798466565324,0.0231589211187988,-6.418107032775879,10.13833618164062,-3.731249094009399,-0.9793680310249328,1.323251247406006,3.108052730560303,XArbitraryZVertical,0.7045093344156929,0.6900048452127666,-0.1100904843526236,0.1242586703203184,0.3265977203845978,-0.023156851530075,0.944880187511444,0,0,0,-1,-1,2810.827083875,walking,2,2022-05-12T10:31:53.243+02:00,2022-05-11T22:15:20.957+02:00,268,0.9445748,0.6794919,1.85568,201.4785,0,0,2022-05-12T10:31:53.243+02:00,674037115.7944142,0,1.369999,100.8912,1,0.97
294,2022-05-12T10:31:57.671+02:00,1652344315.999932,53.2289762702335,10.39845219814256,37.35916,0.0,0.87,350.859375,97.00693647964334,4.0,5.0,-9999,2815.25380575,-0.61492919921875,0.9958038330078124,4.757888793945312,2815.24880875,-1.530533831126776,2.903284626198005,0.0722184643797883,-6.210971355438232,9.274222373962402,-4.506711483001709,-0.8693540692329407,1.27164900302887,3.36680793762207,XArbitraryZVertical,0.690464379658356,0.7126443139296696,-0.0564410321408542,0.1105056759764507,0.2354435324668884,-0.0721557065844535,0.9692059755325316,0,0,0,-1,-1,2810.827083875,walking,2,2022-05-12T10:31:53.243+02:00,2022-05-11T22:15:20.957+02:00,268,0.9445748,0.6794919,1.85568,201.4785,0,0,2022-05-12T10:31:53.243+02:00,674037115.7944142,0,1.369999,100.8912,1,0.97
295,2022-05-12T10:31:57.681+02:00,1652344315.999932,53.2289762702335,10.39845219814256,37.35916,0.0,0.87,350.859375,97.00693647964334,4.0,5.0,-9999,2815.26380075,-0.6395263671875,1.009536743164062,4.992218017578125,2815.25880375,-1.469529488856513,2.984378057759677,0.1214926015090749,-5.795749664306641,8.126241683959961,-5.52554988861084,-0.7594932913780212,1.150780558586121,3.649953365325928,XArbitraryZVertical,0.6706468996595675,0.7351369668601387,-0.007641730611806,0.0987325658629819,0.1554137170314789,-0.1211939379572868,0.980387270450592,0,0,0,-1,-1,2810.827083875,walking,2,2022-05-12T10:31:53.243+02:00,2022-05-11T22:15:20.957+02:00,268,0.9445748,0.6794919,1.85568,201.4785,0,0,2022-05-12T10:31:53.243+02:00,674037115.7944142,0,1.369999,100.8912,1,0.97
296,2022-05-12T10:31:57.691+02:00,1652344315.999932,53.2289762702335,10.39845219814256,37.35916,0.0,0.87,350.859375,97.00693647964334,4.0,5.0,-9999,2815.27379675,-0.78277587890625,0.901275634765625,5.236740112304688,2815.26879875,-1.400623762581163,3.049061223023973,0.1693746518684138,-5.418909072875977,6.78779935836792,-6.857790470123291,-0.718396008014679,1.177766919136047,3.896181344985962,XArbitraryZVertical,0.6444507284944176,0.7585646616239302,0.0349100530825003,0.0896910439506259,0.0910772979259491,-0.1685659885406494,0.9814741611480712,0,0,0,-1,-1,2810.827083875,walking,2,2022-05-12T10:31:53.243+02:00,2022-05-11T22:15:20.957+02:00,268,0.9445748,0.6794919,1.85568,201.4785,0,0,2022-05-12T10:31:53.243+02:00,674037115.7944142,0,1.369999,100.8912,1,0.97
297,2022-05-12T10:31:57.700+02:00,1652344315.999932,53.2289762702335,10.39845219814256,37.35916,0.0,0.87,350.859375,97.00693647964334,4.0,5.0,-9999,2815.28379175,-1.03558349609375,0.8272857666015625,5.505157470703125,2815.27879375,-1.319112875276243,3.093398503415131,0.2174771493973233,-5.278199672698975,5.200107097625732,-8.469408988952637,-0.7352420091629028,1.188453674316406,4.1346435546875,XArbitraryZVertical,0.6110368347472028,0.783766297604543,0.0710608016649384,0.085409552212371,0.0470407232642173,-0.2157668918371201,0.9753112196922302,0,0,0,-1,-1,2810.827083875,walking,2,2022-05-12T10:31:53.243+02:00,2022-05-11T22:15:20.957+02:00,268,0.9445748,0.6794919,1.85568,201.4785,0,0,2022-05-12T10:31:53.243+02:00,674037115.7944142,0,1.369999,100.8912,1,0.97
298,2022-05-12T10:31:57.711+02:00,1652344315.999932,53.2289762702335,10.39845219814256,37.35916,0.0,0.87,350.859375,97.00693647964334,4.0,5.0,-9999,2815.29378675,-1.422439575195312,0.6107177734375,5.748870849609375,2815.28878875,-1.220633554064676,3.113091977927223,0.265615576582397,-5.010876655578613,3.438442707061768,-10.29138565063477,-0.9283452033996582,1.099402070045471,4.405226707458496,XArbitraryZVertical,0.569568711652795,0.8110864133086603,0.1004058100775391,0.0874589211552511,0.0274974703788757,-0.2625032961368561,0.964539349079132,0,0,0,-1,-1,2810.827083875,walking,2,2022-05-12T10:31:53.243+02:00,2022-05-11T22:15:20.957+02:00,268,0.9445748,0.6794919,1.85568,201.4785,0,0,2022-05-12T10:31:53.243+02:00,674037115.7944142,0,1.369999,100.8912,1,0.97
299,2022-05-12T10:31:57.721+02:00,1652344315.999932,53.2289762702335,10.39845219814256,37.35916,0.0,0.87,350.859375,97.00693647964334,4.0,5.0,-9999,2815.30378175,-2.14862060546875,0.2900238037109375,5.858108520507812,2815.29878475,-1.101253723339597,3.103788400561605,0.3102649838947861,-4.552737712860107,1.448905229568481,-12.36797428131104,-1.241998910903931,1.080350756645203,4.679912567138672,XArbitraryZVertical,0.5193346302101766,0.8402842943926494,0.1218795943960995,0.0967429812953749,0.0359906256198883,-0.3053109645843506,0.9515722990036012,0,0,0,-1,-1,2810.827083875,walking,2,2022-05-12T10:31:53.243+02:00,2022-05-11T22:15:20.957+02:00,268,0.9445748,0.6794919,1.85568,201.4785,0,0,2022-05-12T10:31:53.243+02:00,674037115.7944142,0,1.369999,100.8912,1,0.97
300,2022-05-12T10:31:57.731+02:00,1652344315.999932,53.2289762702335,10.39845219814256,37.35916,0.0,0.87,350.859375,97.00693647964334,4.0,5.0,-9999,2815.31377675,-3.142578125,0.467559814453125,5.930526733398438,2815.30877975,-0.9558994837926836,3.059079871700001,0.3433506343456198,-3.643852710723877,-1.096117854118347,-14.73812198638916,-1.807725787162781,0.7384233474731445,4.886415958404541,XArbitraryZVertical,0.4590689349135615,0.8709018838273201,0.132868562556703,0.1145939852816654,0.0776085779070854,-0.3366440534591675,0.93842875957489,0,0,0,-1,-1,2810.827083875,walking,2,2022-05-12T10:31:53.243+02:00,2022-05-11T22:15:20.957+02:00,268,0.9445748,0.6794919,1.85568,201.4785,0,0,2022-05-12T10:31:53.243+02:00,674037115.7944142,0,1.369999,100.8912,1,0.97
301,2022-05-12T10:31:57.741+02:00,1652344315.999932,53.2289762702335,10.39845219814256,37.35916,0.0,0.87,350.859375,97.00693647964334,4.0,5.0,-9999,2815.32377175,-4.221755981445312,1.107315063476562,5.842727661132812,2815.31877475,-0.782949666899895,2.972531238334034,0.3558310237216933,-2.893084526062012,-4.421309471130371,-17.2295093536377,-2.791719198226929,0.6643487215042114,4.971621036529541,XArbitraryZVertical,0.3880001934764143,0.9008066722800204,0.1312994170801505,0.1440961519263936,0.157717153429985,-0.3483694493770599,0.9239936470985411,0,0,0,-1,-1,2810.827083875,walking,2,2022-05-12T10:31:53.243+02:00,2022-05-11T22:15:20.957+02:00,268,0.9445748,0.6794919,1.85568,201.4785,0,0,2022-05-12T10:31:53.243+02:00,674037115.7944142,0,1.369999,100.8912,1,0.97
302,2022-05-12T10:31:57.751+02:00,1652344315.999932,53.2289762702335,10.39845219814256,37.35916,0.0,0.87,350.859375,97.00693647964334,4.0,5.0,-9999,2815.33376775,-5.357086181640625,1.7684326171875,5.743942260742188,2815.32876975,-0.5867015773689197,2.839486658141759,0.3388484144227757,-2.423319816589355,-8.888802528381348,-19.46343231201172,-3.942630767822266,1.099247217178345,5.018184185028076,XArbitraryZVertical,0.3060648793850326,0.9254928430309004,0.1166839025790701,0.190190026612173,0.2806133329868317,-0.3324012160301208,0.9004254341125488,0,0,0,-1,-1,2810.827083875,walking,2,2022-05-12T10:31:53.243+02:00,2022-05-11T22:15:20.957+02:00,268,0.9445748,0.6794919,1.85568,201.4785,0,0,2022-05-12T10:31:53.243+02:00,674037115.7944142,0,1.369999,100.8912,1,0.97
303,2022-05-12T10:31:57.760+02:00,1652344315.999932,53.2289762702335,10.39845219814256,37.35916,0.0,0.87,350.859375,97.00693647964334,4.0,5.0,-9999,2815.34376275,-6.317123413085938,2.273773193359375,5.481597900390625,2815.33876475,-0.3794152702288591,2.659515818115498,0.2850271956170533,-2.65784740447998,-14.31417942047119,-21.04442405700684,-5.257994651794434,1.709727048873901,4.924234867095947,XArbitraryZVertical,0.2145601081408866,0.9376070856276704,0.0908933144941364,0.2580608281051882,0.4449151754379272,-0.2811835408210754,0.8502861857414246,0,0,0,-1,-1,2810.827083875,walking,2,2022-05-12T10:31:53.243+02:00,2022-05-11T22:15:20.957+02:00,268,0.9445748,0.6794919,1.85568,201.4785,0,0,2022-05-12T10:31:53.243+02:00,674037115.7944142,0,1.369999,100.8912,1,0.97
304,2022-05-12T10:31:57.771+02:00,1652344315.999932,53.2289762702335,10.39845219814256,37.35916,0.0,0.87,350.859375,97.00693647964334,4.0,5.0,-9999,2815.35375775,-7.472427368164062,1.915679931640625,4.690765380859375,2815.34875975,-0.1832063869646738,2.440527824597218,0.188427532328232,-2.179480314254761,-20.17378425598145,-21.25595664978027,-6.469475746154785,2.258466720581055,4.907526969909668,XArbitraryZVertical,0.1177010495301259,0.9281495768095208,0.0567102815426338,0.3485238445480483,0.6336147785186768,-0.1873144954442978,0.7506303191184998,0,0,0,-1,-1,2810.827083875,walking,2,2022-05-12T10:31:53.243+02:00,2022-05-11T22:15:20.957+02:00,268,0.9445748,0.6794919,1.85568,201.4785,0,0,2022-05-12T10:31:53.243+02:00,674037115.7944142,0,1.369999,100.8912,1,0.97
305,2022-05-12T10:31:57.780+02:00,1652344315.999932,53.2289762702335,10.39845219814256,37.35916,0.0,0.87,350.859375,97.00693647964334,4.0,5.0,-9999,2815.36375275,-8.847808837890625,3.18310546875,3.471176147460938,2815.35875475,-0.0428724096319678,2.193707094017831,0.043577477944954,2.003256797790527,-25.91915893554688,-18.90185737609863,-7.689632415771484,2.253204822540283,4.604224681854248,XArbitraryZVertical,0.0290086896301045,0.889147102030605,0.0096007282375664,0.4566005560000194,0.8114131093025208,-0.0435636863112449,0.5828481316566467,0,0,0,-1,-1,2810.827083875,walking,2,2022-05-12T10:31:53.243+02:00,2022-05-11T22:15:20.957+02:00,268,0.9445748,0.6794919,1.85568,201.4785,0,0,2022-05-12T10:31:53.243+02:00,674037115.7944142,0,1.369999,100.8912,1,0.97
306,2022-05-12T10:31:57.790+02:00,1652344315.999932,53.2289762702335,10.39845219814256,37.35916,0.0,0.87,350.859375,97.00693647964334,4.0,5.0,-9999,2815.37374775,-11.93605041503906,7.73260498046875,4.554489135742188,2815.36875075,-0.0059258367488522,1.901820817261326,-0.1251499857892365,6.85022497177124,-32.14386367797852,-14.82973861694336,-9.074498176574709,1.863961815834045,3.727395534515381,XArbitraryZVertical,-0.0339216549495675,0.8124557941601751,-0.0526170380862101,0.5796520343956265,0.938313603401184,0.1248235478997231,0.3224701881408691,0,0,0,-1,-1,2810.827083875,walking,2,2022-05-12T10:31:53.243+02:00,2022-05-11T22:15:20.957+02:00,268,0.9445748,0.6794919,1.85568,201.4785,0,0,2022-05-12T10:31:53.243+02:00,674037115.7944142,0,1.369999,100.8912,1,0.97
307,2022-05-12T10:31:57.800+02:00,1652344315.999932,53.2289762702335,10.39845219814256,37.35916,0.0,0.87,350.859375,97.00693647964334,4.0,5.0,-9999,2815.38374275,-17.93983459472656,5.569320678710938,5.402618408203125,2815.37874575,-0.0613037227318745,1.55058202966137,-0.2711262284872208,9.16840362548828,-35.07436752319336,-11.90407085418701,-10.7817850112915,5.255575656890869,3.542240619659424,XArbitraryZVertical,-0.0752261000100395,0.6961348738857308,-0.1162369179909203,0.7044333617661552,0.9632731676101683,0.2678166925907135,-0.0194745417684316,0,0,0,-1,-1,2810.827083875,walking,2,2022-05-12T10:31:53.243+02:00,2022-05-11T22:15:20.957+02:00,268,0.9445748,0.6794919,1.85568,201.4785,0,0,2022-05-12T10:31:53.243+02:00,674037115.7944142,0,1.369999,100.8912,1,0.97
308,2022-05-12T10:31:57.810+02:00,1652344315.999932,53.2289762702335,10.39845219814256,37.35916,0.0,0.87,350.859375,97.00693647964334,4.0,5.0,-9999,2815.39373775,-22.11557006835938,3.681640625,7.350830078125,2815.38874075,-0.1900192589087052,1.160297226791356,-0.3282068035945513,12.92019748687744,-35.12411499023438,-4.266282081604004,-16.33782768249512,7.363857269287109,5.686145782470703,XArbitraryZVertical,-0.0847191325271235,0.5513074262883403,-0.1674247117160177,0.8129279104397362,0.8679782152175903,0.3223460614681244,-0.377765566110611,0,0,0,-1,-1,2810.827083875,walking,2,2022-05-12T10:31:53.243+02:00,2022-05-11T22:15:20.957+02:00,268,0.9445748,0.6794919,1.85568,201.4785,0,0,2022-05-12T10:31:53.243+02:00,674037115.7944142,0,1.369999,100.8912,1,0.97
309,2022-05-12T10:31:57.821+02:00,1652344315.999932,53.2289762702335,10.39845219814256,37.35916,0.0,0.87,350.859375,97.00693647964334,4.0,5.0,-9999,2815.40373375,-31.44873046875,8.319229125976562,4.824371337890625,2815.39873575,-0.3367154542295113,0.7966719535293824,-0.2304780924665049,22.9911003112793,-27.17633628845215,4.462235450744629,-19.89385032653809,3.596264600753784,6.790772438049316,XArbitraryZVertical,-0.0399190321745803,0.3976232654271071,-0.1973902501223855,0.8951756155344391,0.6961260437965393,0.2284429967403412,-0.6806043982505798,0,0,0,-1,-1,2810.827083875,walking,2,2022-05-12T10:31:53.243+02:00,2022-05-11T22:15:20.957+02:00,268,0.9445748,0.6794919,1.85568,201.4785,0,0,2022-05-12T10:31:53.243+02:00,674037115.7944142,0,1.369999,100.8912,1,0.97
310,2022-05-12T10:31:57.830+02:00,1652344315.999932,53.2289762702335,10.39845219814256,37.35916,0.0,0.87,350.859375,97.00693647964334,4.0,5.0,-9999,2815.41372875,-23.05899047851562,7.332992553710938,-0.85455322265625,2815.40873075,-0.4640925416694089,0.5565859616978124,0.0347520184035855,33.73261260986328,-19.96197891235352,7.368850708007812,-28.06303596496582,5.365342617034912,8.216257095336914,XArbitraryZVertical,0.0794252984867322,0.2634693715277344,-0.2164428703109965,0.936711354365226,0.5279715657234192,-0.0347450226545333,-0.8485510349273682,0,0,0,-1,-1,2810.827083875,walking,2,2022-05-12T10:31:53.243+02:00,2022-05-11T22:15:20.957+02:00,268,0.9445748,0.6794919,1.85568,201.4785,0,0,2022-05-12T10:31:53.243+02:00,674037115.7944142,0,1.369999,100.8912,1,0.97
311,2022-05-12T10:31:57.840+02:00,1652344315.999932,53.2289762702335,10.39845219814256,37.35916,0.0,0.87,350.859375,97.00693647964334,4.0,5.0,-9999,2815.42372375,-16.30964660644531,-2.755538940429688,2.62066650390625,2815.41872575,-0.5409518274659749,0.3941286080547144,0.3821522668339798,34.09787368774414,-14.68676090240479,10.96632194519043,-29.74604415893555,10.01731300354004,1.772085428237915,XArbitraryZVertical,0.2308302776388408,0.1354778733515396,-0.2214181830730391,0.9377298256170334,0.356303334236145,-0.3729183375835419,-0.8567262291908264,0,0,0,-1,-1,2810.827083875,walking,2,2022-05-12T10:31:53.243+02:00,2022-05-11T22:15:20.957+02:00,268,0.9445748,0.6794919,1.85568,201.4785,0,0,2022-05-12T10:31:53.243+02:00,674037115.7944142,0,1.369999,100.8912,1,0.97
312,2022-05-12T10:31:57.850+02:00,1652344315.999932,53.2289762702335,10.39845219814256,37.35916,0.0,0.87,350.859375,97.00693647964334,4.0,5.0,-9999,2815.43371875,-12.1361083984375,-11.97636413574219,1.517715454101562,2815.42872175,-0.5036253019310541,0.267936102047686,0.7084583322989287,24.82875823974609,-6.5739426612854,15.89684867858887,-18.39697456359863,3.225020170211792,1.032609701156616,XArbitraryZVertical,0.364131575174008,0.0356730947850369,-0.1867274669499028,0.9117393181201782,0.2010358572006226,-0.6506638526916504,-0.7322712540626526,0,0,0,-1,-1,2810.827083875,walking,2,2022-05-12T10:31:53.243+02:00,2022-05-11T22:15:20.957+02:00,268,0.9445748,0.6794919,1.85568,201.4785,0,0,2022-05-12T10:31:53.243+02:00,674037115.7944142,0,1.369999,100.8912,1,0.97
313,2022-05-12T10:31:57.860+02:00,1652344315.999932,53.2289762702335,10.39845219814256,37.35916,0.0,0.87,350.859375,97.00693647964334,4.0,5.0,-9999,2815.44371375,-4.970916748046875,-11.69149780273438,-3.075454711914062,2815.43871675,-0.3142889831210187,0.0821898070769051,0.9084981653519248,10.70065402984619,-3.66971230506897,16.05047988891602,-14.94458866119385,-7.313637256622314,3.703537702560425,XArbitraryZVertical,0.4387925105458449,-0.0321493921404184,-0.1227046478596228,0.8895905542975879,0.0504841692745685,-0.788581132888794,-0.612855076789856,0,0,0,-1,-1,2810.827083875,walking,2,2022-05-12T10:31:53.243+02:00,2022-05-11T22:15:20.957+02:00,268,0.9445748,0.6794919,1.85568,201.4785,0,0,2022-05-12T10:31:53.243+02:00,674037115.7944142,0,1.369999,100.8912,1,0.97
314,2022-05-12T10:31:57.870+02:00,1652344315.999932,53.2289762702335,10.39845219814256,37.35916,0.0,0.87,350.859375,97.00693647964334,4.0,5.0,-9999,2815.45370875,-2.010345458984375,-6.370376586914062,-4.685455322265625,2815.44871175,-0.077872870302958,-0.1462649322905471,0.971332833360562,3.428078174591064,-3.708507537841797,11.42045307159424,-8.390137672424316,-12.49063014984131,-0.3519048690795898,XArbitraryZVertical,0.4626817642534399,-0.0826913689883824,-0.0684150397646076,0.8800041700652063,-0.0822287201881408,-0.8256384134292603,-0.5581754446029663,0,0,0,-1,-1,2810.827083875,walking,2,2022-05-12T10:31:53.243+02:00,2022-05-11T22:15:20.957+02:00,268,0.9445748,0.6794919,1.85568,201.4785,0,0,2022-05-12T10:31:53.243+02:00,674037115.7944142,0,1.369999,100.8912,1,0.97
315,2022-05-12T10:31:57.880+02:00,1652344315.999932,53.2289762702335,10.39845219814256,37.35916,0.0,0.87,350.859375,97.00693647964334,4.0,5.0,-9999,2815.46370475,-3.365966796875,-5.68505859375,-4.037521362304688,2815.45870675,0.1034602702429657,-0.3278205786190886,0.9730291595596132,2.193513870239258,-2.192094326019287,8.678937911987305,-2.556796789169312,-7.705769538879395,-3.79247522354126,XArbitraryZVertical,0.4681223763348076,-0.1201990489852147,-0.0310963528386197,0.874898152746147,-0.1812100559473038,-0.8265942931175232,-0.5328272581100464,0,0,0,-1,-1,2810.827083875,walking,2,2022-05-12T10:31:53.243+02:00,2022-05-11T22:15:20.957+02:00,268,0.9445748,0.6794919,1.85568,201.4785,0,0,2022-05-12T10:31:53.243+02:00,674037115.7944142,0,1.369999,100.8912,1,0.97
316,2022-05-12T10:31:57.891+02:00,1652344315.999932,53.2289762702335,10.39845219814256,37.35916,0.0,0.87,350.859375,97.00693647964334,4.0,5.0,-9999,2815.47369975,-4.607376098632812,-5.481735229492188,-3.08465576171875,2815.46870175,0.235846369872374,-0.4362106068541859,0.9593459989078296,0.7508746385574341,2.379252910614014,6.299330711364746,-2.147502422332764,-4.971848011016846,-4.022958278656006,XArbitraryZVertical,0.4700110946353302,-0.1376197054985246,0.0027365285887425,0.8718618776350797,-0.2425431460142136,-0.8188163042068481,-0.5203007459640503,0,0,0,-1,-1,2810.827083875,walking,2,2022-05-12T10:31:53.243+02:00,2022-05-11T22:15:20.957+02:00,268,0.9445748,0.6794919,1.85568,201.4785,0,0,2022-05-12T10:31:53.243+02:00,674037115.7944142,0,1.369999,100.8912,1,0.97
317,2022-05-12T10:31:57.900+02:00,1652344315.999932,53.2289762702335,10.39845219814256,37.35916,0.0,0.87,350.859375,97.00693647964334,4.0,5.0,-9999,2815.48369475,-3.627792358398438,-5.132080078125,-2.5169677734375,2815.47869675,0.3165881760285849,-0.4615828926649978,0.9298998498488455,-2.106194734573364,5.337140560150146,4.91004753112793,-4.060995101928711,-4.750945091247559,-2.925885915756226,XArbitraryZVertical,0.4632630554484541,-0.1331032480152702,0.0358809119614687,0.87543328353963,-0.2662906348705292,-0.8015600442886353,-0.535341739654541,0,0,0,-1,-1,2810.827083875,walking,2,2022-05-12T10:31:53.243+02:00,2022-05-11T22:15:20.957+02:00,268,0.9445748,0.6794919,1.85568,201.4785,0,0,2022-05-12T10:31:53.243+02:00,674037115.7944142,0,1.369999,100.8912,1,0.97
318,2022-05-12T10:31:57.910+02:00,1652344315.999932,53.2289762702335,10.39845219814256,37.35916,0.0,0.87,350.859375,97.00693647964334,4.0,5.0,-9999,2815.49368975,-3.059906005859375,-3.688552856445312,-1.8843994140625,2815.48869175,0.3576336180256537,-0.4336149827709713,0.8782439010301032,-4.794032573699951,6.573028087615967,4.25257682800293,-3.936549186706543,-4.642642974853516,-2.247111320495605,XArbitraryZVertical,0.4432026881997793,-0.1177513315971759,0.0672256201862501,0.8861076704554902,-0.2682698667049408,-0.769618809223175,-0.5794119834899902,0,0,0,-1,-1,2810.827083875,walking,2,2022-05-12T10:31:53.243+02:00,2022-05-11T22:15:20.957+02:00,268,0.9445748,0.6794919,1.85568,201.4785,0,0,2022-05-12T10:31:53.243+02:00,674037115.7944142,0,1.369999,100.8912,1,0.97
319,2022-05-12T10:31:57.920+02:00,1652344315.999932,53.2289762702335,10.39845219814256,37.35916,0.0,0.87,350.859375,97.00693647964334,4.0,5.0,-9999,2815.50368475,-2.590103149414062,-2.170211791992188,-1.436355590820312,2815.49868775,0.3842876583916007,-0.3867648810201575,0.8155053016836289,-4.940761566162109,6.651240825653076,3.9801025390625,-3.000725746154785,-3.79036021232605,-1.547065377235413,XArbitraryZVertical,0.4156843465013632,-0.098862145991028,0.0972339158871507,0.8988762622394443,-0.2585669159889221,-0.7280720472335815,-0.6348655819892883,0,0,0,-1,-1,2810.827083875,walking,2,2022-05-12T10:31:53.243+02:00,2022-05-11T22:15:20.957+02:00,268,0.9445748,0.6794919,1.85568,201.4785,0,0,2022-05-12T10:31:53.243+02:00,674037115.7944142,0,1.369999,100.8912,1,0.97
320,2022-05-12T10:31:57.930+02:00,1652344315.999932,53.2289762702335,10.39845219814256,37.35916,0.0,0.87,350.859375,97.00693647964334,4.0,5.0,-9999,2815.51367975,-2.023101806640625,-1.396316528320312,-1.03936767578125,2815.50868275,0.4135800857856974,-0.3431092012779935,0.7633721099930133,-3.213285207748413,6.214656829833984,3.6306471824646,-2.620919227600098,-2.175962686538696,-0.963525116443634,XArbitraryZVertical,0.3917271038455935,-0.0796981727205771,0.1255132081297803,0.907989375802526,-0.2430640459060669,-0.6913617253303528,-0.6803961396217346,0,0,0,-1,-1,2810.827083875,walking,2,2022-05-12T10:31:53.243+02:00,2022-05-11T22:15:20.957+02:00,268,0.9445748,0.6794919,1.85568,201.4785,0,0,2022-05-12T10:31:53.243+02:00,674037115.7944142,0,1.369999,100.8912,1,0.97
321,2022-05-12T10:31:57.940+02:00,1652344315.999932,53.2289762702335,10.39845219814256,37.35916,0.0,0.87,350.859375,97.00693647964334,4.0,5.0,-9999,2815.52367475,-1.679183959960938,-1.3394775390625,-0.742279052734375,2815.51867775,0.4480708307986004,-0.3067999082958898,0.7305740229061963,-1.508565902709961,5.714560508728027,3.290764570236206,-2.055797100067139,-0.9989773631095886,-0.5268644094467163,XArbitraryZVertical,0.375907186840275,-0.0607212567748779,0.1518526561147885,0.9121116389135304,-0.2249341458082199,-0.6672972440719604,-0.7100134491920471,0,0,0,-1,-1,2810.827083875,walking,2,2022-05-12T10:31:53.243+02:00,2022-05-11T22:15:20.957+02:00,268,0.9445748,0.6794919,1.85568,201.4785,0,0,2022-05-12T10:31:53.243+02:00,674037115.7944142,0,1.369999,100.8912,1,0.97
322,2022-05-12T10:31:57.950+02:00,1652344315.999932,53.2289762702335,10.39845219814256,37.35916,0.0,0.87,350.859375,97.00693647964334,4.0,5.0,-9999,2815.53367075,-1.41741943359375,-1.348739624023438,-0.737152099609375,2815.52867275,0.4850212787432562,-0.278355351981221,0.7109243450674585,-0.7384487390518188,4.769940853118896,3.217109203338623,-1.631417155265808,-0.6625896692276001,-0.1284183263778687,XArbitraryZVertical,0.3658048317693184,-0.0434841170227966,0.1760833270134216,0.9128476150496192,-0.2082130014896393,-0.6525344848632812,-0.7285919189453125,0,0,0,-1,-1,2810.827083875,walking,2,2022-05-12T10:31:53.243+02:00,2022-05-11T22:15:20.957+02:00,268,0.9445748,0.6794919,1.85568,201.4785,0,0,2022-05-12T10:31:53.243+02:00,674037115.7944142,0,1.369999,100.8912,1,0.97
323,2022-05-12T10:31:57.960+02:00,1652344315.999932,53.2289762702335,10.39845219814256,37.35916,0.0,0.87,350.859375,97.00693647964334,4.0,5.0,-9999,2815.54366575,-1.38665771484375,-1.07537841796875,-0.7528533935546875,2815.53866775,0.5249308176689308,-0.2617277044664212,0.6974264148411103,-0.2305266559123993,3.75656533241272,3.359992742538452,-1.326449155807495,-0.7333780527114868,0.0309211015701293,XArbitraryZVertical,0.3589850588514916,-0.0305396350248566,0.1987008719514087,0.9114358070830402,-0.1983311176300049,-0.6422471404075623,-0.740394115447998,0,0,0,-1,-1,2810.827083875,walking,2,2022-05-12T10:31:53.243+02:00,2022-05-11T22:15:20.957+02:00,268,0.9445748,0.6794919,1.85568,201.4785,0,0,2022-05-12T10:31:53.243+02:00,674037115.7944142,0,1.369999,100.8912,1,0.97
324,2022-05-12T10:31:57.970+02:00,1652344315.999932,53.2289762702335,10.39845219814256,37.35916,0.0,0.87,350.859375,97.00693647964334,4.0,5.0,-9999,2815.55366075,-1.40301513671875,-0.821441650390625,-0.6927032470703125,2815.54866275,0.5677979390840849,-0.2554704651601066,0.6898948773770942,0.4845844805240631,2.996186971664429,3.391358613967896,-1.185429334640503,-0.6004819869995117,-0.0101447105407714,XArbitraryZVertical,0.355546362617688,-0.02114164941901,0.220101612738745,0.9081273125855908,-0.1949112713336945,-0.6364561319351196,-0.7462796568870544,0,0,0,-1,-1,2810.827083875,walking,2,2022-05-12T10:31:53.243+02:00,2022-05-11T22:15:20.957+02:00,268,0.9445748,0.6794919,1.85568,201.4785,0,0,2022-05-12T10:31:53.243+02:00,674037115.7944142,0,1.369999,100.8912,1,0.97
325,2022-05-12T10:31:57.980+02:00,1652344315.999932,53.2289762702335,10.39845219814256,37.35916,0.0,0.87,350.859375,97.00693647964334,4.0,5.0,-9999,2815.56365575,-1.322296142578125,-0.7410888671875,-0.726959228515625,2815.55865775,0.6130384338512435,-0.2572343196779064,0.6899505993720079,1.257444381713867,2.427172660827637,3.365796089172363,-1.205194592475891,-0.2858332991600037,0.0214126706123352,XArbitraryZVertical,0.3561700833136731,-0.0138816714305502,0.2402655952854362,0.9028968007694844,-0.196218267083168,-0.6364991068840027,-0.7459003329277039,0,0,0,-1,-1,2810.827083875,walking,2,2022-05-12T10:31:53.243+02:00,2022-05-11T22:15:20.957+02:00,268,0.9445748,0.6794919,1.85568,201.4785,0,0,2022-05-12T10:31:53.243+02:00,674037115.7944142,0,1.369999,100.8912,1,0.97
326,2022-05-12T10:31:57.990+02:00,1652344315.999932,53.2289762702335,10.39845219814256,37.35916,0.0,0.87,350.859375,97.00693647964334,4.0,5.0,-9999,2815.573650041667,-1.195205688476562,-0.805511474609375,-0.7661895751953125,2815.56865375,0.660012639225284,-0.265330249501089,0.6957371121083921,1.678856134414673,1.963592648506165,3.308253526687622,-1.174878239631653,-0.1196531057357788,0.043042778968811,XArbitraryZVertical,0.3599628401950117,-0.0081471878069368,0.2593028826204091,0.8961710956182987,-0.2012813538312912,-0.64095139503479,-0.7407207489013672,0,0,0,-1,-1,2810.827083875,walking,2,2022-05-12T10:31:53.243+02:00,2022-05-11T22:15:20.957+02:00,268,0.9445748,0.6794919,1.85568,201.4785,0,0,2022-05-12T10:31:53.243+02:00,674037115.7944142,0,1.369999,100.8912,1,0.97
327,2022-05-12T10:31:58.000+02:00,1652344315.999932,53.2289762702335,10.39845219814256,37.35916,0.0,0.87,350.859375,97.00693647964334,4.0,5.0,-9999,2815.583645041667,-1.104263305664062,-0.8762664794921875,-0.772216796875,2815.578648041667,0.7067067763079015,-0.277519469469647,0.7032937097753044,1.64544939994812,1.626865267753601,3.176329851150513,-1.047995805740356,-0.1191659569740295,-0.0156890153884887,XArbitraryZVertical,0.3649919157647007,-0.003780552120648,0.2770493457563127,0.8888253786294534,-0.2089620381593704,-0.6467333436012268,-0.7335332036018372,0,0,0,-1,-1,2810.827083875,walking,2,2022-05-12T10:31:53.243+02:00,2022-05-11T22:15:20.957+02:00,268,0.9445748,0.6794919,1.85568,201.4785,0,0,2022-05-12T10:31:53.243+02:00,674037115.7944142,0,1.369999,100.8912,1,0.97
328,2022-05-12T10:31:58.010+02:00,1652344315.999932,53.2289762702335,10.39845219814256,37.35916,0.0,0.87,350.859375,97.00693647964334,4.0,5.0,-9999,2815.593640041667,-1.077377319335938,-0.89569091796875,-0.795745849609375,2815.588643041667,0.751778908672497,-0.2915674408616155,0.7091772754993052,1.402998685836792,1.437397122383118,3.081787109375,-0.9242772459983826,-0.1916549801826477,-0.0462338924407959,XArbitraryZVertical,0.3695476922411381,-0.0006124793439243,0.2936944982626678,0.8815768639586485,-0.2181481420993805,-0.6512096524238586,-0.7268682718276978,0,0,0,-1,-1,2810.827083875,walking,2,2022-05-12T10:31:53.243+02:00,2022-05-11T22:15:20.957+02:00,268,0.9445748,0.6794919,1.85568,201.4785,0,0,2022-05-12T10:31:53.243+02:00,674037115.7944142,0,1.369999,100.8912,1,0.97
329,2022-05-12T10:31:58.020+02:00,1652344315.999932,53.2289762702335,10.39845219814256,37.35916,0.0,0.87,350.859375,97.00693647964334,4.0,5.0,-9999,2815.603636041667,-1.078842163085938,-0.8484039306640625,-0.81353759765625,2815.598638041667,0.7951282272592868,-0.3059441443982376,0.7127117587347027,1.214864373207092,1.350613236427307,2.991060018539429,-0.855172872543335,-0.2430691123008728,-0.0588619112968444,XArbitraryZVertical,0.3731860650473759,0.0018272688251813,0.3095998186116532,0.8745723423426195,-0.227880522608757,-0.6538878679275513,-0.7214576601982117,0,0,0,-1,-1,2810.827083875,walking,2,2022-05-12T10:31:53.243+02:00,2022-05-11T22:15:20.957+02:00,268,0.9445748,0.6794919,1.85568,201.4785,0,0,2022-05-12T10:31:53.243+02:00,674037115.7944142,0,1.369999,100.8912,1,0.97
330,2022-05-12T10:31:58.030+02:00,1652344315.999932,53.2289762702335,10.39845219814256,37.35916,0.0,0.87,350.859375,97.00693647964334,4.0,5.0,-9999,2815.613631041667,-1.081573486328125,-0.805206298828125,-0.888641357421875,2815.608633041667,0.8371235833818585,-0.3200085052713572,0.7147075303118048,1.126116037368774,1.350353837013245,2.935032606124878,-0.8408060073852539,-0.2205186486244202,-0.0897760391235351,XArbitraryZVertical,0.3761828058678813,0.00398497471331,0.3249866723861286,0.8676717931404215,-0.2375935018062592,-0.6553965210914612,-0.716941237449646,0,0,0,-1,-1,2810.827083875,walking,2,2022-05-12T10:31:53.243+02:00,2022-05-11T22:15:20.957+02:00,268,0.9445748,0.6794919,1.85568,201.4785,0,0,2022-05-12T10:31:53.243+02:00,674037115.7944142,0,1.369999,100.8912,1,0.97
331,2022-05-12T10:31:58.040+02:00,1652344315.999932,53.2289762702335,10.39845219814256,37.35916,0.0,0.87,350.859375,97.00693647964334,4.0,5.0,-9999,2815.623626041667,-1.090469360351562,-0.76080322265625,-0.9550018310546876,2815.618628041667,0.8782780797486713,-0.3331120281872152,0.7158786562322778,1.095165014266968,1.437313437461853,2.875281810760498,-0.8318511843681335,-0.1696467995643616,-0.1301299333572388,XArbitraryZVertical,0.3787339635398739,0.0063451343204021,0.3401317076143075,0.860715344984143,-0.2467161566019058,-0.6562806367874146,-0.7130406498908997,0,0,0,-1,-1,2810.827083875,walking,2,2022-05-12T10:31:53.243+02:00,2022-05-11T22:15:20.957+02:00,268,0.9445748,0.6794919,1.85568,201.4785,0,0,2022-05-12T10:31:53.243+02:00,674037115.7944142,0,1.369999,100.8912,1,0.97
332,2022-05-12T10:31:58.051+02:00,1652344315.999932,53.2289762702335,10.39845219814256,37.35916,0.0,0.87,350.859375,97.00693647964334,4.0,5.0,-9999,2815.633621041667,-1.081573486328125,-0.713104248046875,-1.022506713867188,2815.628623041667,0.9188498067639798,-0.3446706581455905,0.7168196463876829,1.121286869049072,1.581969022750854,2.845191240310669,-0.8314031362533569,-0.125876784324646,-0.2186326384544373,XArbitraryZVertical,0.3809637667871802,0.0093104336258075,0.355187507418263,0.8535935573034634,-0.2547324895858765,-0.6569903492927551,-0.7095598578453064,0,0,0,-1,-1,2810.827083875,walking,2,2022-05-12T10:31:53.243+02:00,2022-05-11T22:15:20.957+02:00,268,0.9445748,0.6794919,1.85568,201.4785,0,0,2022-05-12T10:31:53.243+02:00,674037115.7944142,0,1.369999,100.8912,1,0.97
333,2022-05-12T10:31:58.060+02:00,1652344315.999932,53.2289762702335,10.39845219814256,37.35916,0.0,0.87,350.859375,97.00693647964334,4.0,5.0,-9999,2815.643616041667,-1.040939331054688,-0.69683837890625,-1.066299438476562,2815.638619041667,0.9592721857319972,-0.3548610208119883,0.7177296478052394,1.139451742172241,1.698475122451782,2.812001466751099,-0.8286661505699158,-0.0804064869880676,-0.2791534662246704,XArbitraryZVertical,0.3829491637994669,0.0129143192901174,0.3702821283456854,0.8462118320829302,-0.26174196600914,-0.657676100730896,-0.7063663005828857,0,0,0,-1,-1,2810.827083875,walking,2,2022-05-12T10:31:53.243+02:00,2022-05-11T22:15:20.957+02:00,268,0.9445748,0.6794919,1.85568,201.4785,0,0,2022-05-12T10:31:53.243+02:00,674037115.7944142,0,1.369999,100.8912,1,0.97
334,2022-05-12T10:31:58.072+02:00,1652344315.999932,53.2289762702335,10.39845219814256,37.35916,0.0,0.87,350.859375,97.00693647964334,4.0,5.0,-9999,2815.653611041667,-1.020339965820312,-0.6972808837890625,-1.060958862304688,2815.648614041667,0.9990061333127036,-0.3633381208327995,0.7186006147745453,1.122243642807007,1.840336799621582,2.729907989501953,-0.7933961153030396,-0.0396962761878967,-0.3486142754554749,XArbitraryZVertical,0.3845927893490091,0.0171806848407148,0.3852576521860173,0.8386714443322899,-0.2675167322158813,-0.6583319902420044,-0.7035863995552063,0,0,0,-1,-1,2810.827083875,walking,2,2022-05-12T10:31:53.243+02:00,2022-05-11T22:15:20.957+02:00,268,0.9445748,0.6794919,1.85568,201.4785,0,0,2022-05-12T10:31:53.243+02:00,674037115.7944142,0,1.369999,100.8912,1,0.97
335,2022-05-12T10:31:58.081+02:00,1652344315.999932,53.2289762702335,10.39845219814256,37.35916,0.0,0.87,350.859375,97.00693647964334,4.0,5.0,-9999,2815.663606041667,-0.9728240966796876,-0.72174072265625,-1.048919677734375,2815.658609041667,1.037705422532774,-0.3696816200369751,0.7195233428840614,1.140557885169983,1.992552876472473,2.646592617034912,-0.7571601867675781,-0.0366368293762207,-0.3660288453102112,XArbitraryZVertical,0.385813457216774,0.0222191099324182,0.4000438970988858,0.831035041518168,-0.2717549204826355,-0.6590262651443481,-0.70130854845047,0,0,0,-1,-1,2810.827083875,walking,2,2022-05-12T10:31:53.243+02:00,2022-05-11T22:15:20.957+02:00,268,0.9445748,0.6794919,1.85568,201.4785,0,0,2022-05-12T10:31:53.243+02:00,674037115.7944142,0,1.369999,100.8912,1,0.97
336,2022-05-12T10:31:58.090+02:00,1652344315.999932,53.2289762702335,10.39845219814256,37.35916,0.0,0.87,350.859375,97.00693647964334,4.0,5.0,-9999,2815.673602041667,-0.888031005859375,-0.7579498291015625,-1.004653930664062,2815.668604041667,1.075454094485578,-0.3739753960403338,0.7205608586606871,1.113048076629639,2.126719236373901,2.567572355270386,-0.7284309267997742,-0.0476061701774597,-0.3586990237236023,XArbitraryZVertical,0.3866092016057024,0.0280025414281927,0.4146592505996184,0.8232902846905493,-0.2745137214660645,-0.6598062515258789,-0.6994983553886414,0,0,0,-1,-1,2810.827083875,walking,2,2022-05-12T10:31:53.243+02:00,2022-05-11T22:15:20.957+02:00,268,0.9445748,0.6794919,1.85568,201.4785,0,0,2022-05-12T10:31:53.243+02:00,674037115.7944142,0,1.369999,100.8912,1,0.97
337,2022-05-12T10:31:58.100+02:00,1652344315.999932,53.2289762702335,10.39845219814256,37.35916,0.0,0.87,350.859375,97.00693647964334,4.0,5.0,-9999,2815.683597041667,-0.816864013671875,-0.7720947265625,-0.9724578857421876,2815.678599041667,1.111860549679554,-0.37621390764198,0.7213809689502013,1.039161324501038,2.229274034500122,2.456668853759766,-0.6564927697181702,-0.078636884689331,-0.3292554020881653,XArbitraryZVertical,0.3868218993326201,0.0343440467749935,0.4290079929921056,0.8155620496076622,-0.275879979133606,-0.6604222655296326,-0.6983786225318909,0,0,0,-1,-1,2810.827083875,walking,2,2022-05-12T10:31:53.243+02:00,2022-05-11T22:15:20.957+02:00,268,0.9445748,0.6794919,1.85568,201.4785,0,0,2022-05-12T10:31:53.243+02:00,674037115.7944142,0,1.369999,100.8912,1,0.97
338,2022-05-12T10:31:58.110+02:00,1652344315.999932,53.2289762702335,10.39845219814256,37.35916,0.0,0.87,350.859375,97.00693647964334,4.0,5.0,-9999,2815.693592041667,-0.7739105224609375,-0.8021087646484375,-0.9384918212890624,2815.688594041667,1.146299920041007,-0.3763425925371325,0.7215417253746967,0.8833500146865845,2.294599533081055,2.343909502029419,-0.5735867023468018,-0.1085302233695984,-0.287992537021637,XArbitraryZVertical,0.3862608858183557,0.0409921103709426,0.4429356372185752,0.8080409584468392,-0.2759308218955994,-0.6605429649353027,-0.6982443332672119,0,0,0,-1,-1,2810.827083875,walking,2,2022-05-12T10:31:53.243+02:00,2022-05-11T22:15:20.957+02:00,268,0.9445748,0.6794919,1.85568,201.4785,0,0,2022-05-12T10:31:53.243+02:00,674037115.7944142,0,1.369999,100.8912,1,0.97
339,2022-05-12T10:31:58.120+02:00,1652344315.999932,53.2289762702335,10.39845219814256,37.35916,0.0,0.87,350.859375,97.00693647964334,4.0,5.0,-9999,2815.703587041667,-0.746002197265625,-0.82647705078125,-0.8911285400390625,2815.698589041667,1.178246317738062,-0.374199217690096,0.7203604110517965,0.6465939283370972,2.359975576400757,2.207466840744019,-0.5164187550544739,-0.1211669445037842,-0.2574868202209473,XArbitraryZVertical,0.3846381627007364,0.0476806745463269,0.4563977267251033,0.8009253176595038,-0.2747186422348022,-0.6596555709838867,-0.6995600461959839,0,0,0,-1,-1,2810.827083875,walking,2,2022-05-12T10:31:53.243+02:00,2022-05-11T22:15:20.957+02:00,268,0.9445748,0.6794919,1.85568,201.4785,0,0,2022-05-12T10:31:53.243+02:00,674037115.7944142,0,1.369999,100.8912,1,0.97
340,2022-05-12T10:31:58.130+02:00,1652344315.999932,53.2289762702335,10.39845219814256,37.35916,0.0,0.87,350.859375,97.00693647964334,4.0,5.0,-9999,2815.713582041667,-0.7115478515625,-0.83441162109375,-0.81256103515625,2815.708585041667,1.207085649851607,-0.369129707622835,0.7171930532884934,0.3385001420974731,2.44588041305542,2.068214178085327,-0.4886223077774048,-0.1617281436920166,-0.210823118686676,XArbitraryZVertical,0.3815816217678105,0.0543237437008362,0.4694053269034287,0.7944199282266784,-0.2719211578369141,-0.6572718024253845,-0.7028887867927551,0,0,0,-1,-1,2810.827083875,walking,2,2022-05-12T10:31:53.243+02:00,2022-05-11T22:15:20.957+02:00,268,0.9445748,0.6794919,1.85568,201.4785,0,0,2022-05-12T10:31:53.243+02:00,674037115.7944142,0,1.369999,100.8912,1,0.97
341,2022-05-12T10:31:58.140+02:00,1652344315.999932,53.2289762702335,10.39845219814256,37.35916,0.0,0.87,350.859375,97.00693647964334,4.0,5.0,-9999,2815.723577041667,-0.6750335693359375,-0.810211181640625,-0.750885009765625,2815.718580041667,1.232720380841428,-0.3613677375671437,0.7119329854021913,0.0719981640577316,2.469602823257446,1.926677942276001,-0.4614192247390747,-0.178320586681366,-0.1486246585845947,XArbitraryZVertical,0.3771077517246102,0.0607330758618709,0.4819076870193514,0.788584933391202,-0.2676758766174316,-0.6532984375953674,-0.7082024812698364,0,0,0,-1,-1,2810.827083875,walking,2,2022-05-12T10:31:53.243+02:00,2022-05-11T22:15:20.957+02:00,268,0.9445748,0.6794919,1.85568,201.4785,0,0,2022-05-12T10:31:53.243+02:00,674037115.7944142,0,1.369999,100.8912,1,0.97
342,2022-05-12T10:31:58.150+02:00,1652344315.999932,53.2289762702335,10.39845219814256,37.35916,0.0,0.87,350.859375,97.00693647964334,4.0,5.0,-9999,2815.733572041667,-0.6954498291015625,-0.771392822265625,-0.7335357666015625,2815.728575041667,1.255651066688117,-0.3515095668209103,0.7054384679309362,-0.051742285490036,2.493474245071411,1.792702555656433,-0.4281857013702393,-0.1793755292892456,-0.0589067339897155,XArbitraryZVertical,0.3716512458283633,0.0669905826389406,0.4938490700239577,0.7832628601872934,-0.2621367871761322,-0.648367702960968,-0.7147752046585083,0,0,0,-1,-1,2810.827083875,walking,2,2022-05-12T10:31:53.243+02:00,2022-05-11T22:15:20.957+02:00,268,0.9445748,0.6794919,1.85568,201.4785,0,0,2022-05-12T10:31:53.243+02:00,674037115.7944142,0,1.369999,100.8912,1,0.97
343,2022-05-12T10:31:58.160+02:00,1652344315.999932,53.2289762702335,10.39845219814256,37.35916,0.0,0.87,350.859375,97.00693647964334,4.0,5.0,-9999,2815.743568041667,-0.714080810546875,-0.7472381591796875,-0.7200469970703125,2815.738570041667,1.27709920051243,-0.3402144298721446,0.6993383884077532,0.0450380556285381,2.537204265594482,1.708091497421265,-0.4233029782772064,-0.1453202366828918,-0.0200193524360656,XArbitraryZVertical,0.3659087444055306,0.0735395363396428,0.5053126667140369,0.7780500030304707,-0.2553617656230927,-0.643711507320404,-0.7214054465293884,0,0,0,-1,-1,2810.827083875,walking,2,2022-05-12T10:31:53.243+02:00,2022-05-11T22:15:20.957+02:00,268,0.9445748,0.6794919,1.85568,201.4785,0,0,2022-05-12T10:31:53.243+02:00,674037115.7944142,0,1.369999,100.8912,1,0.97
344,2022-05-12T10:31:58.170+02:00,1652344315.999932,53.2289762702335,10.39845219814256,37.35916,0.0,0.87,350.859375,97.00693647964334,4.0,5.0,-9999,2815.753563041667,-0.7080841064453125,-0.7327880859375,-0.7196807861328125,2815.748565041667,1.298304989816543,-0.328289936666077,0.6953757774810776,0.2785910665988922,2.570059776306152,1.622186303138733,-0.462658017873764,-0.119137167930603,0.0009013414382934,XArbitraryZVertical,0.3606436450630526,0.0808216921936385,0.5163475135217075,0.7725213789538994,-0.2475619316101074,-0.6406739950180054,-0.7268080115318298,0,0,0,-1,-1,2810.827083875,walking,2,2022-05-12T10:31:53.243+02:00,2022-05-11T22:15:20.957+02:00,268,0.9445748,0.6794919,1.85568,201.4785,0,0,2022-05-12T10:31:53.243+02:00,674037115.7944142,0,1.369999,100.8912,1,0.97
345,2022-05-12T10:31:58.180+02:00,1652344315.999932,53.2289762702335,10.39845219814256,37.35916,0.0,0.87,350.859375,97.00693647964334,4.0,5.0,-9999,2815.763558041667,-0.7102813720703125,-0.771087646484375,-0.68939208984375,2815.758560041667,1.319357750015836,-0.3161416450840539,0.6941200261057039,0.503768801689148,2.551773309707642,1.536899089813232,-0.4726746380329132,-0.0941161513328552,0.0104327201843261,XArbitraryZVertical,0.356140647296625,0.0888870706177468,0.5268290345315414,0.7666251373187051,-0.2389643341302872,-0.6397093534469604,-0.7305258512496948,0,0,0,-1,-1,2810.827083875,walking,2,2022-05-12T10:31:53.243+02:00,2022-05-11T22:15:20.957+02:00,268,0.9445748,0.6794919,1.85568,201.4785,0,0,2022-05-12T10:31:53.243+02:00,674037115.7944142,0,1.369999,100.8912,1,0.97
