,loggingTime(txt),locationTimestamp_since1970(s),locationLatitude(WGS84),locationLongitude(WGS84),locationAltitude(m),locationSpeed(m/s),locationSpeedAccuracy(m/s),locationCourse(°),locationCourseAccuracy(°),locationVerticalAccuracy(m),locationHorizontalAccuracy(m),locationFloor(Z),accelerometerTimestamp_sinceReboot(s),accelerometerAccelerationX(G),accelerometerAccelerationY(G),accelerometerAccelerationZ(G),motionTimestamp_sinceReboot(s),motionYaw(rad),motionRoll(rad),motionPitch(rad),motionRotationRateX(rad/s),motionRotationRateY(rad/s),motionRotationRateZ(rad/s),motionUserAccelerationX(G),motionUserAccelerationY(G),motionUserAccelerationZ(G),motionAttitudeReferenceFrame(txt),motionQuaternionX(R),motionQuaternionY(R),motionQuaternionZ(R),motionQuaternionW(R),motionGravityX(G),motionGravityY(G),motionGravityZ(G),motionMagneticFieldX(µT),motionMagneticFieldY(µT),motionMagneticFieldZ(µT),motionHeading(°),motionMagneticFieldCalibrationAccuracy(Z),activityTimestamp_sinceReboot(s),activity(txt),activityActivityConfidence(Z),activityActivityStartDate(txt),pedometerStartDate(txt),pedometerNumberofSteps(N),pedometerAverageActivePace(s/m),pedometerCurrentPace(s/m),pedometerCurrentCadence(steps/s),pedometerDistance(m),pedometerFloorAscended(N),pedometerFloorDescended(N),pedometerEndDate(txt),altimeterTimestamp_sinceReboot(s),altimeterReset(bool),altimeterRelativeAltitude(m),altimeterPressure(kPa),batteryState(N),batteryLevel(R)
229,2022-05-12T10:33:39.781+02:00,1652344417.999543,53.22900320086749,10.39840600634724,36.69705,0.02896463,0.6489165,344.7301112603523,117.3044311117507,2.400000095367432,7.999579855010838,-9999,2917.363966166667,0.160400390625,0.35443115234375,2.38836669921875,2917.358968166667,-1.750338533694232,2.141780874408185,-0.069637438543974,-3.87474536895752,7.039674758911133,0.056571964174509,-0.6510058641433716,0.3452592492103577,1.565234184265137,XArbitraryZVertical,0.6626103093407245,0.5749112714230751,-0.3873251193825821,0.2835557937856637,0.8393300771713257,0.0695811659097671,0.5391507744789124,0,0,0,-1,-1,2910.61828025,walking,2,2022-05-12T10:33:33.034+02:00,2022-05-11T22:15:20.957+02:00,375,0.8798808,0,0,297.2407,0,0,2022-05-12T10:33:35.593+02:00,674037218.1522663,0,0.6899986,100.899,1,0.96
230,2022-05-12T10:33:39.791+02:00,1652344417.999543,53.22900320086749,10.39840600634724,36.69705,0.02896463,0.6489165,344.7301112603523,117.3044311117507,2.400000095367432,7.999579855010838,-9999,2917.373961166667,0.139373779296875,0.268157958984375,2.594161987304688,2917.368963166667,-1.715957621885374,2.215533385979364,-0.046688815586145,-4.366726398468018,7.311235427856445,-0.1984896212816238,-0.6640634536743164,0.324177473783493,1.678352832794189,XArbitraryZVertical,0.669860329498009,0.5928354251565838,-0.3514745224370641,0.2762226874404078,0.7983868718147278,0.0466718561947345,0.6003333926200867,0,0,0,-1,-1,2910.61828025,walking,2,2022-05-12T10:33:33.034+02:00,2022-05-11T22:15:20.957+02:00,375,0.8798808,0,0,297.2407,0,0,2022-05-12T10:33:35.593+02:00,674037218.1522663,0,0.6899986,100.899,1,0.96
231,2022-05-12T10:33:39.801+02:00,1652344417.999543,53.22900320086749,10.39840600634724,36.69705,0.02896463,0.6489165,344.7301112603523,117.3044311117507,2.400000095367432,7.999579855010838,-9999,2917.383956166667,0.090545654296875,0.3750762939453125,2.801010131835938,2917.378959166667,-1.677945773406381,2.291021450784267,-0.0204994915891816,-4.832074165344238,7.524341583251953,-0.5189172029495239,-0.5678747892379761,0.2567996680736542,1.829964160919189,XArbitraryZVertical,0.674824764127565,0.6118163917271411,-0.3131654195817378,0.268737483753529,0.7514995336532593,0.0204980559647083,0.6594155430793762,0,0,0,-1,-1,2910.61828025,walking,2,2022-05-12T10:33:33.034+02:00,2022-05-11T22:15:20.957+02:00,375,0.8798808,0,0,297.2407,0,0,2022-05-12T10:33:35.593+02:00,674037218.1522663,0,0.6899986,100.899,1,0.96
232,2022-05-12T10:33:39.811+02:00,1652344417.999543,53.22900320086749,10.39840600634724,36.69705,0.02896463,0.6489165,344.7301112603523,117.3044311117507,2.400000095367432,7.999579855010838,-9999,2917.393951166667,0.021148681640625,0.375396728515625,3.011428833007812,2917.388954166667,-1.636343007510231,2.367578130299182,0.0089416153956413,-5.260432720184326,7.726001262664795,-0.9367661476135254,-0.6018612384796143,0.348876565694809,1.984869122505188,XArbitraryZVertical,0.6770626022880917,0.6317651029068488,-0.2726441012346153,0.2610065541929492,0.698983907699585,-0.0089414957910776,0.7150818109512329,0,0,0,-1,-1,2910.61828025,walking,2,2022-05-12T10:33:33.034+02:00,2022-05-11T22:15:20.957+02:00,375,0.8798808,0,0,297.2407,0,0,2022-05-12T10:33:35.593+02:00,674037218.1522663,0,0.6899986,100.899,1,0.96
233,2022-05-12T10:33:39.821+02:00,1652344417.999543,53.22900320086749,10.39840600634724,36.69705,0.02896463,0.6489165,344.7301112603523,117.3044311117507,2.400000095367432,7.999579855010838,-9999,2917.403946166667,-0.046173095703125,0.4455413818359375,3.23858642578125,2917.398949166667,-1.591244326129722,2.444658436187069,0.041349799245949,-5.607376575469971,7.899991512298584,-1.437656760215759,-0.5780425667762756,0.4066179692745209,2.137863636016846,XArbitraryZVertical,0.6761645426377438,0.6525954124339517,-0.2302521717039782,0.2527942662288205,0.6413214802742004,-0.0413380153477191,0.7661585211753845,0,0,0,-1,-1,2910.61828025,walking,2,2022-05-12T10:33:33.034+02:00,2022-05-11T22:15:20.957+02:00,375,0.8798808,0,0,297.2407,0,0,2022-05-12T10:33:35.593+02:00,674037218.1522663,0,0.6899986,100.899,1,0.96
234,2022-05-12T10:33:39.831+02:00,1652344417.999543,53.22900320086749,10.39840600634724,36.69705,0.02896463,0.6489165,344.7301112603523,117.3044311117507,2.400000095367432,7.999579855010838,-9999,2917.413942166667,-0.1375579833984375,0.3948516845703125,3.499801635742188,2917.408944166667,-1.541464176379773,2.521311814348605,0.0767111860204818,-6.069754600524902,8.004446983337402,-2.084264278411865,-0.6019995808601379,0.5068725943565369,2.310396671295166,XArbitraryZVertical,0.6713312182011565,0.6745188230019,-0.1862620340055163,0.2442240575938618,0.5795544981956482,-0.0766359716653823,0.8113225102424622,0,0,0,-1,-1,2910.61828025,walking,2,2022-05-12T10:33:33.034+02:00,2022-05-11T22:15:20.957+02:00,375,0.8798808,0,0,297.2407,0,0,2022-05-12T10:33:35.593+02:00,674037218.1522663,0,0.6899986,100.899,1,0.96
235,2022-05-12T10:33:39.841+02:00,1652344417.999543,53.22900320086749,10.39840600634724,36.69705,0.02896463,0.6489165,344.7301112603523,117.3044311117507,2.400000095367432,7.999579855010838,-9999,2917.423937166667,-0.1849365234375,0.3914031982421875,3.775680541992188,2917.418939166667,-1.486432281885227,2.596495238400419,0.1156660103188892,-6.44178581237793,8.095898628234863,-2.790581226348877,-0.6026675701141357,0.5238858461380005,2.517366170883179,XArbitraryZVertical,0.6620492000769027,0.6974042420025212,-0.1408558296347766,0.2355377668553073,0.5150370597839355,-0.1154082715511322,0.8493636250495911,0,0,0,-1,-1,2910.61828025,walking,2,2022-05-12T10:33:33.034+02:00,2022-05-11T22:15:20.957+02:00,375,0.8798808,0,0,297.2407,0,0,2022-05-12T10:33:35.593+02:00,674037218.1522663,0,0.6899986,100.899,1,0.96
236,2022-05-12T10:33:39.851+02:00,1652344417.999543,53.22900320086749,10.39840600634724,36.69705,0.02896463,0.6489165,344.7301112603523,117.3044311117507,2.400000095367432,7.999579855010838,-9999,2917.433932166667,-0.2945709228515625,0.41351318359375,4.061767578125,2917.428934166667,-1.426201804886385,2.669584437025315,0.1574801397343658,-6.656055927276611,8.149072647094727,-3.58894944190979,-0.6119060516357422,0.5501556992530823,2.755755424499512,XArbitraryZVertical,0.6479881080047052,0.721061218343907,-0.0946431824470308,0.2263290652209383,0.4490495324134827,-0.1568300276994705,0.879635751247406,0,0,0,-1,-1,2910.61828025,walking,2,2022-05-12T10:33:33.034+02:00,2022-05-11T22:15:20.957+02:00,375,0.8798808,0,0,297.2407,0,0,2022-05-12T10:33:35.593+02:00,674037218.1522663,0,0.6899986,100.899,1,0.96
237,2022-05-12T10:33:39.861+02:00,1652344417.999543,53.22900320086749,10.39840600634724,36.69705,0.02896463,0.6489165,344.7301112603523,117.3044311117507,2.400000095367432,7.999579855010838,-9999,2917.443927166667,-0.479156494140625,0.420318603515625,4.355499267578125,2917.438929166667,-1.360159955290138,2.738814306569006,0.2009772176538042,-6.709197044372559,8.043320655822754,-4.524140357971191,-0.6155920028686523,0.5949363708496094,3.021591424942017,XArbitraryZVertical,0.6286400570221082,0.7453461424308904,-0.0487314368802803,0.2165552036420925,0.3840862512588501,-0.1996269673109055,0.9014583826065063,0,0,0,-1,-1,2910.61828025,walking,2,2022-05-12T10:33:33.034+02:00,2022-05-11T22:15:20.957+02:00,375,0.8798808,0,0,297.2407,0,0,2022-05-12T10:33:35.593+02:00,674037218.1522663,0,0.6899986,100.899,1,0.96
238,2022-05-12T10:33:39.871+02:00,1652344417.999543,53.22900320086749,10.39840600634724,36.69705,0.02896463,0.6489165,344.7301112603523,117.3044311117507,2.400000095367432,7.999579855010838,-9999,2917.453922166667,-0.7227935791015625,0.3657379150390625,4.76629638671875,2917.448925166667,-1.286800461809844,2.80148932719118,0.2448755045604196,-6.616870880126953,7.692633628845215,-5.656060218811035,-0.6985865831375122,0.6688728332519531,3.281921148300171,XArbitraryZVertical,0.6033760410359832,0.7702180981990303,-0.004462658326208,0.2065958612031085,0.323633074760437,-0.2424355447292328,0.9145971536636353,0,0,0,-1,-1,2910.61828025,walking,2,2022-05-12T10:33:33.034+02:00,2022-05-11T22:15:20.957+02:00,375,0.8798808,0,0,297.2407,0,0,2022-05-12T10:33:35.593+02:00,674037218.1522663,0,0.6899986,100.899,1,0.96
239,2022-05-12T10:33:39.881+02:00,1652344417.999543,53.22900320086749,10.39840600634724,36.69705,0.02896463,0.6489165,344.7301112603523,117.3044311117507,2.400000095367432,7.999579855010838,-9999,2917.463917166667,-0.9756622314453124,0.15972900390625,5.245071411132812,2917.458920166667,-1.204336874337301,2.853006845031827,0.2870064111016528,-6.28475284576416,6.896920204162598,-6.901791572570801,-0.8744411468505859,0.6802839040756226,3.632521629333496,XArbitraryZVertical,0.5717295413293569,0.7955140462969431,0.0360206237448397,0.1974469738399602,0.2729555666446686,-0.2830823659896851,0.9194345474243164,0,0,0,-1,-1,2910.61828025,walking,2,2022-05-12T10:33:33.034+02:00,2022-05-11T22:15:20.957+02:00,375,0.8798808,0,0,297.2407,0,0,2022-05-12T10:33:35.593+02:00,674037218.1522663,0,0.6899986,100.899,1,0.96
240,2022-05-12T10:33:39.891+02:00,1652344417.999543,53.22900320086749,10.39840600634724,36.69705,0.02896463,0.6489165,344.7301112603523,117.3044311117507,2.400000095367432,7.999579855010838,-9999,2917.473913166667,-1.284103393554688,-0.21868896484375,5.838272094726562,2917.468915166667,-1.110214441561707,2.887279622839851,0.3262432161311578,-6.092185020446777,5.542274475097656,-8.347899436950684,-1.077665328979492,0.613318145275116,4.075584411621094,XArbitraryZVertical,0.5333416904664389,0.8209383316276402,0.07095149169105,0.1912405111764185,0.2383105605840683,-0.3204866647720337,0.9167861938476562,0,0,0,-1,-1,2910.61828025,walking,2,2022-05-12T10:33:33.034+02:00,2022-05-11T22:15:20.957+02:00,375,0.8798808,0,0,297.2407,0,0,2022-05-12T10:33:35.593+02:00,674037218.1522663,0,0.6899986,100.899,1,0.96
241,2022-05-12T10:33:39.901+02:00,1652344417.999543,53.22900320086749,10.39840600634724,36.69705,0.02896463,0.6489165,344.7301112603523,117.3044311117507,2.400000095367432,7.999579855010838,-9999,2917.483908166667,-1.797378540039062,-1.007095336914062,6.4383544921875,2917.478910166667,-1.000081390993691,2.894704809635482,0.3614776888385188,-5.74662446975708,3.276351451873779,-10.06936359405518,-1.360963344573975,0.3218729197978973,4.623657703399658,XArbitraryZVertical,0.4874858942394828,0.8460873391937364,0.0984724759845494,0.1918252243668452,0.2285939007997513,-0.3536567986011505,0.9070125818252563,0,0,0,-1,-1,2910.61828025,walking,2,2022-05-12T10:33:33.034+02:00,2022-05-11T22:15:20.957+02:00,375,0.8798808,0,0,297.2407,0,0,2022-05-12T10:33:35.593+02:00,674037218.1522663,0,0.6899986,100.899,1,0.96
242,2022-05-12T10:33:39.911+02:00,1652344417.999543,53.22900320086749,10.39840600634724,36.69705,0.02896463,0.6489165,344.7301112603523,117.3044311117507,2.400000095367432,7.999579855010838,-9999,2917.493903166667,-2.533905029296875,-1.240432739257812,6.870315551757812,2917.488905166667,-0.8705927706518043,2.864959299844167,0.3836648118830316,-4.601577281951904,0.149174690246582,-12.17016220092773,-1.73759126663208,-0.2024607062339783,5.262497425079346,XArbitraryZVertical,0.4338264772978966,0.8705265351700217,0.1141541433858509,0.2023538666437766,0.2532626390457153,-0.3743213415145874,0.8920437097549438,0,0,0,-1,-1,2910.61828025,walking,2,2022-05-12T10:33:33.034+02:00,2022-05-11T22:15:20.957+02:00,375,0.8798808,0,0,297.2407,0,0,2022-05-12T10:33:35.593+02:00,674037218.1522663,0,0.6899986,100.899,1,0.96
243,2022-05-12T10:33:39.921+02:00,1652344417.999543,53.22900320086749,10.39840600634724,36.69705,0.02896463,0.6489165,344.7301112603523,117.3044311117507,2.400000095367432,7.999579855010838,-9999,2917.503898166667,-3.611663818359375,-0.4859466552734375,6.987686157226562,2917.498900166667,-0.7202428945761784,2.791384099478416,0.3796508628796807,-3.231614589691162,-3.720506906509399,-14.67778205871582,-2.472669839859009,-0.8691648840904236,5.802646636962891,XArbitraryZVertical,0.3715290402195807,0.8934063969340926,0.1135966039520316,0.2255817608973884,0.3186635076999664,-0.3705962300300598,0.8724176287651062,0,0,0,-1,-1,2910.61828025,walking,2,2022-05-12T10:33:33.034+02:00,2022-05-11T22:15:20.957+02:00,375,0.8798808,0,0,297.2407,0,0,2022-05-12T10:33:35.593+02:00,674037218.1522663,0,0.6899986,100.899,1,0.96
244,2022-05-12T10:33:39.931+02:00,1652344417.999543,53.22900320086749,10.39840600634724,36.69705,0.02896463,0.6489165,344.7301112603523,117.3044311117507,2.400000095367432,7.999579855010838,-9999,2917.513893166667,-4.470291137695312,0.60467529296875,6.756072998046875,2917.508896166667,-0.5516351862286581,2.672694613294573,0.3398060465702504,-2.105506896972656,-8.11475658416748,-17.41560554504395,-3.445624828338623,-0.6438378095626831,6.140021324157715,XArbitraryZVertical,0.2988646992707606,0.9117066229610068,0.095890682985299,0.2650963700954917,0.4260635375976562,-0.333304226398468,0.8410581350326538,0,0,0,-1,-1,2910.61828025,walking,2,2022-05-12T10:33:33.034+02:00,2022-05-11T22:15:20.957+02:00,375,0.8798808,0,0,297.2407,0,0,2022-05-12T10:33:35.593+02:00,674037218.1522663,0,0.6899986,100.899,1,0.96
245,2022-05-12T10:33:39.941+02:00,1652344417.999543,53.22900320086749,10.39840600634724,36.69705,0.02896463,0.6489165,344.7301112603523,117.3044311117507,2.400000095367432,7.999579855010838,-9999,2917.523888166667,-5.129989624023438,0.9940032958984376,5.786636352539062,2917.518891166667,-0.3762098916441403,2.516086010719147,0.2585081449435475,-1.386977553367615,-12.84484577178955,-19.60989379882812,-4.692365169525146,0.3999261260032654,6.137610912322998,XArbitraryZVertical,0.2154007834599746,0.919493135349482,0.0634230426287336,0.3226646758087469,0.5660531520843506,-0.2556385397911072,0.7837302684783936,0,0,0,-1,-1,2910.61828025,walking,2,2022-05-12T10:33:33.034+02:00,2022-05-11T22:15:20.957+02:00,375,0.8798808,0,0,297.2407,0,0,2022-05-12T10:33:35.593+02:00,674037218.1522663,0,0.6899986,100.899,1,0.96
246,2022-05-12T10:33:39.951+02:00,1652344417.999543,53.22900320086749,10.39840600634724,36.69705,0.02896463,0.6489165,344.7301112603523,117.3044311117507,2.400000095367432,7.999579855010838,-9999,2917.533884166667,-5.989700317382812,0.9104461669921876,4.775360107421875,2917.528886166667,-0.2153142029349313,2.330675837547,0.1301494697188205,0.1797337234020233,-17.847900390625,-20.98342704772949,-5.490119457244873,1.000769853591919,5.67450475692749,XArbitraryZVertical,0.1240299286724454,0.908911893740673,0.0171178381320221,0.3977472911494673,0.7187882661819458,-0.1297823488712311,0.6830084919929504,0,0,0,-1,-1,2910.61828025,walking,2,2022-05-12T10:33:33.034+02:00,2022-05-11T22:15:20.957+02:00,375,0.8798808,0,0,297.2407,0,0,2022-05-12T10:33:35.593+02:00,674037218.1522663,0,0.6899986,100.899,1,0.96
247,2022-05-12T10:33:39.961+02:00,1652344417.999543,53.22900320086749,10.39840600634724,36.69705,0.02896463,0.6489165,344.7301112603523,117.3044311117507,2.400000095367432,7.999579855010838,-9999,2917.543879166667,-7.489852905273438,1.214645385742188,4.191452026367188,2917.538881166667,-0.1050005025711653,2.124005245542013,-0.0458075033872934,4.40808629989624,-22.40143966674805,-20.24161338806152,-6.370137691497803,0.9407203197479248,4.706454277038574,XArbitraryZVertical,0.0346764843698191,0.8724861566521094,-0.0455289765764211,0.4852758141277144,0.8499504327774048,0.0457914844155311,0.5248690843582153,0,0,0,-1,-1,2910.61828025,walking,2,2022-05-12T10:33:33.034+02:00,2022-05-11T22:15:20.957+02:00,375,0.8798808,0,0,297.2407,0,0,2022-05-12T10:33:35.593+02:00,674037218.1522663,0,0.6899986,100.899,1,0.96
248,2022-05-12T10:33:39.971+02:00,1652344417.999543,53.22900320086749,10.39840600634724,36.69705,0.02896463,0.6489165,344.7301112603523,117.3044311117507,2.400000095367432,7.999579855010838,-9999,2917.553874166667,-10.32240295410156,2.91607666015625,5.0694580078125,2917.548876166667,-0.0959778564519539,1.869828599124801,-0.2471771987458907,10.8751745223999,-28.37026023864746,-17.20089530944824,-7.603244304656982,0.6569744944572449,4.117449283599854,XArbitraryZVertical,-0.0348265140723763,0.8010044283212555,-0.1273376421167885,0.5839214838689032,0.926577925682068,0.2446679323911667,0.2856419682502747,0,0,0,-1,-1,2910.61828025,walking,2,2022-05-12T10:33:33.034+02:00,2022-05-11T22:15:20.957+02:00,375,0.8798808,0,0,297.2407,0,0,2022-05-12T10:33:35.593+02:00,674037218.1522663,0,0.6899986,100.899,1,0.96
249,2022-05-12T10:33:39.981+02:00,1652344417.999543,53.22900320086749,10.39840600634724,36.69705,0.02896463,0.6489165,344.7301112603523,117.3044311117507,2.400000095367432,7.999579855010838,-9999,2917.563869166667,-17.62181091308594,3.43328857421875,6.285888671875,2917.558871166667,-0.2173955213744097,1.52687792794479,-0.4197999092739343,16.11756134033203,-32.16751098632812,-15.10708713531494,-9.35828971862793,1.551605463027954,4.585624217987061,XArbitraryZVertical,-0.0762848176753522,0.688574307620054,-0.2198686789538227,0.6868070260006515,0.9122900366783142,0.4075777530670166,-0.0400920994579792,0,0,0,-1,-1,2910.61828025,walking,2,2022-05-12T10:33:33.034+02:00,2022-05-11T22:15:20.957+02:00,375,0.8798808,0,0,297.2407,0,0,2022-05-12T10:33:35.593+02:00,674037218.1522663,0,0.6899986,100.899,1,0.96
250,2022-05-12T10:33:39.991+02:00,1652344417.999543,53.22900320086749,10.39840600634724,36.69705,0.02896463,0.6489165,344.7301112603523,117.3044311117507,2.400000095367432,7.999579855010838,-9999,2917.573864166667,-24.37416076660156,0.277801513671875,7.596359252929688,2917.568867166667,-0.443831037744347,1.080386819486083,-0.5128075308666304,17.65472602844238,-35.12973785400391,-12.70874977111816,-14.5507755279541,3.065038919448853,5.899326324462891,XArbitraryZVertical,-0.1026628060296569,0.5331586749238472,-0.309818049355393,0.7805222831950941,0.7686708569526672,0.4906255900859833,-0.4104043543338776,0,0,0,-1,-1,2910.61828025,walking,2,2022-05-12T10:33:33.034+02:00,2022-05-11T22:15:20.957+02:00,375,0.8798808,0,0,297.2407,0,0,2022-05-12T10:33:35.593+02:00,674037218.1522663,0,0.6899986,100.899,1,0.96
251,2022-05-12T10:33:40.001+02:00,1652344417.999543,53.22900320086749,10.39840600634724,36.69705,0.02896463,0.6489165,344.7301112603523,117.3044311117507,2.400000095367432,7.999579855010838,-9999,2917.583859166667,-31.20259094238281,-2.6497802734375,2.039321899414062,2917.578862166667,-0.6621136304759712,0.6286777133327339,-0.4641662365319483,19.75624656677246,-33.40883255004883,-4.409530639648438,-21.27501487731934,2.057343006134033,7.943536758422852,XArbitraryZVertical,-0.1090530314429133,0.3556575830227905,-0.3680815250932653,0.8521332983657266,0.5258545279502869,0.4476774036884308,-0.723230242729187,0,0,0,-1,-1,2910.61828025,walking,2,2022-05-12T10:33:33.034+02:00,2022-05-11T22:15:20.957+02:00,375,0.8798808,0,0,297.2407,0,0,2022-05-12T10:33:35.593+02:00,674037218.1522663,0,0.6899986,100.899,1,0.96
252,2022-05-12T10:33:40.011+02:00,1652344417.999543,53.22900320086749,10.39840600634724,36.69705,0.02896463,0.6489165,344.7301112603523,117.3044311117507,2.400000095367432,7.999579855010838,-9999,2917.593854166667,-24.17439270019531,9.368637084960938,-4.393218994140625,2917.588857166667,-0.7978674104587594,0.2844609434141193,-0.2410273972049477,31.17786979675293,-24.55086135864258,-1.315396428108215,-29.08890342712402,-2.845481157302856,6.92913818359375,XArbitraryZVertical,-0.0550012038446909,0.1759001545153691,-0.3974282618593457,0.8989354638368644,0.2725276947021484,0.2387004494667053,-0.9320679903030396,0,0,0,-1,-1,2910.61828025,walking,2,2022-05-12T10:33:33.034+02:00,2022-05-11T22:15:20.957+02:00,375,0.8798808,0,0,297.2407,0,0,2022-05-12T10:33:35.593+02:00,674037218.1522663,0,0.6899986,100.899,1,0.96
253,2022-05-12T10:33:40.021+02:00,1652344417.999543,53.22900320086749,10.39840600634724,36.69705,0.02896463,0.6489165,344.7301112603523,117.3044311117507,2.400000095367432,7.999579855010838,-9999,2917.603850166667,-13.97506713867188,1.78399658203125,4.120986938476562,2917.598852166667,-0.8721622626790512,0.1007716159639795,0.0904138944913032,35.09736633300781,-9.879020690917969,-0.2112414985895157,-29.52597236633301,3.332249641418457,-1.682034492492676,XArbitraryZVertical,0.0621620178599816,0.0265401748713279,-0.4193605082408517,0.9053001105654808,0.1001902371644974,-0.0902907624840736,-0.990863025188446,0,0,0,-1,-1,2910.61828025,walking,2,2022-05-12T10:33:33.034+02:00,2022-05-11T22:15:20.957+02:00,375,0.8798808,0,0,297.2407,0,0,2022-05-12T10:33:35.593+02:00,674037218.1522663,0,0.6899986,100.899,1,0.96
254,2022-05-12T10:33:40.051+02:00,1652344417.999543,53.22900320086749,10.39840600634724,36.69705,0.02896463,0.6489165,344.7301112603523,117.3044311117507,2.400000095367432,7.999579855010838,-9999,2917.613845166667,-8.966156005859375,-9.36224365234375,4.251556396484375,2917.608847166667,-0.8736746774325643,0.078640166976823,0.4415892598997688,34.98723220825195,4.186330795288086,5.61619758605957,-18.22966957092285,8.780556678771973,-0.0611076951026916,XArbitraryZVertical,0.2145131737190982,-0.0578303062575596,-0.4046855098863455,0.8870565652057868,0.0710232406854629,-0.4273768067359924,-0.9012795090675354,0,0,0,-1,-1,2910.61828025,walking,2,2022-05-12T10:33:33.034+02:00,2022-05-11T22:15:20.957+02:00,375,0.8798808,0,0,297.2407,0,0,2022-05-12T10:33:35.593+02:00,674037218.1522663,0,0.6899986,100.899,1,0.96
255,2022-05-12T10:33:40.054+02:00,1652344417.999543,53.22900320086749,10.39840600634724,36.69705,0.02896463,0.6489165,344.7301112603523,117.3044311117507,2.400000095367432,7.999579855010838,-9999,2917.623840166667,-2.889205932617188,-11.47245788574219,-0.6869354248046875,2917.618842166667,-0.8192438432115787,0.1192851461428606,0.7518615139517372,23.86060523986816,9.746281623840332,8.55332088470459,-11.57825469970703,-4.315184593200684,6.640679359436035,XArbitraryZVertical,0.358248336483978,-0.0950997312130034,-0.3497180530481525,0.8604135438783146,0.0869216248393058,-0.6829996109008789,-0.7252283692359924,0,0,0,-1,-1,2910.61828025,walking,2,2022-05-12T10:33:33.034+02:00,2022-05-11T22:15:20.957+02:00,375,0.8798808,0,0,297.2407,0,0,2022-05-12T10:33:35.593+02:00,674037218.1522663,0,0.6899986,100.899,1,0.96
256,2022-05-12T10:33:40.057+02:00,1652344417.999543,53.22900320086749,10.39840600634724,36.69705,0.02896463,0.6489165,344.7301112603523,117.3044311117507,2.400000095367432,7.999579855010838,-9999,2917.633835166667,-0.713409423828125,-7.81640625,-3.034805297851562,2917.628838166667,-0.7205673435995363,0.1400135902230556,0.9218398115665258,8.65523624420166,7.973584175109863,8.579769134521484,-5.922873973846436,-10.33701324462891,2.164175987243652,XArbitraryZVertical,0.4372834975738403,-0.0977881513369472,-0.285862366797337,0.8470557054624044,0.0843417644500732,-0.7967148423194885,-0.5984412431716919,0,0,0,-1,-1,2910.61828025,walking,2,2022-05-12T10:33:33.034+02:00,2022-05-11T22:15:20.957+02:00,375,0.8798808,0,0,297.2407,0,0,2022-05-12T10:33:35.593+02:00,674037218.1522663,0,0.6899986,100.899,1,0.96
257,2022-05-12T10:33:40.061+02:00,1652344417.999543,53.22900320086749,10.39840600634724,36.69705,0.02896463,0.6489165,344.7301112603523,117.3044311117507,2.400000095367432,7.999579855010838,-9999,2917.643830166667,-3.643707275390625,-3.5469970703125,-3.209197998046875,2917.638833166667,-0.5848365644625493,0.0840991367256998,0.96271358110172,-2.461998701095581,3.472445487976074,8.06422233581543,-1.010864615440369,-9.623437881469728,-1.6370689868927,XArbitraryZVertical,0.4536775356782029,-0.0976666266113024,-0.2366498805658306,0.853601061729147,0.047988798469305,-0.8207448720932007,-0.5692758560180664,0,0,0,-1,-1,2910.61828025,walking,2,2022-05-12T10:33:33.034+02:00,2022-05-11T22:15:20.957+02:00,375,0.8798808,0,0,297.2407,0,0,2022-05-12T10:33:35.593+02:00,674037218.1522663,0,0.6899986,100.899,1,0.96
258,2022-05-12T10:33:40.071+02:00,1652344417.999543,53.22900320086749,10.39840600634724,36.69705,0.02896463,0.6489165,344.7301112603523,117.3044311117507,2.400000095367432,7.999579855010838,-9999,2917.653825166667,-3.90850830078125,-4.072845458984375,-1.861434936523438,2917.648828166667,-0.4440696926563574,-0.0031506580240144,0.9056889139531143,-8.630941390991211,2.093806266784668,8.347034454345703,-2.025704860687256,-4.081175804138184,-2.6546950340271,XArbitraryZVertical,0.4264719398085824,-0.0977312202052471,-0.1986907530072087,0.8769790591380751,-0.0019444053759798,-0.7868505120277405,-0.6171405911445618,0,0,0,-1,-1,2910.61828025,walking,2,2022-05-12T10:33:33.034+02:00,2022-05-11T22:15:20.957+02:00,375,0.8798808,0,0,297.2407,0,0,2022-05-12T10:33:35.593+02:00,674037218.1522663,0,0.6899986,100.899,1,0.96
259,2022-05-12T10:33:40.081+02:00,1652344417.999543,53.22900320086749,10.39840600634724,36.69705,0.02896463,0.6489165,344.7301112603523,117.3044311117507,2.400000095367432,7.999579855010838,-9999,2917.663821166667,-2.949188232421875,-2.887969970703125,-0.60565185546875,2917.658823166667,-0.3247838547939414,-0.0743292935305739,0.8074722402926416,-9.745465278625488,1.812240362167358,8.00393295288086,-4.237449645996094,-3.072959423065186,-2.047505378723145,XArbitraryZVertical,0.3818960623070133,-0.0971920681054015,-0.1629823747300307,0.904514154487346,-0.0513385497033596,-0.7225419878959656,-0.6894181966781616,0,0,0,-1,-1,2910.61828025,walking,2,2022-05-12T10:33:33.034+02:00,2022-05-11T22:15:20.957+02:00,375,0.8798808,0,0,297.2407,0,0,2022-05-12T10:33:35.593+02:00,674037218.1522663,0,0.6899986,100.899,1,0.96
260,2022-05-12T10:33:40.090+02:00,1652344417.999543,53.22900320086749,10.39840600634724,36.69705,0.02896463,0.6489165,344.7301112603523,117.3044311117507,2.400000095367432,7.999579855010838,-9999,2917.673816166667,-3.302261352539062,-0.8377685546875,-0.5578155517578125,2917.668818166667,-0.2249134653494056,-0.1219903950153913,0.7185243182731229,-6.073699951171875,2.639380693435669,8.191637992858887,-3.164133548736572,-3.083210706710815,-0.3028349876403809,XArbitraryZVertical,0.3423091905681691,-0.0960864729560935,-0.126156215472616,0.9261082295550428,-0.091604083776474,-0.6582745313644409,-0.747183620929718,0,0,0,-1,-1,2910.61828025,walking,2,2022-05-12T10:33:33.034+02:00,2022-05-11T22:15:20.957+02:00,375,0.8798808,0,0,297.2407,0,0,2022-05-12T10:33:35.593+02:00,674037218.1522663,0,0.6899986,100.899,1,0.96
261,2022-05-12T10:33:40.101+02:00,1652344417.999543,53.22900320086749,10.39840600634724,36.69705,0.02896463,0.6489165,344.7301112603523,117.3044311117507,2.400000095367432,7.999579855010838,-9999,2917.683811125,-2.802932739257812,-0.9589691162109376,-0.7349853515625,2917.678813125,-0.1262627394519246,-0.1499678486087579,0.6687869658081599,-1.922345638275146,4.204951286315918,8.099514961242676,-2.958081960678101,-1.120031356811523,0.2598377466201782,XArbitraryZVertical,0.3221576292279139,-0.0912707369596654,-0.0839648365264314,0.9385276151081235,-0.1172203868627548,-0.6200347542762756,-0.7757682204246521,0,0,0,-1,-1,2910.61828025,walking,2,2022-05-12T10:33:33.034+02:00,2022-05-11T22:15:20.957+02:00,375,0.8798808,0,0,297.2407,0,0,2022-05-12T10:33:35.593+02:00,674037218.1522663,0,0.6899986,100.899,1,0.96
262,2022-05-12T10:33:40.110+02:00,1652344417.999543,53.22900320086749,10.39840600634724,36.69705,0.02896463,0.6489165,344.7301112603523,117.3044311117507,2.400000095367432,7.999579855010838,-9999,2917.693806125,-2.09918212890625,-1.479278564453125,-1.029983520507812,2917.688808125,-0.0306996288047795,-0.1666394304139195,0.6481313017071997,-0.1042413115501404,3.981768131256104,7.483139514923096,-3.113097906112671,0.0008233189582824,0.1629551649093628,XArbitraryZVertical,0.3160702375480124,-0.0837527447372833,-0.0409969014120995,0.944142207272376,-0.132233202457428,-0.6036977171897888,-0.7861701846122742,0,0,0,-1,-1,2910.61828025,walking,2,2022-05-12T10:33:33.034+02:00,2022-05-11T22:15:20.957+02:00,375,0.8798808,0,0,297.2407,0,0,2022-05-12T10:33:35.593+02:00,674037218.1522663,0,0.6899986,100.899,1,0.96
263,2022-05-12T10:33:40.120+02:00,1652344417.999543,53.22900320086749,10.39840600634724,36.69705,0.02896463,0.6489165,344.7301112603523,117.3044311117507,2.400000095367432,7.999579855010838,-9999,2917.703801125,-2.30401611328125,-1.417617797851562,-1.092239379882812,2917.698804125,0.058725682910527,-0.1828874935218172,0.6362730737759569,0.170602023601532,3.542870998382568,7.099246025085449,-2.164983510971069,-0.7900444865226746,-0.093528151512146,XArbitraryZVertical,0.3139023560274593,-0.077551781419189,-0.0007822804388908,0.9462825034068896,-0.1462806612253189,-0.594201922416687,-0.7909020781517029,0,0,0,-1,-1,2910.61828025,walking,2,2022-05-12T10:33:33.034+02:00,2022-05-11T22:15:20.957+02:00,375,0.8798808,0,0,297.2407,0,0,2022-05-12T10:33:35.593+02:00,674037218.1522663,0,0.6899986,100.899,1,0.96
264,2022-05-12T10:33:40.130+02:00,1652344417.999543,53.22900320086749,10.39840600634724,36.69705,0.02896463,0.6489165,344.7301112603523,117.3044311117507,2.400000095367432,7.999579855010838,-9999,2917.713796125,-2.253677368164062,-1.774078369140625,-0.95648193359375,2917.708799125,0.1445416921315915,-0.1992487205828778,0.6236016307259773,-0.0863293558359146,3.286318302154541,7.028351306915283,-2.003964424133301,-0.7954314351081848,-0.3099627494812012,XArbitraryZVertical,0.3112906430288448,-0.07237523261345,0.0379536066419367,0.9467944038153752,-0.1606781333684921,-0.5839626789093018,-0.7957199215888977,0,0,0,-1,-1,2910.61828025,walking,2,2022-05-12T10:33:33.034+02:00,2022-05-11T22:15:20.957+02:00,375,0.8798808,0,0,297.2407,0,0,2022-05-12T10:33:35.593+02:00,674037218.1522663,0,0.6899986,100.899,1,0.96
265,2022-05-12T10:33:40.140+02:00,1652344417.999543,53.22900320086749,10.39840600634724,36.69705,0.02896463,0.6489165,344.7301112603523,117.3044311117507,2.400000095367432,7.999579855010838,-9999,2917.723791125,-1.98675537109375,-1.578720092773438,-0.9189605712890624,2917.718794125,0.2281833891443904,-0.2170435512027599,0.6068741220500486,-0.3089234530925751,2.779377698898315,7.035045623779297,-2.167881965637207,-1.042978286743164,-0.2171400785446167,XArbitraryZVertical,0.3068800441436977,-0.0688720196577032,0.0758517433779421,0.9462177199818786,-0.1768906265497208,-0.5703025460243225,-0.8021625876426697,0,0,0,-1,-1,2910.61828025,walking,2,2022-05-12T10:33:33.034+02:00,2022-05-11T22:15:20.957+02:00,375,0.8798808,0,0,297.2407,0,0,2022-05-12T10:33:35.593+02:00,674037218.1522663,0,0.6899986,100.899,1,0.96
266,2022-05-12T10:33:40.150+02:00,1652344417.999543,53.22900320086749,10.39840600634724,36.69705,0.02896463,0.6489165,344.7301112603523,117.3044311117507,2.400000095367432,7.999579855010838,-9999,2917.733787125,-1.955780029296875,-1.30145263671875,-0.9393463134765624,2917.728789125,0.3104264051698611,-0.2383789080038934,0.588592441426966,-0.171823650598526,2.243132829666138,7.023117542266846,-1.909533739089966,-1.199538946151733,-0.1184935569763184,XArbitraryZVertical,0.302137883904929,-0.0679037843261773,0.1128183072880432,0.9441259850042544,-0.1963928192853928,-0.5551908612251282,-0.8082035779953003,0,0,0,-1,-1,2910.61828025,walking,2,2022-05-12T10:33:33.034+02:00,2022-05-11T22:15:20.957+02:00,375,0.8798808,0,0,297.2407,0,0,2022-05-12T10:33:35.593+02:00,674037218.1522663,0,0.6899986,100.899,1,0.96
267,2022-05-12T10:33:40.160+02:00,1652344417.999543,53.22900320086749,10.39840600634724,36.69705,0.02896463,0.6489165,344.7301112603523,117.3044311117507,2.400000095367432,7.999579855010838,-9999,2917.743782125,-2.001617431640625,-1.27301025390625,-0.9834747314453124,2917.738784125,0.3907636236295624,-0.261363876946313,0.5703446039348874,-0.0455952100455761,1.984665989875793,6.902842044830322,-1.724503636360168,-0.8551121950149536,-0.1130797863006592,XArbitraryZVertical,0.2978939375978052,-0.0685176662261503,0.148750052331065,0.9404457110937672,-0.2174977660179138,-0.5399221181869507,-0.8131290674209595,0,0,0,-1,-1,2910.61828025,walking,2,2022-05-12T10:33:33.034+02:00,2022-05-11T22:15:20.957+02:00,375,0.8798808,0,0,297.2407,0,0,2022-05-12T10:33:35.593+02:00,674037218.1522663,0,0.6899986,100.899,1,0.96
268,2022-05-12T10:33:40.171+02:00,1652344417.999543,53.22900320086749,10.39840600634724,36.69705,0.02896463,0.6489165,344.7301112603523,117.3044311117507,2.400000095367432,7.999579855010838,-9999,2917.753777125,-2.0128173828125,-1.35675048828125,-1.051528930664062,2917.748779125,0.4680792671317464,-0.2833437458641626,0.5519019030434283,0.0183632653206586,1.858084678649902,6.69756555557251,-1.746284604072571,-0.7505941987037659,-0.1437137126922607,XArbitraryZVertical,0.2938850328753734,-0.0695993007106452,0.1834770731567813,0.9354805316075536,-0.2380599081516266,-0.5243077278137207,-0.8175750374794006,0,0,0,-1,-1,2910.61828025,walking,2,2022-05-12T10:33:33.034+02:00,2022-05-11T22:15:20.957+02:00,375,0.8798808,0,0,297.2407,0,0,2022-05-12T10:33:35.593+02:00,674037218.1522663,0,0.6899986,100.899,1,0.96
269,2022-05-12T10:33:40.180+02:00,1652344417.999543,53.22900320086749,10.39840600634724,36.69705,0.02896463,0.6489165,344.7301112603523,117.3044311117507,2.400000095367432,7.999579855010838,-9999,2917.763772125,-2.00054931640625,-1.4422607421875,-1.101577758789062,2917.758775125,0.5417099896778853,-0.3032851841385198,0.533186736322078,0.0462141372263431,1.753849983215332,6.46049976348877,-1.754655003547668,-0.7895707488059998,-0.191250741481781,XArbitraryZVertical,0.2899187184283696,-0.0707351739274859,0.2167958455350832,0.9294855035031756,-0.2572009861469269,-0.508280336856842,-0.8218873143196106,0,0,0,-1,-1,2910.61828025,walking,2,2022-05-12T10:33:33.034+02:00,2022-05-11T22:15:20.957+02:00,375,0.8798808,0,0,297.2407,0,0,2022-05-12T10:33:35.593+02:00,674037218.1522663,0,0.6899986,100.899,1,0.96
270,2022-05-12T10:33:40.190+02:00,1652344417.999543,53.22900320086749,10.39840600634724,36.69705,0.02896463,0.6489165,344.7301112603523,117.3044311117507,2.400000095367432,7.999579855010838,-9999,2917.773767125,-1.976272583007812,-1.369094848632812,-1.110580444335938,2917.768770125,0.6114111938910225,-0.3210757024646007,0.5145722364727592,0.1429694443941116,1.666203498840332,6.178611755371094,-1.731826066970825,-0.9276368618011476,-0.2577687501907349,XArbitraryZVertical,0.2860643696245703,-0.0718219359753899,0.2485281139873095,0.922628123479604,-0.2747199535369873,-0.4921625256538391,-0.8260175585746765,0,0,0,-1,-1,2910.61828025,walking,2,2022-05-12T10:33:33.034+02:00,2022-05-11T22:15:20.957+02:00,375,0.8798808,0,0,297.2407,0,0,2022-05-12T10:33:35.593+02:00,674037218.1522663,0,0.6899986,100.899,1,0.96
271,2022-05-12T10:33:40.200+02:00,1652344417.999543,53.22900320086749,10.39840600634724,36.69705,0.02896463,0.6489165,344.7301112603523,117.3044311117507,2.400000095367432,7.999579855010838,-9999,2917.783762125,-1.925445556640625,-1.3250732421875,-1.072540283203125,2917.778765125,0.6776901993538578,-0.3371261368108223,0.4974132421013164,0.3526291251182556,1.54836630821228,5.906415462493896,-1.700121283531189,-0.93388694524765,-0.2780566215515137,XArbitraryZVertical,0.282913168277577,-0.0726979361758282,0.2786569649601594,0.9148909878920576,-0.2906928360462189,-0.4771538376808167,-0.8293502926826477,0,0,0,-1,-1,2910.61828025,walking,2,2022-05-12T10:33:33.034+02:00,2022-05-11T22:15:20.957+02:00,375,0.8798808,0,0,297.2407,0,0,2022-05-12T10:33:35.593+02:00,674037218.1522663,0,0.6899986,100.899,1,0.96
272,2022-05-12T10:33:40.210+02:00,1652344417.999543,53.22900320086749,10.39840600634724,36.69705,0.02896463,0.6489165,344.7301112603523,117.3044311117507,2.400000095367432,7.999579855010838,-9999,2917.793758125,-1.912139892578125,-1.26104736328125,-1.041839599609375,2917.788760125,0.7406136785902633,-0.3515901288035732,0.4822646677899131,0.5440100431442261,1.497492432594299,5.562593936920166,-1.646151065826416,-0.8757055997848511,-0.2691411972045898,XArbitraryZVertical,0.2806465749563914,-0.0732283634653409,0.3070812550758257,0.9064084500006911,-0.305112212896347,-0.4637867510318756,-0.831750214099884,0,0,0,-1,-1,2910.61828025,walking,2,2022-05-12T10:33:33.034+02:00,2022-05-11T22:15:20.957+02:00,375,0.8798808,0,0,297.2407,0,0,2022-05-12T10:33:35.593+02:00,674037218.1522663,0,0.6899986,100.899,1,0.96
273,2022-05-12T10:33:40.220+02:00,1652344417.999543,53.22900320086749,10.39840600634724,36.69705,0.02896463,0.6489165,344.7301112603523,117.3044311117507,2.400000095367432,7.999579855010838,-9999,2917.803753125,-1.905319213867188,-1.1793212890625,-1.0870361328125,2917.798755125,0.7996020044602083,-0.3632913844746673,0.4696339386339415,0.7859178781509399,1.580398321151733,5.144853591918945,-1.594618797302246,-0.8508301973342896,-0.2145634293556213,XArbitraryZVertical,0.2791756913652874,-0.0727642239597049,0.3336092040802332,0.8974805678245913,-0.3168801069259644,-0.4525598883628845,-0.8335326313972473,0,0,0,-1,-1,2910.61828025,walking,2,2022-05-12T10:33:33.034+02:00,2022-05-11T22:15:20.957+02:00,375,0.8798808,0,0,297.2407,0,0,2022-05-12T10:33:35.593+02:00,674037218.1522663,0,0.6899986,100.899,1,0.96
274,2022-05-12T10:33:40.231+02:00,1652344417.999543,53.22900320086749,10.39840600634724,36.69705,0.02896463,0.6489165,344.7301112603523,117.3044311117507,2.400000095367432,7.999579855010838,-9999,2917.813748125,-1.84442138671875,-1.201553344726562,-1.1273193359375,2917.808750125,0.8549407909338783,-0.3717099310121433,0.4606900733000684,1.088841319084167,1.705109596252441,4.746763706207275,-1.590824961662292,-0.7708110809326172,-0.2221286296844482,XArbitraryZVertical,0.2787748516499965,-0.070695862157864,0.3582764599663829,0.8882143899304921,-0.3253431022167206,-0.4445663392543793,-0.8345733284950256,0,0,0,-1,-1,2910.61828025,walking,2,2022-05-12T10:33:33.034+02:00,2022-05-11T22:15:20.957+02:00,375,0.8798808,0,0,297.2407,0,0,2022-05-12T10:33:35.593+02:00,674037218.1522663,0,0.6899986,100.899,1,0.96
275,2022-05-12T10:33:40.241+02:00,1652344417.999543,53.22900320086749,10.39840600634724,36.69705,0.02896463,0.6489165,344.7301112603523,117.3044311117507,2.400000095367432,7.999579855010838,-9999,2917.823743125,-1.764556884765625,-1.272979736328125,-1.101608276367188,2917.818745125,0.906849900178595,-0.3766302968114065,0.4545387391271276,1.137580871582031,1.909978866577148,4.372566699981689,-1.547621726989746,-0.7329944968223572,-0.2786768674850464,XArbitraryZVertical,0.2788646083594438,-0.067005130769887,0.381319424061107,0.878829072352409,-0.3304451107978821,-0.4390479326248169,-0.8354896903038025,0,0,0,-1,-1,2910.61828025,walking,2,2022-05-12T10:33:33.034+02:00,2022-05-11T22:15:20.957+02:00,375,0.8798808,0,0,297.2407,0,0,2022-05-12T10:33:35.593+02:00,674037218.1522663,0,0.6899986,100.899,1,0.96
276,2022-05-12T10:33:40.251+02:00,1652344417.999543,53.22900320086749,10.39840600634724,36.69705,0.02896463,0.6489165,344.7301112603523,117.3044311117507,2.400000095367432,7.999579855010838,-9999,2917.833738125,-1.63580322265625,-1.279998779296875,-1.044677734375,2917.828741125,0.954364906310404,-0.3769490986916221,0.4488177032934201,0.9257224202156068,2.16948676109314,3.993892431259155,-1.475955843925476,-0.8129098415374756,-0.2839067578315735,XArbitraryZVertical,0.2780642866285076,-0.0618646442006184,0.402796917919772,0.8698319669211299,-0.3316305577754974,-0.4339006245136261,-0.8377060294151306,0,0,0,-1,-1,2910.61828025,walking,2,2022-05-12T10:33:33.034+02:00,2022-05-11T22:15:20.957+02:00,375,0.8798808,0,0,297.2407,0,0,2022-05-12T10:33:35.593+02:00,674037218.1522663,0,0.6899986,100.899,1,0.96
277,2022-05-12T10:33:40.261+02:00,1652344417.999543,53.22900320086749,10.39840600634724,36.69705,0.02896463,0.6489165,344.7301112603523,117.3044311117507,2.400000095367432,7.999579855010838,-9999,2917.843733125,-1.486129760742188,-1.265411376953125,-0.9853515625,2917.838736125,0.9968810319066148,-0.3725897414628506,0.4423713668907631,0.6876147389411926,2.364079713821411,3.627220869064331,-1.377509951591492,-0.8482677936553955,-0.2303513288497925,XArbitraryZVertical,0.2757475173913901,-0.0556556605567485,0.4226492308270495,0.861529801483035,-0.3289869725704193,-0.4280837774276733,-0.8417314887046814,0,0,0,-1,-1,2910.61828025,walking,2,2022-05-12T10:33:33.034+02:00,2022-05-11T22:15:20.957+02:00,375,0.8798808,0,0,297.2407,0,0,2022-05-12T10:33:35.593+02:00,674037218.1522663,0,0.6899986,100.899,1,0.96
278,2022-05-12T10:33:40.271+02:00,1652344417.999543,53.22900320086749,10.39840600634724,36.69705,0.02896463,0.6489165,344.7301112603523,117.3044311117507,2.400000095367432,7.999579855010838,-9999,2917.853728125,-1.333724975585938,-1.240707397460938,-0.9151611328125,2917.848731125,1.034833934473169,-0.3642618533761153,0.4352304166256732,0.4563285410404205,2.524775981903076,3.309003353118896,-1.237698316574097,-0.8546406626701355,-0.1733380556106567,XArbitraryZVertical,0.2720149260411993,-0.0486770630167994,0.4409961080523654,0.853909279093094,-0.3230466246604919,-0.4216193556785583,-0.8472768664360046,0,0,0,-1,-1,2910.61828025,walking,2,2022-05-12T10:33:33.034+02:00,2022-05-11T22:15:20.957+02:00,375,0.8798808,0,0,297.2407,0,0,2022-05-12T10:33:35.593+02:00,674037218.1522663,0,0.6899986,100.899,1,0.96
279,2022-05-12T10:33:40.281+02:00,1652344417.999543,53.22900320086749,10.39840600634724,36.69705,0.02896463,0.6489165,344.7301112603523,117.3044311117507,2.400000095367432,7.999579855010838,-9999,2917.863724125,-1.192459106445312,-1.184051513671875,-0.8631744384765625,2917.858726125,1.068784767380418,-0.3528809700240277,0.4274121027056147,0.2522137761116028,2.574585199356079,3.024183988571167,-1.096070408821106,-0.8400754332542419,-0.0929798483848571,XArbitraryZVertical,0.2670456394196215,-0.0412772330615729,0.4579685877349755,0.8469047694616871,-0.3145127892494202,-0.4145171046257019,-0.8539656400680542,0,0,0,-1,-1,2910.61828025,walking,2,2022-05-12T10:33:33.034+02:00,2022-05-11T22:15:20.957+02:00,375,0.8798808,0,0,297.2407,0,0,2022-05-12T10:33:35.593+02:00,674037218.1522663,0,0.6899986,100.899,1,0.96
280,2022-05-12T10:33:40.291+02:00,1652344417.999543,53.22900320086749,10.39840600634724,36.69705,0.02896463,0.6489165,344.7301112603523,117.3044311117507,2.400000095367432,7.999579855010838,-9999,2917.873719125,-1.09539794921875,-1.103195190429688,-0.79168701171875,2917.868721125,1.099275653822183,-0.3397426186349233,0.4190755558027982,0.0763079971075058,2.560324907302856,2.780504941940308,-0.9553275108337402,-0.8121997117996216,-0.0291899442672729,XArbitraryZVertical,0.2611974835356157,-0.0339080443159096,0.4736125916067469,0.8404268041151483,-0.3044072985649109,-0.4069161713123322,-0.8612522482872009,0,0,0,-1,-1,2910.61828025,walking,2,2022-05-12T10:33:33.034+02:00,2022-05-11T22:15:20.957+02:00,375,0.8798808,0,0,297.2407,0,0,2022-05-12T10:33:35.593+02:00,674037218.1522663,0,0.6899986,100.899,1,0.96
281,2022-05-12T10:33:40.301+02:00,1652344417.999543,53.22900320086749,10.39840600634724,36.69705,0.02896463,0.6489165,344.7301112603523,117.3044311117507,2.400000095367432,7.999579855010838,-9999,2917.883714125,-1.031600952148438,-0.98858642578125,-0.7297210693359375,2917.878716125,1.126879792308319,-0.3253103249121006,0.4105416649307137,-0.028193449601531,2.55307936668396,2.556127786636353,-0.8452141284942627,-0.7471643686294556,0.041467547416687,XArbitraryZVertical,0.2547252697151525,-0.0266032369851971,0.4880768589939733,0.8343791152716573,-0.2930454015731812,-0.3991060554981232,-0.8688145875930786,0,0,0,-1,-1,2910.61828025,walking,2,2022-05-12T10:33:33.034+02:00,2022-05-11T22:15:20.957+02:00,375,0.8798808,0,0,297.2407,0,0,2022-05-12T10:33:35.593+02:00,674037218.1522663,0,0.6899986,100.899,1,0.96
282,2022-05-12T10:33:40.311+02:00,1652344417.999543,53.22900320086749,10.39840600634724,36.69705,0.02896463,0.6489165,344.7301112603523,117.3044311117507,2.400000095367432,7.999579855010838,-9999,2917.893709125,-0.9670562744140624,-0.8536376953125,-0.66326904296875,2917.888712125,1.152026644574505,-0.3097572239911021,0.4025641017890734,-0.0324872657656669,2.544396877288818,2.3250732421875,-0.7803465723991394,-0.6585749387741089,0.1172839403152466,XArbitraryZVertical,0.2479857382167102,-0.019164027351953,0.5014360110760512,0.8286722928991542,-0.2804593443870544,-0.3917787671089172,-0.8762716054916382,0,0,0,-1,-1,2910.61828025,walking,2,2022-05-12T10:33:33.034+02:00,2022-05-11T22:15:20.957+02:00,375,0.8798808,0,0,297.2407,0,0,2022-05-12T10:33:35.593+02:00,674037218.1522663,0,0.6899986,100.899,1,0.96
283,2022-05-12T10:33:40.321+02:00,1652344417.999543,53.22900320086749,10.39840600634724,36.69705,0.02896463,0.6489165,344.7301112603523,117.3044311117507,2.400000095367432,7.999579855010838,-9999,2917.903704125,-0.914306640625,-0.7840118408203125,-0.6244049072265625,2917.898707125,1.174946137575396,-0.2936164772206442,0.3961161035936607,0.0606003664433956,2.464958667755127,2.097423315048218,-0.7344591021537781,-0.5328474640846252,0.1873133778572083,XArbitraryZVertical,0.2415078611361932,-0.0114900828918285,0.5136209337480758,0.82324691427899,-0.2670053243637085,-0.385838121175766,-0.8830838799476624,0,0,0,-1,-1,2910.61828025,walking,2,2022-05-12T10:33:33.034+02:00,2022-05-11T22:15:20.957+02:00,375,0.8798808,0,0,297.2407,0,0,2022-05-12T10:33:35.593+02:00,674037218.1522663,0,0.6899986,100.899,1,0.96
284,2022-05-12T10:33:40.331+02:00,1652344417.999543,53.22900320086749,10.39840600634724,36.69705,0.02896463,0.6489165,344.7301112603523,117.3044311117507,2.400000095367432,7.999579855010838,-9999,2917.913699125,-0.8617095947265625,-0.7547149658203125,-0.587158203125,2917.908702125,1.195995206865437,-0.2775996648292796,0.3916222640410033,0.1774646639823914,2.352785587310791,1.899269700050354,-0.6841994524002075,-0.4280036985874176,0.2471053600311279,XArbitraryZVertical,0.2356559014856529,-0.003677173177441,0.5246718868794836,0.8180295448653369,-0.2533001303672791,-0.3816883563995361,-0.8889055252075195,0,0,0,-1,-1,2910.61828025,walking,2,2022-05-12T10:33:33.034+02:00,2022-05-11T22:15:20.957+02:00,375,0.8798808,0,0,297.2407,0,0,2022-05-12T10:33:35.593+02:00,674037218.1522663,0,0.6899986,100.899,1,0.96
285,2022-05-12T10:33:40.341+02:00,1652344417.999543,53.22900320086749,10.39840600634724,36.69705,0.02896463,0.6489165,344.7301112603523,117.3044311117507,2.400000095367432,7.999579855010838,-9999,2917.923695125,-0.8118743896484375,-0.7374725341796875,-0.5563201904296875,2917.918697125,1.215669680736412,-0.2622656588383466,0.3889864821823561,0.2846145629882812,2.211063861846924,1.750561952590942,-0.6484506130218506,-0.3889373540878296,0.2869638204574585,XArbitraryZVertical,0.2305565111243076,0.0041136629485806,0.5347682765332072,0.8129267169360723,-0.2399004101753235,-0.3792507946491241,-0.8936535716056824,0,0,0,-1,-1,2910.61828025,walking,2,2022-05-12T10:33:33.034+02:00,2022-05-11T22:15:20.957+02:00,375,0.8798808,0,0,297.2407,0,0,2022-05-12T10:33:35.593+02:00,674037218.1522663,0,0.6899986,100.899,1,0.96
286,2022-05-12T10:33:40.351+02:00,1652344417.999543,53.22900320086749,10.39840600634724,36.69705,0.02896463,0.6489165,344.7301112603523,117.3044311117507,2.400000095367432,7.999579855010838,-9999,2917.933690125,-0.7836761474609375,-0.7153472900390625,-0.5413360595703125,2917.928692125,1.234251096598275,-0.2480305293926544,0.3879400993718908,0.3769705891609192,2.044190406799316,1.632249712944031,-0.6071128845214844,-0.3690317571163177,0.3281480073928833,XArbitraryZVertical,0.2262344784360257,0.0117007460280811,0.5440344365636773,0.8079033180377142,-0.2272525578737259,-0.3782823979854584,-0.8973621129989624,0,0,0,-1,-1,2910.61828025,walking,2,2022-05-12T10:33:33.034+02:00,2022-05-11T22:15:20.957+02:00,375,0.8798808,0,0,297.2407,0,0,2022-05-12T10:33:35.593+02:00,674037218.1522663,0,0.6899986,100.899,1,0.96
287,2022-05-12T10:33:40.361+02:00,1652344417.999543,53.22900320086749,10.39840600634724,36.69705,0.02896463,0.6489165,344.7301112603523,117.3044311117507,2.400000095367432,7.999579855010838,-9999,2917.943685125,-0.7554168701171875,-0.6992340087890625,-0.52166748046875,2917.938687125,1.251891446644133,-0.2348922036158489,0.3880571928580638,0.420868456363678,1.934867262840271,1.535361766815186,-0.5805258750915527,-0.3459283709526062,0.3497508764266968,XArbitraryZVertical,0.2225425683834187,0.0190053805049054,0.5526005436032451,0.8029610114942666,-0.2154331356287003,-0.3783907890319824,-0.9002271890640259,0,0,0,-1,-1,2910.61828025,walking,2,2022-05-12T10:33:33.034+02:00,2022-05-11T22:15:20.957+02:00,375,0.8798808,0,0,297.2407,0,0,2022-05-12T10:33:35.593+02:00,674037218.1522663,0,0.6899986,100.899,1,0.96
288,2022-05-12T10:33:40.371+02:00,1652344417.999543,53.22900320086749,10.39840600634724,36.69705,0.02896463,0.6489165,344.7301112603523,117.3044311117507,2.400000095367432,7.999579855010838,-9999,2917.953680125,-0.68731689453125,-0.6898651123046875,-0.5120391845703125,2917.948682125,1.268552161638788,-0.222387239881708,0.3889736464905579,0.4534777998924255,1.821215510368347,1.433823704719543,-0.5688813328742981,-0.3270595967769623,0.3732607960700989,XArbitraryZVertical,0.2192294986030321,0.0261223759644272,0.5605574369049366,0.7981424702920913,-0.2040826976299286,-0.3792389333248138,-0.9025120735168456,0,0,0,-1,-1,2910.61828025,walking,2,2022-05-12T10:33:33.034+02:00,2022-05-11T22:15:20.957+02:00,375,0.8798808,0,0,297.2407,0,0,2022-05-12T10:33:35.593+02:00,674037218.1522663,0,0.6899986,100.899,1,0.96
