,loggingTime(txt),locationTimestamp_since1970(s),locationLatitude(WGS84),locationLongitude(WGS84),locationAltitude(m),locationSpeed(m/s),locationSpeedAccuracy(m/s),locationCourse(°),locationCourseAccuracy(°),locationVerticalAccuracy(m),locationHorizontalAccuracy(m),locationFloor(Z),accelerometerTimestamp_sinceReboot(s),accelerometerAccelerationX(G),accelerometerAccelerationY(G),accelerometerAccelerationZ(G),motionTimestamp_sinceReboot(s),motionYaw(rad),motionRoll(rad),motionPitch(rad),motionRotationRateX(rad/s),motionRotationRateY(rad/s),motionRotationRateZ(rad/s),motionUserAccelerationX(G),motionUserAccelerationY(G),motionUserAccelerationZ(G),motionAttitudeReferenceFrame(txt),motionQuaternionX(R),motionQuaternionY(R),motionQuaternionZ(R),motionQuaternionW(R),motionGravityX(G),motionGravityY(G),motionGravityZ(G),motionMagneticFieldX(µT),motionMagneticFieldY(µT),motionMagneticFieldZ(µT),motionHeading(°),motionMagneticFieldCalibrationAccuracy(Z),activityTimestamp_sinceReboot(s),activity(txt),activityActivityConfidence(Z),activityActivityStartDate(txt),pedometerStartDate(txt),pedometerNumberofSteps(N),pedometerAverageActivePace(s/m),pedometerCurrentPace(s/m),pedometerCurrentCadence(steps/s),pedometerDistance(m),pedometerFloorAscended(N),pedometerFloorDescended(N),pedometerEndDate(txt),altimeterTimestamp_sinceReboot(s),altimeterReset(bool),altimeterRelativeAltitude(m),altimeterPressure(kPa),batteryState(N),batteryLevel(R)
260,2022-06-02T10:45:36.461+02:00,1654159533.499566,53.22888795108437,10.39798063911611,42.58036,-1,-1,-1,-1,22.88975524902344,40,-9999,2680.738247291667,1.26495361328125,0.63543701171875,1.38525390625,2680.728252291667,-1.399926138464932,1.626253042251641,0.0208638575177505,-1.38293445110321,4.043789863586426,2.903905153274536,0.3032225370407104,0.7272984981536865,1.193210363388062,XArbitraryZVertical,0.4734224613658818,0.5509802949672667,-0.4368863919133218,0.5304922886357277,0.9982452392578124,-0.0208623446524143,0.0554162263870239,0,0,0,-1,-1,2678.930779666667,unknown,2,2022-06-02T10:45:34.652+02:00,2022-06-02T10:17:13.754+02:00,448,1.401249,0,0,345.1212,0,0,2022-06-02T10:45:34.652+02:00,675852334.6522421,0,6.992188,101.2986,1,0.82
261,2022-06-02T10:45:36.471+02:00,1654159533.499566,53.22888795108437,10.39798063911611,42.58036,-1,-1,-1,-1,22.88975524902344,40,-9999,2680.748241291667,1.282562255859375,0.5960540771484375,1.438217163085938,2680.738247291667,-1.387214611093631,1.668290888630481,0.0500605900596531,-1.600451350212097,4.454946994781494,2.731656074523926,0.2755268812179565,0.7220672965049744,1.253138780593872,XArbitraryZVertical,0.4863358677669437,0.5586470594492221,-0.415109199913428,0.5282756067735725,0.9940041899681092,-0.0500396825373172,0.0972182229161262,0,0,0,-1,-1,2678.930779666667,unknown,2,2022-06-02T10:45:34.652+02:00,2022-06-02T10:17:13.754+02:00,448,1.401249,0,0,345.1212,0,0,2022-06-02T10:45:34.652+02:00,675852334.6522421,0,6.992188,101.2986,1,0.82
262,2022-06-02T10:45:36.481+02:00,1654159533.499566,53.22888795108437,10.39798063911611,42.58036,-1,-1,-1,-1,22.88975524902344,40,-9999,2680.758236291667,1.304855346679688,0.59063720703125,1.532424926757812,2680.748241291667,-1.373422059548817,1.714203041497306,0.0783582835573966,-1.792643189430237,4.922038078308105,2.567463397979736,0.286693811416626,0.685211718082428,1.270334005355835,XArbitraryZVertical,0.498730618138317,0.5678964233922479,-0.3918175537515611,0.5246336168488356,0.9866979122161864,-0.0782781243324279,0.1424771547317505,0,0,0,-1,-1,2678.930779666667,unknown,2,2022-06-02T10:45:34.652+02:00,2022-06-02T10:17:13.754+02:00,448,1.401249,0,0,345.1212,0,0,2022-06-02T10:45:34.652+02:00,675852334.6522421,0,6.992188,101.2986,1,0.82
263,2022-06-02T10:45:36.491+02:00,1654159533.499566,53.22888795108437,10.39798063911611,42.58036,-1,-1,-1,-1,22.88975524902344,40,-9999,2680.768230291667,1.3148193359375,0.6072235107421875,1.689926147460938,2680.758236291667,-1.359338773964588,1.764879609610227,0.1057930041054764,-1.920085668563843,5.471514225006104,2.380574464797974,0.3144068717956543,0.6940205097198486,1.284926295280457,XArbitraryZVertical,0.510857755672712,0.5787216441671075,-0.3669720468035885,0.5190731658343718,0.975738763809204,-0.105595774948597,0.1917887777090073,0,0,0,-1,-1,2678.930779666667,unknown,2,2022-06-02T10:45:34.652+02:00,2022-06-02T10:17:13.754+02:00,448,1.401249,0,0,345.1212,0,0,2022-06-02T10:45:34.652+02:00,675852334.6522421,0,6.992188,101.2986,1,0.82
264,2022-06-02T10:45:36.500+02:00,1654159533.499566,53.22888795108437,10.39798063911611,42.58036,-1,-1,-1,-1,22.88975524902344,40,-9999,2680.778225291667,1.230453491210938,0.508544921875,1.880325317382812,2680.768230291667,-1.343864116136987,1.820467255143581,0.1328699200060524,-2.26136302947998,6.031087398529053,2.226521730422974,0.3605005145072937,0.7403894662857056,1.357891201972961,XArbitraryZVertical,0.5223480224938852,0.5912750121199349,-0.3400726170118004,0.5117586040680079,0.960452675819397,-0.1324793100357056,0.2449072003364563,0,0,0,-1,-1,2678.930779666667,unknown,2,2022-06-02T10:45:34.652+02:00,2022-06-02T10:17:13.754+02:00,448,1.401249,0,0,345.1212,0,0,2022-06-02T10:45:34.652+02:00,675852334.6522421,0,6.992188,101.2986,1,0.82
265,2022-06-02T10:45:36.511+02:00,1654159533.499566,53.22888795108437,10.39798063911611,42.58036,-1,-1,-1,-1,22.88975524902344,40,-9999,2680.788219291667,1.21405029296875,0.5522308349609375,2.223800659179688,2680.778225291667,-1.327155505258357,1.882046029010088,0.1591418378138868,-2.389557600021362,6.797927379608154,1.901960730552673,0.3370398879051208,0.7192009687423706,1.47752857208252,XArbitraryZVertical,0.5330835692241316,0.6058144906484023,-0.3110102161186328,0.5020788194973063,0.9399220943450928,-0.158470943570137,0.3023785650730133,0,0,0,-1,-1,2678.930779666667,unknown,2,2022-06-02T10:45:34.652+02:00,2022-06-02T10:17:13.754+02:00,448,1.401249,0,0,345.1212,0,0,2022-06-02T10:45:34.652+02:00,675852334.6522421,0,6.992188,101.2986,1,0.82
266,2022-06-02T10:45:36.521+02:00,1654159533.499566,53.22888795108437,10.39798063911611,42.58036,-1,-1,-1,-1,22.88975524902344,40,-9999,2680.798214291667,1.107284545898438,0.72100830078125,2.734664916992188,2680.788219291667,-1.30907271497207,1.95045266700688,0.1839286412568502,-2.664403200149536,7.475181102752686,1.556046485900879,0.3009396195411682,0.6937271356582642,1.658995628356934,XArbitraryZVertical,0.5427159224231147,0.622603050368988,-0.2797653846051704,0.4894447468293756,0.9131258130073548,-0.1828933507204056,0.3643502593040466,0,0,0,-1,-1,2678.930779666667,unknown,2,2022-06-02T10:45:34.652+02:00,2022-06-02T10:17:13.754+02:00,448,1.401249,0,0,345.1212,0,0,2022-06-02T10:45:34.652+02:00,675852334.6522421,0,6.992188,101.2986,1,0.82
267,2022-06-02T10:45:36.531+02:00,1654159533.499566,53.22888795108437,10.39798063911611,42.58036,-1,-1,-1,-1,22.88975524902344,40,-9999,2680.808208291667,0.9539337158203124,0.8919677734375,3.240249633789062,2680.798214291667,-1.287657554699112,2.024095597586791,0.2080453905967731,-3.108544111251831,8.124276161193848,1.13683557510376,0.3021718263626099,0.8373767137527466,2.046591758728027,XArbitraryZVertical,0.5502482380733018,0.6414609711204946,-0.2460763551831928,0.4745536230978727,0.8796214461326599,-0.2065478414297104,0.4284906089305878,0,0,0,-1,-1,2678.930779666667,unknown,2,2022-06-02T10:45:34.652+02:00,2022-06-02T10:17:13.754+02:00,448,1.401249,0,0,345.1212,0,0,2022-06-02T10:45:34.652+02:00,675852334.6522421,0,6.992188,101.2986,1,0.82
268,2022-06-02T10:45:36.541+02:00,1654159533.499566,53.22888795108437,10.39798063911611,42.58036,-1,-1,-1,-1,22.88975524902344,40,-9999,2680.818203291667,0.9149169921875,1.151565551757812,3.882598876953125,2680.808208291667,-1.261845270644014,2.103746135925792,0.2307011472889028,-3.547523975372314,8.909489631652832,0.463464081287384,0.176125168800354,1.021461129188538,2.48097038269043,XArbitraryZVertical,0.554920970697716,0.6628501956798667,-0.2099066429499415,0.4567618602204218,0.8384925723075867,-0.2286601513624191,0.4946153163909912,0,0,0,-1,-1,2678.930779666667,unknown,2,2022-06-02T10:45:34.652+02:00,2022-06-02T10:17:13.754+02:00,448,1.401249,0,0,345.1212,0,0,2022-06-02T10:45:34.652+02:00,675852334.6522421,0,6.992188,101.2986,1,0.82
269,2022-06-02T10:45:36.551+02:00,1654159533.499566,53.22888795108437,10.39798063911611,42.58036,-1,-1,-1,-1,22.88975524902344,40,-9999,2680.828197291667,0.7755889892578125,1.367645263671875,4.506454467773438,2680.818203291667,-1.227860018002479,2.187645133473212,0.2535092332846299,-4.442629814147949,9.521567344665527,-0.253107100725174,0.1496512889862061,1.286645531654358,2.992160320281982,XArbitraryZVertical,0.5551190903451859,0.6869003657305455,-0.1705564606370346,0.4369451235405312,0.7896338105201721,-0.2508025765419006,0.5599786043167114,0,0,0,-1,-1,2678.930779666667,unknown,2,2022-06-02T10:45:34.652+02:00,2022-06-02T10:17:13.754+02:00,448,1.401249,0,0,345.1212,0,0,2022-06-02T10:45:34.652+02:00,675852334.6522421,0,6.992188,101.2986,1,0.82
270,2022-06-02T10:45:36.561+02:00,1654159533.499566,53.22888795108437,10.39798063911611,42.58036,-1,-1,-1,-1,22.88975524902344,40,-9999,2680.838192291667,0.773468017578125,1.849441528320312,5.299301147460938,2680.828197291667,-1.184919848317791,2.27550556839625,0.2754763524810427,-4.819285869598389,10.307053565979,-1.419844508171082,0.1156628131866455,1.501146674156189,3.56995701789856,XArbitraryZVertical,0.5498558173499166,0.7136890416092343,-0.128718068968049,0.4144129205693876,0.7330766916275024,-0.2720053493976593,0.6233869194984436,0,0,0,-1,-1,2678.930779666667,unknown,2,2022-06-02T10:45:34.652+02:00,2022-06-02T10:17:13.754+02:00,448,1.401249,0,0,345.1212,0,0,2022-06-02T10:45:34.652+02:00,675852334.6522421,0,6.992188,101.2986,1,0.82
271,2022-06-02T10:45:36.571+02:00,1654159533.499566,53.22888795108437,10.39798063911611,42.58036,-1,-1,-1,-1,22.88975524902344,40,-9999,2680.848186291667,0.7928924560546875,1.988983154296875,6.11297607421875,2680.838192291667,-1.130154012987622,2.366682630113099,0.2969497697358781,-5.84144926071167,11.00710201263428,-2.605529069900513,0.0825564265251159,1.908068180084229,4.195830345153809,XArbitraryZVertical,0.5375370523697515,0.7434114843901278,-0.0844235340905467,0.3889291797761897,0.6690303683280945,-0.2926048338413239,0.6832134127616882,0,0,0,-1,-1,2678.930779666667,unknown,2,2022-06-02T10:45:34.652+02:00,2022-06-02T10:17:13.754+02:00,448,1.401249,0,0,345.1212,0,0,2022-06-02T10:45:34.652+02:00,675852334.6522421,0,6.992188,101.2986,1,0.82
272,2022-06-02T10:45:36.581+02:00,1654159533.499566,53.22888795108437,10.39798063911611,42.58036,-1,-1,-1,-1,22.88975524902344,40,-9999,2680.858181291667,0.9475555419921876,2.298934936523438,7.434799194335938,2680.848186291667,-1.060277811752974,2.457568809394241,0.3219130443937977,-6.737194538116455,11.3809642791748,-4.067328929901123,0.1905522346496582,2.262945652008057,4.962239742279053,XArbitraryZVertical,0.5165809187693388,0.7750845394017565,-0.0371392205330247,0.3619510236265775,0.5994561314582825,-0.3163819015026093,0.7352237701416016,0,0,0,-1,-1,2678.930779666667,unknown,2,2022-06-02T10:45:34.652+02:00,2022-06-02T10:17:13.754+02:00,448,1.401249,0,0,345.1212,0,0,2022-06-02T10:45:34.652+02:00,675852334.6522421,0,6.992188,101.2986,1,0.82
273,2022-06-02T10:45:36.591+02:00,1654159533.499566,53.22888795108437,10.39798063911611,42.58036,-1,-1,-1,-1,22.88975524902344,40,-9999,2680.868175291667,1.192474365234375,2.46893310546875,9.024215698242188,2680.858181291667,-0.9719406906169338,2.541684061705634,0.3507042845255862,-7.867024421691895,11.13688564300537,-5.924440383911133,0.3044838905334473,2.457588195800781,5.895538330078125,XArbitraryZVertical,0.4849487631587334,0.8077115936936141,0.0114784137651508,0.3351042800449686,0.530202329158783,-0.3435592949390411,0.7751466631889343,0,0,0,-1,-1,2678.930779666667,unknown,2,2022-06-02T10:45:34.652+02:00,2022-06-02T10:17:13.754+02:00,448,1.401249,0,0,345.1212,0,0,2022-06-02T10:45:34.652+02:00,675852334.6522421,0,6.992188,101.2986,1,0.82
274,2022-06-02T10:45:36.601+02:00,1654159533.499566,53.22888795108437,10.39798063911611,42.58036,-1,-1,-1,-1,22.88975524902344,40,-9999,2680.878170291667,1.313201904296875,2.765716552734375,9.948196411132812,2680.868175291667,-0.8605555999110471,2.605794135606271,0.3816770584342657,-8.352726936340332,9.52529239654541,-8.409134864807129,0.6095831394195557,2.789561033248901,7.490541458129883,XArbitraryZVertical,0.4405750338908832,0.8395754615823218,0.0578327150609496,0.3125092139420876,0.4737908244132996,-0.3724773824214935,0.797986626625061,0,0,0,-1,-1,2678.930779666667,unknown,2,2022-06-02T10:45:34.652+02:00,2022-06-02T10:17:13.754+02:00,448,1.401249,0,0,345.1212,0,0,2022-06-02T10:45:34.652+02:00,675852334.6522421,0,6.992188,101.2986,1,0.82
275,2022-06-02T10:45:36.611+02:00,1654159533.499566,53.22888795108437,10.39798063911611,42.58036,-1,-1,-1,-1,22.88975524902344,40,-9999,2680.888164291667,1.073562622070312,3.260391235351562,11.20230102539062,2680.878170291667,-0.7227353786790399,2.636840412429293,0.4039407731021684,-8.053674697875977,7.178404808044434,-11.59892559051514,0.8203132152557373,2.960122585296631,8.736135482788086,XArbitraryZVertical,0.3822507964312837,0.8696604538448349,0.0952100799455517,0.297506402846341,0.4446708559989929,-0.3930450081825256,0.8048499822616577,0,0,0,-1,-1,2678.930779666667,unknown,2,2022-06-02T10:45:34.652+02:00,2022-06-02T10:17:13.754+02:00,448,1.401249,0,0,345.1212,0,0,2022-06-02T10:45:34.652+02:00,675852334.6522421,0,6.992188,101.2986,1,0.82
276,2022-06-02T10:45:36.621+02:00,1654159533.499566,53.22888795108437,10.39798063911611,42.58036,-1,-1,-1,-1,22.88975524902344,40,-9999,2680.898159291667,-0.0646514892578125,4.6080322265625,12.80473327636719,2680.888164291667,-0.5543568028234646,2.622842428768534,0.4042239736779045,-7.013065814971924,2.915381193161011,-15.45740509033203,0.8320190906524658,3.392435550689697,9.673229217529297,XArbitraryZVertical,0.30862556550973,0.8966467097855789,0.1178641130492988,0.2947592100993161,0.4558379948139191,-0.3933053910732269,0.7984501123428345,0,0,0,-1,-1,2678.930779666667,unknown,2,2022-06-02T10:45:34.652+02:00,2022-06-02T10:17:13.754+02:00,448,1.401249,0,0,345.1212,0,0,2022-06-02T10:45:34.652+02:00,675852334.6522421,0,6.992188,101.2986,1,0.82
277,2022-06-02T10:45:36.631+02:00,1654159533.499566,53.22888795108437,10.39798063911611,42.58036,-1,-1,-1,-1,22.88975524902344,40,-9999,2680.908153291667,-2.073333740234375,6.772445678710938,13.05209350585938,2680.898159291667,-0.3559356497008037,2.544267029264264,0.3743707741270864,-7.732004165649414,-3.679412841796875,-18.74263763427734,0.0926262140274047,4.112131595611572,11.26286602020264,XArbitraryZVertical,0.2201293754239259,0.914510780870179,0.1238670049678686,0.3160221892316767,0.5234778523445129,-0.3656869530677795,0.7695738077163696,0,0,0,-1,-1,2678.930779666667,unknown,2,2022-06-02T10:45:34.652+02:00,2022-06-02T10:17:13.754+02:00,448,1.401249,0,0,345.1212,0,0,2022-06-02T10:45:34.652+02:00,675852334.6522421,0,6.992188,101.2986,1,0.82
278,2022-06-02T10:45:36.641+02:00,1654159533.499566,53.22888795108437,10.39798063911611,42.58036,-1,-1,-1,-1,22.88975524902344,40,-9999,2680.918148291667,-6.7310791015625,7.605422973632812,12.4254150390625,2680.908153291667,-0.1299902878505195,2.401865193039509,0.3296796550868638,-11.55973243713379,-8.471930503845215,-19.77570533752441,-1.573148250579834,6.066171646118164,12.51809215545654,XArbitraryZVertical,0.1189293696221524,0.9139432193581872,0.1295144952085775,0.3657724025123494,0.6377842426300049,-0.3237399458885193,0.6988728046417236,0,0,0,-1,-1,2678.930779666667,unknown,2,2022-06-02T10:45:34.652+02:00,2022-06-02T10:17:13.754+02:00,448,1.401249,0,0,345.1212,0,0,2022-06-02T10:45:34.652+02:00,675852334.6522421,0,6.992188,101.2986,1,0.82
279,2022-06-02T10:45:36.651+02:00,1654159533.499566,53.22888795108437,10.39798063911611,42.58036,-1,-1,-1,-1,22.88975524902344,40,-9999,2680.928142291667,-14.86041259765625,7.317672729492188,12.40718078613281,2680.918148291667,0.1134940450464719,2.243714283826754,0.2702274905164296,-13.88000965118408,-8.853799819946289,-21.19878387451172,-4.613582134246826,7.683591842651367,12.02167797088623,XArbitraryZVertical,0.0077376320528096,0.8945759361795909,0.1455509190685943,0.4224793259839057,0.7536272406578064,-0.2669506669044495,0.6006519794464111,0,0,0,-1,-1,2678.930779666667,unknown,2,2022-06-02T10:45:34.652+02:00,2022-06-02T10:17:13.754+02:00,448,1.401249,0,0,345.1212,0,0,2022-06-02T10:45:34.652+02:00,675852334.6522421,0,6.992188,101.2986,1,0.82
280,2022-06-02T10:45:36.661+02:00,1654159533.499566,53.22888795108437,10.39798063911611,42.58036,-1,-1,-1,-1,22.88975524902344,40,-9999,2680.938137291667,-19.8912353515625,8.958724975585938,10.95780944824219,2680.928142291667,0.3538130007886606,2.060892383591136,0.1401960617657471,-10.52647590637207,-19.12333106994629,-26.07393455505371,-11.56769275665283,7.486294746398926,12.06291484832764,XArbitraryZVertical,-0.1150726559596778,0.8484128535352448,0.1494352928827927,0.4945935682990109,0.873630940914154,-0.1397372484207153,0.4660921692848206,0,0,0,-1,-1,2678.930779666667,unknown,2,2022-06-02T10:45:34.652+02:00,2022-06-02T10:17:13.754+02:00,448,1.401249,0,0,345.1212,0,0,2022-06-02T10:45:34.652+02:00,675852334.6522421,0,6.992188,101.2986,1,0.82
281,2022-06-02T10:45:36.671+02:00,1654159533.499566,53.22888795108437,10.39798063911611,42.58036,-1,-1,-1,-1,22.88975524902344,40,-9999,2680.948131291667,-30.80001831054688,10.02627563476562,10.24127197265625,2680.938137291667,0.5088283786773569,1.816410589070917,-0.066298024700678,-2.563406229019165,-27.55074691772461,-23.9351749420166,-18.54688262939453,8.007099151611328,11.40793991088867,XArbitraryZVertical,-0.2180465726291571,0.7574725601291559,0.1294490777993794,0.6016093555400931,0.9678570032119752,0.0662494674324989,0.2426179796457291,0,0,0,-1,-1,2678.930779666667,unknown,2,2022-06-02T10:45:34.652+02:00,2022-06-02T10:17:13.754+02:00,448,1.401249,0,0,345.1212,0,0,2022-06-02T10:45:34.652+02:00,675852334.6522421,0,6.992188,101.2986,1,0.82
282,2022-06-02T10:45:36.681+02:00,1654159533.499566,53.22888795108437,10.39798063911611,42.58036,-1,-1,-1,-1,22.88975524902344,40,-9999,2680.958126291667,-32.030029296875,11.718505859375,13.35856628417969,2680.948131291667,0.4690897314441986,1.482558767014433,-0.3009649621451821,16.89727020263672,-35.06614685058594,-23.13009071350098,-25.9489860534668,9.19301414489746,10.73909950256348,XArbitraryZVertical,-0.2627013842274319,0.6236240545899863,0.0710265132588199,0.7328275371961257,0.951335310935974,0.2964419424533844,-0.0841620415449142,0,0,0,-1,-1,2678.930779666667,unknown,2,2022-06-02T10:45:34.652+02:00,2022-06-02T10:17:13.754+02:00,448,1.401249,0,0,345.1212,0,0,2022-06-02T10:45:34.652+02:00,675852334.6522421,0,6.992188,101.2986,1,0.82
283,2022-06-02T10:45:36.691+02:00,1654159533.499566,53.22888795108437,10.39798063911611,42.58036,-1,-1,-1,-1,22.88975524902344,40,-9999,2680.968121291667,-31.9864501953125,15.57655334472656,19.9356689453125,2680.958126291667,0.12324211936199,1.007047373481898,-0.3811291649795675,35.16034698486328,-35.14566040039062,-11.35052680969238,-32.78738403320312,10.78849220275879,10.88445854187012,XArbitraryZVertical,-0.1947662569485411,0.4626641456156946,-0.0382587124585696,0.8640279496027912,0.7846065163612366,0.3719688355922699,-0.4960159957408905,0,0,0,-1,-1,2678.930779666667,unknown,2,2022-06-02T10:45:34.652+02:00,2022-06-02T10:17:13.754+02:00,448,1.401249,0,0,345.1212,0,0,2022-06-02T10:45:34.652+02:00,675852334.6522421,0,6.992188,101.2986,1,0.82
284,2022-06-02T10:45:36.701+02:00,1654159533.499566,53.22888795108437,10.39798063911611,42.58036,-1,-1,-1,-1,22.88975524902344,40,-9999,2680.978115291667,-32.05393981933594,27.69258117675781,24.75570678710938,2680.978115291667,-0.2310664750867174,0.4533628550966551,0.2230625955479972,35.05064392089844,8.541718482971191,-4.879610538482666,-32.44920349121094,20.40372848510742,18.19962882995605,XArbitraryZVertical,0.1334767234202227,0.2093577002889871,-0.0867820137451919,0.9647912130307128,0.4271396994590759,-0.2212173789739609,-0.8767066597938538,0,0,0,-1,-1,2678.930779666667,unknown,2,2022-06-02T10:45:34.652+02:00,2022-06-02T10:17:13.754+02:00,448,1.401249,0,0,345.1212,0,0,2022-06-02T10:45:34.652+02:00,675852334.6522421,0,6.992188,101.2986,1,0.82
285,2022-06-02T10:45:36.711+02:00,1654159533.499566,53.22888795108437,10.39798063911611,42.58036,-1,-1,-1,-1,22.88975524902344,40,-9999,2680.988110291667,-25.1102294921875,-10.82923889160156,31.46078491210938,2680.978115291667,-0.2310664750867174,0.4533628550966551,0.2230625955479972,35.05064392089844,8.541718482971191,-4.879610538482666,-32.44920349121094,20.40372848510742,18.19962882995605,XArbitraryZVertical,0.1334767234202227,0.2093577002889871,-0.0867820137451919,0.9647912130307128,0.4271396994590759,-0.2212173789739609,-0.8767066597938538,0,0,0,-1,-1,2678.930779666667,unknown,2,2022-06-02T10:45:34.652+02:00,2022-06-02T10:17:13.754+02:00,448,1.401249,0,0,345.1212,0,0,2022-06-02T10:45:34.652+02:00,675852334.6522421,0,6.992188,101.2986,1,0.82
286,2022-06-02T10:45:36.721+02:00,1654159533.499566,53.22888795108437,10.39798063911611,42.58036,-1,-1,-1,-1,22.88975524902344,40,-9999,2680.998104291667,9.746475219726562,-32.08502197265625,12.78791809082031,2680.988110291667,-0.4692061145532749,0.8138104326393787,0.4945356572172895,34.82541656494141,35.01149368286133,4.875035285949707,-32.71951293945312,16.6076488494873,32.05701446533203,XArbitraryZVertical,0.3078153677192677,0.3209703418728791,-0.1127705934932188,0.8885440465512433,0.6398175954818726,-0.4746229946613312,-0.6044554710388184,0,0,0,-1,-1,2678.930779666667,unknown,2,2022-06-02T10:45:34.652+02:00,2022-06-02T10:17:13.754+02:00,448,1.401249,0,0,345.1212,0,0,2022-06-02T10:45:34.652+02:00,675852334.6522421,0,6.992188,101.2986,1,0.82
287,2022-06-02T10:45:36.731+02:00,1654159533.499566,53.22888795108437,10.39798063911611,42.58036,-1,-1,-1,-1,22.88975524902344,40,-9999,2681.008099291667,6.28643798828125,-6.145126342773438,2.781875610351562,2680.998104291667,-0.4695954520256077,0.9600218754601026,0.6445110885408862,-31.0932788848877,7.098990440368652,20.36040496826172,-9.920964241027832,-30.35057830810547,22.68780899047852,XArbitraryZVertical,0.3751109535012093,0.360645019569392,-0.0534937128613114,0.8522707133962272,0.6548665165901184,-0.6008076667785645,-0.458453893661499,0,0,0,-1,-1,2678.930779666667,unknown,2,2022-06-02T10:45:34.652+02:00,2022-06-02T10:17:13.754+02:00,448,1.401249,0,0,345.1212,0,0,2022-06-02T10:45:34.652+02:00,675852334.6522421,0,6.992188,101.2986,1,0.82
288,2022-06-02T10:45:36.741+02:00,1654159533.499566,53.22888795108437,10.39798063911611,42.58036,-1,-1,-1,-1,22.88975524902344,40,-9999,2681.018093291667,-2.73602294921875,12.83895874023438,12.3597412109375,2681.008099291667,-0.082436659054491,0.8996680958027756,0.5044870370682093,-35.07781219482422,13.9305362701416,-3.643205881118774,14.655198097229,-23.51632118225098,3.353892803192139,XArbitraryZVertical,0.2419084324652244,0.411437534705591,0.0724948534466273,0.8757533434187373,0.6855613589286804,-0.4833584427833557,-0.5443989038467407,0,0,0,-1,-1,2678.930779666667,unknown,2,2022-06-02T10:45:34.652+02:00,2022-06-02T10:17:13.754+02:00,448,1.401249,0,0,345.1212,0,0,2022-06-02T10:45:34.652+02:00,675852334.6522421,0,6.992188,101.2986,1,0.82
289,2022-06-02T10:45:36.750+02:00,1654159533.499566,53.22888795108437,10.39798063911611,42.58036,-1,-1,-1,-1,22.88975524902344,40,-9999,2681.028088291667,-26.06214904785156,0.3428955078125,5.182815551757812,2681.018093291667,0.151537034516017,0.7917521469985566,0.2220151125675143,-34.63577651977539,-26.47032928466797,-9.181385040283203,-1.878675222396851,7.336757659912109,7.022909641265869,XArbitraryZVertical,0.0729086638640373,0.3898806750068131,0.1120077093564683,0.9111155806715184,0.6941200494766235,-0.2201957255601883,-0.6853547692298889,0,0,0,-1,-1,2678.930779666667,unknown,2,2022-06-02T10:45:34.652+02:00,2022-06-02T10:17:13.754+02:00,448,1.401249,0,0,345.1212,0,0,2022-06-02T10:45:34.652+02:00,675852334.6522421,0,6.992188,101.2986,1,0.82
290,2022-06-02T10:45:36.760+02:00,1654159533.499566,53.22888795108437,10.39798063911611,42.58036,-1,-1,-1,-1,22.88975524902344,40,-9999,2681.038082291667,-4.54315185546875,2.366256713867188,6.747222900390625,2681.028088291667,0.269888165370563,0.8064730397641382,0.0347966946324697,-4.808699607849121,10.90963172912598,7.444767951965332,-10.80350589752197,11.42402648925781,12.14385414123535,XArbitraryZVertical,-0.0369265041100825,0.3909239832927086,0.1304905688034886,0.9103774439396954,0.7214138507843018,-0.0347896739840507,-0.6916297674179077,0,0,0,-1,-1,2678.930779666667,unknown,2,2022-06-02T10:45:34.652+02:00,2022-06-02T10:17:13.754+02:00,448,1.401249,0,0,345.1212,0,0,2022-06-02T10:45:34.652+02:00,675852334.6522421,0,6.992188,101.2986,1,0.82
291,2022-06-02T10:45:36.770+02:00,1654159533.499566,53.22888795108437,10.39798063911611,42.58036,-1,-1,-1,-1,22.88975524902344,40,-9999,2681.048077291667,-4.327835083007812,5.622482299804688,4.1270751953125,2681.038082291667,0.3789239656593442,0.7984655971583178,0.1923068392747109,9.403026580810549,-3.848828792572021,23.79438591003418,-22.45131301879883,-3.258171319961548,7.813498497009277,XArbitraryZVertical,0.0140044657463688,0.3966513140664814,0.2093691902543362,0.8936644914753136,0.7030822038650513,-0.1911237090826035,-0.6849431991577148,0,0,0,-1,-1,2678.930779666667,unknown,2,2022-06-02T10:45:34.652+02:00,2022-06-02T10:17:13.754+02:00,448,1.401249,0,0,345.1212,0,0,2022-06-02T10:45:34.652+02:00,675852334.6522421,0,6.992188,101.2986,1,0.82
292,2022-06-02T10:45:36.781+02:00,1654159533.499566,53.22888795108437,10.39798063911611,42.58036,-1,-1,-1,-1,22.88975524902344,40,-9999,2681.058071291667,-18.79180908203125,2.259414672851562,4.715835571289062,2681.048077291667,0.3940799661069425,0.7388701340015159,0.3741679807540291,10.72401809692383,-0.8451389074325562,5.38898754119873,0.8266634345054626,6.268787860870361,6.007084369659424,XArbitraryZVertical,0.1006337301424584,0.3818779978736202,0.2452348155154821,0.8853822728227636,0.6268582344055176,-0.3654982149600983,-0.688084065914154,0,0,0,-1,-1,2678.930779666667,unknown,2,2022-06-02T10:45:34.652+02:00,2022-06-02T10:17:13.754+02:00,448,1.401249,0,0,345.1212,0,0,2022-06-02T10:45:34.652+02:00,675852334.6522421,0,6.992188,101.2986,1,0.82
293,2022-06-02T10:45:36.790+02:00,1654159533.499566,53.22888795108437,10.39798063911611,42.58036,-1,-1,-1,-1,22.88975524902344,40,-9999,2681.068066291667,-15.02313232421875,-9.049942016601562,6.360305786132812,2681.058071291667,0.3704969819941583,0.7508904682237845,0.4917559016225264,9.488034248352053,4.450017929077148,9.218521118164062,-13.24106025695801,5.062033653259277,4.577588081359863,XArbitraryZVertical,0.1570697653669845,0.3912838153856918,0.2539344379000312,0.8704844610960798,0.6014420986175537,-0.4721744656562805,-0.6444521546363831,0,0,0,-1,-1,2678.930779666667,unknown,2,2022-06-02T10:45:34.652+02:00,2022-06-02T10:17:13.754+02:00,448,1.401249,0,0,345.1212,0,0,2022-06-02T10:45:34.652+02:00,675852334.6522421,0,6.992188,101.2986,1,0.82
294,2022-06-02T10:45:36.801+02:00,1654159533.499566,53.22888795108437,10.39798063911611,42.58036,-1,-1,-1,-1,22.88975524902344,40,-9999,2681.078060291667,-6.053070068359375,-8.927200317382812,4.351028442382812,2681.068066291667,0.4116511633292224,0.8121125307622966,0.6264340421243035,4.688023567199707,10.98231792449951,13.95416831970215,-19.75958633422852,-2.397794723510742,6.339167594909668,XArbitraryZVertical,0.2002927551391021,0.4256922516365971,0.2977574505343805,0.8306679561297773,0.587940514087677,-0.5862596035003662,-0.5573378205299377,0,0,0,-1,-1,2678.930779666667,unknown,2,2022-06-02T10:45:34.652+02:00,2022-06-02T10:17:13.754+02:00,448,1.401249,0,0,345.1212,0,0,2022-06-02T10:45:34.652+02:00,675852334.6522421,0,6.992188,101.2986,1,0.82
295,2022-06-02T10:45:36.810+02:00,1654159533.499566,53.22888795108437,10.39798063911611,42.58036,-1,-1,-1,-1,22.88975524902344,40,-9999,2681.088055291667,-3.365997314453125,-4.652114868164062,3.307159423828125,2681.078060291667,0.5160531170632474,0.8330993051447056,0.7440865307656869,-0.6916235089302063,5.426706314086914,13.39331912994385,-10.1336555480957,-10.46669673919678,6.22122049331665,XArbitraryZVertical,0.2252485585402937,0.4492774895586451,0.3596024710193768,0.7861925043271927,0.5444372892379761,-0.6773000359535217,-0.4948256611824036,0,0,0,-1,-1,2678.930779666667,unknown,2,2022-06-02T10:45:34.652+02:00,2022-06-02T10:17:13.754+02:00,448,1.401249,0,0,345.1212,0,0,2022-06-02T10:45:34.652+02:00,675852334.6522421,0,6.992188,101.2986,1,0.82
296,2022-06-02T10:45:36.820+02:00,1654159533.499566,53.22888795108437,10.39798063911611,42.58036,-1,-1,-1,-1,22.88975524902344,40,-9999,2681.098049291667,-5.50274658203125,-5.779205322265625,3.785049438476562,2681.088055291667,0.6557376658452821,0.7554870345646212,0.8126486508224836,-2.618654251098633,-0.1954856663942337,9.919830322265623,-4.383298397064209,-4.997811794281006,3.863382816314697,XArbitraryZVertical,0.2387010080066692,0.4390501263609375,0.4129593223146792,0.7613943275951925,0.4714329242706299,-0.7261108756065369,-0.5005136132240295,0,0,0,-1,-1,2678.930779666667,unknown,2,2022-06-02T10:45:34.652+02:00,2022-06-02T10:17:13.754+02:00,448,1.401249,0,0,345.1212,0,0,2022-06-02T10:45:34.652+02:00,675852334.6522421,0,6.992188,101.2986,1,0.82
297,2022-06-02T10:45:36.831+02:00,1654159533.499566,53.22888795108437,10.39798063911611,42.58036,-1,-1,-1,-1,22.88975524902344,40,-9999,2681.108044291667,-5.61102294921875,-5.357711791992188,2.337646484375,2681.098049291667,0.7635341378553115,0.675660208774328,0.862239486901683,0.1461495906114578,0.5221291780471802,7.874884605407715,-4.579556941986084,-4.621481418609619,4.162705421447754,XArbitraryZVertical,0.2537003976626766,0.4263242198571799,0.4478731985837749,0.7438368365781017,0.4069800972938538,-0.7593017816543579,-0.5077675580978394,0,0,0,-1,-1,2678.930779666667,unknown,2,2022-06-02T10:45:34.652+02:00,2022-06-02T10:17:13.754+02:00,448,1.401249,0,0,345.1212,0,0,2022-06-02T10:45:34.652+02:00,675852334.6522421,0,6.992188,101.2986,1,0.82
298,2022-06-02T10:45:36.840+02:00,1654159533.499566,53.22888795108437,10.39798063911611,42.58036,-1,-1,-1,-1,22.88975524902344,40,-9999,2681.118038291667,-4.281936645507812,-5.6092529296875,1.533248901367188,2681.108044291667,0.8576309388291633,0.6071454086700331,0.9136547192208953,1.174964904785156,0.4963044822216034,7.57078218460083,-6.368223190307617,-4.643728733062744,3.766256093978882,XArbitraryZVertical,0.2712733027639088,0.4190093907052241,0.4760150405214484,0.7240520578446691,0.3485088646411896,-0.7917415499687195,-0.5016838312149048,0,0,0,-1,-1,2678.930779666667,unknown,2,2022-06-02T10:45:34.652+02:00,2022-06-02T10:17:13.754+02:00,448,1.401249,0,0,345.1212,0,0,2022-06-02T10:45:34.652+02:00,675852334.6522421,0,6.992188,101.2986,1,0.82
299,2022-06-02T10:45:36.850+02:00,1654159533.499566,53.22888795108437,10.39798063911611,42.58036,-1,-1,-1,-1,22.88975524902344,40,-9999,2681.128033291667,-4.269454956054688,-5.73687744140625,2.251007080078125,2681.118038291667,0.9395665734233448,0.5476478562158424,0.9667355545424656,2.212699174880981,0.95557701587677,6.278038024902344,-5.086695671081543,-4.770423889160156,2.163495302200317,XArbitraryZVertical,0.2905843240433905,0.4160527671566114,0.4979605975415797,0.7032040770853103,0.2957409024238586,-0.8230359554290771,-0.4849216938018799,0,0,0,-1,-1,2678.930779666667,unknown,2,2022-06-02T10:45:34.652+02:00,2022-06-02T10:17:13.754+02:00,448,1.401249,0,0,345.1212,0,0,2022-06-02T10:45:34.652+02:00,675852334.6522421,0,6.992188,101.2986,1,0.82
300,2022-06-02T10:45:36.860+02:00,1654159533.499566,53.22888795108437,10.39798063911611,42.58036,-1,-1,-1,-1,22.88975524902344,40,-9999,2681.138027291667,-3.847015380859375,-6.60302734375,1.961822509765625,2681.128033291667,1.016260150253192,0.4960542030971812,1.011551351202151,1.350827217102051,1.628451466560364,5.53726863861084,-4.414078235626221,-4.61029052734375,2.285796642303467,XArbitraryZVertical,0.3058330003606296,0.4161335751195759,0.5165141997182939,0.6830167550189264,0.2525182366371155,-0.8476559519767761,-0.4665980339050293,0,0,0,-1,-1,2678.930779666667,unknown,2,2022-06-02T10:45:34.652+02:00,2022-06-02T10:17:13.754+02:00,448,1.401249,0,0,345.1212,0,0,2022-06-02T10:45:34.652+02:00,675852334.6522421,0,6.992188,101.2986,1,0.82
301,2022-06-02T10:45:36.871+02:00,1654159533.499566,53.22888795108437,10.39798063911611,42.58036,-1,-1,-1,-1,22.88975524902344,40,-9999,2681.148022291667,-2.780410766601562,-5.965805053710938,1.3001708984375,2681.138027291667,1.103145332292357,0.4373690773943577,1.041738367437076,-0.1653396636247635,1.363738775253296,5.134040355682373,-4.402559757232666,-5.460477828979492,2.764385223388672,XArbitraryZVertical,0.3151323003678531,0.4148329937380842,0.5356585233984549,0.6645863694365782,0.2137781083583832,-0.8632829189300537,-0.4572104513645172,0,0,0,-1,-1,2678.930779666667,unknown,2,2022-06-02T10:45:34.652+02:00,2022-06-02T10:17:13.754+02:00,448,1.401249,0,0,345.1212,0,0,2022-06-02T10:45:34.652+02:00,675852334.6522421,0,6.992188,101.2986,1,0.82
302,2022-06-02T10:45:36.880+02:00,1654159533.499566,53.22888795108437,10.39798063911611,42.58036,-1,-1,-1,-1,22.88975524902344,40,-9999,2681.158016291667,-2.168701171875,-4.951156616210938,1.0042724609375,2681.148022291667,1.1942458121406,0.3669857642115706,1.05225177072257,-1.264340043067932,0.4199733138084412,3.914937734603882,-3.474032640457153,-5.527759552001953,2.048659324645996,XArbitraryZVertical,0.3195963139642192,0.4081062251041042,0.5538369831303896,0.6515919962607519,0.1778289824724197,-0.868541419506073,-0.4626150131225586,0,0,0,-1,-1,2678.930779666667,unknown,2,2022-06-02T10:45:34.652+02:00,2022-06-02T10:17:13.754+02:00,448,1.401249,0,0,345.1212,0,0,2022-06-02T10:45:34.652+02:00,675852334.6522421,0,6.992188,101.2986,1,0.82
303,2022-06-02T10:45:36.890+02:00,1654159533.499566,53.22888795108437,10.39798063911611,42.58036,-1,-1,-1,-1,22.88975524902344,40,-9999,2681.168011291667,-2.043655395507812,-3.663284301757812,0.8984222412109375,2681.158016291667,1.258323608851477,0.3109578956527775,1.052752561528043,-0.5686997771263123,-0.4391347467899323,2.130743503570557,-2.53574275970459,-4.618682861328125,1.563336610794067,XArbitraryZVertical,0.3225132676732841,0.4003357141694259,0.5655728945187137,0.6448594788829306,0.1515110284090042,-0.868789553642273,-0.471433013677597,0,0,0,-1,-1,2678.930779666667,unknown,2,2022-06-02T10:45:34.652+02:00,2022-06-02T10:17:13.754+02:00,448,1.401249,0,0,345.1212,0,0,2022-06-02T10:45:34.652+02:00,675852334.6522421,0,6.992188,101.2986,1,0.82
304,2022-06-02T10:45:36.901+02:00,1654159533.499566,53.22888795108437,10.39798063911611,42.58036,-1,-1,-1,-1,22.88975524902344,40,-9999,2681.178005291667,-2.2022705078125,-2.759368896484375,0.49664306640625,2681.168011291667,1.284793607204466,0.2810692404051824,1.058977786161484,0.9914820194244384,-0.819975733757019,0.7828962802886963,-2.187442064285278,-3.447129726409912,1.465890884399414,XArbitraryZVertical,0.3279931109517595,0.396419046946578,0.5686251667475747,0.6418238485067961,0.1358521282672882,-0.8718553185462952,-0.4705449044704437,0,0,0,-1,-1,2678.930779666667,unknown,2,2022-06-02T10:45:34.652+02:00,2022-06-02T10:17:13.754+02:00,448,1.401249,0,0,345.1212,0,0,2022-06-02T10:45:34.652+02:00,675852334.6522421,0,6.992188,101.2986,1,0.82
305,2022-06-02T10:45:36.910+02:00,1654159533.499566,53.22888795108437,10.39798063911611,42.58036,-1,-1,-1,-1,22.88975524902344,40,-9999,2681.188000291667,-2.301956176757812,-2.582412719726562,0.4010009765625,2681.178005291667,1.281284017096566,0.2758471965435849,1.0741376165076,1.885069489479065,-0.7864351272583008,-0.2331917732954025,-2.229219675064087,-2.231095790863037,1.14199423789978,XArbitraryZVertical,0.3356689154513759,0.3976028050269473,0.5650760592288113,0.6402557513993736,0.1297780275344849,-0.8791795372962952,-0.4584767818450928,0,0,0,-1,-1,2678.930779666667,unknown,2,2022-06-02T10:45:34.652+02:00,2022-06-02T10:17:13.754+02:00,448,1.401249,0,0,345.1212,0,0,2022-06-02T10:45:34.652+02:00,675852334.6522421,0,6.992188,101.2986,1,0.82
306,2022-06-02T10:45:36.921+02:00,1654159533.499566,53.22888795108437,10.39798063911611,42.58036,-1,-1,-1,-1,22.88975524902344,40,-9999,2681.197994291667,-2.199050903320312,-2.920928955078125,0.454010009765625,2681.188000291667,1.260258660729595,0.2878328486946408,1.088993544690428,1.291842341423035,-0.4977944791316986,-0.7525455355644226,-2.398966789245605,-1.706322431564331,0.8521362543106079,XArbitraryZVertical,0.3418932198651801,0.4011878696874517,0.5588486185221969,0.6401917260992568,0.1315412074327469,-0.8861609697341919,-0.4443146288394928,0,0,0,-1,-1,2678.930779666667,unknown,2,2022-06-02T10:45:34.652+02:00,2022-06-02T10:17:13.754+02:00,448,1.401249,0,0,345.1212,0,0,2022-06-02T10:45:34.652+02:00,675852334.6522421,0,6.992188,101.2986,1,0.82
307,2022-06-02T10:45:36.930+02:00,1654159533.499566,53.22888795108437,10.39798063911611,42.58036,-1,-1,-1,-1,22.88975524902344,40,-9999,2681.207989291667,-1.85858154296875,-2.62286376953125,0.3075408935546875,2681.197994291667,1.239051277634412,0.3033560657635306,1.092390474713209,-0.0784453377127647,-0.1663081496953964,-0.9027422070503236,-2.420206546783447,-1.848170876502991,0.8670783042907715,XArbitraryZVertical,0.3430789316746759,0.4032677436378405,0.554371724217096,0.6421400883488048,0.1375222504138947,-0.8877299427986145,-0.4393439590930939,0,0,0,-1,-1,2678.930779666667,unknown,2,2022-06-02T10:45:34.652+02:00,2022-06-02T10:17:13.754+02:00,448,1.401249,0,0,345.1212,0,0,2022-06-02T10:45:34.652+02:00,675852334.6522421,0,6.992188,101.2986,1,0.82
308,2022-06-02T10:45:36.940+02:00,1654159533.499566,53.22888795108437,10.39798063911611,42.58036,-1,-1,-1,-1,22.88975524902344,40,-9999,2681.217983291667,-1.63037109375,-1.671630859375,0.0357208251953125,2681.207989291667,1.222441346076026,0.3174829820727221,1.082387218924019,-1.290250420570374,0.0294990371912717,-1.275749802589417,-2.173701524734497,-2.017584800720215,0.8728957176208496,XArbitraryZVertical,0.338833525611648,0.402872208561933,0.5523649343665237,0.6463579627775958,0.1464798003435135,-0.8830804824829102,-0.4457716643810272,0,0,0,-1,-1,2678.930779666667,unknown,2,2022-06-02T10:45:34.652+02:00,2022-06-02T10:17:13.754+02:00,448,1.401249,0,0,345.1212,0,0,2022-06-02T10:45:34.652+02:00,675852334.6522421,0,6.992188,101.2986,1,0.82
309,2022-06-02T10:45:36.950+02:00,1654159533.499566,53.22888795108437,10.39798063911611,42.58036,-1,-1,-1,-1,22.88975524902344,40,-9999,2681.227978291667,-1.578521728515625,-0.360992431640625,0.1266937255859375,2681.217983291667,1.200371840238901,0.336619291853988,1.062919772897895,-1.506271362304688,-0.1559051871299744,-1.92927348613739,-1.879610419273376,-1.312393188476562,0.6295304298400879,XArbitraryZVertical,0.3307485140928358,0.4013615043022511,0.5500711780722742,0.6534033380375733,0.1606314480304718,-0.8737791776657104,-0.4590287208557129,0,0,0,-1,-1,2678.930779666667,unknown,2,2022-06-02T10:45:34.652+02:00,2022-06-02T10:17:13.754+02:00,448,1.401249,0,0,345.1212,0,0,2022-06-02T10:45:34.652+02:00,675852334.6522421,0,6.992188,101.2986,1,0.82
310,2022-06-02T10:45:36.961+02:00,1654159533.499566,53.22888795108437,10.39798063911611,42.58036,-1,-1,-1,-1,22.88975524902344,40,-9999,2681.237972291667,-1.740859985351562,0.554840087890625,-0.0988006591796875,2681.227978291667,1.165556144071509,0.3634151172233993,1.047465185242522,-0.0125258779153227,-0.518102765083313,-2.328208684921265,-1.754754543304443,-0.1836149096488953,0.5132089257240295,XArbitraryZVertical,0.3245688920265791,0.4013618461451566,0.5441882762345529,0.6613794142580957,0.1776517480611801,-0.866159200668335,-0.4671274125576019,0,0,0,-1,-1,2678.930779666667,unknown,2,2022-06-02T10:45:34.652+02:00,2022-06-02T10:17:13.754+02:00,448,1.401249,0,0,345.1212,0,0,2022-06-02T10:45:34.652+02:00,675852334.6522421,0,6.992188,101.2986,1,0.82
311,2022-06-02T10:45:36.978+02:00,1654159533.499566,53.22888795108437,10.39798063911611,42.58036,-1,-1,-1,-1,22.88975524902344,40,-9999,2681.247967291667,-1.922103881835938,0.1759033203125,-0.4706878662109375,2681.237972291667,1.111969070487558,0.4041652013899291,1.047211541903737,1.849847435951233,-0.5782595872879028,-2.661813735961914,-1.829555511474609,1.097203135490417,0.5435665845870972,XArbitraryZVertical,0.3243152145102912,0.406161884351862,0.5330085317911792,0.667648140423056,0.1966208964586258,-0.8660324215888977,-0.4597043395042419,0,0,0,-1,-1,2678.930779666667,unknown,2,2022-06-02T10:45:34.652+02:00,2022-06-02T10:17:13.754+02:00,448,1.401249,0,0,345.1212,0,0,2022-06-02T10:45:34.652+02:00,675852334.6522421,0,6.992188,101.2986,1,0.82
312,2022-06-02T10:45:36.985+02:00,1654159533.499566,53.22888795108437,10.39798063911611,42.58036,-1,-1,-1,-1,22.88975524902344,40,-9999,2681.257961291667,-1.873062133789062,-0.261322021484375,-0.600860595703125,2681.247967291667,1.042930069125722,0.4591225693226152,1.055795257588263,2.390270948410034,-0.4013544917106628,-2.769006252288818,-2.069377660751343,1.379462718963623,0.1230480074882507,XArbitraryZVertical,0.3273879066283571,0.4147920184940749,0.5184344132607807,0.6723022953766155,0.218272939324379,-0.8702921867370605,-0.4415294826030731,0,0,0,-1,-1,2678.930779666667,unknown,2,2022-06-02T10:45:34.652+02:00,2022-06-02T10:17:13.754+02:00,448,1.401249,0,0,345.1212,0,0,2022-06-02T10:45:34.652+02:00,675852334.6522421,0,6.992188,101.2986,1,0.82
313,2022-06-02T10:45:36.990+02:00,1654159533.499566,53.22888795108437,10.39798063911611,42.58036,-1,-1,-1,-1,22.88975524902344,40,-9999,2681.267956291667,-1.77777099609375,-0.1573486328125,-0.66864013671875,2681.257961291667,0.9764170221218812,0.5135066393771767,1.061603014616132,1.579379916191101,-0.3354508280754089,-2.452900648117065,-2.160240173339844,0.7250820398330688,-0.1151926517486572,XArbitraryZVertical,0.3297085711210055,0.4230733995658362,0.5047782895030232,0.6763874758016464,0.2394636422395706,-0.8731380105018616,-0.4246022999286652,0,0,0,-1,-1,2678.930779666667,unknown,2,2022-06-02T10:45:34.652+02:00,2022-06-02T10:17:13.754+02:00,448,1.401249,0,0,345.1212,0,0,2022-06-02T10:45:34.652+02:00,675852334.6522421,0,6.992188,101.2986,1,0.82
314,2022-06-02T10:45:37.000+02:00,1654159533.499566,53.22888795108437,10.39798063911611,42.58036,-1,-1,-1,-1,22.88975524902344,40,-9999,2681.277950291667,-1.628219604492188,-0.2322998046875,-0.3877410888671875,2681.267956291667,0.9228584250945708,0.5579901201023567,1.057944298894516,0.4670959115028381,-0.0866108536720275,-2.457990884780884,-2.080537796020508,0.6521410346031189,-0.2596778571605682,XArbitraryZVertical,0.3285427501050657,0.4288814436024748,0.4939545317462336,0.6812702448706848,0.2597979605197906,-0.8713486790657043,-0.4162407517433167,0,0,0,-1,-1,2678.930779666667,unknown,2,2022-06-02T10:45:34.652+02:00,2022-06-02T10:17:13.754+02:00,448,1.401249,0,0,345.1212,0,0,2022-06-02T10:45:34.652+02:00,675852334.6522421,0,6.992188,101.2986,1,0.82
315,2022-06-02T10:45:37.010+02:00,1654159533.499566,53.22888795108437,10.39798063911611,42.58036,-1,-1,-1,-1,22.88975524902344,40,-9999,2681.287945291667,-1.374603271484375,-0.3110504150390625,-0.099365234375,2681.277950291667,0.8827212524732164,0.5933093313485337,1.043382797541984,-0.7391685247421265,0.1630660742521286,-2.443031311035156,-1.995876550674438,0.7125768065452576,-0.1365037858486176,XArbitraryZVertical,0.3226485580908614,0.4327310880452223,0.4858881031943165,0.6874259065936247,0.2813989222049713,-0.8641117215156555,-0.4172834157943726,0,0,0,-1,-1,2678.930779666667,unknown,2,2022-06-02T10:45:34.652+02:00,2022-06-02T10:17:13.754+02:00,448,1.401249,0,0,345.1212,0,0,2022-06-02T10:45:34.652+02:00,675852334.6522421,0,6.992188,101.2986,1,0.82
316,2022-06-02T10:45:37.020+02:00,1654159533.499566,53.22888795108437,10.39798063911611,42.58036,-1,-1,-1,-1,22.88975524902344,40,-9999,2681.297939291667,-1.151992797851562,0.21453857421875,-0.11798095703125,2681.287945291667,0.8605221849225445,0.6147555067637615,1.020247869378465,-1.679317355155945,0.2906765639781952,-2.027085304260254,-1.814124226570129,0.5211068391799927,0.2147260308265686,XArbitraryZVertical,0.3128485596790669,0.4340961796280343,0.4812135612245343,0.6943483863003665,0.3017340302467346,-0.8522377014160156,-0.4273725748062134,0,0,0,-1,-1,2678.930779666667,unknown,2,2022-06-02T10:45:34.652+02:00,2022-06-02T10:17:13.754+02:00,448,1.401249,0,0,345.1212,0,0,2022-06-02T10:45:34.652+02:00,675852334.6522421,0,6.992188,101.2986,1,0.82
317,2022-06-02T10:45:37.030+02:00,1654159533.499566,53.22888795108437,10.39798063911611,42.58036,-1,-1,-1,-1,22.88975524902344,40,-9999,2681.307934291667,-1.101394653320312,0.8144073486328125,-0.27166748046875,2681.297939291667,0.8499549629477515,0.6266151950446113,0.995610264674446,-1.549046158790588,0.2947043180465698,-1.835399508476257,-1.563415050506592,0.7224682569503784,0.3486923575401306,XArbitraryZVertical,0.3021953636493506,0.4340011927808574,0.478702791372812,0.7008312947608647,0.318999707698822,-0.8390911221504211,-0.440641850233078,0,0,0,-1,-1,2678.930779666667,unknown,2,2022-06-02T10:45:34.652+02:00,2022-06-02T10:17:13.754+02:00,448,1.401249,0,0,345.1212,0,0,2022-06-02T10:45:34.652+02:00,675852334.6522421,0,6.992188,101.2986,1,0.82
318,2022-06-02T10:45:37.040+02:00,1654159533.499566,53.22888795108437,10.39798063911611,42.58036,-1,-1,-1,-1,22.88975524902344,40,-9999,2681.317928291667,-1.118759155273438,1.020797729492188,-0.4703369140625,2681.307934291667,0.8328593256188579,0.6440099068281531,0.975657671190939,-0.4418924748897552,0.3352591693401337,-2.060247421264648,-1.443062782287598,1.387915849685669,0.2779326438903809,XArbitraryZVertical,0.2935422673915897,0.4355102417252421,0.4746046683424996,0.7063384588811137,0.3366022109985352,-0.8280707597732544,-0.4483275413513184,0,0,0,-1,-1,2678.930779666667,unknown,2,2022-06-02T10:45:34.652+02:00,2022-06-02T10:17:13.754+02:00,448,1.401249,0,0,345.1212,0,0,2022-06-02T10:45:34.652+02:00,675852334.6522421,0,6.992188,101.2986,1,0.82
319,2022-06-02T10:45:37.050+02:00,1654159533.499566,53.22888795108437,10.39798063911611,42.58036,-1,-1,-1,-1,22.88975524902344,40,-9999,2681.327923291667,-1.129852294921875,0.7774200439453125,-0.6046905517578125,2681.317928291667,0.8008530585145305,0.6740534078485255,0.9646468138249206,0.8844208717346191,0.4063924551010132,-2.130821704864502,-1.466121912002563,1.788370132446289,0.0623901188373565,XArbitraryZVertical,0.2889179570315286,0.4404212710318956,0.4671631938710679,0.71015063227999,0.3555872142314911,-0.8218477368354797,-0.4451110363006592,0,0,0,-1,-1,2678.930779666667,unknown,2,2022-06-02T10:45:34.652+02:00,2022-06-02T10:17:13.754+02:00,448,1.401249,0,0,345.1212,0,0,2022-06-02T10:45:34.652+02:00,675852334.6522421,0,6.992188,101.2986,1,0.82
