,loggingTime(txt),locationTimestamp_since1970(s),locationLatitude(WGS84),locationLongitude(WGS84),locationAltitude(m),locationSpeed(m/s),locationSpeedAccuracy(m/s),locationCourse(°),locationCourseAccuracy(°),locationVerticalAccuracy(m),locationHorizontalAccuracy(m),locationFloor(Z),accelerometerTimestamp_sinceReboot(s),accelerometerAccelerationX(G),accelerometerAccelerationY(G),accelerometerAccelerationZ(G),motionTimestamp_sinceReboot(s),motionYaw(rad),motionRoll(rad),motionPitch(rad),motionRotationRateX(rad/s),motionRotationRateY(rad/s),motionRotationRateZ(rad/s),motionUserAccelerationX(G),motionUserAccelerationY(G),motionUserAccelerationZ(G),motionAttitudeReferenceFrame(txt),motionQuaternionX(R),motionQuaternionY(R),motionQuaternionZ(R),motionQuaternionW(R),motionGravityX(G),motionGravityY(G),motionGravityZ(G),motionMagneticFieldX(µT),motionMagneticFieldY(µT),motionMagneticFieldZ(µT),motionHeading(°),motionMagneticFieldCalibrationAccuracy(Z),activityTimestamp_sinceReboot(s),activity(txt),activityActivityConfidence(Z),activityActivityStartDate(txt),pedometerStartDate(txt),pedometerNumberofSteps(N),pedometerAverageActivePace(s/m),pedometerCurrentPace(s/m),pedometerCurrentCadence(steps/s),pedometerDistance(m),pedometerFloorAscended(N),pedometerFloorDescended(N),pedometerEndDate(txt),altimeterTimestamp_sinceReboot(s),altimeterReset(bool),altimeterRelativeAltitude(m),altimeterPressure(kPa),batteryState(N),batteryLevel(R)
246,2022-06-02T10:46:43.080+02:00,1654159599.99975,53.22908366967196,10.398548202756,36.84694,0.0360264,0.6703551,16.0103749334074,73.34262548419477,2.400000095367432,7.999579855010837,-9999,2747.355887166667,1.302841186523438,0.3109893798828125,2.032318115234375,2747.345893166667,-2.094416593408113,1.753379421479699,0.1160834796867141,-3.364142417907715,5.164609432220459,2.841149091720581,0.239060640335083,0.308785617351532,1.514994621276855,XArbitraryZVertical,0.683086283054786,0.3515213910659352,-0.5307728281736623,0.3579188763043726,0.9767595529556274,-0.1158229410648346,0.1803483217954636,0,0,0,-1,-1,2745.454331125,unknown,2,2022-06-02T10:46:41.176+02:00,2022-06-02T10:17:13.754+02:00,448,1.423373,0,0,345.1212,0,0,2022-06-02T10:46:30.942+02:00,675852401.1757885,0,7.152344,101.2949,1,0.81
247,2022-06-02T10:46:43.087+02:00,1654159599.99975,53.22908366967196,10.398548202756,36.84694,0.0360264,0.6703551,16.0103749334074,73.34262548419477,2.400000095367432,7.999579855010837,-9999,2747.365882166667,1.279953002929688,0.3419189453125,2.196243286132812,2747.355887166667,-2.067494309675482,1.806923252103521,0.1457695070449272,-3.373456716537476,5.477233409881592,2.650915384292603,0.3289840221405029,0.4466760158538818,1.671313285827637,XArbitraryZVertical,0.6961617581731732,0.3620602756654178,-0.5010931961215036,0.3649336480345968,0.961939811706543,-0.1452538222074509,0.2314576804637909,0,0,0,-1,-1,2745.454331125,unknown,2,2022-06-02T10:46:41.176+02:00,2022-06-02T10:17:13.754+02:00,448,1.423373,0,0,345.1212,0,0,2022-06-02T10:46:30.942+02:00,675852401.1757885,0,7.152344,101.2949,1,0.81
248,2022-06-02T10:46:43.098+02:00,1654159599.99975,53.22908366967196,10.398548202756,36.84694,0.0360264,0.6703551,16.0103749334074,73.34262548419477,2.400000095367432,7.999579855010837,-9999,2747.375876166667,1.18267822265625,0.43487548828125,2.368988037109375,2747.365882166667,-2.040683629239858,1.859662252778186,0.178576501039999,-3.556677103042603,5.749182224273682,2.484773874282837,0.3595172166824341,0.4886183738708496,1.751982927322388,XArbitraryZVertical,0.7082935644822573,0.3721395240742113,-0.4702263992865907,0.3724504748945994,0.9433237314224244,-0.1776288896799088,0.2803351879119873,0,0,0,-1,-1,2745.454331125,unknown,2,2022-06-02T10:46:41.176+02:00,2022-06-02T10:17:13.754+02:00,448,1.423373,0,0,345.1212,0,0,2022-06-02T10:46:30.942+02:00,675852401.1757885,0,7.152344,101.2949,1,0.81
249,2022-06-02T10:46:43.108+02:00,1654159599.99975,53.22908366967196,10.398548202756,36.84694,0.0360264,0.6703551,16.0103749334074,73.34262548419477,2.400000095367432,7.999579855010837,-9999,2747.385871166667,1.129653930664062,0.3840484619140625,2.589157104492188,2747.375876166667,-2.011889071856105,1.913771877096362,0.212947797916191,-4.025209903717041,6.132657051086426,2.35374927520752,0.359467089176178,0.5532610416412354,1.86754846572876,XArbitraryZVertical,0.7192937496139977,0.3833586235922425,-0.4373313353248866,0.3799918359345507,0.9204856753349304,-0.2113420218229294,0.3286946713924408,0,0,0,-1,-1,2745.454331125,unknown,2,2022-06-02T10:46:41.176+02:00,2022-06-02T10:17:13.754+02:00,448,1.423373,0,0,345.1212,0,0,2022-06-02T10:46:30.942+02:00,675852401.1757885,0,7.152344,101.2949,1,0.81
250,2022-06-02T10:46:43.117+02:00,1654159599.99975,53.22908366967196,10.398548202756,36.84694,0.0360264,0.6703551,16.0103749334074,73.34262548419477,2.400000095367432,7.999579855010837,-9999,2747.395865166667,1.225418090820312,0.27728271484375,2.923431396484375,2747.385871166667,-1.978977152893473,1.970810936632265,0.2490803468459482,-4.622315883636475,6.745124340057373,2.058144092559814,0.2900471091270447,0.6813883185386658,1.991574287414551,XArbitraryZVertical,0.7288833557986609,0.396781932632324,-0.401340601093631,0.3875806640319646,0.8926309943199158,-0.2465127855539322,0.3774136900901794,0,0,0,-1,-1,2745.454331125,unknown,2,2022-06-02T10:46:41.176+02:00,2022-06-02T10:17:13.754+02:00,448,1.423373,0,0,345.1212,0,0,2022-06-02T10:46:30.942+02:00,675852401.1757885,0,7.152344,101.2949,1,0.81
251,2022-06-02T10:46:43.128+02:00,1654159599.99975,53.22908366967196,10.398548202756,36.84694,0.0360264,0.6703551,16.0103749334074,73.34262548419477,2.400000095367432,7.999579855010837,-9999,2747.405860166667,1.310623168945312,0.3102874755859375,3.300155639648438,2747.395865166667,-1.940364225203316,2.031611654029788,0.2859633294687213,-5.257056713104248,7.402546405792236,1.539506077766418,0.2703373432159424,0.6661303043365479,2.16253662109375,XArbitraryZVertical,0.7364419403096114,0.4134772192040371,-0.3618358413025272,0.3946703155856445,0.8593165278434753,-0.2820817828178406,0.4266202747821808,0,0,0,-1,-1,2745.454331125,unknown,2,2022-06-02T10:46:41.176+02:00,2022-06-02T10:17:13.754+02:00,448,1.423373,0,0,345.1212,0,0,2022-06-02T10:46:30.942+02:00,675852401.1757885,0,7.152344,101.2949,1,0.81
252,2022-06-02T10:46:43.137+02:00,1654159599.99975,53.22908366967196,10.398548202756,36.84694,0.0360264,0.6703551,16.0103749334074,73.34262548419477,2.400000095367432,7.999579855010837,-9999,2747.415854166667,1.28900146484375,0.3892364501953125,3.598922729492188,2747.405860166667,-1.894438613138432,2.094952879243901,0.3234408306285322,-6.034462928771973,7.988054275512695,0.9311281442642212,0.4045628905296326,0.5951135754585266,2.448899745941162,XArbitraryZVertical,0.7409627606778637,0.4338663590484839,-0.3189670732869515,0.4012408230136432,0.8208552598953247,-0.3178308606147766,0.4745316505432129,0,0,0,-1,-1,2745.454331125,unknown,2,2022-06-02T10:46:41.176+02:00,2022-06-02T10:17:13.754+02:00,448,1.423373,0,0,345.1212,0,0,2022-06-02T10:46:30.942+02:00,675852401.1757885,0,7.152344,101.2949,1,0.81
253,2022-06-02T10:46:43.147+02:00,1654159599.99975,53.22908366967196,10.398548202756,36.84694,0.0360264,0.6703551,16.0103749334074,73.34262548419477,2.400000095367432,7.999579855010837,-9999,2747.425849166667,1.281021118164062,0.4255218505859375,3.998458862304688,2747.415854166667,-1.839882214848814,2.159752594679679,0.362228047097724,-6.753949642181396,8.640480995178223,0.1911457180976868,0.5330600142478943,0.6646461486816406,2.780708312988281,XArbitraryZVertical,0.7415823865610187,0.4580165021977858,-0.2726813786657769,0.4073341902824502,0.7775629758834839,-0.354358583688736,0.5194470882415771,0,0,0,-1,-1,2745.454331125,unknown,2,2022-06-02T10:46:41.176+02:00,2022-06-02T10:17:13.754+02:00,448,1.423373,0,0,345.1212,0,0,2022-06-02T10:46:30.942+02:00,675852401.1757885,0,7.152344,101.2949,1,0.81
254,2022-06-02T10:46:43.158+02:00,1654159599.99975,53.22908366967196,10.398548202756,36.84694,0.0360264,0.6703551,16.0103749334074,73.34262548419477,2.400000095367432,7.999579855010837,-9999,2747.435843166667,1.458892822265625,0.58489990234375,4.363571166992188,2747.425849166667,-1.77619341779743,2.226370988227619,0.4003687220308492,-7.322450637817383,9.402740478515623,-0.9148329496383668,0.5589924454689026,0.7789944410324097,3.037517786026001,XArbitraryZVertical,0.7375689692781972,0.486512508543928,-0.2233948850759934,0.4115728619737687,0.7300089597702026,-0.3897579312324524,0.561404824256897,0,0,0,-1,-1,2745.454331125,unknown,2,2022-06-02T10:46:41.176+02:00,2022-06-02T10:17:13.754+02:00,448,1.423373,0,0,345.1212,0,0,2022-06-02T10:46:30.942+02:00,675852401.1757885,0,7.152344,101.2949,1,0.81
255,2022-06-02T10:46:43.168+02:00,1654159599.99975,53.22908366967196,10.398548202756,36.84694,0.0360264,0.6703551,16.0103749334074,73.34262548419477,2.400000095367432,7.999579855010837,-9999,2747.445838166667,1.532882690429688,0.7294921875,4.710067749023438,2747.435843166667,-1.70149033477982,2.293285932127382,0.4366590409407105,-7.811069011688232,10.02109718322754,-2.203689336776733,0.6012473702430725,0.8484362959861755,3.399250268936157,XArbitraryZVertical,0.7276722161123493,0.5197088971940708,-0.1718725425702603,0.4133466422452465,0.6797736287117004,-0.4229143559932709,0.5992083549499512,0,0,0,-1,-1,2745.454331125,unknown,2,2022-06-02T10:46:41.176+02:00,2022-06-02T10:17:13.754+02:00,448,1.423373,0,0,345.1212,0,0,2022-06-02T10:46:30.942+02:00,675852401.1757885,0,7.152344,101.2949,1,0.81
256,2022-06-02T10:46:43.178+02:00,1654159599.99975,53.22908366967196,10.398548202756,36.84694,0.0360264,0.6703551,16.0103749334074,73.34262548419477,2.400000095367432,7.999579855010837,-9999,2747.455832166667,1.427154541015625,1.060134887695312,5.485992431640625,2747.445838166667,-1.615133589405442,2.35790964101687,0.4686733141267425,-7.821104526519775,10.42313289642334,-3.816951990127563,0.8291174173355103,1.036602973937988,3.731631755828857,XArbitraryZVertical,0.7108828980905035,0.5573286409350101,-0.1200715528140611,0.4118411684779823,0.6297754049301147,-0.4517030417919159,0.6319394111633301,0,0,0,-1,-1,2745.454331125,unknown,2,2022-06-02T10:46:41.176+02:00,2022-06-02T10:17:13.754+02:00,448,1.423373,0,0,345.1212,0,0,2022-06-02T10:46:30.942+02:00,675852401.1757885,0,7.152344,101.2949,1,0.81
257,2022-06-02T10:46:43.188+02:00,1654159599.99975,53.22908366967196,10.398548202756,36.84694,0.0360264,0.6703551,16.0103749334074,73.34262548419477,2.400000095367432,7.999579855010837,-9999,2747.465827166667,1.067489624023438,1.226882934570312,6.622955322265625,2747.455832166667,-1.516530055712557,2.416245444121053,0.4934787589311396,-7.808740139007568,10.24617004394531,-5.547301292419434,0.9486368894577026,1.203184604644775,4.051074028015137,XArbitraryZVertical,0.6863712523656836,0.5986577957621076,-0.0707837695905979,0.406808244537145,0.5842457413673401,-0.4736924469470978,0.6589933037757874,0,0,0,-1,-1,2745.454331125,unknown,2,2022-06-02T10:46:41.176+02:00,2022-06-02T10:17:13.754+02:00,448,1.423373,0,0,345.1212,0,0,2022-06-02T10:46:30.942+02:00,675852401.1757885,0,7.152344,101.2949,1,0.81
258,2022-06-02T10:46:43.198+02:00,1654159599.99975,53.22908366967196,10.398548202756,36.84694,0.0360264,0.6703551,16.0103749334074,73.34262548419477,2.400000095367432,7.999579855010837,-9999,2747.475821166667,0.6553192138671875,1.361099243164062,8.174774169921875,2747.465827166667,-1.402115655283824,2.459428001963746,0.5094105264718649,-7.642135620117188,9.335039138793944,-7.850313186645508,0.8767299056053162,1.547797679901123,4.80833625793457,XArbitraryZVertical,0.652662538522874,0.6425414642216448,-0.0273583797762278,0.400528955052716,0.5504245162010193,-0.4876627027988434,0.677655816078186,0,0,0,-1,-1,2745.454331125,unknown,2,2022-06-02T10:46:41.176+02:00,2022-06-02T10:17:13.754+02:00,448,1.423373,0,0,345.1212,0,0,2022-06-02T10:46:30.942+02:00,675852401.1757885,0,7.152344,101.2949,1,0.81
259,2022-06-02T10:46:43.208+02:00,1654159599.99975,53.22908366967196,10.398548202756,36.84694,0.0360264,0.6703551,16.0103749334074,73.34262548419477,2.400000095367432,7.999579855010837,-9999,2747.485816166667,0.4221038818359375,1.137725830078125,9.464736938476562,2747.475821166667,-1.263651498040668,2.476832577010971,0.5137258247922419,-8.068907737731934,7.634867668151855,-10.48837852478027,0.5302451848983765,1.718308568000793,5.937485218048096,XArbitraryZVertical,0.6068683520195461,0.6888002860826562,0.0073910856377798,0.3964975094682895,0.5372443795204163,-0.4914255440235138,0.6854700446128845,0,0,0,-1,-1,2745.454331125,unknown,2,2022-06-02T10:46:41.176+02:00,2022-06-02T10:17:13.754+02:00,448,1.423373,0,0,345.1212,0,0,2022-06-02T10:46:30.942+02:00,675852401.1757885,0,7.152344,101.2949,1,0.81
260,2022-06-02T10:46:43.218+02:00,1654159599.99975,53.22908366967196,10.398548202756,36.84694,0.0360264,0.6703551,16.0103749334074,73.34262548419477,2.400000095367432,7.999579855010837,-9999,2747.495810166667,-0.17840576171875,1.216796875,10.29072570800781,2747.485816166667,-1.10065628993675,2.461345199900471,0.5025530459462175,-7.702334880828857,4.977192401885986,-13.27554225921631,0.104104220867157,1.842763900756836,7.493480205535889,XArbitraryZVertical,0.54822594800284,0.7349116623379893,0.0308040185851554,0.3980001483826568,0.5512147545814514,-0.4816644787788391,0.6812936663627625,0,0,0,-1,-1,2745.454331125,unknown,2,2022-06-02T10:46:41.176+02:00,2022-06-02T10:17:13.754+02:00,448,1.423373,0,0,345.1212,0,0,2022-06-02T10:46:30.942+02:00,675852401.1757885,0,7.152344,101.2949,1,0.81
261,2022-06-02T10:46:43.228+02:00,1654159599.99975,53.22908366967196,10.398548202756,36.84694,0.0360264,0.6703551,16.0103749334074,73.34262548419477,2.400000095367432,7.999579855010837,-9999,2747.505805166667,-1.549880981445312,2.819564819335938,11.15126037597656,2747.495810166667,-0.922587769512946,2.406269830146218,0.4596995994563567,-6.248197555541992,0.1835858672857285,-16.32385444641113,-0.1790813803672791,1.581404805183411,8.8001127243042,XArbitraryZVertical,0.4777680393911998,0.7772063637603416,0.034604209620347,0.4080324093238754,0.6011852025985718,-0.4436789155006409,0.664624035358429,0,0,0,-1,-1,2745.454331125,unknown,2,2022-06-02T10:46:41.176+02:00,2022-06-02T10:17:13.754+02:00,448,1.423373,0,0,345.1212,0,0,2022-06-02T10:46:30.942+02:00,675852401.1757885,0,7.152344,101.2949,1,0.81
262,2022-06-02T10:46:43.238+02:00,1654159599.99975,53.22908366967196,10.398548202756,36.84694,0.0360264,0.6703551,16.0103749334074,73.34262548419477,2.400000095367432,7.999579855010837,-9999,2747.515799166667,-4.087448120117188,4.305343627929688,11.69952392578125,2747.505805166667,-0.7396520820080752,2.296029891883075,0.3796847386226904,-6.447815895080566,-7.552816867828369,-18.37292671203613,-0.873454213142395,1.587424635887146,9.674654960632324,XArbitraryZVertical,0.3958959990882079,0.8070324731521441,0.0148147746315339,0.4378873129196628,0.6950483322143555,-0.3706276714801788,0.6160700917243958,0,0,0,-1,-1,2745.454331125,unknown,2,2022-06-02T10:46:41.176+02:00,2022-06-02T10:17:13.754+02:00,448,1.423373,0,0,345.1212,0,0,2022-06-02T10:46:30.942+02:00,675852401.1757885,0,7.152344,101.2949,1,0.81
263,2022-06-02T10:46:43.248+02:00,1654159599.99975,53.22908366967196,10.398548202756,36.84694,0.0360264,0.6703551,16.0103749334074,73.34262548419477,2.400000095367432,7.999579855010837,-9999,2747.525793166667,-9.705596923828123,4.586532592773438,11.00846862792969,2747.515799166667,-0.5594569427492061,2.117530987945385,0.2694490631776226,-7.899096012115479,-16.56761741638184,-20.01154708862305,-2.373285293579102,3.08576512336731,10.65011882781982,XArbitraryZVertical,0.3017555304229398,0.8121048952177369,-0.0215064061149249,0.4989657261736786,0.8234043717384338,-0.2662004232406616,0.5011415481567383,0,0,0,-1,-1,2745.454331125,unknown,2,2022-06-02T10:46:41.176+02:00,2022-06-02T10:17:13.754+02:00,448,1.423373,0,0,345.1212,0,0,2022-06-02T10:46:30.942+02:00,675852401.1757885,0,7.152344,101.2949,1,0.81
264,2022-06-02T10:46:43.258+02:00,1654159599.99975,53.22908366967196,10.398548202756,36.84694,0.0360264,0.6703551,16.0103749334074,73.34262548419477,2.400000095367432,7.999579855010837,-9999,2747.535788375,-14.20314025878906,3.63568115234375,9.622482299804688,2747.525793166667,-0.3943966902272237,1.888001284996557,0.113910734068464,-7.774490356445312,-22.10490036010742,-21.42430305480957,-5.031401634216309,4.419008255004883,11.38963317871094,XArbitraryZVertical,0.1911648713886485,0.7863849918860412,-0.0695223156246578,0.583284886589984,0.9439533948898317,-0.1136645525693893,0.3098907172679901,0,0,0,-1,-1,2745.454331125,unknown,2,2022-06-02T10:46:41.176+02:00,2022-06-02T10:17:13.754+02:00,448,1.423373,0,0,345.1212,0,0,2022-06-02T10:46:30.942+02:00,675852401.1757885,0,7.152344,101.2949,1,0.81
265,2022-06-02T10:46:43.268+02:00,1654159599.99975,53.22908366967196,10.398548202756,36.84694,0.0360264,0.6703551,16.0103749334074,73.34262548419477,2.400000095367432,7.999579855010837,-9999,2747.545782375,-19.90818786621094,4.72088623046875,10.00442504882812,2747.535788375,-0.3132441825427187,1.640265372892722,-0.0851520818682761,0.1880180090665817,-27.46990966796875,-20.98457145690918,-10.69957065582275,4.50148344039917,10.93930721282959,XArbitraryZVertical,0.0852787556722002,0.7261600164131562,-0.1370458286073795,0.668309397692524,0.9939733147621156,0.0850492119789123,0.0691616684198379,0,0,0,-1,-1,2745.454331125,unknown,2,2022-06-02T10:46:41.176+02:00,2022-06-02T10:17:13.754+02:00,448,1.423373,0,0,345.1212,0,0,2022-06-02T10:46:30.942+02:00,675852401.1757885,0,7.152344,101.2949,1,0.81
266,2022-06-02T10:46:43.278+02:00,1654159599.99975,53.22908366967196,10.398548202756,36.84694,0.0360264,0.6703551,16.0103749334074,73.34262548419477,2.400000095367432,7.999579855010837,-9999,2747.555777375,-28.86044311523438,6.481216430664062,16.64810180664062,2747.545782375,-0.4012698565838279,1.314522838142811,-0.2759028079244468,15.59983730316162,-34.7689323425293,-19.15371322631836,-15.13389682769775,3.363265514373779,9.866373062133787,XArbitraryZVertical,0.0139188126062439,0.6147038489662265,-0.238603136249486,0.7516740751714084,0.9307560324668884,0.2724156975746155,-0.2438908964395523,0,0,0,-1,-1,2745.454331125,unknown,2,2022-06-02T10:46:41.176+02:00,2022-06-02T10:17:13.754+02:00,448,1.423373,0,0,345.1212,0,0,2022-06-02T10:46:30.942+02:00,675852401.1757885,0,7.152344,101.2949,1,0.81
267,2022-06-02T10:46:43.288+02:00,1654159599.99975,53.22908366967196,10.398548202756,36.84694,0.0360264,0.6703551,16.0103749334074,73.34262548419477,2.400000095367432,7.999579855010837,-9999,2747.565771375,-32.17086791992188,6.51788330078125,24.68006896972656,2747.555777375,-0.7170135226172895,0.8667714927749015,-0.3094867058973988,34.61653518676758,-35.15008163452148,-13.96824550628662,-20.63421630859375,4.416316509246826,10.62096309661865,XArbitraryZVertical,0.0146042073372565,0.4376273583425588,-0.375242266473667,0.8169835584661876,0.7260289192199707,0.3045697808265686,-0.6165380477905273,0,0,0,-1,-1,2745.454331125,unknown,2,2022-06-02T10:46:41.176+02:00,2022-06-02T10:17:13.754+02:00,448,1.423373,0,0,345.1212,0,0,2022-06-02T10:46:30.942+02:00,675852401.1757885,0,7.152344,101.2949,1,0.81
268,2022-06-02T10:46:43.298+02:00,1654159599.99975,53.22908366967196,10.398548202756,36.84694,0.0360264,0.6703551,16.0103749334074,73.34262548419477,2.400000095367432,7.999579855010837,-9999,2747.575766375,-31.97508239746094,9.189239501953123,17.73660278320312,2747.565771375,-0.992923294335846,0.4549397804821065,-0.0803265266468878,35.2568473815918,-35.12835693359375,-1.45676600933075,-29.29843521118164,6.400976181030273,17.54349327087402,XArbitraryZVertical,0.0729337553181718,0.2167606213740643,-0.4716349938366831,0.8516195010646346,0.4379913806915283,0.080240175127983,-0.8953909873962402,0,0,0,-1,-1,2745.454331125,unknown,2,2022-06-02T10:46:41.176+02:00,2022-06-02T10:17:13.754+02:00,448,1.423373,0,0,345.1212,0,0,2022-06-02T10:46:30.942+02:00,675852401.1757885,0,7.152344,101.2949,1,0.81
269,2022-06-02T10:46:43.308+02:00,1654159599.99975,53.22908366967196,10.398548202756,36.84694,0.0360264,0.6703551,16.0103749334074,73.34262548419477,2.400000095367432,7.999579855010837,-9999,2747.585760375,-30.69833374023438,-4.7548828125,31.41079711914062,2747.575766375,-1.090735581667432,0.2460965186476295,0.2566077258174092,35.06403350830078,-4.85370922088623,2.292903184890747,-32.40650939941406,6.771684169769287,25.61818313598633,XArbitraryZVertical,0.1717087184965355,0.0381995790831807,-0.4971524901372096,0.8496448331487174,0.2356429845094681,-0.2538008093833923,-0.938113808631897,0,0,0,-1,-1,2745.454331125,unknown,2,2022-06-02T10:46:41.176+02:00,2022-06-02T10:17:13.754+02:00,448,1.423373,0,0,345.1212,0,0,2022-06-02T10:46:30.942+02:00,675852401.1757885,0,7.152344,101.2949,1,0.81
270,2022-06-02T10:46:43.318+02:00,1654159599.99975,53.22908366967196,10.398548202756,36.84694,0.0360264,0.6703551,16.0103749334074,73.34262548419477,2.400000095367432,7.999579855010837,-9999,2747.595755375,-7.124420166015625,-31.99214172363281,14.46067810058594,2747.585760375,-1.166196215006582,0.384323614131397,0.6013974389589816,34.84516906738281,25.51551055908203,8.769640922546387,-32.28422927856445,9.755034446716309,18.50099945068359,XArbitraryZVertical,0.3431333431594462,-0.0078125701874228,-0.4690072799215323,0.8137754380083221,0.3091487288475037,-0.5657953023910522,-0.7643969655036926,0,0,0,-1,-1,2745.454331125,unknown,2,2022-06-02T10:46:41.176+02:00,2022-06-02T10:17:13.754+02:00,448,1.423373,0,0,345.1212,0,0,2022-06-02T10:46:30.942+02:00,675852401.1757885,0,7.152344,101.2949,1,0.81
271,2022-06-02T10:46:43.328+02:00,1654159599.99975,53.22908366967196,10.398548202756,36.84694,0.0360264,0.6703551,16.0103749334074,73.34262548419477,2.400000095367432,7.999579855010837,-9999,2747.605749375,11.79090881347656,-23.03976440429688,-2.119522094726562,2747.595755375,-1.25448432200976,0.6916119529631772,0.8894203566879967,7.174991130828857,7.029796123504639,18.48492813110352,-31.10004615783691,-3.978176116943359,31.89592933654785,XArbitraryZVertical,0.5072770279228659,0.0102003173250587,-0.3804029001101037,0.7732138456278329,0.4017133712768555,-0.7767067551612854,-0.4851319491863251,0,0,0,-1,-1,2745.454331125,unknown,2,2022-06-02T10:46:41.176+02:00,2022-06-02T10:17:13.754+02:00,448,1.423373,0,0,345.1212,0,0,2022-06-02T10:46:30.942+02:00,675852401.1757885,0,7.152344,101.2949,1,0.81
272,2022-06-02T10:46:43.338+02:00,1654159599.99975,53.22908366967196,10.398548202756,36.84694,0.0360264,0.6703551,16.0103749334074,73.34262548419477,2.400000095367432,7.999579855010837,-9999,2747.615744375,-1.609390258789062,6.58917236328125,5.152084350585938,2747.605749375,-0.8203033362916325,0.4464341128033363,0.8211986881480812,-34.85890579223633,21.85654067993164,8.410687446594238,-7.418591976165771,-31.26017761230469,15.07524585723877,XArbitraryZVertical,0.4379045201650298,0.0309189419783222,-0.2755022292095995,0.8552087442822215,0.2941716313362122,-0.7319630980491638,-0.6145672798156738,0,0,0,-1,-1,2745.454331125,unknown,2,2022-06-02T10:46:41.176+02:00,2022-06-02T10:17:13.754+02:00,448,1.423373,0,0,345.1212,0,0,2022-06-02T10:46:30.942+02:00,675852401.1757885,0,7.152344,101.2949,1,0.81
273,2022-06-02T10:46:43.348+02:00,1654159599.99975,53.22908366967196,10.398548202756,36.84694,0.0360264,0.6703551,16.0103749334074,73.34262548419477,2.400000095367432,7.999579855010837,-9999,2747.625738375,-2.365203857421875,-5.046798706054688,5.655715942382812,2747.615744375,-0.6494312682905187,0.5430289089479454,0.4938456242878144,-35.06443786621094,18.55779075622559,-9.231108665466309,11.33591842651367,-22.56574821472168,-1.365670084953308,XArbitraryZVertical,0.3061301282709099,0.1713428502546538,-0.2359034314597701,0.9062424797538692,0.4549906253814697,-0.4740155339241028,-0.7538519501686096,0,0,0,-1,-1,2745.454331125,unknown,2,2022-06-02T10:46:41.176+02:00,2022-06-02T10:17:13.754+02:00,448,1.423373,0,0,345.1212,0,0,2022-06-02T10:46:30.942+02:00,675852401.1757885,0,7.152344,101.2949,1,0.81
274,2022-06-02T10:46:43.358+02:00,1654159599.99975,53.22908366967196,10.398548202756,36.84694,0.0360264,0.6703551,16.0103749334074,73.34262548419477,2.400000095367432,7.999579855010837,-9999,2747.635733375,-9.08282470703125,-3.266738891601562,3.524276733398438,2747.625738375,-0.548467610350548,0.5961565500349301,0.2145408298511697,-15.01911449432373,-5.02116584777832,-4.472708225250244,-2.157984495162964,6.802071094512939,5.960613250732422,XArbitraryZVertical,0.1775944787102503,0.2533690924322455,-0.2271112619565087,0.9234092142320056,0.5485941171646118,-0.2128988057374954,-0.8085286021232605,0,0,0,-1,-1,2745.454331125,unknown,2,2022-06-02T10:46:41.176+02:00,2022-06-02T10:17:13.754+02:00,448,1.423373,0,0,345.1212,0,0,2022-06-02T10:46:30.942+02:00,675852401.1757885,0,7.152344,101.2949,1,0.81
275,2022-06-02T10:46:43.368+02:00,1654159599.99975,53.22908366967196,10.398548202756,36.84694,0.0360264,0.6703551,16.0103749334074,73.34262548419477,2.400000095367432,7.999579855010837,-9999,2747.645727375,-13.53239440917969,3.748306274414062,-0.719207763671875,2747.635733375,-0.4185328989510039,0.460320568206207,0.0683428327584755,-27.68214988708496,-6.973766803741455,16.95951843261719,-2.808402061462402,-4.978508949279785,6.549534797668457,XArbitraryZVertical,0.0799034984768249,0.2161159455372644,-0.1945220457715458,0.9534518376557048,0.4431982636451721,-0.0682896450161933,-0.8938186764717102,0,0,0,-1,-1,2745.454331125,unknown,2,2022-06-02T10:46:41.176+02:00,2022-06-02T10:17:13.754+02:00,448,1.423373,0,0,345.1212,0,0,2022-06-02T10:46:30.942+02:00,675852401.1757885,0,7.152344,101.2949,1,0.81
276,2022-06-02T10:46:43.378+02:00,1654159599.99975,53.22908366967196,10.398548202756,36.84694,0.0360264,0.6703551,16.0103749334074,73.34262548419477,2.400000095367432,7.999579855010837,-9999,2747.655722375,-4.205398559570312,4.22406005859375,3.1474609375,2747.645727375,-0.2105653724735461,0.4197024019309046,-0.0186574246508551,-4.875734806060791,1.230093717575073,10.21664237976074,-9.490242958068848,-3.285395383834839,4.437327861785889,XArbitraryZVertical,0.0128170455421379,0.2081107211187198,-0.1047109073414977,0.9723997063145162,0.4074177742004395,0.0186563413590192,-0.9130513072013856,0,0,0,-1,-1,2745.454331125,unknown,2,2022-06-02T10:46:41.176+02:00,2022-06-02T10:17:13.754+02:00,448,1.423373,0,0,345.1212,0,0,2022-06-02T10:46:30.942+02:00,675852401.1757885,0,7.152344,101.2949,1,0.81
277,2022-06-02T10:46:43.388+02:00,1654159599.99975,53.22908366967196,10.398548202756,36.84694,0.0360264,0.6703551,16.0103749334074,73.34262548419477,2.400000095367432,7.999579855010837,-9999,2747.665716375,-3.053390502929688,-4.754165649414062,-0.166961669921875,2747.655722375,-0.1477476801738841,0.4337002479862564,0.0298396998045037,7.738653659820557,1.381206870079041,5.525633811950684,-13.95243835449219,3.778141498565674,0.1878052949905396,XArbitraryZVertical,0.0304082298576716,0.2134685542321853,-0.0688688974953116,0.9740448554392176,0.4200442433357239,-0.0298352725803852,-0.9070130586624146,0,0,0,-1,-1,2745.454331125,unknown,2,2022-06-02T10:46:41.176+02:00,2022-06-02T10:17:13.754+02:00,448,1.423373,0,0,345.1212,0,0,2022-06-02T10:46:30.942+02:00,675852401.1757885,0,7.152344,101.2949,1,0.81
278,2022-06-02T10:46:43.398+02:00,1654159599.99975,53.22908366967196,10.398548202756,36.84694,0.0360264,0.6703551,16.0103749334074,73.34262548419477,2.400000095367432,7.999579855010837,-9999,2747.675711375,-3.557022094726562,-3.543563842773438,-2.715057373046875,2747.665716375,-0.1550134798141542,0.4120952653034473,0.1630745661613155,14.94691181182861,-4.598778247833252,4.867219924926758,-4.600614547729492,4.386412620544434,4.05158805847168,XArbitraryZVertical,0.0952736001118966,0.197127866966979,-0.0589260814970891,0.9739565299736054,0.3952161371707916,-0.1623527407646179,-0.9041270613670348,0,0,0,-1,-1,2745.454331125,unknown,2,2022-06-02T10:46:41.176+02:00,2022-06-02T10:17:13.754+02:00,448,1.423373,0,0,345.1212,0,0,2022-06-02T10:46:30.942+02:00,675852401.1757885,0,7.152344,101.2949,1,0.81
279,2022-06-02T10:46:43.408+02:00,1654159599.99975,53.22908366967196,10.398548202756,36.84694,0.0360264,0.6703551,16.0103749334074,73.34262548419477,2.400000095367432,7.999579855010837,-9999,2747.685705375,-7.084213256835938,-4.990554809570312,-2.643692016601562,2747.675711375,-0.1327699948708022,0.3458103107488832,0.3164760267261568,12.15909576416016,-6.183291912078857,9.753181457519531,-3.375516176223755,-4.442945957183838,0.7271174192428589,XArbitraryZVertical,0.1661571543622719,0.1592239374345226,-0.0374798403591989,0.9724375421751176,0.3221257627010345,-0.3112195432186127,-0.8940790891647339,0,0,0,-1,-1,2745.454331125,unknown,2,2022-06-02T10:46:41.176+02:00,2022-06-02T10:17:13.754+02:00,448,1.423373,0,0,345.1212,0,0,2022-06-02T10:46:30.942+02:00,675852401.1757885,0,7.152344,101.2949,1,0.81
280,2022-06-02T10:46:43.418+02:00,1654159599.99975,53.22908366967196,10.398548202756,36.84694,0.0360264,0.6703551,16.0103749334074,73.34262548419477,2.400000095367432,7.999579855010837,-9999,2747.695700375,-6.511383056640625,-5.88153076171875,-2.28802490234375,2747.685705375,-0.0789071442131467,0.2859355781467512,0.4381554069408051,7.228261470794678,-0.6496173739433289,6.682952880859375,-3.812433242797852,-3.119293928146362,-1.846287965774536,XArbitraryZVertical,0.2204303650778659,0.1304827327394601,-0.0071664982222679,0.9666092308419268,0.2554110586643219,-0.4242698550224304,-0.8687694072723389,0,0,0,-1,-1,2745.454331125,unknown,2,2022-06-02T10:46:41.176+02:00,2022-06-02T10:17:13.754+02:00,448,1.423373,0,0,345.1212,0,0,2022-06-02T10:46:30.942+02:00,675852401.1757885,0,7.152344,101.2949,1,0.81
281,2022-06-02T10:46:43.428+02:00,1654159599.99975,53.22908366967196,10.398548202756,36.84694,0.0360264,0.6703551,16.0103749334074,73.34262548419477,2.400000095367432,7.999579855010837,-9999,2747.705694375,-3.30517578125,-5.094100952148438,-1.661346435546875,2747.695700375,-0.0222147392670503,0.2849938721906743,0.4975019667970731,1.772280335426331,4.849285125732422,6.671068668365479,-7.331283092498779,-4.513322830200195,-1.800361514091492,XArbitraryZVertical,0.2452120970401032,0.1349287800203766,0.0243049175861558,0.959726201486868,0.2470696568489075,-0.4772318005561829,-0.8433305025100708,0,0,0,-1,-1,2745.454331125,unknown,2,2022-06-02T10:46:41.176+02:00,2022-06-02T10:17:13.754+02:00,448,1.423373,0,0,345.1212,0,0,2022-06-02T10:46:30.942+02:00,675852401.1757885,0,7.152344,101.2949,1,0.81
282,2022-06-02T10:46:43.438+02:00,1654159599.99975,53.22908366967196,10.398548202756,36.84694,0.0360264,0.6703551,16.0103749334074,73.34262548419477,2.400000095367432,7.999579855010837,-9999,2747.715689375,-2.28857421875,-3.7225341796875,-1.726181030273438,2747.705694375,0.0541684914615708,0.2970531073217062,0.5164949349911419,-1.43656861782074,4.867058753967285,6.826546669006348,-6.765904903411865,-5.3876953125,-1.456553220748901,XArbitraryZVertical,0.2486075888413397,0.1498613791025153,0.0636731614931009,0.954820075796978,0.2545220553874969,-0.4938353300094604,-0.8314716815948486,0,0,0,-1,-1,2745.454331125,unknown,2,2022-06-02T10:46:41.176+02:00,2022-06-02T10:17:13.754+02:00,448,1.423373,0,0,345.1212,0,0,2022-06-02T10:46:30.942+02:00,675852401.1757885,0,7.152344,101.2949,1,0.81
283,2022-06-02T10:46:43.448+02:00,1654159599.99975,53.22908366967196,10.398548202756,36.84694,0.0360264,0.6703551,16.0103749334074,73.34262548419477,2.400000095367432,7.999579855010837,-9999,2747.725683375,-2.170578002929688,-2.894134521484375,-1.1785888671875,2747.715689375,0.1320823648095414,0.301301446904886,0.5192661901961663,-1.869101405143738,3.776024103164673,6.045876979827881,-3.562820911407471,-4.59785795211792,-0.8322736024856567,XArbitraryZVertical,0.2436924884561115,0.1614855009879543,0.1015048027905929,0.9509117104372607,0.2576449811458588,-0.4962431788444519,-0.8290728330612183,0,0,0,-1,-1,2745.454331125,unknown,2,2022-06-02T10:46:41.176+02:00,2022-06-02T10:17:13.754+02:00,448,1.423373,0,0,345.1212,0,0,2022-06-02T10:46:30.942+02:00,675852401.1757885,0,7.152344,101.2949,1,0.81
284,2022-06-02T10:46:43.458+02:00,1654159599.99975,53.22908366967196,10.398548202756,36.84694,0.0360264,0.6703551,16.0103749334074,73.34262548419477,2.400000095367432,7.999579855010837,-9999,2747.735678375,-2.305328369140625,-2.883453369140625,-0.4474945068359375,2747.725683375,0.1960802926461807,0.3024697812225312,0.5206128434895861,-1.126057147979736,2.97711706161499,4.530847549438477,-2.546988487243652,-3.225122213363647,-0.898048460483551,XArbitraryZVertical,0.2389669078451457,0.1697897056165091,0.1320958987920329,0.9468985441942626,0.2584141492843628,-0.4974118769168854,-0.8281325697898865,0,0,0,-1,-1,2745.454331125,unknown,2,2022-06-02T10:46:41.176+02:00,2022-06-02T10:17:13.754+02:00,448,1.423373,0,0,345.1212,0,0,2022-06-02T10:46:30.942+02:00,675852401.1757885,0,7.152344,101.2949,1,0.81
285,2022-06-02T10:46:43.468+02:00,1654159599.99975,53.22908366967196,10.398548202756,36.84694,0.0360264,0.6703551,16.0103749334074,73.34262548419477,2.400000095367432,7.999579855010837,-9999,2747.745672375,-2.060897827148438,-2.8726806640625,-0.251556396484375,2747.735678375,0.2426686921904465,0.3077365074877305,0.5259498786939779,-0.2812566161155701,2.808877468109131,3.531336545944214,-2.432542324066162,-2.392099857330322,-0.3543705344200134,XArbitraryZVertical,0.2370819713959304,0.1779971024403635,0.1550430622183788,0.9423751138128528,0.2619642615318298,-0.5020347237586975,-0.8242183327674866,0,0,0,-1,-1,2745.454331125,unknown,2,2022-06-02T10:46:41.176+02:00,2022-06-02T10:17:13.754+02:00,448,1.423373,0,0,345.1212,0,0,2022-06-02T10:46:30.942+02:00,675852401.1757885,0,7.152344,101.2949,1,0.81
286,2022-06-02T10:46:43.478+02:00,1654159599.99975,53.22908366967196,10.398548202756,36.84694,0.0360264,0.6703551,16.0103749334074,73.34262548419477,2.400000095367432,7.999579855010837,-9999,2747.755667375,-1.6724853515625,-2.660812377929688,-0.3315277099609375,2747.745672375,0.2795897944193316,0.315457215523415,0.5351095251197792,-0.0116383479908108,2.486598491668701,3.038007259368896,-2.572210311889648,-2.373517990112305,0.3702707886695862,XArbitraryZVertical,0.2374370136300994,0.1863895163503237,0.1738357623848596,0.937370554066326,0.2668820023536682,-0.5099352598190308,-0.8177652359008789,0,0,0,-1,-1,2745.454331125,unknown,2,2022-06-02T10:46:41.176+02:00,2022-06-02T10:17:13.754+02:00,448,1.423373,0,0,345.1212,0,0,2022-06-02T10:46:30.942+02:00,675852401.1757885,0,7.152344,101.2949,1,0.81
287,2022-06-02T10:46:43.488+02:00,1654159599.99975,53.22908366967196,10.398548202756,36.84694,0.0360264,0.6703551,16.0103749334074,73.34262548419477,2.400000095367432,7.999579855010837,-9999,2747.765661375,-1.39483642578125,-2.200180053710938,-0.4999847412109375,2747.755667375,0.310393255598947,0.3215854029134333,0.5435558600323026,-0.0624756924808025,1.930182337760925,2.463314771652222,-2.331415176391602,-2.355498075485229,0.5604426860809326,XArbitraryZVertical,0.2379579009662661,0.1933300718066167,0.1894416568571811,0.9327975385467115,0.2705173492431641,-0.5171826481819153,-0.8119990229606628,0,0,0,-1,-1,2745.454331125,unknown,2,2022-06-02T10:46:41.176+02:00,2022-06-02T10:17:13.754+02:00,448,1.423373,0,0,345.1212,0,0,2022-06-02T10:46:30.942+02:00,675852401.1757885,0,7.152344,101.2949,1,0.81
288,2022-06-02T10:46:43.498+02:00,1654159599.99975,53.22908366967196,10.398548202756,36.84694,0.0360264,0.6703551,16.0103749334074,73.34262548419477,2.400000095367432,7.999579855010837,-9999,2747.775656375,-1.385772705078125,-1.661849975585938,-0.7048187255859375,2747.765661375,0.334257833041025,0.3252133533671879,0.5494153218082224,-0.1216918155550957,1.313050746917725,1.724253535270691,-1.944973945617676,-2.138623714447021,0.4765990972518921,XArbitraryZVertical,0.2380362870994243,0.1981800516854592,0.201305989477731,0.9292680324402588,0.2724885046482086,-0.522188663482666,-0.8081268072128296,0,0,0,-1,-1,2745.454331125,unknown,2,2022-06-02T10:46:41.176+02:00,2022-06-02T10:17:13.754+02:00,448,1.423373,0,0,345.1212,0,0,2022-06-02T10:46:30.942+02:00,675852401.1757885,0,7.152344,101.2949,1,0.81
289,2022-06-02T10:46:43.508+02:00,1654159599.99975,53.22908366967196,10.398548202756,36.84694,0.0360264,0.6703551,16.0103749334074,73.34262548419477,2.400000095367432,7.999579855010837,-9999,2747.785650375,-1.617767333984375,-1.129562377929688,-0.9465789794921876,2747.775656375,0.35004598067209,0.3279946729046034,0.5528311491831809,-0.0502115041017532,0.9804638028144836,1.048797607421875,-1.668995380401611,-1.675081253051758,0.3056877851486206,XArbitraryZVertical,0.237783932706468,0.2015504111385001,0.2091483748365189,0.9268727036037911,0.2741588950157166,-0.5250987410545349,-0.8056724667549133,0,0,0,-1,-1,2745.454331125,unknown,2,2022-06-02T10:46:41.176+02:00,2022-06-02T10:17:13.754+02:00,448,1.423373,0,0,345.1212,0,0,2022-06-02T10:46:30.942+02:00,675852401.1757885,0,7.152344,101.2949,1,0.81
290,2022-06-02T10:46:43.518+02:00,1654159599.99975,53.22908366967196,10.398548202756,36.84694,0.0360264,0.6703551,16.0103749334074,73.34262548419477,2.400000095367432,7.999579855010837,-9999,2747.795645375,-1.81683349609375,-0.750244140625,-0.9958648681640624,2747.785650375,0.3600122986981341,0.3321655651799249,0.5564050411978708,0.1644126027822495,0.9655598998069764,0.8395032286643982,-1.662675857543945,-1.133713006973267,0.0979241132736206,XArbitraryZVertical,0.2380124381093612,0.204887024533042,0.2144509951182853,0.9248686239138204,0.2769031524658203,-0.5281369090080261,-0.8027427792549133,0,0,0,-1,-1,2745.454331125,unknown,2,2022-06-02T10:46:41.176+02:00,2022-06-02T10:17:13.754+02:00,448,1.423373,0,0,345.1212,0,0,2022-06-02T10:46:30.942+02:00,675852401.1757885,0,7.152344,101.2949,1,0.81
291,2022-06-02T10:46:43.528+02:00,1654159599.99975,53.22908366967196,10.398548202756,36.84694,0.0360264,0.6703551,16.0103749334074,73.34262548419477,2.400000095367432,7.999579855010837,-9999,2747.805639375,-1.790008544921875,-0.7083587646484375,-0.7969512939453125,2747.795645375,0.3688573239207437,0.3380275513303066,0.5616617629793645,0.3500413298606873,1.181459426879883,0.8804078102111816,-1.898446798324585,-0.596968948841095,-0.1481034159660339,XArbitraryZVertical,0.2389329354852244,0.2089815125635861,0.2195198123668678,0.9225229566602916,0.28067946434021,-0.5325934290885925,-0.7984755635261536,0,0,0,-1,-1,2745.454331125,unknown,2,2022-06-02T10:46:41.176+02:00,2022-06-02T10:17:13.754+02:00,448,1.423373,0,0,345.1212,0,0,2022-06-02T10:46:30.942+02:00,675852401.1757885,0,7.152344,101.2949,1,0.81
292,2022-06-02T10:46:43.538+02:00,1654159599.99975,53.22908366967196,10.398548202756,36.84694,0.0360264,0.6703551,16.0103749334074,73.34262548419477,2.400000095367432,7.999579855010837,-9999,2747.815633375,-1.470108032226562,-0.6144256591796875,-0.590423583984375,2747.805639375,0.3762343633011574,0.3470847005996099,0.569420133090555,0.696386992931366,1.422013521194458,0.8173134326934814,-2.10331916809082,-0.2111003398895264,-0.2038736939430237,XArbitraryZVertical,0.240787902400089,0.2145357971385878,0.2244297741134222,0.9195796842866396,0.2864855825901031,-0.5391437411308289,-0.7919911742210388,0,0,0,-1,-1,2745.454331125,unknown,2,2022-06-02T10:46:41.176+02:00,2022-06-02T10:17:13.754+02:00,448,1.423373,0,0,345.1212,0,0,2022-06-02T10:46:30.942+02:00,675852401.1757885,0,7.152344,101.2949,1,0.81
293,2022-06-02T10:46:43.548+02:00,1654159599.99975,53.22908366967196,10.398548202756,36.84694,0.0360264,0.6703551,16.0103749334074,73.34262548419477,2.400000095367432,7.999579855010837,-9999,2747.825628375,-1.206527709960938,-0.4891204833984375,-0.5113525390625,2747.815633375,0.3819545788409572,0.3584959107846011,0.580444093895683,1.038297653198242,1.469394326210022,0.8267410397529602,-2.083409547805786,-0.1599633693695068,-0.0138942003250122,XArbitraryZVertical,0.2440333553845772,0.221176871733863,0.2290589836846993,0.9160023454244582,0.2934010028839111,-0.5483953356742859,-0.7830570340156555,0,0,0,-1,-1,2745.454331125,unknown,2,2022-06-02T10:46:41.176+02:00,2022-06-02T10:17:13.754+02:00,448,1.423373,0,0,345.1212,0,0,2022-06-02T10:46:30.942+02:00,675852401.1757885,0,7.152344,101.2949,1,0.81
294,2022-06-02T10:46:43.558+02:00,1654159599.99975,53.22908366967196,10.398548202756,36.84694,0.0360264,0.6703551,16.0103749334074,73.34262548419477,2.400000095367432,7.999579855010837,-9999,2747.835622375,-1.049789428710938,-0.3609771728515625,-0.50201416015625,2747.825628375,0.3852142328136215,0.3709646218298855,0.5945074369711227,1.420369863510132,1.385815620422363,0.6537870168685913,-1.770424008369446,-0.0543248653411865,0.181649923324585,XArbitraryZVertical,0.2487950503141432,0.2281760045402715,0.2329014846391382,0.9120272091054754,0.3003159761428833,-0.560100793838501,-0.7720734477043152,0,0,0,-1,-1,2745.454331125,unknown,2,2022-06-02T10:46:41.176+02:00,2022-06-02T10:17:13.754+02:00,448,1.423373,0,0,345.1212,0,0,2022-06-02T10:46:30.942+02:00,675852401.1757885,0,7.152344,101.2949,1,0.81
295,2022-06-02T10:46:43.568+02:00,1654159599.99975,53.22908366967196,10.398548202756,36.84694,0.0360264,0.6703551,16.0103749334074,73.34262548419477,2.400000095367432,7.999579855010837,-9999,2747.845617375,-0.9642791748046876,-0.272918701171875,-0.4235992431640625,2747.835622375,0.3840472114464499,0.3847355873692116,0.6118332838045406,1.853017330169678,1.235985398292542,0.4574307799339294,-1.513758540153503,0.0852487087249755,0.2474026083946228,XArbitraryZVertical,0.2553862676690061,0.2353726394863618,0.2351480899200054,0.9077901780992592,0.3072307407855988,-0.5743691325187683,-0.7587551474571228,0,0,0,-1,-1,2745.454331125,unknown,2,2022-06-02T10:46:41.176+02:00,2022-06-02T10:17:13.754+02:00,448,1.423373,0,0,345.1212,0,0,2022-06-02T10:46:30.942+02:00,675852401.1757885,0,7.152344,101.2949,1,0.81
296,2022-06-02T10:46:43.578+02:00,1654159599.99975,53.22908366967196,10.398548202756,36.84694,0.0360264,0.6703551,16.0103749334074,73.34262548419477,2.400000095367432,7.999579855010837,-9999,2747.855611375,-0.9503021240234376,-0.25946044921875,-0.3911895751953125,2747.845617375,0.3793507343617091,0.398640659523362,0.6313377579861876,2.020904302597046,1.00455379486084,0.3398613631725311,-1.363131999969482,0.229248046875,0.2419284582138062,XArbitraryZVertical,0.2633613292490195,0.2422178570148665,0.2360438595388599,0.9034680631083866,0.3133425414562225,-0.5902251601219177,-0.7439426183700562,0,0,0,-1,-1,2745.454331125,unknown,2,2022-06-02T10:46:41.176+02:00,2022-06-02T10:17:13.754+02:00,448,1.423373,0,0,345.1212,0,0,2022-06-02T10:46:30.942+02:00,675852401.1757885,0,7.152344,101.2949,1,0.81
297,2022-06-02T10:46:43.588+02:00,1654159599.99975,53.22908366967196,10.398548202756,36.84694,0.0360264,0.6703551,16.0103749334074,73.34262548419477,2.400000095367432,7.999579855010837,-9999,2747.865606375,-0.98687744140625,-0.418975830078125,-0.41766357421875,2747.855611375,0.3733630259731031,0.4111748309340336,0.6499494322446742,1.757516980171204,0.8139417171478271,0.2073429971933365,-1.282475352287292,0.3322275280952454,0.3061605095863342,XArbitraryZVertical,0.2712250444878631,0.2481070680601661,0.2362277989118491,0.8994865805040648,0.318196177482605,-0.6051461696624756,-0.729759693145752,0,0,0,-1,-1,2745.454331125,unknown,2,2022-06-02T10:46:41.176+02:00,2022-06-02T10:17:13.754+02:00,448,1.423373,0,0,345.1212,0,0,2022-06-02T10:46:30.942+02:00,675852401.1757885,0,7.152344,101.2949,1,0.81
298,2022-06-02T10:46:43.598+02:00,1654159599.99975,53.22908366967196,10.398548202756,36.84694,0.0360264,0.6703551,16.0103749334074,73.34262548419477,2.400000095367432,7.999579855010837,-9999,2747.875600375,-0.965789794921875,-0.360107421875,-0.4598541259765625,2747.865606375,0.3658699494971986,0.4231909099375019,0.6650350836941402,1.464406847953796,0.6738629937171936,-0.039006121456623,-1.273458003997803,0.3576263785362244,0.3262881636619568,XArbitraryZVertical,0.2777049954946747,0.2532608919101653,0.2355282190241342,0.8962506521881083,0.3231557607650757,-0.6170867681503296,-0.7174777388572693,0,0,0,-1,-1,2745.454331125,unknown,2,2022-06-02T10:46:41.176+02:00,2022-06-02T10:17:13.754+02:00,448,1.423373,0,0,345.1212,0,0,2022-06-02T10:46:30.942+02:00,675852401.1757885,0,7.152344,101.2949,1,0.81
299,2022-06-02T10:46:43.607+02:00,1654159599.99975,53.22908366967196,10.398548202756,36.84694,0.0360264,0.6703551,16.0103749334074,73.34262548419477,2.400000095367432,7.999579855010837,-9999,2747.885595375,-1.0087890625,-0.315399169921875,-0.36700439453125,2747.875600375,0.3596393596397787,0.4331912974590221,0.6762087085062941,0.9387904405593872,0.5667629241943359,0.1192841902375221,-1.314277172088623,0.2068647146224976,0.2902440428733826,XArbitraryZVertical,0.2824654105472368,0.2574092262717039,0.234918959589786,0.8937375569691428,0.3273996114730835,-0.6258404850959778,-0.7079075574874878,0,0,0,-1,-1,2745.454331125,unknown,2,2022-06-02T10:46:41.176+02:00,2022-06-02T10:17:13.754+02:00,448,1.423373,0,0,345.1212,0,0,2022-06-02T10:46:30.942+02:00,675852401.1757885,0,7.152344,101.2949,1,0.81
300,2022-06-02T10:46:43.618+02:00,1654159599.99975,53.22908366967196,10.398548202756,36.84694,0.0360264,0.6703551,16.0103749334074,73.34262548419477,2.400000095367432,7.999579855010837,-9999,2747.895589375,-1.048446655273438,-0.322052001953125,-0.22900390625,2747.885595375,0.3586334013257286,0.4395854337057035,0.6827319762490848,0.310648113489151,0.6103490591049194,0.2559836506843567,-1.29596471786499,0.2708075642585754,0.2422361373901367,XArbitraryZVertical,0.2848391611800899,0.2604256398770359,0.2358422159080053,0.8918651897036296,0.3301749229431152,-0.6309149861335754,-0.7020902633666992,0,0,0,-1,-1,2745.454331125,unknown,2,2022-06-02T10:46:41.176+02:00,2022-06-02T10:17:13.754+02:00,448,1.423373,0,0,345.1212,0,0,2022-06-02T10:46:30.942+02:00,675852401.1757885,0,7.152344,101.2949,1,0.81
301,2022-06-02T10:46:43.628+02:00,1654159599.99975,53.22908366967196,10.398548202756,36.84694,0.0360264,0.6703551,16.0103749334074,73.34262548419477,2.400000095367432,7.999579855010837,-9999,2747.905584375,-1.0247802734375,-0.2906951904296875,-0.1668853759765625,2747.895589375,0.3618997831050545,0.4445412461079631,0.6834123154797939,-0.4102296233177185,0.7980917692184448,0.2597898542881012,-1.342254757881165,0.3160436153411865,0.3330532908439636,XArbitraryZVertical,0.2841366469609587,0.2631302726406277,0.2380520407994273,0.890707499568432,0.3334656059741974,-0.631442666053772,-0.7000576257705688,0,0,0,-1,-1,2745.454331125,unknown,2,2022-06-02T10:46:41.176+02:00,2022-06-02T10:17:13.754+02:00,448,1.423373,0,0,345.1212,0,0,2022-06-02T10:46:30.942+02:00,675852401.1757885,0,7.152344,101.2949,1,0.81
302,2022-06-02T10:46:43.638+02:00,1654159599.99975,53.22908366967196,10.398548202756,36.84694,0.0360264,0.6703551,16.0103749334074,73.34262548419477,2.400000095367432,7.999579855010837,-9999,2747.915578375,-0.9700775146484376,-0.260406494140625,-0.18756103515625,2747.905584375,0.3694624603582425,0.4485563639800836,0.6777828865279073,-1.104684591293335,0.9464582800865172,0.3200710713863373,-1.386256694793701,0.3050155639648438,0.4729012250900269,XArbitraryZVertical,0.2800731666653547,0.2657187872088195,0.2415744708836125,0.890277651597431,0.3378099501132965,-0.627067506313324,-0.7019050717353821,0,0,0,-1,-1,2745.454331125,unknown,2,2022-06-02T10:46:41.176+02:00,2022-06-02T10:17:13.754+02:00,448,1.423373,0,0,345.1212,0,0,2022-06-02T10:46:30.942+02:00,675852401.1757885,0,7.152344,101.2949,1,0.81
303,2022-06-02T10:46:43.647+02:00,1654159599.99975,53.22908366967196,10.398548202756,36.84694,0.0360264,0.6703551,16.0103749334074,73.34262548419477,2.400000095367432,7.999579855010837,-9999,2747.925573375,-0.91363525390625,-0.2152557373046875,-0.227630615234375,2747.915578375,0.3814555505779525,0.4510053916462498,0.6664619897326609,-1.737573981285095,1.0361407995224,0.391225665807724,-1.367380619049072,0.3275137543678284,0.5405343770980835,XArbitraryZVertical,0.2729790170298012,0.267904055856316,0.2464212261469944,0.8904978311986297,0.3426003158092499,-0.6182089447975159,-0.707419753074646,0,0,0,-1,-1,2745.454331125,unknown,2,2022-06-02T10:46:41.176+02:00,2022-06-02T10:17:13.754+02:00,448,1.423373,0,0,345.1212,0,0,2022-06-02T10:46:30.942+02:00,675852401.1757885,0,7.152344,101.2949,1,0.81
304,2022-06-02T10:46:43.660+02:00,1654159599.99975,53.22908366967196,10.398548202756,36.84694,0.0360264,0.6703551,16.0103749334074,73.34262548419477,2.400000095367432,7.999579855010837,-9999,2747.935567375,-0.8792572021484375,-0.0813446044921875,-0.2089996337890625,2747.925573375,0.3972232767426523,0.4519491206101498,0.6507688492937623,-2.154038667678833,1.081269264221191,0.4901939332485199,-1.317539811134338,0.3453918099403381,0.5281752347946167,XArbitraryZVertical,0.2635327320698077,0.2695966654467373,0.252418866163469,0.8911525379680237,0.3474622368812561,-0.6057983040809631,-0.7157362699508667,0,0,0,-1,-1,2745.454331125,unknown,2,2022-06-02T10:46:41.176+02:00,2022-06-02T10:17:13.754+02:00,448,1.423373,0,0,345.1212,0,0,2022-06-02T10:46:30.942+02:00,675852401.1757885,0,7.152344,101.2949,1,0.81
305,2022-06-02T10:46:43.667+02:00,1654159599.99975,53.22908366967196,10.398548202756,36.84694,0.0360264,0.6703551,16.0103749334074,73.34262548419477,2.400000095367432,7.999579855010837,-9999,2747.945562375,-0.8984375,0.0513763427734375,-0.2059173583984375,2747.935567375,0.4158308958998975,0.4518145041620343,0.6324764970971309,-2.424813032150269,1.113202214241028,0.5864024758338928,-1.265780925750732,0.3758883476257324,0.4980016350746155,XArbitraryZVertical,0.2526204940904104,0.2708630097530468,0.2593593387307204,0.8919354039013959,0.35214564204216,-0.5911440253257751,-0.7256322503089905,0,0,0,-1,-1,2745.454331125,unknown,2,2022-06-02T10:46:41.176+02:00,2022-06-02T10:17:13.754+02:00,448,1.423373,0,0,345.1212,0,0,2022-06-02T10:46:30.942+02:00,675852401.1757885,0,7.152344,101.2949,1,0.81
