,loggingTime(txt),locationTimestamp_since1970(s),locationLatitude(WGS84),locationLongitude(WGS84),locationAltitude(m),locationSpeed(m/s),locationSpeedAccuracy(m/s),locationCourse(°),locationCourseAccuracy(°),locationVerticalAccuracy(m),locationHorizontalAccuracy(m),locationFloor(Z),accelerometerTimestamp_sinceReboot(s),accelerometerAccelerationX(G),accelerometerAccelerationY(G),accelerometerAccelerationZ(G),motionTimestamp_sinceReboot(s),motionYaw(rad),motionRoll(rad),motionPitch(rad),motionRotationRateX(rad/s),motionRotationRateY(rad/s),motionRotationRateZ(rad/s),motionUserAccelerationX(G),motionUserAccelerationY(G),motionUserAccelerationZ(G),motionAttitudeReferenceFrame(txt),motionQuaternionX(R),motionQuaternionY(R),motionQuaternionZ(R),motionQuaternionW(R),motionGravityX(G),motionGravityY(G),motionGravityZ(G),motionMagneticFieldX(µT),motionMagneticFieldY(µT),motionMagneticFieldZ(µT),motionHeading(°),motionMagneticFieldCalibrationAccuracy(Z),activityTimestamp_sinceReboot(s),activity(txt),activityActivityConfidence(Z),activityActivityStartDate(txt),pedometerStartDate(txt),pedometerNumberofSteps(N),pedometerAverageActivePace(s/m),pedometerCurrentPace(s/m),pedometerCurrentCadence(steps/s),pedometerDistance(m),pedometerFloorAscended(N),pedometerFloorDescended(N),pedometerEndDate(txt),altimeterTimestamp_sinceReboot(s),altimeterReset(bool),altimeterRelativeAltitude(m),altimeterPressure(kPa),batteryState(N),batteryLevel(R)
227,2022-06-02T10:49:40.685+02:00,1654159779.999834,53.22908538343348,10.39853585255029,36.84985,0,20.0,-1,-1,2.400000095367432,7.999579855010835,-9999,2924.963563291667,1.360595703125,-0.55322265625,-0.9425811767578124,2924.953569291667,-2.888240833159694,0.8940954181909294,0.8686803083330428,2.429083347320557,5.566940307617188,-3.699773550033569,1.005405902862549,-0.0229148268699646,-0.9586608409881592,XArbitraryZVertical,0.4369622035650559,-0.3268720416510826,-0.7884625328013015,0.2838055348167451,0.5035204887390137,-0.7634773254394531,-0.404437392950058,0,0,0,-1,-1,2924.545361,unknown,2,2022-06-02T10:49:40.267+02:00,2022-06-02T10:17:13.754+02:00,467,1.474645,0,0,361.8512,0,0,2022-06-02T10:49:24.918+02:00,675852580.2668414,0,6.222656,101.3062,1,0.8
228,2022-06-02T10:49:40.695+02:00,1654159779.999834,53.22908538343348,10.39853585255029,36.84985,0,20.0,-1,-1,2.400000095367432,7.999579855010835,-9999,2924.973557291667,1.28289794921875,-0.3742523193359375,-0.5232696533203125,2924.963563291667,-2.953838762153221,1.005008521295488,0.8516887108245866,2.586950778961182,6.687874317169189,-4.040657997131348,0.8395964503288269,0.1188795566558838,-0.7894238233566284,XArbitraryZVertical,0.4706126844090601,-0.3193145593266944,-0.7759461080389927,0.2728911517616602,0.5560639500617981,-0.7523938417434692,-0.353123813867569,0,0,0,-1,-1,2924.545361,unknown,2,2022-06-02T10:49:40.267+02:00,2022-06-02T10:17:13.754+02:00,467,1.474645,0,0,361.8512,0,0,2022-06-02T10:49:24.918+02:00,675852580.2668414,0,6.222656,101.3062,1,0.8
229,2022-06-02T10:49:40.705+02:00,1654159779.999834,53.22908538343348,10.39853585255029,36.84985,0,20.0,-1,-1,2.400000095367432,7.999579855010835,-9999,2924.983552291667,1.122467041015625,-0.1767730712890625,0.011749267578125,2924.973557291667,-3.01828842763148,1.125275813374256,0.8273288454624158,2.569428205490112,7.778675079345703,-4.390885353088379,0.7270084619522095,0.2687494158744812,-0.4449471235275269,XArbitraryZVertical,0.5084482903075844,-0.3092649781262565,-0.7598244673750673,0.2617295148004251,0.610775351524353,-0.7361260652542114,-0.2916710078716278,0,0,0,-1,-1,2924.545361,unknown,2,2022-06-02T10:49:40.267+02:00,2022-06-02T10:17:13.754+02:00,467,1.474645,0,0,361.8512,0,0,2022-06-02T10:49:24.918+02:00,675852580.2668414,0,6.222656,101.3062,1,0.8
230,2022-06-02T10:49:40.715+02:00,1654159779.999834,53.22908538343348,10.39853585255029,36.84985,0,20.0,-1,-1,2.400000095367432,7.999579855010835,-9999,2924.993546291667,1.157501220703125,-0.0196075439453125,0.572601318359375,2924.983552291667,-3.075230928812915,1.249635795551756,0.7939651750765696,2.192032337188721,8.857251167297363,-4.726231098175049,0.5249449014663696,0.4400978684425354,-0.0521317720413208,XArbitraryZVertical,0.5495654651637867,-0.2955207794243839,-0.7400796049758791,0.2508534149164446,0.6651796102523804,-0.7131385803222656,-0.2212905436754227,0,0,0,-1,-1,2924.545361,unknown,2,2022-06-02T10:49:40.267+02:00,2022-06-02T10:17:13.754+02:00,467,1.474645,0,0,361.8512,0,0,2022-06-02T10:49:24.918+02:00,675852580.2668414,0,6.222656,101.3062,1,0.8
231,2022-06-02T10:49:40.725+02:00,1654159779.999834,53.22908538343348,10.39853585255029,36.84985,0,20.0,-1,-1,2.400000095367432,7.999579855010835,-9999,2925.003540291667,1.20062255859375,0.1585235595703125,1.168228149414062,2924.993546291667,-3.117059886719811,1.372930365116975,0.7513948904508427,1.377553582191467,9.98173999786377,-5.044785499572754,0.406613290309906,0.5862690210342407,0.4422913789749146,XArbitraryZVertical,0.5930370810495547,-0.2765570730846233,-0.7166349408748407,0.2413658505350862,0.7164793014526367,-0.6826587319374084,-0.1436464190483093,0,0,0,-1,-1,2924.545361,unknown,2,2022-06-02T10:49:40.267+02:00,2022-06-02T10:17:13.754+02:00,467,1.474645,0,0,361.8512,0,0,2022-06-02T10:49:24.918+02:00,675852580.2668414,0,6.222656,101.3062,1,0.8
232,2022-06-02T10:49:40.735+02:00,1654159779.999834,53.22908538343348,10.39853585255029,36.84985,0,20.0,-1,-1,2.400000095367432,7.999579855010835,-9999,2925.013534291667,1.302276611328125,0.34503173828125,1.852096557617188,2925.003540291667,-3.136194102789674,1.491080169012207,0.701236046581025,0.0264149960130453,11.11594009399414,-5.276464939117432,0.420174241065979,0.709539532661438,0.9161278009414672,XArbitraryZVertical,0.6377760580121175,-0.250640318099378,-0.6893900812458765,0.2348666692380159,0.7616188526153564,-0.6451625823974609,-0.0608422607183456,0,0,0,-1,-1,2924.545361,unknown,2,2022-06-02T10:49:40.267+02:00,2022-06-02T10:17:13.754+02:00,467,1.474645,0,0,361.8512,0,0,2022-06-02T10:49:24.918+02:00,675852580.2668414,0,6.222656,101.3062,1,0.8
233,2022-06-02T10:49:40.745+02:00,1654159779.999834,53.22908538343348,10.39853585255029,36.84985,0,20.0,-1,-1,2.400000095367432,7.999579855010835,-9999,2925.023529291667,1.369094848632812,0.5538330078125,2.53118896484375,2925.013534291667,-3.126928880761989,1.602294429412962,0.6480678288997391,-1.780763149261475,12.30344295501709,-5.296785354614258,0.443225622177124,0.8486575484275818,1.480263233184814,XArbitraryZVertical,0.6823873958498915,-0.2165671342309989,-0.6579745044837819,0.2334859957771507,0.7968562245368958,-0.6036471128463745,0.0251077637076377,0,0,0,-1,-1,2924.545361,unknown,2,2022-06-02T10:49:40.267+02:00,2022-06-02T10:17:13.754+02:00,467,1.474645,0,0,361.8512,0,0,2022-06-02T10:49:24.918+02:00,675852580.2668414,0,6.222656,101.3062,1,0.8
234,2022-06-02T10:49:40.755+02:00,1654159779.999834,53.22908538343348,10.39853585255029,36.84985,0,20.0,-1,-1,2.400000095367432,7.999579855010835,-9999,2925.033523291667,1.287872314453125,0.605377197265625,3.31884765625,2925.023529291667,-3.086379678005167,1.708176289006211,0.5987405257797642,-4.020129203796387,13.68765640258789,-5.102425098419189,0.5439194440841675,1.03366482257843,2.080508470535278,XArbitraryZVertical,0.7255104695067399,-0.1737738061339693,-0.6213116853424657,0.239601741668948,0.8182632327079773,-0.5636025071144104,0.1131255552172661,0,0,0,-1,-1,2924.545361,unknown,2,2022-06-02T10:49:40.267+02:00,2022-06-02T10:17:13.754+02:00,467,1.474645,0,0,361.8512,0,0,2022-06-02T10:49:24.918+02:00,675852580.2668414,0,6.222656,101.3062,1,0.8
235,2022-06-02T10:49:40.765+02:00,1654159779.999834,53.22908538343348,10.39853585255029,36.84985,0,20.0,-1,-1,2.400000095367432,7.999579855010835,-9999,2925.043517291667,1.26287841796875,0.4866180419921875,4.085311889648438,2925.033523291667,-3.012731656847884,1.812545018995119,0.5613946577406861,-6.712672710418701,15.27462387084961,-4.549562454223633,0.5062274932861328,1.127887368202209,2.699748754501343,XArbitraryZVertical,0.765831126218087,-0.1217813832023933,-0.5772782575783962,0.2557768997801877,0.821897566318512,-0.5323672890663147,0.2026560455560684,0,0,0,-1,-1,2924.545361,unknown,2,2022-06-02T10:49:40.267+02:00,2022-06-02T10:17:13.754+02:00,467,1.474645,0,0,361.8512,0,0,2022-06-02T10:49:24.918+02:00,675852580.2668414,0,6.222656,101.3062,1,0.8
236,2022-06-02T10:49:40.776+02:00,1654159779.999834,53.22908538343348,10.39853585255029,36.84985,0,20.0,-1,-1,2.400000095367432,7.999579855010835,-9999,2925.053511291667,1.138412475585938,0.3858184814453125,4.874160766601562,2925.043517291667,-2.913898929736287,1.9202108405832,0.5437443486530193,-8.175891876220703,16.65552711486816,-3.683953285217285,0.4500693678855896,1.054590702056885,3.424555778503418,XArbitraryZVertical,0.8015451990044805,-0.0633408107518411,-0.523803477071788,0.281323914797949,0.8040657639503479,-0.5173439383506775,0.292973518371582,0,0,0,-1,-1,2924.545361,unknown,2,2022-06-02T10:49:40.267+02:00,2022-06-02T10:17:13.754+02:00,467,1.474645,0,0,361.8512,0,0,2022-06-02T10:49:24.918+02:00,675852580.2668414,0,6.222656,101.3062,1,0.8
237,2022-06-02T10:49:40.786+02:00,1654159779.999834,53.22908538343348,10.39853585255029,36.84985,0,20.0,-1,-1,2.400000095367432,7.999579855010835,-9999,2925.063506291667,1.126754760742188,-0.705902099609375,5.484588623046875,2925.053511291667,-2.805880480312524,2.038145883335962,0.5487995249602036,-9.291397094726562,18.06748580932617,-2.719114303588867,0.478204071521759,1.01925253868103,4.097906112670898,XArbitraryZVertical,0.8319688061149003,-0.0030771446780923,-0.458901244951523,0.3118140988420398,0.7616640329360962,-0.5216634273529053,0.3843631148338318,0,0,0,-1,-1,2924.545361,unknown,2,2022-06-02T10:49:40.267+02:00,2022-06-02T10:17:13.754+02:00,467,1.474645,0,0,361.8512,0,0,2022-06-02T10:49:24.918+02:00,675852580.2668414,0,6.222656,101.3062,1,0.8
238,2022-06-02T10:49:40.796+02:00,1654159779.999834,53.22908538343348,10.39853585255029,36.84985,0,20.0,-1,-1,2.400000095367432,7.999579855010835,-9999,2925.073500291667,1.103713989257812,-1.544113159179688,5.963272094726562,2925.063506291667,-2.692045604558148,2.163295488041612,0.5803763254359711,-10.57724475860596,19.04118919372559,-1.585939526557922,0.4018207192420959,0.488234281539917,4.723189830780029,XArbitraryZVertical,0.8545152897004934,0.0574581603820336,-0.3826072441195212,0.3465745458747385,0.6937145590782166,-0.5483386516571045,0.4669956266880035,0,0,0,-1,-1,2924.545361,unknown,2,2022-06-02T10:49:40.267+02:00,2022-06-02T10:17:13.754+02:00,467,1.474645,0,0,361.8512,0,0,2022-06-02T10:49:24.918+02:00,675852580.2668414,0,6.222656,101.3062,1,0.8
239,2022-06-02T10:49:40.806+02:00,1654159779.999834,53.22908538343348,10.39853585255029,36.84985,0,20.0,-1,-1,2.400000095367432,7.999579855010835,-9999,2925.083494291667,0.7934722900390625,-1.559005737304688,6.724456787109375,2925.073500291667,-2.581383013173673,2.292528298631346,0.6359687005855541,-10.39754772186279,19.49515914916992,-0.7373446226119995,0.5326911807060242,-0.6815250515937805,5.198323726654053,XArbitraryZVertical,0.8674177654311864,0.1155257322001343,-0.2972349205556181,0.3819576329984045,0.6039055585861206,-0.5939571261405945,0.5315195322036743,0,0,0,-1,-1,2924.545361,unknown,2,2022-06-02T10:49:40.267+02:00,2022-06-02T10:17:13.754+02:00,467,1.474645,0,0,361.8512,0,0,2022-06-02T10:49:24.918+02:00,675852580.2668414,0,6.222656,101.3062,1,0.8
240,2022-06-02T10:49:40.815+02:00,1654159779.999834,53.22908538343348,10.39853585255029,36.84985,0,20.0,-1,-1,2.400000095367432,7.999579855010835,-9999,2925.093488291667,0.46649169921875,-2.32403564453125,7.84002685546875,2925.083494291667,-2.488669876976735,2.43195566336284,0.6987048196554126,-8.686149597167969,19.81793022155762,-0.9376990795135498,0.467761754989624,-0.8981857299804688,5.727814197540283,XArbitraryZVertical,0.8726678371162393,0.169914864265112,-0.2062605094699985,0.4087007456977433,0.4988825023174286,-0.6432265639305115,0.5808404088020325,0,0,0,-1,-1,2924.545361,unknown,2,2022-06-02T10:49:40.267+02:00,2022-06-02T10:17:13.754+02:00,467,1.474645,0,0,361.8512,0,0,2022-06-02T10:49:24.918+02:00,675852580.2668414,0,6.222656,101.3062,1,0.8
241,2022-06-02T10:49:40.826+02:00,1654159779.999834,53.22908538343348,10.39853585255029,36.84985,0,20.0,-1,-1,2.400000095367432,7.999579855010835,-9999,2925.103483291667,-0.02166748046875,-3.209854125976562,9.790740966796877,2925.093488291667,-2.410392895232516,2.577407942828663,0.7507095851665029,-6.555881500244141,19.62575149536133,-2.427181482315063,0.243709534406662,-1.142594814300537,6.599795341491699,XArbitraryZVertical,0.8710294328704455,0.2241669806348575,-0.1159852217497492,0.4214311653268114,0.3909949958324432,-0.6821577548980713,0.6178862452507019,0,0,0,-1,-1,2924.545361,unknown,2,2022-06-02T10:49:40.267+02:00,2022-06-02T10:17:13.754+02:00,467,1.474645,0,0,361.8512,0,0,2022-06-02T10:49:24.918+02:00,675852580.2668414,0,6.222656,101.3062,1,0.8
242,2022-06-02T10:49:40.836+02:00,1654159779.999834,53.22908538343348,10.39853585255029,36.84985,0,20.0,-1,-1,2.400000095367432,7.999579855010835,-9999,2925.113477291667,-0.0915069580078125,-3.338577270507812,12.37393188476562,2925.103483291667,-2.32490969363155,2.709837887727203,0.7796432393632612,-4.396958827972412,18.58037567138672,-5.876316070556641,-0.0922904312610626,-2.140769958496094,8.04106330871582,XArbitraryZVertical,0.8615452732061191,0.2840615915936363,-0.0344437132122708,0.4193592855458217,0.2975973784923553,-0.703025758266449,0.6459025144577026,0,0,0,-1,-1,2924.545361,unknown,2,2022-06-02T10:49:40.267+02:00,2022-06-02T10:17:13.754+02:00,467,1.474645,0,0,361.8512,0,0,2022-06-02T10:49:24.918+02:00,675852580.2668414,0,6.222656,101.3062,1,0.8
243,2022-06-02T10:49:40.846+02:00,1654159779.999834,53.22908538343348,10.39853585255029,36.84985,0,20.0,-1,-1,2.400000095367432,7.999579855010835,-9999,2925.123471291667,-0.5557403564453125,-2.25323486328125,14.68887329101562,2925.113477291667,-2.193835822459866,2.791610538021844,0.7839946429978764,-3.660692930221558,16.00721168518066,-11.18332386016846,-0.2999681830406189,-2.656389236450195,10.3807258605957,XArbitraryZVertical,0.8401053163833915,0.3561028914133156,0.0285118094043864,0.4081674983810865,0.2427934110164642,-0.7061136364936829,0.6651723980903625,0,0,0,-1,-1,2924.545361,unknown,2,2022-06-02T10:49:40.267+02:00,2022-06-02T10:17:13.754+02:00,467,1.474645,0,0,361.8512,0,0,2022-06-02T10:49:24.918+02:00,675852580.2668414,0,6.222656,101.3062,1,0.8
244,2022-06-02T10:49:40.856+02:00,1654159779.999834,53.22908538343348,10.39853585255029,36.84985,0,20.0,-1,-1,2.400000095367432,7.999579855010835,-9999,2925.133466291667,-2.360763549804688,0.1392822265625,16.68887329101562,2925.123471291667,-1.983489481940631,2.782296899274443,0.7797463898669366,-6.144919395446777,11.54581737518311,-17.24525833129883,-0.4999389946460724,-2.331141471862793,12.95012950897217,XArbitraryZVertical,0.7988772236669487,0.4411773306085062,0.0663077195548706,0.403436321119472,0.2500304579734802,-0.7030990719795227,0.6656845211982727,0,0,0,-1,-1,2924.545361,unknown,2,2022-06-02T10:49:40.267+02:00,2022-06-02T10:17:13.754+02:00,467,1.474645,0,0,361.8512,0,0,2022-06-02T10:49:24.918+02:00,675852580.2668414,0,6.222656,101.3062,1,0.8
245,2022-06-02T10:49:40.866+02:00,1654159779.999834,53.22908538343348,10.39853585255029,36.84985,0,20.0,-1,-1,2.400000095367432,7.999579855010835,-9999,2925.143460291667,-5.29974365234375,3.130172729492188,17.69952392578125,2925.133466291667,-1.675534356567777,2.647013675430165,0.7712466252814952,-10.30696201324463,4.108002185821533,-23.49382400512695,-1.591954231262207,-0.394156813621521,15.05320835113525,XArbitraryZVertical,0.7292360643946411,0.532704223483578,0.0754780746141074,0.4227812603593252,0.3403520584106445,-0.6970296502113342,0.6311180591583252,0,0,0,-1,-1,2924.545361,unknown,2,2022-06-02T10:49:40.267+02:00,2022-06-02T10:17:13.754+02:00,467,1.474645,0,0,361.8512,0,0,2022-06-02T10:49:24.918+02:00,675852580.2668414,0,6.222656,101.3062,1,0.8
246,2022-06-02T10:49:40.876+02:00,1654159779.999834,53.22908538343348,10.39853585255029,36.84985,0,20.0,-1,-1,2.400000095367432,7.999579855010835,-9999,2925.153454291667,-10.72282409667969,5.512542724609375,15.08070373535156,2925.143460291667,-1.290624151853417,2.382831318151596,0.7231974464390463,-14.83634090423584,-4.287889003753662,-27.58131217956543,-4.190550327301025,2.150783538818359,16.95966339111328,XArbitraryZVertical,0.6272238949507084,0.6153147896362261,0.0541953720678278,0.4743846118032913,0.5158064961433411,-0.6617851853370667,0.5440441966056824,0,0,0,-1,-1,2924.545361,unknown,2,2022-06-02T10:49:40.267+02:00,2022-06-02T10:17:13.754+02:00,467,1.474645,0,0,361.8512,0,0,2022-06-02T10:49:24.918+02:00,675852580.2668414,0,6.222656,101.3062,1,0.8
247,2022-06-02T10:49:40.886+02:00,1654159779.999834,53.22908538343348,10.39853585255029,36.84985,0,20.0,-1,-1,2.400000095367432,7.999579855010835,-9999,2925.163448291667,-17.24748229980469,5.692169189453125,12.90338134765625,2925.153454291667,-0.9074041318620014,2.061426845536299,0.5846535393712619,-15.82776260375977,-13.06582450866699,-31.33761215209961,-8.309202194213867,5.206100463867188,16.42400360107422,XArbitraryZVertical,0.4931569574394661,0.6732431731345924,0.0063441757220883,0.5509079275835816,0.7355326414108276,-0.5519105195999146,0.3929203152656555,0,0,0,-1,-1,2924.545361,unknown,2,2022-06-02T10:49:40.267+02:00,2022-06-02T10:17:13.754+02:00,467,1.474645,0,0,361.8512,0,0,2022-06-02T10:49:24.918+02:00,675852580.2668414,0,6.222656,101.3062,1,0.8
248,2022-06-02T10:49:40.896+02:00,1654159779.999834,53.22908538343348,10.39853585255029,36.84985,0,20.0,-1,-1,2.400000095367432,7.999579855010835,-9999,2925.173443291667,-28.68190002441406,5.928207397460938,13.75212097167969,2925.163448291667,-0.6391642559100331,1.769602639990783,0.3223916387707095,-12.108229637146,-20.58158874511719,-34.10862350463867,-14.93526077270508,5.991884708404541,13.24364471435547,XArbitraryZVertical,0.336468772192374,0.693145624080911,-0.0785249752734403,0.6325912063701276,0.9297980666160583,-0.316835880279541,0.1873241811990738,0,0,0,-1,-1,2924.545361,unknown,2,2022-06-02T10:49:40.267+02:00,2022-06-02T10:17:13.754+02:00,467,1.474645,0,0,361.8512,0,0,2022-06-02T10:49:24.918+02:00,675852580.2668414,0,6.222656,101.3062,1,0.8
249,2022-06-02T10:49:40.906+02:00,1654159779.999834,53.22908538343348,10.39853585255029,36.84985,0,20.0,-1,-1,2.400000095367432,7.999579855010835,-9999,2925.183437291667,-32.02313232421875,9.250167846679688,11.31733703613281,2925.173443291667,-0.5287971335769979,1.508904738426973,-0.012578389767166,-3.362533092498779,-28.30887985229492,-33.80789566040039,-23.03371238708496,5.748042106628418,13.58871746063232,XArbitraryZVertical,0.1745545425661949,0.6622742014074968,-0.1945702884259019,0.7021865575069434,0.9980063438415528,0.0125780580565333,-0.0618471875786781,0,0,0,-1,-1,2924.545361,unknown,2,2022-06-02T10:49:40.267+02:00,2022-06-02T10:17:13.754+02:00,467,1.474645,0,0,361.8512,0,0,2022-06-02T10:49:24.918+02:00,675852580.2668414,0,6.222656,101.3062,1,0.8
250,2022-06-02T10:49:40.916+02:00,1654159779.999834,53.22908538343348,10.39853585255029,36.84985,0,20.0,-1,-1,2.400000095367432,7.999579855010835,-9999,2925.193431291667,-31.95101928710938,17.14425659179688,19.88119506835938,2925.183437291667,-0.6757846113004912,1.144891263444809,-0.3133151853483424,18.36244964599609,-35.15471649169922,-32.39186477661133,-32.91403198242188,6.37946891784668,12.76499557495117,XArbitraryZVertical,0.0536411977142932,0.5482760561558976,-0.3549733335330848,0.7553209618715977,0.866331160068512,0.3082141280174255,-0.3930319845676422,0,0,0,-1,-1,2924.545361,unknown,2,2022-06-02T10:49:40.267+02:00,2022-06-02T10:17:13.754+02:00,467,1.474645,0,0,361.8512,0,0,2022-06-02T10:49:24.918+02:00,675852580.2668414,0,6.222656,101.3062,1,0.8
251,2022-06-02T10:49:40.925+02:00,1654159779.999834,53.22908538343348,10.39853585255029,36.84985,0,20.0,-1,-1,2.400000095367432,7.999579855010835,-9999,2925.203426291667,-30.98941040039062,26.34771728515625,25.64015197753906,2925.193431291667,-1.092891927812455,0.6441624159282867,-0.3624179889694089,35.05077743530273,-35.16801071166992,-24.43194389343262,-32.5460319519043,13.16708564758301,15.42539691925049,XArbitraryZVertical,0.0157414864711089,0.354853330420918,-0.5336011489312944,0.7675291727647284,0.5615199208259583,0.3545361757278442,-0.7476626634597778,0,0,0,-1,-1,2924.545361,unknown,2,2022-06-02T10:49:40.267+02:00,2022-06-02T10:17:13.754+02:00,467,1.474645,0,0,361.8512,0,0,2022-06-02T10:49:24.918+02:00,675852580.2668414,0,6.222656,101.3062,1,0.8
252,2022-06-02T10:49:40.936+02:00,1654159779.999834,53.22908538343348,10.39853585255029,36.84985,0,20.0,-1,-1,2.400000095367432,7.999579855010835,-9999,2925.213420291667,-24.733642578125,-8.325057983398438,28.2529296875,2925.203426291667,-1.435737057001795,0.2066389988804202,-0.1265222958391161,35.39813995361328,-33.43502426147461,-19.49229431152344,-32.25814437866211,21.50377464294434,23.98327827453613,XArbitraryZVertical,0.0203418263908173,0.1188899090929023,-0.6578752389015323,0.7434054197308336,0.2035315781831741,0.1261849999427795,-0.9709028005599976,0,0,0,-1,-1,2924.545361,unknown,2,2022-06-02T10:49:40.267+02:00,2022-06-02T10:17:13.754+02:00,467,1.474645,0,0,361.8512,0,0,2022-06-02T10:49:24.918+02:00,675852580.2668414,0,6.222656,101.3062,1,0.8
253,2022-06-02T10:49:40.946+02:00,1654159779.999834,53.22908538343348,10.39853585255029,36.84985,0,20.0,-1,-1,2.400000095367432,7.999579855010835,-9999,2925.223414291667,-23.08076477050781,-31.873779296875,2.966384887695312,2925.213420291667,-1.533116361207497,-0.0347049835278272,0.214297748345517,35.05758285522461,-15.56658744812012,10.02101230621338,-26.0150146484375,18.787353515625,30.87679100036621,XArbitraryZVertical,0.0650532923401486,-0.0865983459156177,-0.6909148933302477,0.7147764183327773,-0.0339043326675891,-0.2126612961292267,-0.976537585258484,0,0,0,-1,-1,2924.545361,unknown,2,2022-06-02T10:49:40.267+02:00,2022-06-02T10:17:13.754+02:00,467,1.474645,0,0,361.8512,0,0,2022-06-02T10:49:24.918+02:00,675852580.2668414,0,6.222656,101.3062,1,0.8
254,2022-06-02T10:49:40.955+02:00,1654159779.999834,53.22908538343348,10.39853585255029,36.84985,0,20.0,-1,-1,2.400000095367432,7.999579855010835,-9999,2925.233408291667,-6.383956909179688,-10.77239990234375,-2.848922729492188,2925.223414291667,-1.318538766122116,-0.1594976327117998,0.4070317850272461,6.450724124908447,3.630637168884277,20.77773857116699,-27.50204086303711,-30.53140640258789,17.34815788269043,XArbitraryZVertical,0.1114607002817482,-0.1850795597048656,-0.6107183858903864,0.7618038642012589,-0.1458464562892914,-0.3958853781223297,-0.9066441655158995,0,0,0,-1,-1,2924.545361,unknown,2,2022-06-02T10:49:40.267+02:00,2022-06-02T10:17:13.754+02:00,467,1.474645,0,0,361.8512,0,0,2022-06-02T10:49:24.918+02:00,675852580.2668414,0,6.222656,101.3062,1,0.8
255,2022-06-02T10:49:40.966+02:00,1654159779.999834,53.22908538343348,10.39853585255029,36.84985,0,20.0,-1,-1,2.400000095367432,7.999579855010835,-9999,2925.243403291667,-4.639617919921875,-1.9739990234375,-4.040252685546875,2925.233408291667,-1.125489754073556,-0.2202342410785653,0.3365889081634276,-11.79705905914307,-2.718133449554443,17.49284934997559,-12.79524993896484,-21.29267120361328,-1.775826334953308,XArbitraryZVertical,0.0830117861612235,-0.1804573671180447,-0.5383555934835548,0.8189732797242124,-0.2061998099088669,-0.3302693367004395,-0.9210883378982544,0,0,0,-1,-1,2924.545361,unknown,2,2022-06-02T10:49:40.267+02:00,2022-06-02T10:17:13.754+02:00,467,1.474645,0,0,361.8512,0,0,2022-06-02T10:49:24.918+02:00,675852580.2668414,0,6.222656,101.3062,1,0.8
256,2022-06-02T10:49:40.976+02:00,1654159779.999834,53.22908538343348,10.39853585255029,36.84985,0,20.0,-1,-1,2.400000095367432,7.999579855010835,-9999,2925.253397291667,-9.8917236328125,0.3983917236328125,-0.11175537109375,2925.243403291667,-0.9952056499428288,-0.3118407317390483,0.1797083750444908,-9.716670036315918,-8.434499740600586,16.19245147705078,-4.273508071899414,-4.801985740661621,-2.654896259307861,XArbitraryZVertical,0.0040709775631211,-0.178218807852317,-0.4818726494383412,0.8579160774747275,-0.3018701672554016,-0.1787426471710205,-0.9364429712295532,0,0,0,-1,-1,2924.545361,unknown,2,2022-06-02T10:49:40.267+02:00,2022-06-02T10:17:13.754+02:00,467,1.474645,0,0,361.8512,0,0,2022-06-02T10:49:24.918+02:00,675852580.2668414,0,6.222656,101.3062,1,0.8
257,2022-06-02T10:49:40.986+02:00,1654159779.999834,53.22908538343348,10.39853585255029,36.84985,0,20.0,-1,-1,2.400000095367432,7.999579855010835,-9999,2925.263391291667,-8.425338745117188,-0.169830322265625,1.644515991210938,2925.253397291667,-0.8699732984987145,-0.3826924192531488,0.0602976111133451,-5.205883026123047,-1.715862989425659,14.55923080444336,-6.447709083557129,-0.1242024302482605,-1.924426078796387,XArbitraryZVertical,-0.0532672479435607,-0.1848627674511979,-0.4187183655496814,0.8875040098089845,-0.3727408349514008,-0.0602610781788826,-0.9259766936302184,0,0,0,-1,-1,2924.545361,unknown,2,2022-06-02T10:49:40.267+02:00,2022-06-02T10:17:13.754+02:00,467,1.474645,0,0,361.8512,0,0,2022-06-02T10:49:24.918+02:00,675852580.2668414,0,6.222656,101.3062,1,0.8
258,2022-06-02T10:49:40.996+02:00,1654159779.999834,53.22908538343348,10.39853585255029,36.84985,0,20.0,-1,-1,2.400000095367432,7.999579855010835,-9999,2925.273386291667,-2.95330810546875,-0.2334747314453125,1.49090576171875,2925.263391291667,-0.7634405668778426,-0.3683103725680704,-0.0270845386522981,-2.858292818069458,3.76240611076355,12.10720729827881,-10.41505527496338,0.3998138904571533,2.940086841583252,XArbitraryZVertical,-0.0805623915032342,-0.1649614701204274,-0.3638838914638015,0.9131734299058608,-0.3599075675010681,0.0270812269300222,-0.9325948357582092,0,0,0,-1,-1,2924.545361,unknown,2,2022-06-02T10:49:40.267+02:00,2022-06-02T10:17:13.754+02:00,467,1.474645,0,0,361.8512,0,0,2022-06-02T10:49:24.918+02:00,675852580.2668414,0,6.222656,101.3062,1,0.8
259,2022-06-02T10:49:41.006+02:00,1654159779.999834,53.22908538343348,10.39853585255029,36.84985,0,20.0,-1,-1,2.400000095367432,7.999579855010835,-9999,2925.283380291667,-4.533645629882812,2.61224365234375,1.382369995117188,2925.273386291667,-0.6605742437555879,-0.3494354799004792,-0.0756123990740094,0.5690525770187378,-1.530431032180786,10.30083656311035,-4.587138652801514,-1.075738787651062,1.918830394744873,XArbitraryZVertical,-0.0915452827181462,-0.1522454724175197,-0.3129337824505142,0.9330129784401904,-0.3413892388343811,0.0755403712391853,-0.9368815422058104,0,0,0,-1,-1,2924.545361,unknown,2,2022-06-02T10:49:40.267+02:00,2022-06-02T10:17:13.754+02:00,467,1.474645,0,0,361.8512,0,0,2022-06-02T10:49:24.918+02:00,675852580.2668414,0,6.222656,101.3062,1,0.8
260,2022-06-02T10:49:41.016+02:00,1654159779.999834,53.22908538343348,10.39853585255029,36.84985,0,20.0,-1,-1,2.400000095367432,7.999579855010835,-9999,2925.293374291667,-4.921310424804688,-0.4635467529296875,1.545989990234375,2925.283380291667,-0.5687275122123105,-0.3739122161452889,-0.0782215800237335,5.198145389556885,-4.622888088226318,7.227231025695801,-3.011314392089844,1.759504556655884,2.669514179229736,XArbitraryZVertical,-0.0889816085728641,-0.1674895850598356,-0.2684715925597903,0.9444323969449956,-0.3641432523727417,0.078141838312149,-0.9280590415000916,0,0,0,-1,-1,2924.545361,unknown,2,2022-06-02T10:49:40.267+02:00,2022-06-02T10:17:13.754+02:00,467,1.474645,0,0,361.8512,0,0,2022-06-02T10:49:24.918+02:00,675852580.2668414,0,6.222656,101.3062,1,0.8
261,2022-06-02T10:49:41.025+02:00,1654159779.999834,53.22908538343348,10.39853585255029,36.84985,0,20.0,-1,-1,2.400000095367432,7.999579855010835,-9999,2925.303368291667,-5.3294677734375,0.7034149169921875,2.086044311523438,2925.293374291667,-0.485866013677187,-0.4300750473461964,-0.0509086848197944,5.782052040100098,-7.69050121307373,6.040898323059082,-4.599836349487305,1.198045134544373,2.150325775146484,XArbitraryZVertical,-0.0754483029705841,-0.201069930569679,-0.2296626534978709,0.9492804984258348,-0.4163988530635834,0.0508866980671882,-0.9077568650245668,0,0,0,-1,-1,2924.545361,unknown,2,2022-06-02T10:49:40.267+02:00,2022-06-02T10:17:13.754+02:00,467,1.474645,0,0,361.8512,0,0,2022-06-02T10:49:24.918+02:00,675852580.2668414,0,6.222656,101.3062,1,0.8
262,2022-06-02T10:49:41.036+02:00,1654159779.999834,53.22908538343348,10.39853585255029,36.84985,0,20.0,-1,-1,2.400000095367432,7.999579855010835,-9999,2925.313363291667,-5.798004150390625,1.143341064453125,1.97027587890625,2925.303368291667,-0.4073526798644173,-0.5098465177809604,-0.022660517110923,6.63796329498291,-8.473162651062012,5.410536289215088,-4.466214179992676,-0.4783165752887726,2.785955905914307,XArbitraryZVertical,-0.0617408812212583,-0.2447251455996211,-0.1929235677146042,0.9481973036575588,-0.4879179894924164,0.0226585771888494,-0.8725953102111816,0,0,0,-1,-1,2924.545361,unknown,2,2022-06-02T10:49:40.267+02:00,2022-06-02T10:17:13.754+02:00,467,1.474645,0,0,361.8512,0,0,2022-06-02T10:49:24.918+02:00,675852580.2668414,0,6.222656,101.3062,1,0.8
263,2022-06-02T10:49:41.045+02:00,1654159779.999834,53.22908538343348,10.39853585255029,36.84985,0,20.0,-1,-1,2.400000095367432,7.999579855010835,-9999,2925.323357291667,-5.713623046875,0.947845458984375,1.431182861328125,2925.313363291667,-0.3219785446628256,-0.5922781069764097,0.0111152433866782,7.981657981872559,-8.205268859863281,5.716174125671387,-5.160440444946289,1.334402918815613,2.914901256561279,XArbitraryZVertical,-0.0415310901977024,-0.2889035569121224,-0.1549157272842375,0.9438277972678052,-0.5582180619239807,-0.01111501455307,-0.829619824886322,0,0,0,-1,-1,2924.545361,unknown,2,2022-06-02T10:49:40.267+02:00,2022-06-02T10:17:13.754+02:00,467,1.474645,0,0,361.8512,0,0,2022-06-02T10:49:24.918+02:00,675852580.2668414,0,6.222656,101.3062,1,0.8
264,2022-06-02T10:49:41.056+02:00,1654159779.999834,53.22908538343348,10.39853585255029,36.84985,0,20.0,-1,-1,2.400000095367432,7.999579855010835,-9999,2925.333351291667,-5.8258056640625,0.660430908203125,0.86859130859375,2925.323357291667,-0.2243255305169777,-0.6758781136807838,0.0443771788007994,8.922350883483887,-7.868370532989502,6.014050960540771,-5.082797050476074,0.951787531375885,2.524476528167725,XArbitraryZVertical,-0.0162994215677606,-0.3317218989941616,-0.1128807692738382,0.936457514954514,-0.6249667406082153,-0.0443626157939434,-0.7793897986412048,0,0,0,-1,-1,2924.545361,unknown,2,2022-06-02T10:49:40.267+02:00,2022-06-02T10:17:13.754+02:00,467,1.474645,0,0,361.8512,0,0,2022-06-02T10:49:24.918+02:00,675852580.2668414,0,6.222656,101.3062,1,0.8
265,2022-06-02T10:49:41.065+02:00,1654159779.999834,53.22908538343348,10.39853585255029,36.84985,0,20.0,-1,-1,2.400000095367432,7.999579855010835,-9999,2925.343346291667,-5.391021728515625,0.0787200927734375,0.440765380859375,2925.333351291667,-0.1183116705497358,-0.7557824326432163,0.0727493700980954,9.164987564086914,-6.836519718170166,6.256295680999756,-5.130332469940186,1.008811950683594,1.846736073493958,XArbitraryZVertical,0.0119426239844464,-0.370070626584548,-0.0683080932319606,0.9264119311683592,-0.6840441226959229,-0.0726852193474769,-0.7258102297782898,0,0,0,-1,-1,2924.545361,unknown,2,2022-06-02T10:49:40.267+02:00,2022-06-02T10:17:13.754+02:00,467,1.474645,0,0,361.8512,0,0,2022-06-02T10:49:24.918+02:00,675852580.2668414,0,6.222656,101.3062,1,0.8
266,2022-06-02T10:49:41.076+02:00,1654159779.999834,53.22908538343348,10.39853585255029,36.84985,0,20.0,-1,-1,2.400000095367432,7.999579855010835,-9999,2925.353340291667,-4.854782104492188,-0.1022796630859375,0.0946197509765625,2925.343346291667,-0.0100649147718899,-0.8283350389106634,0.0892687817363508,8.419068336486816,-5.92986536026001,6.523877620697021,-4.928083896636963,0.4028098881244659,1.318659663200378,XArbitraryZVertical,0.0388233688708294,-0.4022276621018833,-0.0225583033357784,0.9144378920261697,-0.7338728308677673,-0.0891502648591995,-0.6734113097190857,0,0,0,-1,-1,2924.545361,unknown,2,2022-06-02T10:49:40.267+02:00,2022-06-02T10:17:13.754+02:00,467,1.474645,0,0,361.8512,0,0,2022-06-02T10:49:24.918+02:00,675852580.2668414,0,6.222656,101.3062,1,0.8
267,2022-06-02T10:49:41.087+02:00,1654159779.999834,53.22908538343348,10.39853585255029,36.84985,0,20.0,-1,-1,2.400000095367432,7.999579855010835,-9999,2925.363334291667,-4.2813720703125,-0.18902587890625,-0.1119384765625,2925.353340291667,0.09186315915671,-0.8928714488050971,0.0904174062339765,7.124396324157715,-5.156664848327637,6.525103092193604,-4.342835903167725,0.0476764291524887,0.879971981048584,XArbitraryZVertical,0.0605248846604336,-0.4289856267218939,0.021881239871627,0.9010156206594998,-0.7756941914558411,-0.0902942568063736,-0.6246161460876465,0,0,0,-1,-1,2924.545361,unknown,2,2022-06-02T10:49:40.267+02:00,2022-06-02T10:17:13.754+02:00,467,1.474645,0,0,361.8512,0,0,2022-06-02T10:49:24.918+02:00,675852580.2668414,0,6.222656,101.3062,1,0.8
268,2022-06-02T10:49:41.095+02:00,1654159780.999835,53.22908703158758,10.39852998050858,36.85445,0,20.0,-1,-1,2.400000095367432,7.999579855010837,-9999,2925.373328291667,-3.818634033203125,-0.2268829345703125,-0.158355712890625,2925.363334291667,0.1829785224506609,-0.9494397566202436,0.0777901318475976,5.833415031433105,-4.651299953460693,6.478006839752197,-3.762016296386719,-0.0700391754508018,0.5492808222770691,XArbitraryZVertical,0.0761695886979277,-0.4516736503311659,0.06349782124416,0.8866549499122344,-0.8106305599212646,-0.0777117013931274,-0.5803782343864441,0,0,0,-1,-1,2924.545361,unknown,2,2022-06-02T10:49:40.267+02:00,2022-06-02T10:17:13.754+02:00,467,1.474645,0,0,361.8512,0,0,2022-06-02T10:49:24.918+02:00,675852580.2668414,0,6.222656,101.3062,1,0.8
269,2022-06-02T10:49:41.105+02:00,1654159780.999835,53.22908703158758,10.39852998050858,36.85445,0,20.0,-1,-1,2.400000095367432,7.999579855010837,-9999,2925.383323291667,-3.553009033203125,-0.2628936767578125,-0.204315185546875,2925.373328291667,0.2625301536900269,-0.9992993605007544,0.0541929783384269,4.682246685028076,-4.237290382385254,6.337502479553223,-3.180375576019287,-0.1640342772006989,0.3924383521080017,XArbitraryZVertical,0.0862644676894025,-0.4717092571525462,0.1019760604944095,0.8715787819616594,-0.8398573994636536,-0.054166454821825,-0.5400976538658142,0,0,0,-1,-1,2924.545361,unknown,2,2022-06-02T10:49:40.267+02:00,2022-06-02T10:17:13.754+02:00,467,1.474645,0,0,361.8512,0,0,2022-06-02T10:49:24.918+02:00,675852580.2668414,0,6.222656,101.3062,1,0.8
270,2022-06-02T10:49:41.115+02:00,1654159780.999835,53.22908703158758,10.39852998050858,36.85445,0,20.0,-1,-1,2.400000095367432,7.999579855010837,-9999,2925.393317291667,-3.224899291992188,-0.31982421875,-0.28729248046875,2925.383323291667,0.3306388710504438,-1.041360369504043,0.0230665181014284,3.682450771331787,-3.625335216522217,6.084987640380859,-2.810980796813965,-0.2085182070732117,0.331068754196167,XArbitraryZVertical,0.091730229818813,-0.4890086490283437,0.1370905173085565,0.8565408062055242,-0.8628624081611633,-0.0230644717812538,-0.5049121975898743,0,0,0,-1,-1,2924.545361,unknown,2,2022-06-02T10:49:40.267+02:00,2022-06-02T10:17:13.754+02:00,467,1.474645,0,0,361.8512,0,0,2022-06-02T10:49:24.918+02:00,675852580.2668414,0,6.222656,101.3062,1,0.8
271,2022-06-02T10:49:41.125+02:00,1654159780.999835,53.22908703158758,10.39852998050858,36.85445,0,20.0,-1,-1,2.400000095367432,7.999579855010837,-9999,2925.403311291667,-2.875991821289062,-0.1659088134765625,-0.375244140625,2925.393317291667,0.3882495252864541,-1.074933476266952,-0.0129271956692276,2.866860151290894,-3.038378715515137,5.84007453918457,-2.524216651916504,-0.3215664327144623,0.2333956062793732,XArbitraryZVertical,0.0933113729638726,-0.5034059004035762,0.1689529022880173,0.8422174874755147,-0.8794849514961243,0.0129268355667591,-0.4757509827613831,0,0,0,-1,-1,2924.545361,unknown,2,2022-06-02T10:49:40.267+02:00,2022-06-02T10:17:13.754+02:00,467,1.474645,0,0,361.8512,0,0,2022-06-02T10:49:24.918+02:00,675852580.2668414,0,6.222656,101.3062,1,0.8
272,2022-06-02T10:49:41.135+02:00,1654159780.999835,53.22908703158758,10.39852998050858,36.85445,0,20.0,-1,-1,2.400000095367432,7.999579855010837,-9999,2925.413305291667,-2.57086181640625,0.088592529296875,-0.4594268798828125,2925.403311291667,0.4371781108371598,-1.1012438110133,-0.0513540089647964,2.278664112091064,-2.549154996871948,5.512805938720703,-2.1555016040802,-0.3183755576610565,0.1189286410808563,XArbitraryZVertical,0.0920647082852802,-0.5153433213781239,0.1978541403124892,0.8287333041453258,-0.8905951380729675,0.0513314381241798,-0.4518907070159912,0,0,0,-1,-1,2924.545361,unknown,2,2022-06-02T10:49:40.267+02:00,2022-06-02T10:17:13.754+02:00,467,1.474645,0,0,361.8512,0,0,2022-06-02T10:49:24.918+02:00,675852580.2668414,0,6.222656,101.3062,1,0.8
273,2022-06-02T10:49:41.145+02:00,1654159780.999835,53.22908703158758,10.39852998050858,36.85445,0,20.0,-1,-1,2.400000095367432,7.999579855010837,-9999,2925.423300291667,-2.339385986328125,0.4026336669921875,-0.4674835205078125,2925.413305291667,0.4799773872456766,-1.121610352366184,-0.0894475084095722,2.030719041824341,-2.129301071166992,5.091785430908203,-1.818986892700195,-0.133914515376091,0.0103467106819152,XArbitraryZVertical,0.0895186339307169,-0.525107806351849,0.2241801887017521,0.8160829082107458,-0.8971996307373047,0.0893282815814018,-0.4324963986873627,0,0,0,-1,-1,2924.545361,unknown,2,2022-06-02T10:49:40.267+02:00,2022-06-02T10:17:13.754+02:00,467,1.474645,0,0,361.8512,0,0,2022-06-02T10:49:24.918+02:00,675852580.2668414,0,6.222656,101.3062,1,0.8
274,2022-06-02T10:49:41.155+02:00,1654159780.999835,53.22908703158758,10.39852998050858,36.85445,0,20.0,-1,-1,2.400000095367432,7.999579855010837,-9999,2925.433294291667,-2.206741333007812,0.7803955078125,-0.4071197509765625,2925.423300291667,0.5191349905587179,-1.136600883603522,-0.1249433687743494,1.986422181129456,-1.711644291877747,4.667965412139893,-1.546304702758789,0.112823411822319,-0.0600309967994689,XArbitraryZVertical,0.087011128991732,-0.5326616269190695,0.2483724070917344,0.8043704218831906,-0.9001368284225464,0.1246185451745987,-0.4174013137817383,0,0,0,-1,-1,2924.545361,unknown,2,2022-06-02T10:49:40.267+02:00,2022-06-02T10:17:13.754+02:00,467,1.474645,0,0,361.8512,0,0,2022-06-02T10:49:24.918+02:00,675852580.2668414,0,6.222656,101.3062,1,0.8
275,2022-06-02T10:49:41.165+02:00,1654159780.999835,53.22908703158758,10.39852998050858,36.85445,0,20.0,-1,-1,2.400000095367432,7.999579855010837,-9999,2925.443288291667,-2.112060546875,1.124679565429688,-0.3624267578125,2925.433294291667,0.5564175344490869,-1.146141332007152,-0.157213449056716,2.108180284500122,-1.245563864707947,4.270116329193115,-1.357349991798401,0.4306525588035583,-0.0284385085105896,XArbitraryZVertical,0.08500715245839,-0.5378765047083852,0.2709863663873349,0.7937436011832357,-0.8999436497688293,0.1565666347742081,-0.4069252908229828,0,0,0,-1,-1,2924.545361,unknown,2,2022-06-02T10:49:40.267+02:00,2022-06-02T10:17:13.754+02:00,467,1.474645,0,0,361.8512,0,0,2022-06-02T10:49:24.918+02:00,675852580.2668414,0,6.222656,101.3062,1,0.8
276,2022-06-02T10:49:41.175+02:00,1654159780.999835,53.22908703158758,10.39852998050858,36.85445,0,20.0,-1,-1,2.400000095367432,7.999579855010837,-9999,2925.453283291667,-1.995895385742188,1.256454467773438,-0.277557373046875,2925.443288291667,0.5950783444205313,-1.149515669908525,-0.1845973338719673,2.617602109909058,-0.7550574541091919,3.855406761169434,-1.269320011138916,0.7804079055786133,0.0126232802867889,XArbitraryZVertical,0.0847377643135222,-0.5402116245827651,0.2929195784595542,0.7843397821991541,-0.8970616459846497,0.1835507303476334,-0.4019818305969238,0,0,0,-1,-1,2924.545361,unknown,2,2022-06-02T10:49:40.267+02:00,2022-06-02T10:17:13.754+02:00,467,1.474645,0,0,361.8512,0,0,2022-06-02T10:49:24.918+02:00,675852580.2668414,0,6.222656,101.3062,1,0.8
277,2022-06-02T10:49:41.185+02:00,1654159780.999835,53.22908703158758,10.39852998050858,36.85445,0,20.0,-1,-1,2.400000095367432,7.999579855010837,-9999,2925.463277291667,-1.943344116210938,1.20660400390625,-0.1809844970703125,2925.453283291667,0.6372581811876239,-1.146736645029202,-0.2061383250183696,3.16050386428833,-0.3474925756454468,3.478944778442383,-1.157964706420898,1.023406744003296,0.0810363292694091,XArbitraryZVertical,0.0869509760214642,-0.5395027506658794,0.3147737478791499,0.7760757522453287,-0.8921297788619995,0.2046815156936646,-0.4027526080608368,0,0,0,-1,-1,2924.545361,unknown,2,2022-06-02T10:49:40.267+02:00,2022-06-02T10:17:13.754+02:00,467,1.474645,0,0,361.8512,0,0,2022-06-02T10:49:24.918+02:00,675852580.2668414,0,6.222656,101.3062,1,0.8
278,2022-06-02T10:49:41.195+02:00,1654159780.999835,53.22908703158758,10.39852998050858,36.85445,0,20.0,-1,-1,2.400000095367432,7.999579855010837,-9999,2925.473271291667,-1.898300170898438,1.135345458984375,-0.107177734375,2925.463277291667,0.6829330537845094,-1.13872793489432,-0.2221293560878158,3.615697145462036,0.0102715454995632,3.137903690338135,-1.076108813285828,1.017928242683411,0.1801289319992065,XArbitraryZVertical,0.0914529015243738,-0.5361022310916417,0.3366057006853446,0.7687179520044582,-0.8857899308204651,0.2203071564435959,-0.4084615409374237,0,0,0,-1,-1,2924.545361,unknown,2,2022-06-02T10:49:40.267+02:00,2022-06-02T10:17:13.754+02:00,467,1.474645,0,0,361.8512,0,0,2022-06-02T10:49:24.918+02:00,675852580.2668414,0,6.222656,101.3062,1,0.8
279,2022-06-02T10:49:41.205+02:00,1654159780.999835,53.22908703158758,10.39852998050858,36.85445,0,20.0,-1,-1,2.400000095367432,7.999579855010837,-9999,2925.483265291667,-1.825469970703125,0.981353759765625,-0.0779571533203125,2925.473271291667,0.7307828549664844,-1.126170161115525,-0.2329994285734946,3.879883527755737,0.33098965883255,2.791975021362305,-1.048243403434753,0.9451131224632264,0.2778880000114441,XArbitraryZVertical,0.0976388228833427,-0.5302996978690148,0.3580524089317837,0.7622645772692519,-0.8783769607543945,0.2308969348669052,-0.418497771024704,0,0,0,-1,-1,2924.545361,unknown,2,2022-06-02T10:49:40.267+02:00,2022-06-02T10:17:13.754+02:00,467,1.474645,0,0,361.8512,0,0,2022-06-02T10:49:24.918+02:00,675852580.2668414,0,6.222656,101.3062,1,0.8
280,2022-06-02T10:49:41.215+02:00,1654159780.999835,53.22908703158758,10.39852998050858,36.85445,0,20.0,-1,-1,2.400000095367432,7.999579855010837,-9999,2925.493260291667,-1.727554321289062,0.8332061767578125,-0.070556640625,2925.483265291667,0.779019208489259,-1.110105463502536,-0.2397966785126686,3.940974235534668,0.6126747131347656,2.554930686950684,-0.9927542805671692,0.8342263698577881,0.3470379114151001,XArbitraryZVertical,0.104639102160359,-0.5226160187474699,0.3787215182297457,0.7566327177879948,-0.8701149225234985,0.2375051230192184,-0.4318463206291199,0,0,0,-1,-1,2924.545361,unknown,2,2022-06-02T10:49:40.267+02:00,2022-06-02T10:17:13.754+02:00,467,1.474645,0,0,361.8512,0,0,2022-06-02T10:49:24.918+02:00,675852580.2668414,0,6.222656,101.3062,1,0.8
281,2022-06-02T10:49:41.225+02:00,1654159780.999835,53.22908703158758,10.39852998050858,36.85445,0,20.0,-1,-1,2.400000095367432,7.999579855010837,-9999,2925.503254291667,-1.616531372070312,0.7805328369140625,-0.061798095703125,2925.493260291667,0.8262856078254236,-1.091789759256798,-0.2444127778564316,3.8034827709198,0.7730712890625,2.429715633392334,-0.9186005592346193,0.6478754281997681,0.3714092671871185,XArbitraryZVertical,0.1114724204995769,-0.5137840663213007,0.3985440253497675,0.7515067057492675,-0.8610776662826538,0.2419866025447845,-0.447199672460556,0,0,0,-1,-1,2924.545361,unknown,2,2022-06-02T10:49:40.267+02:00,2022-06-02T10:17:13.754+02:00,467,1.474645,0,0,361.8512,0,0,2022-06-02T10:49:24.918+02:00,675852580.2668414,0,6.222656,101.3062,1,0.8
282,2022-06-02T10:49:41.235+02:00,1654159780.999835,53.22908703158758,10.39852998050858,36.85445,0,20.0,-1,-1,2.400000095367432,7.999579855010837,-9999,2925.513248291667,-1.497848510742188,0.688568115234375,-0.06121826171875,2925.503254291667,0.8711818198595322,-1.072561677023451,-0.2481973299493099,3.522660970687866,0.8801628351211548,2.336150407791138,-0.8212807774543762,0.5616703033447266,0.3984430432319641,XArbitraryZVertical,0.1174646913836924,-0.5045652452657678,0.417260793541244,0.7466654804419618,-0.8515097498893738,0.2456569224596024,-0.4632319211959839,0,0,0,-1,-1,2924.545361,unknown,2,2022-06-02T10:49:40.267+02:00,2022-06-02T10:17:13.754+02:00,467,1.474645,0,0,361.8512,0,0,2022-06-02T10:49:24.918+02:00,675852580.2668414,0,6.222656,101.3062,1,0.8
283,2022-06-02T10:49:41.245+02:00,1654159780.999835,53.22908703158758,10.39852998050858,36.85445,0,20.0,-1,-1,2.400000095367432,7.999579855010837,-9999,2925.523242291667,-1.36578369140625,0.595367431640625,-0.044158935546875,2925.513248291667,0.9129624622133344,-1.052965115853199,-0.2522053856175238,3.136109828948975,0.9577329754829408,2.310672760009766,-0.7190332412719727,0.4902821779251099,0.415265679359436,XArbitraryZVertical,0.1221339008529723,-0.4953934124255502,0.434801417876214,0.74203531371252,-0.8414068222045898,0.2495401799678802,-0.4793373644351959,0,0,0,-1,-1,2924.545361,unknown,2,2022-06-02T10:49:40.267+02:00,2022-06-02T10:17:13.754+02:00,467,1.474645,0,0,361.8512,0,0,2022-06-02T10:49:24.918+02:00,675852580.2668414,0,6.222656,101.3062,1,0.8
284,2022-06-02T10:49:41.255+02:00,1654159780.999835,53.22908703158758,10.39852998050858,36.85445,0,20.0,-1,-1,2.400000095367432,7.999579855010837,-9999,2925.533237291667,-1.229721069335938,0.5711822509765625,-0.0211639404296875,2925.523242291667,0.950723673833001,-1.033686218894253,-0.257569093450057,2.638194799423218,0.9900608658790588,2.294577360153198,-0.599419355392456,0.3826899826526642,0.4424085319042206,XArbitraryZVertical,0.1250000260707084,-0.4868127480619358,0.4510126547935803,0.7375471617204877,-0.8308479189872742,0.2547305822372437,-0.4947766959667206,0,0,0,-1,-1,2924.545361,unknown,2,2022-06-02T10:49:40.267+02:00,2022-06-02T10:17:13.754+02:00,467,1.474645,0,0,361.8512,0,0,2022-06-02T10:49:24.918+02:00,675852580.2668414,0,6.222656,101.3062,1,0.8
285,2022-06-02T10:49:41.265+02:00,1654159780.999835,53.22908703158758,10.39852998050858,36.85445,0,20.0,-1,-1,2.400000095367432,7.999579855010837,-9999,2925.543231291667,-1.10711669921875,0.5904998779296875,-0.002655029296875,2925.533237291667,0.9843363523440416,-1.015288645674709,-0.2648956077670976,2.164577960968018,0.9387663006782532,2.342794895172119,-0.4792883992195129,0.3140581250190735,0.4764174818992615,XArbitraryZVertical,0.125988845201138,-0.479204467817201,0.4659081921173661,0.7330889320168601,-0.8199974298477173,0.2618085145950317,-0.5089797973632812,0,0,0,-1,-1,2924.545361,unknown,2,2022-06-02T10:49:40.267+02:00,2022-06-02T10:17:13.754+02:00,467,1.474645,0,0,361.8512,0,0,2022-06-02T10:49:24.918+02:00,675852580.2668414,0,6.222656,101.3062,1,0.8
286,2022-06-02T10:49:41.275+02:00,1654159780.999835,53.22908703158758,10.39852998050858,36.85445,0,20.0,-1,-1,2.400000095367432,7.999579855010837,-9999,2925.553225291667,-1.021026611328125,0.646636962890625,-0.0050048828125,2925.543231291667,1.014560549406366,-0.9986334703931756,-0.2740232182912353,1.803665161132812,0.7814313769340515,2.303059577941895,-0.3541948795318604,0.304390162229538,0.5114234089851379,XArbitraryZVertical,0.125626755829216,-0.4728560572170641,0.4796572083783752,0.7283914294227732,-0.8093641400337219,0.2706067264080048,-0.5212501287460327,0,0,0,-1,-1,2924.545361,unknown,2,2022-06-02T10:49:40.267+02:00,2022-06-02T10:17:13.754+02:00,467,1.474645,0,0,361.8512,0,0,2022-06-02T10:49:24.918+02:00,675852580.2668414,0,6.222656,101.3062,1,0.8
