,loggingTime(txt),locationTimestamp_since1970(s),locationLatitude(WGS84),locationLongitude(WGS84),locationAltitude(m),locationSpeed(m/s),locationSpeedAccuracy(m/s),locationCourse(°),locationCourseAccuracy(°),locationVerticalAccuracy(m),locationHorizontalAccuracy(m),locationFloor(Z),accelerometerTimestamp_sinceReboot(s),accelerometerAccelerationX(G),accelerometerAccelerationY(G),accelerometerAccelerationZ(G),motionTimestamp_sinceReboot(s),motionYaw(rad),motionRoll(rad),motionPitch(rad),motionRotationRateX(rad/s),motionRotationRateY(rad/s),motionRotationRateZ(rad/s),motionUserAccelerationX(G),motionUserAccelerationY(G),motionUserAccelerationZ(G),motionAttitudeReferenceFrame(txt),motionQuaternionX(R),motionQuaternionY(R),motionQuaternionZ(R),motionQuaternionW(R),motionGravityX(G),motionGravityY(G),motionGravityZ(G),motionMagneticFieldX(µT),motionMagneticFieldY(µT),motionMagneticFieldZ(µT),motionHeading(°),motionMagneticFieldCalibrationAccuracy(Z),activityTimestamp_sinceReboot(s),activity(txt),activityActivityConfidence(Z),activityActivityStartDate(txt),pedometerStartDate(txt),pedometerNumberofSteps(N),pedometerAverageActivePace(s/m),pedometerCurrentPace(s/m),pedometerCurrentCadence(steps/s),pedometerDistance(m),pedometerFloorAscended(N),pedometerFloorDescended(N),pedometerEndDate(txt),altimeterTimestamp_sinceReboot(s),altimeterReset(bool),altimeterRelativeAltitude(m),altimeterPressure(kPa),batteryState(N),batteryLevel(R)
242,2022-06-02T10:50:04.502+02:00,1654159802.999938,53.22886256971697,10.39863936604038,32.9197,0,0.07,-1,103.9230494294148,4,5,-9999,2948.779930875,1.40521240234375,-0.313873291015625,-1.04095458984375,2948.769935875,-2.731059526483055,0.4870394986224214,0.6818426374206846,1.43447208404541,6.283979415893555,-4.407115459442139,0.9798914790153505,0.358893096446991,-0.614327609539032,XArbitraryZVertical,0.2886125548913546,-0.2713598820644503,-0.8790064208379949,0.2653567565608291,0.3633702099323273,-0.6302247643470764,-0.6861332058906555,0,0,0,-1,-1,2947.5725685,unknown,2,2022-06-02T10:50:03.294+02:00,2022-06-02T10:17:13.754+02:00,467,1.474645,0,0,361.8512,0,0,2022-06-02T10:49:24.918+02:00,675852603.2940118,0,5.75,101.3149,1,0.79
243,2022-06-02T10:50:04.512+02:00,1654159802.999938,53.22886256971697,10.39863936604038,32.9197,0,0.07,-1,103.9230494294148,4,5,-9999,2948.789924875,1.35296630859375,-0.2818756103515625,-0.7925567626953125,2948.779930875,-2.790510267247373,0.5925577140927422,0.6698433531254216,1.244991302490234,7.366864681243896,-4.78372859954834,0.953077793121338,0.3283523321151733,-0.4930686354637146,XArbitraryZVertical,0.3264056518370477,-0.2613869728827712,-0.8726451079311658,0.2522429819321208,0.4378065168857574,-0.6208631992340088,-0.6502724289894104,0,0,0,-1,-1,2947.5725685,unknown,2,2022-06-02T10:50:03.294+02:00,2022-06-02T10:17:13.754+02:00,467,1.474645,0,0,361.8512,0,0,2022-06-02T10:49:24.918+02:00,675852603.2940118,0,5.75,101.3149,1,0.79
244,2022-06-02T10:50:04.522+02:00,1654159802.999938,53.22886256971697,10.39863936604038,32.9197,0,0.07,-1,103.9230494294148,4,5,-9999,2948.799918875,1.308853149414062,-0.1752777099609375,-0.4469451904296875,2948.789924875,-2.848825101179186,0.707092966471591,0.6482955552874404,0.8889691829681396,8.390379905700684,-5.161080837249756,0.8736683130264282,0.3015979528427124,-0.3148133158683777,XArbitraryZVertical,0.3682701520817277,-0.24773509399496,-0.8636984297429258,0.238808144175308,0.5178263783454895,-0.6038286685943604,-0.6060088276863098,0,0,0,-1,-1,2947.5725685,unknown,2,2022-06-02T10:50:03.294+02:00,2022-06-02T10:17:13.754+02:00,467,1.474645,0,0,361.8512,0,0,2022-06-02T10:49:24.918+02:00,675852603.2940118,0,5.75,101.3149,1,0.79
245,2022-06-02T10:50:04.532+02:00,1654159802.999938,53.22886256971697,10.39863936604038,32.9197,0,0.07,-1,103.9230494294148,4,5,-9999,2948.809912875,1.261566162109375,0.0517578125,-0.022003173828125,2948.799918875,-2.902045491429744,0.8272931694729654,0.6162803957322274,0.4519641697406769,9.3658447265625,-5.464297771453857,0.7253503203392029,0.3343057632446289,-0.0875278115272522,XArbitraryZVertical,0.413457414612341,-0.2299525861009321,-0.8517154580741437,0.2252898258708178,0.6006841659545898,-0.5780038237571716,-0.5523495674133301,0,0,0,-1,-1,2947.5725685,unknown,2,2022-06-02T10:50:03.294+02:00,2022-06-02T10:17:13.754+02:00,467,1.474645,0,0,361.8512,0,0,2022-06-02T10:49:24.918+02:00,675852603.2940118,0,5.75,101.3149,1,0.79
246,2022-06-02T10:50:04.542+02:00,1654159802.999938,53.22886256971697,10.39863936604038,32.9197,0,0.07,-1,103.9230494294148,4,5,-9999,2948.819907875,1.146865844726562,0.2764892578125,0.43389892578125,2948.809912875,-2.946300971253985,0.9509005325009972,0.5740649369763101,-0.1075984314084053,10.39603805541992,-5.718253612518311,0.6023932099342346,0.4667407274246216,0.2556159496307373,XArbitraryZVertical,0.4614597644024316,-0.2077083739998977,-0.83601681675464,0.2121035062735717,0.6834648847579956,-0.5430498719215393,-0.4878242313861847,0,0,0,-1,-1,2947.5725685,unknown,2,2022-06-02T10:50:03.294+02:00,2022-06-02T10:17:13.754+02:00,467,1.474645,0,0,361.8512,0,0,2022-06-02T10:49:24.918+02:00,675852603.2940118,0,5.75,101.3149,1,0.79
247,2022-06-02T10:50:04.552+02:00,1654159802.999938,53.22886256971697,10.39863936604038,32.9197,0,0.07,-1,103.9230494294148,4,5,-9999,2948.829901875,1.161468505859375,0.3864898681640625,1.134185791015625,2948.819907875,-2.977397548608025,1.076599772222468,0.5223264523042059,-0.9023554921150208,11.49830055236816,-5.865725517272949,0.4508258700370789,0.6772119998931885,0.5982732772827148,XArbitraryZVertical,0.511803861720024,-0.1803263307948505,-0.8158179638555378,0.1999504366537574,0.7629649043083191,-0.4988977313041687,-0.4110784530639648,0,0,0,-1,-1,2947.5725685,unknown,2,2022-06-02T10:50:03.294+02:00,2022-06-02T10:17:13.754+02:00,467,1.474645,0,0,361.8512,0,0,2022-06-02T10:49:24.918+02:00,675852603.2940118,0,5.75,101.3149,1,0.79
248,2022-06-02T10:50:04.562+02:00,1654159802.999938,53.22886256971697,10.39863936604038,32.9197,0,0.07,-1,103.9230494294148,4,5,-9999,2948.839895875,1.440765380859375,0.602996826171875,1.89764404296875,2948.829901875,-2.990306540903172,1.203672191588581,0.4624418654058456,-2.061280727386475,12.6804838180542,-5.985605716705322,0.2766711711883545,0.7941267490386963,1.083378434181213,XArbitraryZVertical,0.563789509735455,-0.1467145011751473,-0.7902614823628089,0.19000813136453,0.8353284001350403,-0.4461348354816437,-0.3212324976921082,0,0,0,-1,-1,2947.5725685,unknown,2,2022-06-02T10:50:03.294+02:00,2022-06-02T10:17:13.754+02:00,467,1.474645,0,0,361.8512,0,0,2022-06-02T10:49:24.918+02:00,675852603.2940118,0,5.75,101.3149,1,0.79
249,2022-06-02T10:50:04.572+02:00,1654159802.999938,53.22886256971697,10.39863936604038,32.9197,0,0.07,-1,103.9230494294148,4,5,-9999,2948.849890875,1.445724487304688,0.78656005859375,2.638046264648438,2948.839895875,-2.980947725273587,1.332879103888583,0.3973416830359582,-3.545761823654175,13.9906702041626,-6.008878231048584,0.4120633006095886,0.8561611175537109,1.731035470962524,XArbitraryZVertical,0.6165249068047254,-0.1060097559416596,-0.7582922121605337,0.1834441317802212,0.8961183428764343,-0.3869684934616089,-0.2173179388046265,0,0,0,-1,-1,2947.5725685,unknown,2,2022-06-02T10:50:03.294+02:00,2022-06-02T10:17:13.754+02:00,467,1.474645,0,0,361.8512,0,0,2022-06-02T10:49:24.918+02:00,675852603.2940118,0,5.75,101.3149,1,0.79
250,2022-06-02T10:50:04.582+02:00,1654159802.999938,53.22886256971697,10.39863936604038,32.9197,0,0.07,-1,103.9230494294148,4,5,-9999,2948.859884875,1.447341918945312,1.027740478515625,3.413604736328125,2948.849890875,-2.943545429817426,1.467045580732077,0.3303475022937729,-5.701864242553711,15.48322582244873,-6.014755249023438,0.5290513038635254,1.035400867462158,2.37031888961792,XArbitraryZVertical,0.6692183277949174,-0.0562527345944572,-0.718238326233336,0.1819779963494698,0.9408429861068726,-0.3243717551231384,-0.0979649201035499,0,0,0,-1,-1,2947.5725685,unknown,2,2022-06-02T10:50:03.294+02:00,2022-06-02T10:17:13.754+02:00,467,1.474645,0,0,361.8512,0,0,2022-06-02T10:49:24.918+02:00,675852603.2940118,0,5.75,101.3149,1,0.79
251,2022-06-02T10:50:04.592+02:00,1654159802.999938,53.22886256971697,10.39863936604038,32.9197,0,0.07,-1,103.9230494294148,4,5,-9999,2948.869878875,1.216079711914062,1.3875732421875,4.475997924804688,2948.859884875,-2.874406583743021,1.609178960329714,0.2689106409985859,-7.969181060791016,17.04225158691406,-5.852371692657471,0.4784674048423767,1.143779039382935,2.964791059494019,XArbitraryZVertical,0.7200612109540753,0.002984249972513,-0.6681606247856913,0.1872544296787847,0.9633507132530212,-0.2656813859939575,0.0369941070675849,0,0,0,-1,-1,2947.5725685,unknown,2,2022-06-02T10:50:03.294+02:00,2022-06-02T10:17:13.754+02:00,467,1.474645,0,0,361.8512,0,0,2022-06-02T10:49:24.918+02:00,675852603.2940118,0,5.75,101.3149,1,0.79
252,2022-06-02T10:50:04.602+02:00,1654159802.999938,53.22886256971697,10.39863936604038,32.9197,0,0.07,-1,103.9230494294148,4,5,-9999,2948.879873875,0.9294586181640624,1.321853637695312,5.85455322265625,2948.869878875,-2.771645751513502,1.763627806331766,0.2229161213327315,-10.94001007080078,18.78740119934082,-5.610115051269531,0.4237546324729919,1.446263790130615,3.719352960586548,XArbitraryZVertical,0.767023372789922,0.0715792419741715,-0.6052385356426817,0.2005933382463764,0.9571808576583862,-0.2210745215415955,0.1868968904018402,0,0,0,-1,-1,2947.5725685,unknown,2,2022-06-02T10:50:03.294+02:00,2022-06-02T10:17:13.754+02:00,467,1.474645,0,0,361.8512,0,0,2022-06-02T10:49:24.918+02:00,675852603.2940118,0,5.75,101.3149,1,0.79
253,2022-06-02T10:50:04.612+02:00,1654159802.999938,53.22886256971697,10.39863936604038,32.9197,0,0.07,-1,103.9230494294148,4,5,-9999,2948.889867875,0.7106170654296875,0.933258056640625,7.399139404296875,2948.889867875,-2.468453859305036,2.09980658454442,0.2355387710327534,-16.62088203430176,20.89488410949707,-3.692125558853149,0.0251693725585937,1.387740135192871,6.10653018951416,XArbitraryZVertical,0.832349203852563,0.2292748352067974,-0.4328220517652937,0.259408744211499,0.8394699692726135,-0.233366921544075,0.4907442927360535,0,0,0,-1,-1,2947.5725685,unknown,2,2022-06-02T10:50:03.294+02:00,2022-06-02T10:17:13.754+02:00,467,1.474645,0,0,361.8512,0,0,2022-06-02T10:49:24.918+02:00,675852603.2940118,0,5.75,101.3149,1,0.79
254,2022-06-02T10:50:04.622+02:00,1654159802.999938,53.22886256971697,10.39863936604038,32.9197,0,0.07,-1,103.9230494294148,4,5,-9999,2948.899861875,0.09521484375,0.0652923583984375,9.156509399414062,2948.889867875,-2.468453859305036,2.09980658454442,0.2355387710327534,-16.62088203430176,20.89488410949707,-3.692125558853149,0.0251693725585937,1.387740135192871,6.10653018951416,XArbitraryZVertical,0.832349203852563,0.2292748352067974,-0.4328220517652937,0.259408744211499,0.8394699692726135,-0.233366921544075,0.4907442927360535,0,0,0,-1,-1,2947.5725685,unknown,2,2022-06-02T10:50:03.294+02:00,2022-06-02T10:17:13.754+02:00,467,1.474645,0,0,361.8512,0,0,2022-06-02T10:49:24.918+02:00,675852603.2940118,0,5.75,101.3149,1,0.79
255,2022-06-02T10:50:04.632+02:00,1654159802.999938,53.22886256971697,10.39863936604038,32.9197,0,0.07,-1,103.9230494294148,4,5,-9999,2948.909855875,-0.3096160888671875,-2.548065185546875,10.83480834960938,2948.899861875,-2.304310236369304,2.266859551318658,0.3061272321230257,-17.27909469604492,20.98527908325195,-3.105895280838013,-0.3235840797424316,0.9449381828308104,7.669004440307617,XArbitraryZVertical,0.8442171883841908,0.3049471724926864,-0.3263073323607464,0.2963580905138056,0.7316956520080566,-0.3013681769371033,0.6113908886909485,0,0,0,-1,-1,2947.5725685,unknown,2,2022-06-02T10:50:03.294+02:00,2022-06-02T10:17:13.754+02:00,467,1.474645,0,0,361.8512,0,0,2022-06-02T10:49:24.918+02:00,675852603.2940118,0,5.75,101.3149,1,0.79
256,2022-06-02T10:50:04.642+02:00,1654159802.999938,53.22886256971697,10.39863936604038,32.9197,0,0.07,-1,103.9230494294148,4,5,-9999,2948.919850875,-0.940155029296875,-4.56243896484375,13.15669250488281,2948.909855875,-2.153580597967871,2.417713861074076,0.3987403136742232,-15.57306289672852,19.25715446472168,-3.727897644042969,-0.703249990940094,-0.6390401721000671,9.29249095916748,XArbitraryZVertical,0.8403397238294321,0.3729097121654147,-0.2177550020112268,0.3276434996108439,0.6103392243385315,-0.388257771730423,0.6904650330543518,0,0,0,-1,-1,2947.5725685,unknown,2,2022-06-02T10:50:03.294+02:00,2022-06-02T10:17:13.754+02:00,467,1.474645,0,0,361.8512,0,0,2022-06-02T10:49:24.918+02:00,675852603.2940118,0,5.75,101.3149,1,0.79
257,2022-06-02T10:50:04.652+02:00,1654159802.999938,53.22886256971697,10.39863936604038,32.9197,0,0.07,-1,103.9230494294148,4,5,-9999,2948.929844875,-1.74542236328125,-3.511581420898438,15.32627868652344,2948.919850875,-2.017619715206185,2.534530210912513,0.4711294912933638,-10.5712947845459,15.43629360198975,-7.060385227203369,-1.163949012756348,-3.52050256729126,11.14949893951416,XArbitraryZVertical,0.8223869081391111,0.435435492140082,-0.1272546541831441,0.3433392453434755,0.5083093047142029,-0.4538930058479309,0.7318485975265503,0,0,0,-1,-1,2947.5725685,unknown,2,2022-06-02T10:50:03.294+02:00,2022-06-02T10:17:13.754+02:00,467,1.474645,0,0,361.8512,0,0,2022-06-02T10:49:24.918+02:00,675852603.2940118,0,5.75,101.3149,1,0.79
258,2022-06-02T10:50:04.662+02:00,1654159802.999938,53.22886256971697,10.39863936604038,32.9197,0,0.07,-1,103.9230494294148,4,5,-9999,2948.939838875,-3.280853271484375,-1.042007446289062,17.55796813964844,2948.929844875,-1.874963729329225,2.598240934784425,0.4832833803298567,-5.634908676147461,10.35452365875244,-13.08695316314697,-1.689196586608887,-3.824037790298462,13.54127597808838,XArbitraryZVertical,0.7919488554399221,0.501788052857687,-0.0735951016166737,0.3400139444920013,0.4577969908714294,-0.4646890163421631,0.7579484581947327,0,0,0,-1,-1,2947.5725685,unknown,2,2022-06-02T10:50:03.294+02:00,2022-06-02T10:17:13.754+02:00,467,1.474645,0,0,361.8512,0,0,2022-06-02T10:49:24.918+02:00,675852603.2940118,0,5.75,101.3149,1,0.79
259,2022-06-02T10:50:04.672+02:00,1654159802.999938,53.22886256971697,10.39863936604038,32.9197,0,0.07,-1,103.9230494294148,4,5,-9999,2948.949833875,-6.060165405273438,1.9378662109375,19.72900390625,2948.939838875,-1.689702603580705,2.586177670147216,0.4447716864945043,-5.682573795318604,3.529217481613159,-19.16352844238281,-2.893444776535034,-1.986129999160767,15.63317680358887,XArbitraryZVertical,0.7416473060702999,0.5774658990224052,-0.0591757582892793,0.336140744879059,0.4759947061538696,-0.4302517771720886,0.7670151591300964,0,0,0,-1,-1,2947.5725685,unknown,2,2022-06-02T10:50:03.294+02:00,2022-06-02T10:17:13.754+02:00,467,1.474645,0,0,361.8512,0,0,2022-06-02T10:49:24.918+02:00,675852603.2940118,0,5.75,101.3149,1,0.79
260,2022-06-02T10:50:04.682+02:00,1654159802.999938,53.22886256971697,10.39863936604038,32.9197,0,0.07,-1,103.9230494294148,4,5,-9999,2948.959827875,-11.38143920898438,4.95947265625,18.37553405761719,2948.949833875,-1.437359602343964,2.477178933226104,0.3893404215869989,-12.0119686126709,-5.035636425018311,-24.95213317871094,-5.030320644378662,0.8345037698745728,18.07681846618652,XArbitraryZVertical,0.6581223483263409,0.6565470872690691,-0.0730263636594315,0.361231294102306,0.5704512596130371,-0.3795782923698425,0.7283582091331482,0,0,0,-1,-1,2947.5725685,unknown,2,2022-06-02T10:50:03.294+02:00,2022-06-02T10:17:13.754+02:00,467,1.474645,0,0,361.8512,0,0,2022-06-02T10:49:24.918+02:00,675852603.2940118,0,5.75,101.3149,1,0.79
261,2022-06-02T10:50:04.692+02:00,1654159802.999938,53.22886256971697,10.39863936604038,32.9197,0,0.07,-1,103.9230494294148,4,5,-9999,2948.969821875,-20.02531433105469,5.1492919921875,14.48007202148438,2948.959827875,-1.108044840129841,2.277129819845808,0.3146747728562188,-19.57156753540039,-12.05203533172607,-30.2667236328125,-9.001605033874512,3.841733932495117,19.02242469787598,XArbitraryZVertical,0.5276449714291169,0.728134666880851,-0.0966690344722514,0.426691624923544,0.7233917713165283,-0.3095072209835052,0.6171786189079285,0,0,0,-1,-1,2947.5725685,unknown,2,2022-06-02T10:50:03.294+02:00,2022-06-02T10:17:13.754+02:00,467,1.474645,0,0,361.8512,0,0,2022-06-02T10:49:24.918+02:00,675852603.2940118,0,5.75,101.3149,1,0.79
262,2022-06-02T10:50:04.702+02:00,1654159802.999938,53.22886256971697,10.39863936604038,32.9197,0,0.07,-1,103.9230494294148,4,5,-9999,2948.979816875,-30.21463012695312,4.38140869140625,13.37115478515625,2948.969821875,-0.7433111122932008,2.038299336368773,0.1511823326755571,-20.26087379455566,-17.49987983703613,-34.95136260986328,-16.30180931091309,5.669741630554199,15.98352813720703,XArbitraryZVertical,0.3452820192325413,0.7768780213805765,-0.1298585213771014,0.5102720772742265,0.8825139403343201,-0.1506070792675018,0.4455182552337646,0,0,0,-1,-1,2947.5725685,unknown,2,2022-06-02T10:50:03.294+02:00,2022-06-02T10:17:13.754+02:00,467,1.474645,0,0,361.8512,0,0,2022-06-02T10:49:24.918+02:00,675852603.2940118,0,5.75,101.3149,1,0.79
263,2022-06-02T10:50:04.712+02:00,1654159802.999938,53.22886256971697,10.39863936604038,32.9197,0,0.07,-1,103.9230494294148,4,5,-9999,2948.989810875,-32.08964538574219,5.295791625976562,15.85145568847656,2948.979816875,-0.4625468893577838,1.825731620715487,-0.1154279905441378,-12.90740013122559,-24.34548759460449,-34.97064590454102,-25.99374198913574,4.414308071136475,13.02047634124756,XArbitraryZVertical,0.1467359963620889,0.7769947797973489,-0.1843547498273264,0.5837474079130136,0.9612403512001038,0.11517184227705,0.2505046725273132,0,0,0,-1,-1,2947.5725685,unknown,2,2022-06-02T10:50:03.294+02:00,2022-06-02T10:17:13.754+02:00,467,1.474645,0,0,361.8512,0,0,2022-06-02T10:49:24.918+02:00,675852603.2940118,0,5.75,101.3149,1,0.79
264,2022-06-02T10:50:04.722+02:00,1654159802.999938,53.22886256971697,10.39863936604038,32.9197,0,0.07,-1,103.9230494294148,4,5,-9999,2948.999804875,-32.03556823730469,14.56826782226562,24.36335754394531,2948.989810875,-0.3756501946221492,1.547283901464663,-0.4519960618591945,6.28003454208374,-34.83500671386719,-34.84847259521484,-32.98465728759766,3.828634023666382,14.85533237457275,XArbitraryZVertical,-0.0303265499687207,0.6989317967662434,-0.283999725973108,0.6556818539647069,0.899328351020813,0.4367620050907135,-0.0211492870002985,0,0,0,-1,-1,2947.5725685,unknown,2,2022-06-02T10:50:03.294+02:00,2022-06-02T10:17:13.754+02:00,467,1.474645,0,0,361.8512,0,0,2022-06-02T10:49:24.918+02:00,675852603.2940118,0,5.75,101.3149,1,0.79
265,2022-06-02T10:50:04.732+02:00,1654159802.999938,53.22886256971697,10.39863936604038,32.9197,0,0.07,-1,103.9230494294148,4,5,-9999,2949.009799875,-31.97998046875,21.14640808105469,30.99540710449219,2948.999804875,-0.7357954944310557,0.983928048970448,-0.7158657398148255,34.36824798583984,-35.18636703491211,-34.59817504882812,-32.65829086303711,8.420709609985352,18.52472686767578,XArbitraryZVertical,-0.1290095654338848,0.5238750638366851,-0.4513234367942313,0.710787204281993,0.6282773017883301,0.6562708616256714,-0.4178228974342346,0,0,0,-1,-1,2947.5725685,unknown,2,2022-06-02T10:50:03.294+02:00,2022-06-02T10:17:13.754+02:00,467,1.474645,0,0,361.8512,0,0,2022-06-02T10:49:24.918+02:00,675852603.2940118,0,5.75,101.3149,1,0.79
266,2022-06-02T10:50:04.742+02:00,1654159802.999938,53.22886256971697,10.39863936604038,32.9197,0,0.07,-1,103.9230494294148,4,5,-9999,2949.019793875,-24.56260681152344,3.928207397460938,31.4478759765625,2949.009799875,-1.322453829626719,0.2553528218313546,-0.6122014573115299,35.47707748413086,-35.17441558837891,-28.00829124450684,-32.35101699829102,18.42767906188965,30.38922882080078,XArbitraryZVertical,-0.161339098298512,0.2793665101882372,-0.6110574236831687,0.7228642439765582,0.2067132145166397,0.5746704936027527,-0.7918481230735779,0,0,0,-1,-1,2947.5725685,unknown,2,2022-06-02T10:50:03.294+02:00,2022-06-02T10:17:13.754+02:00,467,1.474645,0,0,361.8512,0,0,2022-06-02T10:49:24.918+02:00,675852603.2940118,0,5.75,101.3149,1,0.79
267,2022-06-02T10:50:04.752+02:00,1654159802.999938,53.22886256971697,10.39863936604038,32.9197,0,0.07,-1,103.9230494294148,4,5,-9999,2949.029787875,-26.42892456054688,-31.88796997070312,17.66983032226562,2949.019793875,-1.543534106855256,-0.1459480367799311,-0.2715576429044231,35.21145629882812,-20.42074203491211,-5.318229198455811,-28.22672080993652,18.81688117980957,32.24664688110352,XArbitraryZVertical,-0.147132114913433,0.0423789359304237,-0.6820719751453828,0.7150762240312089,-0.1401010453701019,0.2682323157787323,-0.9531123042106628,0,0,0,-1,-1,2947.5725685,unknown,2,2022-06-02T10:50:03.294+02:00,2022-06-02T10:17:13.754+02:00,467,1.474645,0,0,361.8512,0,0,2022-06-02T10:49:24.918+02:00,675852603.2940118,0,5.75,101.3149,1,0.79
268,2022-06-02T10:50:04.762+02:00,1654159802.999938,53.22886256971697,10.39863936604038,32.9197,0,0.07,-1,103.9230494294148,4,5,-9999,2949.039782875,-10.90557861328125,-12.76817321777344,-0.676971435546875,2949.029787875,-1.392481625363355,-0.257165855546194,0.0225139468379959,23.04636573791504,-3.468995571136475,16.96240234375,-26.5467643737793,-21.52614784240723,29.51186752319336,XArbitraryZVertical,-0.0736673296054444,-0.1055382541729006,-0.6371106501257953,0.7599504905495084,-0.2542761862277985,-0.0225120447576046,-0.966869592666626,0,0,0,-1,-1,2947.5725685,unknown,2,2022-06-02T10:50:03.294+02:00,2022-06-02T10:17:13.754+02:00,467,1.474645,0,0,361.8512,0,0,2022-06-02T10:49:24.918+02:00,675852603.2940118,0,5.75,101.3149,1,0.79
269,2022-06-02T10:50:04.772+02:00,1654159802.999938,53.22886256971697,10.39863936604038,32.9197,0,0.07,-1,103.9230494294148,4,5,-9999,2949.049776875,-7.075088500976562,-3.430908203125,-2.19085693359375,2949.039782875,-1.202095692111964,-0.2828157604488883,0.1014754765950069,4.146532535552979,-0.5582823753356934,16.17926216125488,-17.92504119873047,-24.54765510559082,6.359493255615234,XArbitraryZVertical,-0.0381881724812166,-0.1444813262432876,-0.5650370049134249,0.81141849510606,-0.2776251137256622,-0.101301409304142,-0.9553335905075072,0,0,0,-1,-1,2947.5725685,unknown,2,2022-06-02T10:50:03.294+02:00,2022-06-02T10:17:13.754+02:00,467,1.474645,0,0,361.8512,0,0,2022-06-02T10:49:24.918+02:00,675852603.2940118,0,5.75,101.3149,1,0.79
270,2022-06-02T10:50:04.782+02:00,1654159802.999938,53.22886256971697,10.39863936604038,32.9197,0,0.07,-1,103.9230494294148,4,5,-9999,2949.059770875,-11.25138854980469,1.525497436523438,1.606826782226562,2949.049776875,-1.062761387594639,-0.3258575415611963,0.0557732902636455,-2.783956527709961,-7.204626083374023,13.86522006988525,-7.670336246490479,-5.904811859130859,-1.525211691856384,XArbitraryZVertical,-0.0584433587393452,-0.1537291329705097,-0.5037181037164574,0.8480682609543527,-0.3196235597133636,-0.0557443797588348,-0.945903480052948,0,0,0,-1,-1,2947.5725685,unknown,2,2022-06-02T10:50:03.294+02:00,2022-06-02T10:17:13.754+02:00,467,1.474645,0,0,361.8512,0,0,2022-06-02T10:49:24.918+02:00,675852603.2940118,0,5.75,101.3149,1,0.79
271,2022-06-02T10:50:04.792+02:00,1654159802.999938,53.22886256971697,10.39863936604038,32.9197,0,0.07,-1,103.9230494294148,4,5,-9999,2949.069765875,-12.65127563476562,1.085235595703125,4.426712036132812,2949.059770875,-0.929537592587548,-0.3975417638840899,-0.0087264799794431,1.135373473167419,-4.023585319519043,15.22344875335693,-7.703651428222656,-1.037473917007446,0.5016770362854004,XArbitraryZVertical,-0.0923295651458416,-0.1745997135320952,-0.4386164026130279,0.8767016581410471,-0.3871382474899292,0.0087263695895671,-0.9219803810119628,0,0,0,-1,-1,2947.5725685,unknown,2,2022-06-02T10:50:03.294+02:00,2022-06-02T10:17:13.754+02:00,467,1.474645,0,0,361.8512,0,0,2022-06-02T10:49:24.918+02:00,675852603.2940118,0,5.75,101.3149,1,0.79
272,2022-06-02T10:50:04.802+02:00,1654159802.999938,53.22886256971697,10.39863936604038,32.9197,0,0.07,-1,103.9230494294148,4,5,-9999,2949.079759875,-6.792999267578125,0.1080474853515625,4.888992309570312,2949.069765875,-0.7853842872535014,-0.3774139319434191,-0.0459416075200826,2.461699724197388,5.516688823699951,14.69249057769775,-13.41002368927002,2.406848669052124,4.457311153411865,XArbitraryZVertical,-0.0926107922227728,-0.1646308011930745,-0.3718037108132395,0.9088904749362684,-0.3681288063526154,0.0459254495799541,-0.9286398887634276,0,0,0,-1,-1,2947.5725685,unknown,2,2022-06-02T10:50:03.294+02:00,2022-06-02T10:17:13.754+02:00,467,1.474645,0,0,361.8512,0,0,2022-06-02T10:49:24.918+02:00,675852603.2940118,0,5.75,101.3149,1,0.79
273,2022-06-02T10:50:04.812+02:00,1654159802.999938,53.22886256971697,10.39863936604038,32.9197,0,0.07,-1,103.9230494294148,4,5,-9999,2949.089753875,-6.335678100585938,0.73101806640625,4.013290405273438,2949.079759875,-0.6349064252716412,-0.3279018581377188,-0.0767366598108393,2.424593925476074,1.936922550201416,15.361572265625,-8.964336395263672,-0.3782971501350403,5.614328861236572,XArbitraryZVertical,-0.0868640686781191,-0.1431347927406902,-0.3017875115444649,0.9385581372574078,-0.3211096227169037,0.0766613706946373,-0.9439341425895692,0,0,0,-1,-1,2947.5725685,unknown,2,2022-06-02T10:50:03.294+02:00,2022-06-02T10:17:13.754+02:00,467,1.474645,0,0,361.8512,0,0,2022-06-02T10:49:24.918+02:00,675852603.2940118,0,5.75,101.3149,1,0.79
274,2022-06-02T10:50:04.822+02:00,1654159802.999938,53.22886256971697,10.39863936604038,32.9197,0,0.07,-1,103.9230494294148,4,5,-9999,2949.099748875,-6.8427734375,0.038970947265625,3.917388916015625,2949.089753875,-0.4879208237198724,-0.317336914414605,-0.0971326909824652,2.67094087600708,-2.564025402069092,13.76788234710693,-5.86774730682373,0.8242387771606445,5.552204608917236,XArbitraryZVertical,-0.0846383424553438,-0.1415649251962033,-0.2307887342100139,0.9589224034444648,-0.3105667233467102,0.0969800278544426,-0.9455914497375488,0,0,0,-1,-1,2947.5725685,unknown,2,2022-06-02T10:50:03.294+02:00,2022-06-02T10:17:13.754+02:00,467,1.474645,0,0,361.8512,0,0,2022-06-02T10:49:24.918+02:00,675852603.2940118,0,5.75,101.3149,1,0.79
275,2022-06-02T10:50:04.832+02:00,1654159802.999938,53.22886256971697,10.39863936604038,32.9197,0,0.07,-1,103.9230494294148,4,5,-9999,2949.109742875,-7.088882446289062,1.919845581054688,4.456161499023438,2949.099748875,-0.3523662958693083,-0.3490977543539399,-0.1203012261760539,1.764912843704224,-6.343569755554199,13.32115173339844,-6.210852146148682,-0.1132669225335121,4.685346603393555,XArbitraryZVertical,-0.088668038943304,-0.1602900174429788,-0.1620195750927313,0.9696363249193845,-0.3395779728889465,0.1200112625956535,-0.9328901767730712,0,0,0,-1,-1,2947.5725685,unknown,2,2022-06-02T10:50:03.294+02:00,2022-06-02T10:17:13.754+02:00,467,1.474645,0,0,361.8512,0,0,2022-06-02T10:49:24.918+02:00,675852603.2940118,0,5.75,101.3149,1,0.79
276,2022-06-02T10:50:04.842+02:00,1654159802.999938,53.22886256971697,10.39863936604038,32.9197,0,0.07,-1,103.9230494294148,4,5,-9999,2949.119736875,-6.48455810546875,2.521148681640625,4.6336669921875,2949.109742875,-0.223681219990584,-0.4025727592993252,-0.1469486748198617,2.899794816970825,-7.82444429397583,12.26295566558838,-6.783883571624756,0.8059874176979065,5.105910301208496,XArbitraryZVertical,-0.0937302812740164,-0.1901172707971102,-0.0944744169879229,0.9726996097071122,-0.3875642120838165,0.1464203745126724,-0.910140097141266,0,0,0,-1,-1,2947.5725685,unknown,2,2022-06-02T10:50:03.294+02:00,2022-06-02T10:17:13.754+02:00,467,1.474645,0,0,361.8512,0,0,2022-06-02T10:49:24.918+02:00,675852603.2940118,0,5.75,101.3149,1,0.79
277,2022-06-02T10:50:04.852+02:00,1654159802.999938,53.22886256971697,10.39863936604038,32.9197,0,0.07,-1,103.9230494294148,4,5,-9999,2949.129731875,-7.27001953125,2.9847412109375,4.1219482421875,2949.119736875,-0.0999115195562817,-0.4715363952299795,-0.158970891351568,5.320533752441406,-9.704885482788086,10.88697814941406,-6.246952533721924,2.238197326660156,5.518554210662842,XArbitraryZVertical,-0.0887363123930101,-0.2287067639980097,-0.0298759214042042,0.9689821690141022,-0.4485277235507965,0.1583021581172943,-0.8796381950378418,0,0,0,-1,-1,2947.5725685,unknown,2,2022-06-02T10:50:03.294+02:00,2022-06-02T10:17:13.754+02:00,467,1.474645,0,0,361.8512,0,0,2022-06-02T10:49:24.918+02:00,675852603.2940118,0,5.75,101.3149,1,0.79
278,2022-06-02T10:50:04.862+02:00,1654159802.999938,53.22886256971697,10.39863936604038,32.9197,0,0.07,-1,103.9230494294148,4,5,-9999,2949.139725875,-7.945404052734375,3.183837890625,3.658477783203125,2949.129731875,0.0231809879930054,-0.5519003190365686,-0.1505999834018583,8.0493803024292,-9.94286060333252,9.537477493286133,-6.242141246795654,2.530739545822144,5.253939628601074,XArbitraryZVertical,-0.0692288980123155,-0.2725098849498215,0.0316157108950711,0.9591382219803714,-0.5183718800544739,0.1500313580036163,-0.8418914675712585,0,0,0,-1,-1,2947.5725685,unknown,2,2022-06-02T10:50:03.294+02:00,2022-06-02T10:17:13.754+02:00,467,1.474645,0,0,361.8512,0,0,2022-06-02T10:49:24.918+02:00,675852603.2940118,0,5.75,101.3149,1,0.79
279,2022-06-02T10:50:04.872+02:00,1654159802.999938,53.22886256971697,10.39863936604038,32.9197,0,0.07,-1,103.9230494294148,4,5,-9999,2949.149719875,-7.615463256835938,2.446762084960938,3.249359130859375,2949.139725875,0.151860280469653,-0.6273687408484556,-0.1243325450954705,10.40832901000977,-8.571858406066895,8.771672248840332,-7.138874053955078,3.089595317840576,4.674968719482422,XArbitraryZVertical,-0.0355627187764408,-0.3115646601194919,0.0911309952944725,0.9451760948896144,-0.5824851989746094,0.1240124553442001,-0.8033255338668823,0,0,0,-1,-1,2947.5725685,unknown,2,2022-06-02T10:50:03.294+02:00,2022-06-02T10:17:13.754+02:00,467,1.474645,0,0,361.8512,0,0,2022-06-02T10:49:24.918+02:00,675852603.2940118,0,5.75,101.3149,1,0.79
280,2022-06-02T10:50:04.882+02:00,1654159802.999938,53.22886256971697,10.39863936604038,32.9197,0,0.07,-1,103.9230494294148,4,5,-9999,2949.159714875,-6.71710205078125,1.806243896484375,2.860626220703125,2949.149719875,0.2894451558208835,-0.6903545220152371,-0.0890285003952239,11.81304836273193,-7.043725967407227,8.589677810668945,-7.279087066650391,2.788225173950195,4.220771312713623,XArbitraryZVertical,0.0073127327937081,-0.3405336378643191,0.1504764735203323,0.9280841386621932,-0.6342885494232178,0.0889109373092651,-0.7679667472839355,0,0,0,-1,-1,2947.5725685,unknown,2,2022-06-02T10:50:03.294+02:00,2022-06-02T10:17:13.754+02:00,467,1.474645,0,0,361.8512,0,0,2022-06-02T10:49:24.918+02:00,675852603.2940118,0,5.75,101.3149,1,0.79
281,2022-06-02T10:50:04.892+02:00,1654159802.999938,53.22886256971697,10.39863936604038,32.9197,0,0.07,-1,103.9230494294148,4,5,-9999,2949.169708875,-6.086578369140625,1.516616821289062,2.490814208984375,2949.159714875,0.4346603212453878,-0.7460555686251095,-0.0546727123302886,12.34810638427734,-6.240256309509277,8.70910358428955,-6.493393898010254,2.009578704833984,3.784238815307617,XArbitraryZVertical,0.053697241224615,-0.3612192384866589,0.2104463489648229,0.9068348605339556,-0.6777331829071045,0.0546454787254333,-0.733274519443512,0,0,0,-1,-1,2947.5725685,unknown,2,2022-06-02T10:50:03.294+02:00,2022-06-02T10:17:13.754+02:00,467,1.474645,0,0,361.8512,0,0,2022-06-02T10:49:24.918+02:00,675852603.2940118,0,5.75,101.3149,1,0.79
282,2022-06-02T10:50:04.902+02:00,1654159802.999938,53.22886256971697,10.39863936604038,32.9197,0,0.07,-1,103.9230494294148,4,5,-9999,2949.179702875,-5.663360595703125,1.212722778320312,2.15179443359375,2949.169708875,0.5833953336638225,-0.7992533121014697,-0.0274310358188084,12.24975681304932,-5.589450836181641,8.753519058227539,-5.639360427856445,1.615501403808594,3.370899438858032,XArbitraryZVertical,0.0997782645347155,-0.3762371429588132,0.2700050814009824,0.8806741920533577,-0.7165659666061401,0.0274275951087474,-0.696979820728302,0,0,0,-1,-1,2947.5725685,unknown,2,2022-06-02T10:50:03.294+02:00,2022-06-02T10:17:13.754+02:00,467,1.474645,0,0,361.8512,0,0,2022-06-02T10:49:24.918+02:00,675852603.2940118,0,5.75,101.3149,1,0.79
283,2022-06-02T10:50:04.912+02:00,1654159802.999938,53.22886256971697,10.39863936604038,32.9197,0,0.07,-1,103.9230494294148,4,5,-9999,2949.189697875,-5.25091552734375,0.845245361328125,1.7879638671875,2949.179702875,0.7304424639420488,-0.848548555976961,-0.0098764006582519,11.68791580200195,-4.786499500274658,8.621440887451172,-5.12175464630127,1.369380950927734,2.975509166717529,XArbitraryZVertical,0.1428213546079227,-0.3861110683250755,0.3273845010571198,0.8504936796150863,-0.7502850294113159,0.0098762400448322,-0.6610406041145325,0,0,0,-1,-1,2947.5725685,unknown,2,2022-06-02T10:50:03.294+02:00,2022-06-02T10:17:13.754+02:00,467,1.474645,0,0,361.8512,0,0,2022-06-02T10:49:24.918+02:00,675852603.2940118,0,5.75,101.3149,1,0.79
284,2022-06-02T10:50:04.922+02:00,1654159802.999938,53.22886256971697,10.39863936604038,32.9197,0,0.07,-1,103.9230494294148,4,5,-9999,2949.199691875,-4.883773803710938,0.498382568359375,1.328292846679688,2949.189697875,0.8705413059008892,-0.8916484310054165,-0.0021377923881967,10.69441509246826,-3.996823787689209,8.244913101196289,-4.680191040039062,1.028730750083923,2.611069440841675,XArbitraryZVertical,0.1809441321729594,-0.3914011251016531,0.3808590447694649,0.8179307141417139,-0.7781064510345459,0.0021377906668931,-0.6281287670135498,0,0,0,-1,-1,2947.5725685,unknown,2,2022-06-02T10:50:03.294+02:00,2022-06-02T10:17:13.754+02:00,467,1.474645,0,0,361.8512,0,0,2022-06-02T10:49:24.918+02:00,675852603.2940118,0,5.75,101.3149,1,0.79
285,2022-06-02T10:50:04.932+02:00,1654159802.999938,53.22886256971697,10.39863936604038,32.9197,0,0.07,-1,103.9230494294148,4,5,-9999,2949.209685875,-4.646499633789062,0.2772064208984375,0.8445587158203125,2949.199691875,0.9990556077680328,-0.9277196147249256,-0.0038409612504029,9.361190795898438,-3.269201993942261,7.799015045166016,-4.253828525543213,0.6589550375938416,2.166260719299316,XArbitraryZVertical,0.2128031220643801,-0.3935566475090824,0.4291485309041182,0.7846397157297765,-0.8002486228942871,0.0038409517146646,-0.5996559858322144,0,0,0,-1,-1,2947.5725685,unknown,2,2022-06-02T10:50:03.294+02:00,2022-06-02T10:17:13.754+02:00,467,1.474645,0,0,361.8512,0,0,2022-06-02T10:49:24.918+02:00,675852603.2940118,0,5.75,101.3149,1,0.79
286,2022-06-02T10:50:04.942+02:00,1654159802.999938,53.22886256971697,10.39863936604038,32.9197,0,0.07,-1,103.9230494294148,4,5,-9999,2949.219680875,-4.410598754882812,0.232818603515625,0.4066619873046875,2949.209685875,1.112410818994292,-0.9547354899040812,-0.0147116275295223,7.65761661529541,-2.285249710083008,7.345944404602051,-3.938321828842163,0.3496382534503937,1.660510540008545,XArbitraryZVertical,0.2370156551256521,-0.3936273907486515,0.4718019729833929,0.7525183560226258,-0.8160725831985474,0.0147110968828201,-0.5777621269226074,0,0,0,-1,-1,2947.5725685,unknown,2,2022-06-02T10:50:03.294+02:00,2022-06-02T10:17:13.754+02:00,467,1.474645,0,0,361.8512,0,0,2022-06-02T10:49:24.918+02:00,675852603.2940118,0,5.75,101.3149,1,0.79
287,2022-06-02T10:50:04.952+02:00,1654159802.999938,53.22886256971697,10.39863936604038,32.9197,0,0.07,-1,103.9230494294148,4,5,-9999,2949.229674875,-4.0186767578125,0.3320465087890625,0.1204833984375,2949.219680875,1.209136483953513,-0.9689781062111156,-0.035254137150822,5.904623985290527,-1.01818585395813,7.085615634918213,-3.716152191162109,0.1997232139110565,1.179956674575806,XArbitraryZVertical,0.2518650683769691,-0.3920061140323378,0.509666878354948,0.7232805887659493,-0.8237953782081604,0.0352468341588974,-0.5657904148101807,0,0,0,-1,-1,2947.5725685,unknown,2,2022-06-02T10:50:03.294+02:00,2022-06-02T10:17:13.754+02:00,467,1.474645,0,0,361.8512,0,0,2022-06-02T10:49:24.918+02:00,675852603.2940118,0,5.75,101.3149,1,0.79
288,2022-06-02T10:50:04.962+02:00,1654159802.999938,53.22886256971697,10.39863936604038,32.9197,0,0.07,-1,103.9230494294148,4,5,-9999,2949.239668875,-3.4932861328125,0.3256378173828125,0.032745361328125,2949.229674875,1.291158187556913,-0.9694484808350562,-0.0630437292816782,4.502610683441162,0.0691296681761741,6.743159294128418,-3.415467500686646,0.2121597528457642,0.8026217818260193,XArbitraryZVertical,0.2579393575567526,-0.3887827921785885,0.5438175392338971,0.6975512187200452,-0.8229357004165649,0.0630019754171371,-0.5646304488182068,0,0,0,-1,-1,2947.5725685,unknown,2,2022-06-02T10:50:03.294+02:00,2022-06-02T10:17:13.754+02:00,467,1.474645,0,0,361.8512,0,0,2022-06-02T10:49:24.918+02:00,675852603.2940118,0,5.75,101.3149,1,0.79
289,2022-06-02T10:50:04.972+02:00,1654159802.999938,53.22886256971697,10.39863936604038,32.9197,0,0.07,-1,103.9230494294148,4,5,-9999,2949.249662875,-3.068878173828125,0.226898193359375,0.0570526123046875,2949.239668875,1.361274830127003,-0.9597565667428936,-0.0939743971196134,3.515941858291626,0.7231059074401855,6.315864562988281,-2.948554277420044,0.2586876451969147,0.6255855560302734,XArbitraryZVertical,0.2578231376349155,-0.3846209466804451,0.5744477014983689,0.6749842161800446,-0.8154379725456238,0.0938361436128616,-0.5711879134178162,0,0,0,-1,-1,2947.5725685,unknown,2,2022-06-02T10:50:03.294+02:00,2022-06-02T10:17:13.754+02:00,467,1.474645,0,0,361.8512,0,0,2022-06-02T10:49:24.918+02:00,675852603.2940118,0,5.75,101.3149,1,0.79
290,2022-06-02T10:50:04.982+02:00,1654159802.999938,53.22886256971697,10.39863936604038,32.9197,0,0.07,-1,103.9230494294148,4,5,-9999,2949.259657875,-2.811447143554688,0.13623046875,0.0784912109375,2949.249662875,1.422259478229694,-0.9434960861329064,-0.1254595377357111,2.722855806350708,1.186277627944946,5.851582527160645,-2.451707363128662,0.1486272215843201,0.6209830045700073,XArbitraryZVertical,0.2537209072811068,-0.3800681956767358,0.6018402379707737,0.6549519268030366,-0.8032516837120056,0.1251306682825089,-0.5823477506637573,0,0,0,-1,-1,2947.5725685,unknown,2,2022-06-02T10:50:03.294+02:00,2022-06-02T10:17:13.754+02:00,467,1.474645,0,0,361.8512,0,0,2022-06-02T10:49:24.918+02:00,675852603.2940118,0,5.75,101.3149,1,0.79
291,2022-06-02T10:50:04.992+02:00,1654159802.999938,53.22886256971697,10.39863936604038,32.9197,0,0.07,-1,103.9230494294148,4,5,-9999,2949.269651875,-2.577468872070312,0.065338134765625,0.09295654296875,2949.259657875,1.475323093460129,-0.9219865220657824,-0.1562107324783849,2.090269088745117,1.631617307662964,5.34071159362793,-2.140098571777344,0.0294060558080673,0.6684449315071106,XArbitraryZVertical,0.2465528634839837,-0.3751947612536911,0.6262011899957678,0.6374264001956791,-0.7871015071868896,0.1555761992931366,-0.5968811511993408,0,0,0,-1,-1,2947.5725685,unknown,2,2022-06-02T10:50:03.294+02:00,2022-06-02T10:17:13.754+02:00,467,1.474645,0,0,361.8512,0,0,2022-06-02T10:49:24.918+02:00,675852603.2940118,0,5.75,101.3149,1,0.79
292,2022-06-02T10:50:05.002+02:00,1654159802.999938,53.22886256971697,10.39863936604038,32.9197,0,0.07,-1,103.9230494294148,4,5,-9999,2949.279645875,-2.270355224609375,0.0187225341796875,0.092254638671875,2949.269651875,1.521454188382296,-0.8956190754206457,-0.185145406112044,1.527679204940796,2.068024635314941,4.818423748016357,-1.934603095054626,-0.0923994183540344,0.6989635229110718,XArbitraryZVertical,0.2368917391672079,-0.3697371413236322,0.6477983601947508,0.6225222800516536,-0.7672553658485413,0.1840894520282745,-0.6143534779548645,0,0,0,-1,-1,2947.5725685,unknown,2,2022-06-02T10:50:03.294+02:00,2022-06-02T10:17:13.754+02:00,467,1.474645,0,0,361.8512,0,0,2022-06-02T10:49:24.918+02:00,675852603.2940118,0,5.75,101.3149,1,0.79
293,2022-06-02T10:50:05.012+02:00,1654159802.999938,53.22886256971697,10.39863936604038,32.9197,0,0.07,-1,103.9230494294148,4,5,-9999,2949.289640875,-1.925201416015625,0.1029815673828125,0.0708465576171875,2949.279645875,1.561195730638373,-0.8656544200915697,-0.2119787034880456,1.096062541007996,2.314653635025024,4.291153907775879,-1.689485788345337,-0.1731938421726227,0.7304054498672485,XArbitraryZVertical,0.2252722396983876,-0.3639166087774577,0.6667530571397663,0.6101291033085214,-0.7444741129875183,0.2103947252035141,-0.6336342692375183,0,0,0,-1,-1,2947.5725685,unknown,2,2022-06-02T10:50:03.294+02:00,2022-06-02T10:17:13.754+02:00,467,1.474645,0,0,361.8512,0,0,2022-06-02T10:49:24.918+02:00,675852603.2940118,0,5.75,101.3149,1,0.79
294,2022-06-02T10:50:05.022+02:00,1654159802.999938,53.22886256971697,10.39863936604038,32.9197,0,0.07,-1,103.9230494294148,4,5,-9999,2949.299634875,-1.680831909179688,0.244476318359375,0.0075836181640625,2949.289640875,1.595939412120167,-0.8350901557528437,-0.2361800232526049,0.8217146396636963,2.218643665313721,3.822273015975952,-1.372104167938232,-0.1949432194232941,0.7369832396507263,XArbitraryZVertical,0.2131166728284905,-0.3582474860669078,0.6832294908724883,0.5995309493186352,-0.7207760810852051,0.233990415930748,-0.6524800658226013,0,0,0,-1,-1,2947.5725685,unknown,2,2022-06-02T10:50:03.294+02:00,2022-06-02T10:17:13.754+02:00,467,1.474645,0,0,361.8512,0,0,2022-06-02T10:49:24.918+02:00,675852603.2940118,0,5.75,101.3149,1,0.79
295,2022-06-02T10:50:05.032+02:00,1654159802.999938,53.22886256971697,10.39863936604038,32.9197,0,0.07,-1,103.9230494294148,4,5,-9999,2949.309628875,-1.549957275390625,0.3211517333984375,-0.1107177734375,2949.299634875,1.62674703823304,-0.806797505143423,-0.2574476964837368,0.6598029732704163,1.934908866882324,3.369102954864502,-1.086893558502197,-0.0769704282283783,0.7140734791755676,XArbitraryZVertical,0.2017515600299171,-0.3532551315088388,0.6973776322267143,0.5900605121578403,-0.6982778310775757,0.2546131908893585,-0.6690142154693604,0,0,0,-1,-1,2947.5725685,unknown,2,2022-06-02T10:50:03.294+02:00,2022-06-02T10:17:13.754+02:00,467,1.474645,0,0,361.8512,0,0,2022-06-02T10:49:24.918+02:00,675852603.2940118,0,5.75,101.3149,1,0.79
296,2022-06-02T10:50:05.042+02:00,1654159802.999938,53.22886256971697,10.39863936604038,32.9197,0,0.07,-1,103.9230494294148,4,5,-9999,2949.319623875,-1.418655395507812,0.3278961181640625,-0.21820068359375,2949.309628875,1.654367625992349,-0.7814292707293427,-0.2754684187060039,0.6131556630134583,1.697947263717651,2.955728530883789,-0.9305043816566468,0.0215965807437896,0.6350926756858826,XArbitraryZVertical,0.1917208162985942,-0.3488149073199093,0.7095115029168017,0.5815191523150723,-0.6777413487434387,0.2719977200031281,-0.6831426024436951,0,0,0,-1,-1,2947.5725685,unknown,2,2022-06-02T10:50:03.294+02:00,2022-06-02T10:17:13.754+02:00,467,1.474645,0,0,361.8512,0,0,2022-06-02T10:49:24.918+02:00,675852603.2940118,0,5.75,101.3149,1,0.79
297,2022-06-02T10:50:05.052+02:00,1654159802.999938,53.22886256971697,10.39863936604038,32.9197,0,0.07,-1,103.9230494294148,4,5,-9999,2949.329617875,-1.20501708984375,0.3106231689453125,-0.270233154296875,2949.319623875,1.679681541015018,-0.7582162071370367,-0.2903718929426291,0.6373690962791443,1.540944814682007,2.627814769744873,-0.833742618560791,0.0435406267642974,0.5277611613273621,XArbitraryZVertical,0.1829227737726718,-0.3445356809023429,0.7201386929978464,0.5737896274089069,-0.6588415503501892,0.2863085567951202,-0.6956688761711121,0,0,0,-1,-1,2947.5725685,unknown,2,2022-06-02T10:50:03.294+02:00,2022-06-02T10:17:13.754+02:00,467,1.474645,0,0,361.8512,0,0,2022-06-02T10:49:24.918+02:00,675852603.2940118,0,5.75,101.3149,1,0.79
298,2022-06-02T10:50:05.062+02:00,1654159802.999938,53.22886256971697,10.39863936604038,32.9197,0,0.07,-1,103.9230494294148,4,5,-9999,2949.339611875,-0.94366455078125,0.28729248046875,-0.2779693603515625,2949.329617875,1.703083123838443,-0.7366375527334407,-0.3027199777758872,0.5801573395729065,1.40210497379303,2.331092596054077,-0.6797149181365967,0.0224237442016601,0.452823281288147,XArbitraryZVertical,0.1750888146754259,-0.3403218246058983,0.7295859931250728,0.5667708380915097,-0.641253650188446,0.298117607831955,-0.7070499062538147,0,0,0,-1,-1,2947.5725685,unknown,2,2022-06-02T10:50:03.294+02:00,2022-06-02T10:17:13.754+02:00,467,1.474645,0,0,361.8512,0,0,2022-06-02T10:49:24.918+02:00,675852603.2940118,0,5.75,101.3149,1,0.79
299,2022-06-02T10:50:05.072+02:00,1654159802.999938,53.22886256971697,10.39863936604038,32.9197,0,0.07,-1,103.9230494294148,4,5,-9999,2949.349606875,-0.722930908203125,0.326141357421875,-0.2743988037109375,2949.349606875,1.742832579385072,-0.7020410050807838,-0.3193998376578028,0.6458321809768677,0.810533881187439,1.570204377174377,-0.2055785059928894,-0.0116592049598693,0.4427441358566284,XArbitraryZVertical,0.1636576599268665,-0.3328082664648017,0.7446351984865811,0.5549532192665934,-0.6131165623664856,0.313996821641922,-0.7249096632003784,0,0,0,-1,-1,2947.5725685,unknown,2,2022-06-02T10:50:03.294+02:00,2022-06-02T10:17:13.754+02:00,467,1.474645,0,0,361.8512,0,0,2022-06-02T10:49:24.918+02:00,675852603.2940118,0,5.75,101.3149,1,0.79
300,2022-06-02T10:50:05.087+02:00,1654159802.999938,53.22886256971697,10.39863936604038,32.9197,0,0.07,-1,103.9230494294148,4,5,-9999,2949.359600875,-0.590606689453125,0.3272857666015625,-0.2893829345703125,2949.349606875,1.742832579385072,-0.7020410050807838,-0.3193998376578028,0.6458321809768677,0.810533881187439,1.570204377174377,-0.2055785059928894,-0.0116592049598693,0.4427441358566284,XArbitraryZVertical,0.1636576599268665,-0.3328082664648017,0.7446351984865811,0.5549532192665934,-0.6131165623664856,0.313996821641922,-0.7249096632003784,0,0,0,-1,-1,2947.5725685,unknown,2,2022-06-02T10:50:03.294+02:00,2022-06-02T10:17:13.754+02:00,467,1.474645,0,0,361.8512,0,0,2022-06-02T10:49:24.918+02:00,675852603.2940118,0,5.75,101.3149,1,0.79
301,2022-06-02T10:50:05.092+02:00,1654159802.999938,53.22886256971697,10.39863936604038,32.9197,0,0.07,-1,103.9230494294148,4,5,-9999,2949.369594875,-0.4667205810546875,0.28643798828125,-0.32147216796875,2949.359600875,1.758187086462103,-0.6903742002161415,-0.3227980200842575,0.7236561179161072,0.5523604154586792,1.10756504535675,-0.0497061014175415,0.0206997990608215,0.4557805061340332,XArbitraryZVertical,0.1607590582992978,-0.3294895047355776,0.7499956990702407,0.5505447692819886,-0.603934645652771,0.3172213137149811,-0.7311863899230957,0,0,0,-1,-1,2947.5725685,unknown,2,2022-06-02T10:50:03.294+02:00,2022-06-02T10:17:13.754+02:00,467,1.474645,0,0,361.8512,0,0,2022-06-02T10:49:24.918+02:00,675852603.2940118,0,5.75,101.3149,1,0.79
