,loggingTime(txt),locationTimestamp_since1970(s),locationLatitude(WGS84),locationLongitude(WGS84),locationAltitude(m),locationSpeed(m/s),locationSpeedAccuracy(m/s),locationCourse(°),locationCourseAccuracy(°),locationVerticalAccuracy(m),locationHorizontalAccuracy(m),locationFloor(Z),accelerometerTimestamp_sinceReboot(s),accelerometerAccelerationX(G),accelerometerAccelerationY(G),accelerometerAccelerationZ(G),motionTimestamp_sinceReboot(s),motionYaw(rad),motionRoll(rad),motionPitch(rad),motionRotationRateX(rad/s),motionRotationRateY(rad/s),motionRotationRateZ(rad/s),motionUserAccelerationX(G),motionUserAccelerationY(G),motionUserAccelerationZ(G),motionAttitudeReferenceFrame(txt),motionQuaternionX(R),motionQuaternionY(R),motionQuaternionZ(R),motionQuaternionW(R),motionGravityX(G),motionGravityY(G),motionGravityZ(G),motionMagneticFieldX(µT),motionMagneticFieldY(µT),motionMagneticFieldZ(µT),motionHeading(°),motionMagneticFieldCalibrationAccuracy(Z),activityTimestamp_sinceReboot(s),activity(txt),activityActivityConfidence(Z),activityActivityStartDate(txt),pedometerStartDate(txt),pedometerNumberofSteps(N),pedometerAverageActivePace(s/m),pedometerCurrentPace(s/m),pedometerCurrentCadence(steps/s),pedometerDistance(m),pedometerFloorAscended(N),pedometerFloorDescended(N),pedometerEndDate(txt),altimeterTimestamp_sinceReboot(s),altimeterReset(bool),altimeterRelativeAltitude(m),altimeterPressure(kPa),batteryState(N),batteryLevel(R)
285,2022-06-02T10:51:55.662+02:00,1654159911.999942,53.22910106456729,10.39847931417128,36.73664,0.0,20.0,-1.0,-1.0,2.400000095367432,7.999579855010836,-9999,3059.939911125,0.516448974609375,-0.425048828125,-0.6096343994140625,3059.929917125,-2.905584600058255,0.7989213804532834,0.960254638964682,4.125572681427002,6.177923202514648,-5.129449844360352,0.2627619206905365,0.1421831250190735,-0.4649187326431274,XArbitraryZVertical,0.3926471899658945,-0.3819575366599437,-0.7902768669177437,0.2745889656825862,0.410837322473526,-0.8193376064300537,-0.3998732566833496,0,0,0,-1,-1,3052.37708675,unknown,2,2022-06-02T10:51:48.099+02:00,2022-06-02T10:17:13.754+02:00,512,1.445976,0,0,397.4887,0,0,2022-06-02T10:51:53.215+02:00,675852713.2145439,0,5.089844,101.3214,1,0.79
286,2022-06-02T10:51:55.672+02:00,1654159911.999942,53.22910106456729,10.39847931417128,36.73664,0.0,20.0,-1.0,-1.0,2.400000095367432,7.999579855010836,-9999,3059.949905125,0.368255615234375,-0.1691131591796875,-0.2401123046875,3059.939911125,-3.019167682039063,0.9580722132961637,0.9442753761866838,3.967369079589844,7.144615173339844,-5.756239414215088,0.1338579952716827,0.2758469581604004,-0.380347341299057,XArbitraryZVertical,0.4344191504104715,-0.3777318809879182,-0.7760481173345283,0.2575807804413637,0.4796673953533173,-0.8100723028182983,-0.3371972441673279,0,0,0,-1,-1,3052.37708675,unknown,2,2022-06-02T10:51:48.099+02:00,2022-06-02T10:17:13.754+02:00,512,1.445976,0,0,397.4887,0,0,2022-06-02T10:51:53.215+02:00,675852713.2145439,0,5.089844,101.3214,1,0.79
287,2022-06-02T10:51:55.682+02:00,1654159911.999942,53.22910106456729,10.39847931417128,36.73664,0.0,20.0,-1.0,-1.0,2.400000095367432,7.999579855010836,-9999,3059.959899125,0.4514007568359375,-0.0591583251953125,0.351776123046875,3059.949905125,-3.123952560365217,1.118887334507736,0.9112356998000802,3.435772895812988,8.254204750061035,-6.29856538772583,-0.1286646723747253,0.5140317678451538,-0.1890023350715637,XArbitraryZVertical,0.4798469477847023,-0.3687189487041329,-0.7590019636251133,0.240227359066176,0.5512567758560181,-0.7902615666389465,-0.2675864994525909,0,0,0,-1,-1,3052.37708675,unknown,2,2022-06-02T10:51:48.099+02:00,2022-06-02T10:17:13.754+02:00,512,1.445976,0,0,397.4887,0,0,2022-06-02T10:51:53.215+02:00,675852713.2145439,0,5.089844,101.3214,1,0.79
288,2022-06-02T10:51:55.692+02:00,1654159911.999942,53.22910106456729,10.39847931417128,36.73664,0.0,20.0,-1.0,-1.0,2.400000095367432,7.999579855010836,-9999,3059.969894125,0.678741455078125,0.1603851318359375,0.962005615234375,3059.959899125,3.079090668053051,1.269538946221652,0.8614938173464692,2.264100790023804,9.46788501739502,-6.681379795074463,-0.2429441809654236,0.6448485255241394,0.2447236776351929,XArbitraryZVertical,0.5280561454541883,-0.3528863571714491,-0.7390351892213308,0.2246214440753643,0.6219724416732788,-0.7588163614273071,-0.1932558566331863,0,0,0,-1,-1,3052.37708675,unknown,2,2022-06-02T10:51:48.099+02:00,2022-06-02T10:17:13.754+02:00,512,1.445976,0,0,397.4887,0,0,2022-06-02T10:51:53.215+02:00,675852713.2145439,0,5.089844,101.3214,1,0.79
289,2022-06-02T10:51:55.702+02:00,1654159911.999942,53.22910106456729,10.39847931417128,36.73664,0.0,20.0,-1.0,-1.0,2.400000095367432,7.999579855010836,-9999,3059.979888125,0.9112091064453124,0.4327545166015625,1.640121459960938,3059.969894125,3.03463849712307,1.404130691862534,0.7987784739028031,0.6107513904571533,10.9076976776123,-6.918800354003906,-0.1316877603530884,0.739743709564209,0.7577694654464722,XArbitraryZVertical,0.5782509009370099,-0.3282729571699706,-0.7158380268694415,0.21316350585971,0.6879163384437561,-0.7165045142173767,-0.1157255247235298,0,0,0,-1,-1,3052.37708675,unknown,2,2022-06-02T10:51:48.099+02:00,2022-06-02T10:17:13.754+02:00,512,1.445976,0,0,397.4887,0,0,2022-06-02T10:51:53.215+02:00,675852713.2145439,0,5.089844,101.3214,1,0.79
290,2022-06-02T10:51:55.712+02:00,1654159911.999942,53.22910106456729,10.39847931417128,36.73664,0.0,20.0,-1.0,-1.0,2.400000095367432,7.999579855010836,-9999,3059.989882125,1.057083129882812,0.5485687255859375,2.287216186523438,3059.979888125,3.029948908765128,1.524640709117421,0.7296517283330547,-1.496337056159973,12.56016731262207,-6.899377822875977,0.0530253052711486,0.985381543636322,1.336211204528809,XArbitraryZVertical,0.62974841384299,-0.293633608716687,-0.6883311053488391,0.2083179351910834,0.7446125745773315,-0.666610062122345,-0.0343924798071384,0,0,0,-1,-1,3052.37708675,unknown,2,2022-06-02T10:51:48.099+02:00,2022-06-02T10:17:13.754+02:00,512,1.445976,0,0,397.4887,0,0,2022-06-02T10:51:53.215+02:00,675852713.2145439,0,5.089844,101.3214,1,0.79
291,2022-06-02T10:51:55.722+02:00,1654159911.999942,53.22910106456729,10.39847931417128,36.73664,0.0,20.0,-1.0,-1.0,2.400000095367432,7.999579855010836,-9999,3059.999877125,0.984039306640625,0.657012939453125,2.801498413085938,3059.989882125,3.067081120340163,1.635354330176192,0.6627983423857801,-4.131263732910156,14.34009265899658,-6.527210712432861,0.2227833867073059,1.119231462478638,1.923831582069397,XArbitraryZVertical,0.6810953305234041,-0.2480648201449364,-0.6550970463326716,0.2131214547362517,0.7866312265396118,-0.6153250932693481,0.0508540086448192,0,0,0,-1,-1,3052.37708675,unknown,2,2022-06-02T10:51:48.099+02:00,2022-06-02T10:17:13.754+02:00,512,1.445976,0,0,397.4887,0,0,2022-06-02T10:51:53.215+02:00,675852713.2145439,0,5.089844,101.3214,1,0.79
292,2022-06-02T10:51:55.732+02:00,1654159911.999942,53.22910106456729,10.39847931417128,36.73664,0.0,20.0,-1.0,-1.0,2.400000095367432,7.999579855010836,-9999,3060.009871125,0.910552978515625,0.7087554931640625,3.412277221679688,3059.999877125,3.140983400670436,1.744052441833839,0.607469772958753,-6.334645748138428,16.12724304199219,-5.861842632293701,0.2328240275382996,1.157049775123596,2.408072471618652,XArbitraryZVertical,0.7305292279392875,-0.1926176851445363,-0.613900949927976,0.228803558037783,0.8088019490242004,-0.5707917213439941,0.1415490508079529,0,0,0,-1,-1,3052.37708675,unknown,2,2022-06-02T10:51:48.099+02:00,2022-06-02T10:17:13.754+02:00,512,1.445976,0,0,397.4887,0,0,2022-06-02T10:51:53.215+02:00,675852713.2145439,0,5.089844,101.3214,1,0.79
293,2022-06-02T10:51:55.742+02:00,1654159911.999942,53.22910106456729,10.39847931417128,36.73664,0.0,20.0,-1.0,-1.0,2.400000095367432,7.999579855010836,-9999,3060.019865125,0.771759033203125,0.2681884765625,3.959274291992188,3060.009871125,-3.042489301290662,1.857808977510736,0.5714010455167616,-8.216167449951172,17.68471145629883,-4.926006317138672,0.1227530837059021,1.272302150726318,2.858973503112793,XArbitraryZVertical,0.775911388320119,-0.1304628935623819,-0.5625566269568916,0.2539114230991633,0.806736171245575,-0.5408110618591309,0.2381180971860886,0,0,0,-1,-1,3052.37708675,unknown,2,2022-06-02T10:51:48.099+02:00,2022-06-02T10:17:13.754+02:00,512,1.445976,0,0,397.4887,0,0,2022-06-02T10:51:53.215+02:00,675852713.2145439,0,5.089844,101.3214,1,0.79
294,2022-06-02T10:51:55.752+02:00,1654159911.999942,53.22910106456729,10.39847931417128,36.73664,0.0,20.0,-1.0,-1.0,2.400000095367432,7.999579855010836,-9999,3060.029859125,0.4163818359375,-0.03680419921875,4.516159057617188,3060.019865125,-2.924165752735886,1.977708496794961,0.560812938145993,-9.74578094482422,18.92482757568359,-3.834617137908936,0.0924396514892578,1.070220232009888,3.38762640953064,XArbitraryZVertical,0.8145337225383151,-0.0641149110327247,-0.4999774068335774,0.287135302973934,0.777677595615387,-0.5318747758865356,0.3351518213748932,0,0,0,-1,-1,3052.37708675,unknown,2,2022-06-02T10:51:48.099+02:00,2022-06-02T10:17:13.754+02:00,512,1.445976,0,0,397.4887,0,0,2022-06-02T10:51:53.215+02:00,675852713.2145439,0,5.089844,101.3214,1,0.79
295,2022-06-02T10:51:55.762+02:00,1654159911.999942,53.22910106456729,10.39847931417128,36.73664,0.0,20.0,-1.0,-1.0,2.400000095367432,7.999579855010836,-9999,3060.039854125,0.18133544921875,-0.4802398681640625,5.454620361328125,3060.029859125,-2.802570419735813,2.107421988482237,0.5769776675982874,-9.97007179260254,20.04562759399414,-2.632853746414185,-0.0905019640922546,0.6085121631622314,3.748830080032349,XArbitraryZVertical,0.8451240643938398,0.0019568120468589,-0.4254059668579628,0.3237147488791433,0.7203085422515869,-0.5454933643341064,0.428477019071579,0,0,0,-1,-1,3052.37708675,unknown,2,2022-06-02T10:51:48.099+02:00,2022-06-02T10:17:13.754+02:00,512,1.445976,0,0,397.4887,0,0,2022-06-02T10:51:53.215+02:00,675852713.2145439,0,5.089844,101.3214,1,0.79
296,2022-06-02T10:51:55.772+02:00,1654159911.999942,53.22910106456729,10.39847931417128,36.73664,0.0,20.0,-1.0,-1.0,2.400000095367432,7.999579855010836,-9999,3060.049848125,-0.116119384765625,-1.446990966796875,6.423919677734375,3060.039854125,-2.690784855685554,2.248647936297927,0.6153553867178222,-9.588020324707031,20.69113540649414,-1.625775814056396,-0.3832810521125793,0.412148654460907,4.469632625579834,XArbitraryZVertical,0.8670995769699925,0.064667784545069,-0.3400485998733499,0.3582224879134953,0.6360428929328918,-0.577248752117157,0.5120872259140015,0,0,0,-1,-1,3052.37708675,unknown,2,2022-06-02T10:51:48.099+02:00,2022-06-02T10:17:13.754+02:00,512,1.445976,0,0,397.4887,0,0,2022-06-02T10:51:53.215+02:00,675852713.2145439,0,5.089844,101.3214,1,0.79
297,2022-06-02T10:51:55.788+02:00,1654159911.999942,53.22910106456729,10.39847931417128,36.73664,0.0,20.0,-1.0,-1.0,2.400000095367432,7.999579855010836,-9999,3060.059842125,-0.7000579833984375,-2.612274169921875,7.874069213867188,3060.049848125,-2.598039173693068,2.400898755046952,0.6669372328700556,-8.215182304382324,20.80589294433594,-1.110172986984253,-0.4529943466186523,-0.322945773601532,5.342944145202637,XArbitraryZVertical,0.8803207783944627,0.1223357763717354,-0.2475372628761747,0.3857387886912028,0.5302037000656128,-0.6185824275016785,0.5798614025115967,0,0,0,-1,-1,3052.37708675,unknown,2,2022-06-02T10:51:48.099+02:00,2022-06-02T10:17:13.754+02:00,512,1.445976,0,0,397.4887,0,0,2022-06-02T10:51:55.774+02:00,675852713.2145439,0,5.089844,101.3214,1,0.79
298,2022-06-02T10:51:55.793+02:00,1654159911.999942,53.22910106456729,10.39847931417128,36.73664,0.0,20.0,-1.0,-1.0,2.400000095367432,7.999579855010836,-9999,3060.069836125,-0.9613800048828124,-4.053131103515625,10.15451049804688,3060.059842125,-2.528049883547535,2.562898142283281,0.7118434309700908,-5.328658580780029,20.3805980682373,-2.156548500061035,-0.7965145111083984,-1.330381155014038,6.404728412628174,XArbitraryZVertical,0.8864440856190934,0.1765075719360527,-0.1541051104411293,0.3991408480633807,0.4141138792037964,-0.6532306671142578,0.6338760852813721,0,0,0,-1,-1,3060.052598125,unknown,2,2022-06-02T10:51:55.774+02:00,2022-06-02T10:17:13.754+02:00,512,1.445976,0,0,397.4887,0,0,2022-06-02T10:51:55.774+02:00,675852715.7740434,0,5.082031,101.3204,1,0.79
299,2022-06-02T10:51:55.802+02:00,1654159911.999942,53.22910106456729,10.39847931417128,36.73664,0.0,20.0,-1.0,-1.0,2.400000095367432,7.999579855010836,-9999,3060.079831125,-0.7627105712890625,-4.342483520507812,12.5411376953125,3060.069836125,-2.46161711333792,2.713361042201957,0.725166276376209,-1.808024168014526,18.331787109375,-5.500524520874023,-1.266710638999939,-2.682504177093506,8.272024154663086,XArbitraryZVertical,0.8864681766619925,0.2336223620638966,-0.0717168740463674,0.3930029529767907,0.310778021812439,-0.6632598638534546,0.6808104515075684,0,0,0,-1,-1,3060.052598125,unknown,2,2022-06-02T10:51:55.774+02:00,2022-06-02T10:17:13.754+02:00,512,1.445976,0,0,397.4887,0,0,2022-06-02T10:51:55.774+02:00,675852715.7740434,0,5.082031,101.3204,1,0.79
300,2022-06-02T10:51:55.812+02:00,1654159911.999942,53.22910106456729,10.39847931417128,36.73664,0.0,20.0,-1.0,-1.0,2.400000095367432,7.999579855010836,-9999,3060.089825125,-1.321548461914062,-2.3201904296875,15.33851623535156,3060.079831125,-2.35784233012951,2.810423801414396,0.704400589244841,-0.4456613957881927,14.37396812438965,-10.84748077392578,-1.043112277984619,-3.833929061889648,10.61050510406494,XArbitraryZVertical,0.8773147436261094,0.3010252063010184,-0.0130356815503077,0.3735405891717893,0.2477630525827408,-0.647577166557312,0.7205946445465088,0,0,0,-1,-1,3060.052598125,unknown,2,2022-06-02T10:51:55.774+02:00,2022-06-02T10:17:13.754+02:00,512,1.445976,0,0,397.4887,0,0,2022-06-02T10:51:55.774+02:00,675852715.7740434,0,5.082031,101.3204,1,0.79
301,2022-06-02T10:51:55.822+02:00,1654159911.999942,53.22910106456729,10.39847931417128,36.73664,0.0,20.0,-1.0,-1.0,2.400000095367432,7.999579855010836,-9999,3060.099819125,-2.9169921875,0.52056884765625,17.78857421875,3060.089825125,-2.176460316771323,2.808876906776206,0.6742666498569138,-3.419940948486328,7.973496437072754,-17.73960494995117,-1.195368528366089,-2.94534707069397,13.15219306945801,XArbitraryZVertical,0.8498199338366974,0.3833648905699205,0.012957011705712,0.3614825129283039,0.2551371455192566,-0.62432461977005,0.7383251190185547,0,0,0,-1,-1,3060.052598125,unknown,2,2022-06-02T10:51:55.774+02:00,2022-06-02T10:17:13.754+02:00,512,1.445976,0,0,397.4887,0,0,2022-06-02T10:51:55.774+02:00,675852715.7740434,0,5.082031,101.3204,1,0.79
302,2022-06-02T10:51:55.832+02:00,1654159911.999942,53.22910106456729,10.39847931417128,36.73664,0.0,20.0,-1.0,-1.0,2.400000095367432,7.999579855010836,-9999,3060.109814125,-5.984649658203125,3.360626220703125,17.0609130859375,3060.099819125,-1.895940134390491,2.673799710985131,0.65847792736529,-10.88653755187988,-0.4208751916885376,-23.92725944519043,-2.350507497787476,-0.27268385887146,16.09563827514648,XArbitraryZVertical,0.7913911864072041,0.4761048521462279,0.0053296804117935,0.383399988330203,0.3566414713859558,-0.6119137406349182,0.7059516906738281,0,0,0,-1,-1,3060.052598125,unknown,2,2022-06-02T10:51:55.774+02:00,2022-06-02T10:17:13.754+02:00,512,1.445976,0,0,397.4887,0,0,2022-06-02T10:51:55.774+02:00,675852715.7740434,0,5.082031,101.3204,1,0.79
303,2022-06-02T10:51:55.842+02:00,1654159911.999942,53.22910106456729,10.39847931417128,36.73664,0.0,20.0,-1.0,-1.0,2.400000095367432,7.999579855010836,-9999,3060.119808125,-11.0709228515625,4.327484130859375,12.31387329101562,3060.109814125,-1.522847464361851,2.399909749345277,0.6318816288168191,-17.8782844543457,-10.01046657562256,-27.94626235961914,-4.730735301971436,2.545681476593018,17.31650161743164,XArbitraryZVertical,0.6927305844994817,0.5635668489480734,-0.0280421931363725,0.4491438928201,0.5450965762138367,-0.5906641483306885,0.5949665307998657,0,0,0,-1,-1,3060.052598125,unknown,2,2022-06-02T10:51:55.774+02:00,2022-06-02T10:17:13.754+02:00,512,1.445976,0,0,397.4887,0,0,2022-06-02T10:51:55.774+02:00,675852715.7740434,0,5.082031,101.3204,1,0.79
304,2022-06-02T10:51:55.852+02:00,1654159911.999942,53.22910106456729,10.39847931417128,36.73664,0.0,20.0,-1.0,-1.0,2.400000095367432,7.999579855010836,-9999,3060.129802125,-18.58718872070312,3.860580444335938,11.16087341308594,3060.119808125,-1.127323597823323,2.047744853875483,0.5052105127447395,-18.53220748901367,-16.58481788635254,-33.22100067138672,-8.733575820922852,4.940229415893555,15.12981986999512,XArbitraryZVertical,0.5517364662100385,0.6296402247985136,-0.0885963163439271,0.5397135322162342,0.7774143218994141,-0.4839916527271271,0.401719868183136,0,0,0,-1,-1,3060.052598125,unknown,2,2022-06-02T10:51:55.774+02:00,2022-06-02T10:17:13.754+02:00,512,1.445976,0,0,397.4887,0,0,2022-06-02T10:51:55.774+02:00,675852715.7740434,0,5.082031,101.3204,1,0.79
305,2022-06-02T10:51:55.862+02:00,1654159911.999942,53.22910106456729,10.39847931417128,36.73664,0.0,20.0,-1.0,-1.0,2.400000095367432,7.999579855010836,-9999,3060.139796125,-30.14622497558594,3.395767211914062,14.05029296875,3060.129802125,-0.841796138144041,1.746315375387215,0.2315051633488007,-14.41584396362305,-21.63363265991211,-34.96620941162109,-15.94898414611816,3.998745203018188,10.45029354095459,XArbitraryZVertical,0.3787439286915693,0.66447979923229,-0.1799341671737301,0.618581572893,0.958367884159088,-0.2294427901506424,0.1699607372283936,0,0,0,-1,-1,3060.052598125,unknown,2,2022-06-02T10:51:55.774+02:00,2022-06-02T10:17:13.754+02:00,512,1.445976,0,0,397.4887,0,0,2022-06-02T10:51:55.774+02:00,675852715.7740434,0,5.082031,101.3204,1,0.79
306,2022-06-02T10:51:55.872+02:00,1654159911.999942,53.22910106456729,10.39847931417128,36.73664,0.0,20.0,-1.0,-1.0,2.400000095367432,7.999579855010836,-9999,3060.149791125,-32.0269775390625,9.655807495117188,11.95497131347656,3060.139796125,-0.7313336790791917,1.481220635543975,-0.1019689543963187,-2.691514492034912,-29.32917213439941,-31.55119705200195,-24.80453872680664,3.554884910583496,12.63691902160645,XArbitraryZVertical,0.2058278218553326,0.6427591071891798,-0.2956784983461554,0.6760693307272538,0.9908171892166138,0.1017923429608345,-0.0889912769198417,0,0,0,-1,-1,3060.052598125,unknown,2,2022-06-02T10:51:55.774+02:00,2022-06-02T10:17:13.754+02:00,512,1.445976,0,0,397.4887,0,0,2022-06-02T10:51:55.774+02:00,675852715.7740434,0,5.082031,101.3204,1,0.79
307,2022-06-02T10:51:55.882+02:00,1654159911.999942,53.22910106456729,10.39847931417128,36.73664,0.0,20.0,-1.0,-1.0,2.400000095367432,7.999579855010836,-9999,3060.159785125,-31.95097351074219,20.47773742675781,21.04486083984375,3060.149791125,-0.8669312181839093,1.107548746453201,-0.379224131588576,14.80459785461426,-35.1548957824707,-31.99136924743652,-32.90152740478516,4.847161769866943,14.29907989501953,XArbitraryZVertical,0.0714463447538838,0.536042552103755,-0.440795737027776,0.716416688148259,0.8310461640357971,0.3701998293399811,-0.4151076078414917,0,0,0,-1,-1,3060.052598125,unknown,2,2022-06-02T10:51:55.774+02:00,2022-06-02T10:17:13.754+02:00,512,1.445976,0,0,397.4887,0,0,2022-06-02T10:51:55.774+02:00,675852715.7740434,0,5.082031,101.3204,1,0.79
308,2022-06-02T10:51:55.892+02:00,1654159911.999942,53.22910106456729,10.39847931417128,36.73664,0.0,20.0,-1.0,-1.0,2.400000095367432,7.999579855010836,-9999,3060.169779125,-31.64759826660156,20.83222961425781,30.27383422851562,3060.159785125,-1.298553796372626,0.5763498679444284,-0.4187686222622732,35.18717575073242,-35.16996765136719,-25.43817710876465,-32.41326522827148,15.17493724822998,14.63282775878906,XArbitraryZVertical,0.0093431936365304,0.3419201693904423,-0.6140717571150586,0.7112798969006389,0.4978766739368439,0.4066357910633087,-0.766006588935852,0,0,0,-1,-1,3060.052598125,unknown,2,2022-06-02T10:51:55.774+02:00,2022-06-02T10:17:13.754+02:00,512,1.445976,0,0,397.4887,0,0,2022-06-02T10:51:55.774+02:00,675852715.7740434,0,5.082031,101.3204,1,0.79
309,2022-06-02T10:51:55.902+02:00,1654159911.999942,53.22910106456729,10.39847931417128,36.73664,0.0,20.0,-1.0,-1.0,2.400000095367432,7.999579855010836,-9999,3060.179774125,-27.19288635253906,-13.54914855957031,26.9619140625,3060.179774125,-1.730972882829055,-0.0847899211627283,0.1810476349450036,35.06011199951172,-13.39230060577393,8.303454399108887,-29.03377723693848,9.632773399353027,32.20306777954102,XArbitraryZVertical,0.0264129004134787,-0.0961325158994051,-0.7600955111505681,0.642117977802707,-0.0833041816949844,-0.1800601780414581,-0.9801217913627625,0,0,0,-1,-1,3060.052598125,unknown,2,2022-06-02T10:51:55.774+02:00,2022-06-02T10:17:13.754+02:00,512,1.445976,0,0,397.4887,0,0,2022-06-02T10:51:55.774+02:00,675852715.7740434,0,5.082031,101.3204,1,0.79
310,2022-06-02T10:51:55.912+02:00,1654159911.999942,53.22910106456729,10.39847931417128,36.73664,0.0,20.0,-1.0,-1.0,2.400000095367432,7.999579855010836,-9999,3060.189768125,-18.45919799804688,-25.55918884277344,3.8621826171875,3060.179774125,-1.730972882829055,-0.0847899211627283,0.1810476349450036,35.06011199951172,-13.39230060577393,8.303454399108887,-29.03377723693848,9.632773399353027,32.20306777954102,XArbitraryZVertical,0.0264129004134787,-0.0961325158994051,-0.7600955111505681,0.642117977802707,-0.0833041816949844,-0.1800601780414581,-0.9801217913627625,0,0,0,-1,-1,3060.052598125,unknown,2,2022-06-02T10:51:55.774+02:00,2022-06-02T10:17:13.754+02:00,512,1.445976,0,0,397.4887,0,0,2022-06-02T10:51:55.774+02:00,675852715.7740434,0,5.082031,101.3204,1,0.79
311,2022-06-02T10:51:55.922+02:00,1654159911.999942,53.22910106456729,10.39847931417128,36.73664,0.0,20.0,-1.0,-1.0,2.400000095367432,7.999579855010836,-9999,3060.199762125,-9.661544799804688,-9.419998168945312,-2.104141235351562,3060.189768125,-1.519694710678452,-0.2214027197829987,0.4354759723417291,16.99202537536621,-0.9201242923736572,18.81044960021973,-24.74488258361816,-29.04211616516113,16.21492195129395,XArbitraryZVertical,0.0813444370188254,-0.226084364042087,-0.6857310202649746,0.6870529782257239,-0.199103057384491,-0.4218420088291168,-0.8845378756523132,0,0,0,-1,-1,3060.052598125,unknown,2,2022-06-02T10:51:55.774+02:00,2022-06-02T10:17:13.754+02:00,512,1.445976,0,0,397.4887,0,0,2022-06-02T10:51:55.774+02:00,675852715.7740434,0,5.082031,101.3204,1,0.79
312,2022-06-02T10:51:55.932+02:00,1654159911.999942,53.22910106456729,10.39847931417128,36.73664,0.0,20.0,-1.0,-1.0,2.400000095367432,7.999579855010836,-9999,3060.209757125,-7.99951171875,-5.861312866210938,-3.357818603515625,3060.199762125,-1.306851985639244,-0.3208260453538339,0.475208367711388,1.453429341316223,0.6673085689544678,16.24911689758301,-12.03184700012207,-15.17754745483398,-0.374267578125,XArbitraryZVertical,0.090118539933155,-0.2645099111655937,-0.6130963760484742,0.7389356358211508,-0.2804088890552521,-0.4575237333774567,-0.8438262939453125,0,0,0,-1,-1,3060.052598125,unknown,2,2022-06-02T10:51:55.774+02:00,2022-06-02T10:17:13.754+02:00,512,1.445976,0,0,397.4887,0,0,2022-06-02T10:51:55.774+02:00,675852715.7740434,0,5.082031,101.3204,1,0.79
313,2022-06-02T10:51:55.942+02:00,1654159911.999942,53.22910106456729,10.39847931417128,36.73664,0.0,20.0,-1.0,-1.0,2.400000095367432,7.999579855010836,-9999,3060.219751125,-9.385589599609377,-1.420806884765625,-0.7766265869140625,3060.209757125,-1.156958455891357,-0.3962483064602274,0.398365410240304,-5.217366695404053,-3.06506609916687,15.40695762634277,-8.412710189819336,-6.631374835968018,-2.292482137680054,XArbitraryZVertical,0.056943532944048,-0.2676151751314692,-0.558066607073863,0.7833908056211855,-0.3557379543781281,-0.3879122734069824,-0.8502790927886963,0,0,0,-1,-1,3060.052598125,unknown,2,2022-06-02T10:51:55.774+02:00,2022-06-02T10:17:13.754+02:00,512,1.445976,0,0,397.4887,0,0,2022-06-02T10:51:55.774+02:00,675852715.7740434,0,5.082031,101.3204,1,0.79
314,2022-06-02T10:51:55.952+02:00,1654159911.999942,53.22910106456729,10.39847931417128,36.73664,0.0,20.0,-1.0,-1.0,2.400000095367432,7.999579855010836,-9999,3060.229745125,-8.233001708984375,1.443359375,1.80145263671875,3060.219751125,-1.016268777318762,-0.4643123396018539,0.2886122550557756,-3.016605377197266,0.1464365124702454,17.0999813079834,-7.804172992706299,-3.677139282226562,-1.553282618522644,XArbitraryZVertical,0.0114862500745598,-0.2670092153544952,-0.4974798289897688,0.8252804170213941,-0.4292865991592407,-0.2846221625804901,-0.857148289680481,0,0,0,-1,-1,3060.052598125,unknown,2,2022-06-02T10:51:55.774+02:00,2022-06-02T10:17:13.754+02:00,512,1.445976,0,0,397.4887,0,0,2022-06-02T10:51:55.774+02:00,675852715.7740434,0,5.082031,101.3204,1,0.79
315,2022-06-02T10:51:55.962+02:00,1654159911.999942,53.22910106456729,10.39847931417128,36.73664,0.0,20.0,-1.0,-1.0,2.400000095367432,7.999579855010836,-9999,3060.239739125,-5.04840087890625,0.59600830078125,0.9084014892578124,3060.229745125,-0.8755345783828077,-0.4784681083803254,0.2052913609273241,0.5614610314369202,3.214819669723511,14.65881729125977,-9.232566833496094,0.8469340801239014,1.913876056671143,XArbitraryZVertical,-0.0097623690660723,-0.255683803053407,-0.4316678416752943,0.8649816115288439,-0.450751781463623,-0.2038524150848389,-0.8690609931945801,0,0,0,-1,-1,3060.052598125,unknown,2,2022-06-02T10:51:55.774+02:00,2022-06-02T10:17:13.754+02:00,512,1.445976,0,0,397.4887,0,0,2022-06-02T10:51:55.774+02:00,675852715.7740434,0,5.082031,101.3204,1,0.79
316,2022-06-02T10:51:55.972+02:00,1654159911.999942,53.22910106456729,10.39847931417128,36.73664,0.0,20.0,-1.0,-1.0,2.400000095367432,7.999579855010836,-9999,3060.249734125,-5.938232421875,1.338272094726562,1.191238403320312,3060.239739125,-0.7353896428032491,-0.481405909915832,0.1589902597191317,3.836322784423828,1.024674773216248,13.9592866897583,-5.753446578979492,1.198436617851257,2.28919792175293,XArbitraryZVertical,-0.0134535632676433,-0.2494715160023413,-0.3656648332078152,0.8965891670287436,-0.4571858942508698,-0.158321276307106,-0.8751659393310547,0,0,0,-1,-1,3060.052598125,unknown,2,2022-06-02T10:51:55.774+02:00,2022-06-02T10:17:13.754+02:00,512,1.445976,0,0,397.4887,0,0,2022-06-02T10:51:55.774+02:00,675852715.7740434,0,5.082031,101.3204,1,0.79
317,2022-06-02T10:51:55.982+02:00,1654159911.999942,53.22910106456729,10.39847931417128,36.73664,0.0,20.0,-1.0,-1.0,2.400000095367432,7.999579855010836,-9999,3060.259728125,-6.616226196289062,-0.3169403076171875,1.466339111328125,3060.249734125,-0.5957310261154907,-0.5012938029275915,0.1410242407223892,5.90324878692627,-0.5070991516113281,12.13195133209229,-4.708505630493164,1.143685340881348,1.802093386650085,XArbitraryZVertical,-0.007364561556637,-0.2565501677982104,-0.3003084531706327,0.9186634656537724,-0.4757898151874542,-0.1405572593212128,-0.8682555556297302,0,0,0,-1,-1,3060.052598125,unknown,2,2022-06-02T10:51:55.774+02:00,2022-06-02T10:17:13.754+02:00,512,1.445976,0,0,397.4887,0,0,2022-06-02T10:51:55.774+02:00,675852715.7740434,0,5.082031,101.3204,1,0.79
318,2022-06-02T10:51:55.992+02:00,1654159911.999942,53.22910106456729,10.39847931417128,36.73664,0.0,20.0,-1.0,-1.0,2.400000095367432,7.999579855010836,-9999,3060.269722125,-5.91485595703125,-1.045074462890625,1.729537963867188,3060.259728125,-0.4635445258212568,-0.5276284741178127,0.1365949555468769,5.870891094207764,-0.9308601021766664,11.16864681243896,-5.968153476715088,0.9335033297538756,2.188414096832275,XArbitraryZVertical,0.0043629063230091,-0.2683339769044101,-0.2385584849235916,0.9333100633262464,-0.4987959861755371,-0.1361705809831619,-0.8559556603431702,0,0,0,-1,-1,3060.052598125,unknown,2,2022-06-02T10:51:55.774+02:00,2022-06-02T10:17:13.754+02:00,512,1.445976,0,0,397.4887,0,0,2022-06-02T10:51:55.774+02:00,675852715.7740434,0,5.082031,101.3204,1,0.79
319,2022-06-02T10:51:56.002+02:00,1654159911.999942,53.22910106456729,10.39847931417128,36.73664,0.0,20.0,-1.0,-1.0,2.400000095367432,7.999579855010836,-9999,3060.279717125,-4.482162475585938,-0.3222503662109375,1.524810791015625,3060.269722125,-0.3428553088550685,-0.5541214450384598,0.1262798056745074,4.697821617126465,-1.388523697853088,10.39818477630615,-5.94749116897583,-0.9346939921379088,2.503305673599243,XArbitraryZVertical,0.0132337856272074,-0.2793365916946731,-0.1807628044825938,0.9429319933532668,-0.5220064520835876,-0.1259444504976273,-0.8435918688774109,0,0,0,-1,-1,3060.052598125,unknown,2,2022-06-02T10:51:55.774+02:00,2022-06-02T10:17:13.754+02:00,512,1.445976,0,0,397.4887,0,0,2022-06-02T10:51:55.774+02:00,675852715.7740434,0,5.082031,101.3204,1,0.79
320,2022-06-02T10:51:56.012+02:00,1654159911.999942,53.22910106456729,10.39847931417128,36.73664,0.0,20.0,-1.0,-1.0,2.400000095367432,7.999579855010836,-9999,3060.289711125,-4.30010986328125,0.4030303955078125,1.362838745117188,3060.279717125,-0.2367350946572805,-0.5888858276848569,0.1087797765731919,3.783575534820557,-3.077624559402466,9.210741996765137,-4.551791191101074,-0.5587778091430664,2.472671508789062,XArbitraryZVertical,0.0174392538797343,-0.2938935119781191,-0.1285081794183977,0.9469995330272718,-0.5521518588066101,-0.1085653677582741,-0.8266449570655823,0,0,0,-1,-1,3060.052598125,unknown,2,2022-06-02T10:51:55.774+02:00,2022-06-02T10:17:13.754+02:00,512,1.445976,0,0,397.4887,0,0,2022-06-02T10:51:55.774+02:00,675852715.7740434,0,5.082031,101.3204,1,0.79
321,2022-06-02T10:51:56.022+02:00,1654159911.999942,53.22910106456729,10.39847931417128,36.73664,0.0,20.0,-1.0,-1.0,2.400000095367432,7.999579855010836,-9999,3060.299705125,-4.37335205078125,1.392654418945312,1.33282470703125,3060.289711125,-0.1446644264641746,-0.6344082874361153,0.088543869956049,3.536867380142212,-4.069389343261719,8.161867141723633,-3.661253452301025,0.0857578963041305,2.226812601089478,XArbitraryZVertical,0.0194200803679372,-0.3138298820587451,-0.0823647737470708,0.9457005988293664,-0.5903791785240173,-0.0884282141923904,-0.80226731300354,0,0,0,-1,-1,3060.052598125,unknown,2,2022-06-02T10:51:55.774+02:00,2022-06-02T10:17:13.754+02:00,512,1.445976,0,0,397.4887,0,0,2022-06-02T10:51:55.774+02:00,675852715.7740434,0,5.082031,101.3204,1,0.79
322,2022-06-02T10:51:56.032+02:00,1654159911.999942,53.22910106456729,10.39847931417128,36.73664,0.0,20.0,-1.0,-1.0,2.400000095367432,7.999579855010836,-9999,3060.309699125,-4.38140869140625,2.345291137695312,1.326324462890625,3060.299705125,-0.0600275297882488,-0.6847523861150242,0.0720989692231633,4.3102707862854,-4.672177791595459,7.195779323577881,-3.748205423355103,0.9551541805267334,2.104884386062622,XArbitraryZVertical,0.023866160208721,-0.3363759116851675,-0.0403438368207948,0.9405604085452742,-0.6308380365371704,-0.0720365196466445,-0.7725632786750793,0,0,0,-1,-1,3060.052598125,unknown,2,2022-06-02T10:51:55.774+02:00,2022-06-02T10:17:13.754+02:00,512,1.445976,0,0,397.4887,0,0,2022-06-02T10:51:55.774+02:00,675852715.7740434,0,5.082031,101.3204,1,0.79
323,2022-06-02T10:51:56.042+02:00,1654159911.999942,53.22910106456729,10.39847931417128,36.73664,0.0,20.0,-1.0,-1.0,2.400000095367432,7.999579855010836,-9999,3060.319694125,-4.738876342773438,2.693527221679688,1.168441772460938,3060.309699125,0.0243492120105095,-0.7410548096939271,0.0662092924389882,5.87120532989502,-5.415431022644043,6.336179256439209,-3.66495943069458,1.970747709274292,2.081660270690918,XArbitraryZVertical,0.0352561171923818,-0.361506294929618,-0.0006424557460029,0.9317025156693538,-0.6735873222351074,-0.0661609321832656,-0.7361404299736023,0,0,0,-1,-1,3060.052598125,unknown,2,2022-06-02T10:51:55.774+02:00,2022-06-02T10:17:13.754+02:00,512,1.445976,0,0,397.4887,0,0,2022-06-02T10:51:55.774+02:00,675852715.7740434,0,5.082031,101.3204,1,0.79
324,2022-06-02T10:51:56.052+02:00,1654159911.999942,53.22910106456729,10.39847931417128,36.73664,0.0,20.0,-1.0,-1.0,2.400000095367432,7.999579855010836,-9999,3060.329688125,-5.131240844726562,2.245803833007812,1.061599731445312,3060.319694125,0.115327962060069,-0.8029749376301738,0.0730752830009259,7.760398864746094,-5.62008810043335,5.753477096557617,-3.809914350509644,2.698895215988159,1.94970440864563,XArbitraryZVertical,0.0560757023490874,-0.3879402007177638,0.0387621994322753,0.9191600812480496,-0.7175055146217346,-0.0730102658271789,-0.6927158236503601,0,0,0,-1,-1,3060.052598125,unknown,2,2022-06-02T10:51:55.774+02:00,2022-06-02T10:17:13.754+02:00,512,1.445976,0,0,397.4887,0,0,2022-06-02T10:51:55.774+02:00,675852715.7740434,0,5.082031,101.3204,1,0.79
325,2022-06-02T10:51:56.062+02:00,1654159911.999942,53.22910106456729,10.39847931417128,36.73664,0.0,20.0,-1.0,-1.0,2.400000095367432,7.999579855010836,-9999,3060.339682125,-5.298202514648438,1.405471801757812,1.05194091796875,3060.329688125,0.2160048465356243,-0.8650624653658966,0.0885031622191494,9.054651260375977,-5.108766078948975,5.476387977600098,-4.19577693939209,2.642434358596802,1.744869947433472,XArbitraryZVertical,0.0850684508191943,-0.4119907086612922,0.0793350512693887,0.9037326758401948,-0.7581567764282227,-0.0883876681327819,-0.6460540294647217,0,0,0,-1,-1,3060.052598125,unknown,2,2022-06-02T10:51:55.774+02:00,2022-06-02T10:17:13.754+02:00,512,1.445976,0,0,397.4887,0,0,2022-06-02T10:51:55.774+02:00,675852715.7740434,0,5.082031,101.3204,1,0.79
326,2022-06-02T10:51:56.094+02:00,1654159911.999942,53.22910106456729,10.39847931417128,36.73664,0.0,20.0,-1.0,-1.0,2.400000095367432,7.999579855010836,-9999,3060.349677125,-5.184982299804688,0.7028961181640625,0.992645263671875,3060.339682125,0.3221786176835573,-0.921847076214462,0.1037092848992552,9.181302070617676,-4.156942844390869,5.44981861114502,-4.454631805419922,1.939308404922485,1.655927181243896,XArbitraryZVertical,0.1170645673544456,-0.4309810554072495,0.1207072154494462,0.8865557112014061,-0.7924385070800781,-0.1035234779119492,-0.6011024117469788,0,0,0,-1,-1,3060.052598125,unknown,2,2022-06-02T10:51:55.774+02:00,2022-06-02T10:17:13.754+02:00,512,1.445976,0,0,397.4887,0,0,2022-06-02T10:51:55.774+02:00,675852715.7740434,0,5.082031,101.3204,1,0.79
327,2022-06-02T10:51:56.099+02:00,1654159911.999942,53.22910106456729,10.39847931417128,36.73664,0.0,20.0,-1.0,-1.0,2.400000095367432,7.999579855010836,-9999,3060.359671125,-4.710739135742188,0.306976318359375,0.8894195556640625,3060.349677125,0.4266353382713346,-0.9688438598957562,0.1104499465956838,8.406231880187988,-2.983016967773438,5.618815898895264,-4.459782600402832,1.132869482040405,1.594372868537903,XArbitraryZVertical,0.1461784022400086,-0.4441065773451604,0.161937825591621,0.8690094429527615,-0.8192092180252075,-0.1102255135774612,-0.5628024339675903,0,0,0,-1,-1,3060.052598125,unknown,2,2022-06-02T10:51:55.774+02:00,2022-06-02T10:17:13.754+02:00,512,1.445976,0,0,397.4887,0,0,2022-06-02T10:51:55.774+02:00,675852715.7740434,0,5.082031,101.3204,1,0.79
328,2022-06-02T10:51:56.101+02:00,1654159911.999942,53.22910106456729,10.39847931417128,36.73664,0.0,20.0,-1.0,-1.0,2.400000095367432,7.999579855010836,-9999,3060.369665125,-4.17291259765625,-0.00201416015625,0.7635040283203125,3060.359671125,0.5245409661476961,-1.004285174603164,0.1057690684816894,7.303629875183105,-2.054749488830566,5.903696537017822,-4.150240421295166,0.5750390887260437,1.476426005363464,XArbitraryZVertical,0.1693654271726154,-0.452182723623314,0.2023781059988893,0.8519912883232497,-0.8390631675720215,-0.1055719703435898,-0.5336923003196716,0,0,0,-1,-1,3060.052598125,unknown,2,2022-06-02T10:51:55.774+02:00,2022-06-02T10:17:13.754+02:00,512,1.445976,0,0,397.4887,0,0,2022-06-02T10:51:55.774+02:00,675852715.7740434,0,5.082031,101.3204,1,0.79
329,2022-06-02T10:51:56.103+02:00,1654159911.999942,53.22910106456729,10.39847931417128,36.73664,0.0,20.0,-1.0,-1.0,2.400000095367432,7.999579855010836,-9999,3060.379659125,-3.804153442382812,-0.1768951416015625,0.5659942626953125,3060.369665125,0.6129915016488454,-1.031224452655597,0.0901130559244564,6.06608247756958,-1.612833023071289,5.992829322814941,-3.5663743019104,0.2481484711170197,1.34438681602478,XArbitraryZVertical,0.1859765166746336,-0.4577889012977446,0.2410534959387688,0.8353053994538954,-0.8544476628303528,-0.0899911448359489,-0.5116841197013855,0,0,0,-1,-1,3060.052598125,unknown,2,2022-06-02T10:51:55.774+02:00,2022-06-02T10:17:13.754+02:00,512,1.445976,0,0,397.4887,0,0,2022-06-02T10:51:55.774+02:00,675852715.7740434,0,5.082031,101.3204,1,0.79
330,2022-06-02T10:51:56.112+02:00,1654159911.999942,53.22910106456729,10.39847931417128,36.73664,0.0,20.0,-1.0,-1.0,2.400000095367432,7.999579855010836,-9999,3060.389654125,-3.4832763671875,-0.1814422607421875,0.4713592529296875,3060.379659125,0.6916505798908796,-1.051369276762362,0.0662058046770136,5.069765090942383,-1.184173941612244,6.065688133239746,-3.102059841156006,-0.0600174888968467,1.160776853561401,XArbitraryZVertical,0.1969386521976013,-0.462133648171882,0.2774197197131452,0.8189540761201868,-0.8662018179893494,-0.0661574527621269,-0.4952953159809113,0,0,0,-1,-1,3060.052598125,unknown,2,2022-06-02T10:51:55.774+02:00,2022-06-02T10:17:13.754+02:00,512,1.445976,0,0,397.4887,0,0,2022-06-02T10:51:55.774+02:00,675852715.7740434,0,5.082031,101.3204,1,0.79
331,2022-06-02T10:51:56.122+02:00,1654159911.999942,53.22910106456729,10.39847931417128,36.73664,0.0,20.0,-1.0,-1.0,2.400000095367432,7.999579855010836,-9999,3060.399648125,-3.117843627929688,-0.248748779296875,0.440948486328125,3060.389654125,0.7619610511172537,-1.064164513724485,0.0358620745559761,4.209951400756836,-0.6568121910095215,6.106323719024658,-2.77601957321167,-0.1430854499340057,0.9859299659729004,XArbitraryZVertical,0.2029536417536699,-0.4651326287744185,0.3119304569941457,0.8032190311536013,-0.8738216161727905,-0.0358543880283832,-0.4849229156970978,0,0,0,-1,-1,3060.052598125,unknown,2,2022-06-02T10:51:55.774+02:00,2022-06-02T10:17:13.754+02:00,512,1.445976,0,0,397.4887,0,0,2022-06-02T10:51:55.774+02:00,675852715.7740434,0,5.082031,101.3204,1,0.79
332,2022-06-02T10:51:56.132+02:00,1654159913.391448,53.22890644898008,10.39872511290982,41.44577,0.74,2.25,37.6171875,89.16535338790261,8.0,30.0,-9999,3060.409642125,-2.818634033203125,-0.2925567626953125,0.4101715087890625,3060.399648125,0.8245145749913648,-1.07018758593226,0.0014150584501416,3.454982757568359,-0.3564983308315277,5.942254066467285,-2.424773216247559,-0.2040598392486572,0.934106469154358,XArbitraryZVertical,0.2048722768764221,-0.4669558441253556,0.344341353337265,0.788294730581003,-0.8772896528244019,-0.0014150579227134,-0.4799591898918152,0,0,0,-1,-1,3060.052598125,unknown,2,2022-06-02T10:51:55.774+02:00,2022-06-02T10:17:13.754+02:00,512,1.445976,0,0,397.4887,0,0,2022-06-02T10:51:55.774+02:00,675852715.7740434,0,5.082031,101.3204,1,0.79
333,2022-06-02T10:51:56.142+02:00,1654159913.391448,53.22890644898008,10.39872511290982,41.44577,0.74,2.25,37.6171875,89.16535338790261,8.0,30.0,-9999,3060.419637125,-2.678878784179688,-0.3124847412109375,0.368927001953125,3060.409642125,0.8796713606242597,-1.072373730242864,-0.034382284446383,2.805682182312012,-0.2615145444869995,5.614646911621094,-2.070805072784424,-0.3161748647689819,0.9037682414054872,XArbitraryZVertical,0.2041167432921207,-0.4684626991972138,0.3739284843470659,0.7739874209871288,-0.8778185844421387,0.0343755111098289,-0.4777581095695496,0,0,0,-1,-1,3060.052598125,unknown,2,2022-06-02T10:51:55.774+02:00,2022-06-02T10:17:13.754+02:00,512,1.445976,0,0,397.4887,0,0,2022-06-02T10:51:55.774+02:00,675852715.7740434,0,5.082031,101.3204,1,0.79
334,2022-06-02T10:51:56.152+02:00,1654159913.391448,53.22890644898008,10.39872511290982,41.44577,0.74,2.25,37.6171875,89.16535338790261,8.0,30.0,-9999,3060.429631125,-2.613143920898438,-0.3524169921875,0.2706298828125,3060.419637125,0.9275008730981252,-1.07207451546419,-0.0697618612356598,2.222466230392456,-0.1751412600278854,5.162920951843262,-1.856912612915039,-0.3645966947078705,0.8702216148376465,XArbitraryZVertical,0.2014990653770251,-0.4699235206712777,0.4002622950893486,0.7604999145610688,-0.8760585784912109,0.0697052925825119,-0.4771400094032288,0,0,0,-1,-1,3060.052598125,unknown,2,2022-06-02T10:51:55.774+02:00,2022-06-02T10:17:13.754+02:00,512,1.445976,0,0,397.4887,0,0,2022-06-02T10:51:55.774+02:00,675852715.7740434,0,5.082031,101.3204,1,0.79
335,2022-06-02T10:51:56.161+02:00,1654159913.391448,53.22890644898008,10.39872511290982,41.44577,0.74,2.25,37.6171875,89.16535338790261,8.0,30.0,-9999,3060.439625125,-2.571853637695312,-0.2660675048828125,0.199127197265625,3060.429631125,0.968944801053077,-1.069602740541787,-0.1031233290620678,1.840747952461243,-0.0361005440354347,4.651767253875732,-1.768396496772766,-0.4469958543777466,0.8027339577674866,XArbitraryZVertical,0.1978195360469606,-0.4710704338228213,0.4234223688482891,0.7481133405927963,-0.8723505735397339,0.1029406487941742,-0.4779201447963715,0,0,0,-1,-1,3060.052598125,unknown,2,2022-06-02T10:51:55.774+02:00,2022-06-02T10:17:13.754+02:00,512,1.445976,0,0,397.4887,0,0,2022-06-02T10:51:55.774+02:00,675852715.7740434,0,5.082031,101.3204,1,0.79
336,2022-06-02T10:51:56.172+02:00,1654159913.391448,53.22890644898008,10.39872511290982,41.44577,0.74,2.25,37.6171875,89.16535338790261,8.0,30.0,-9999,3060.449619125,-2.483154296875,-0.176971435546875,0.144134521484375,3060.439625125,1.004776348040048,-1.064666817214185,-0.1331126026654046,1.51783275604248,0.2025401145219803,4.021406650543213,-1.726035833358765,-0.4501790106296539,0.7097244262695312,XArbitraryZVertical,0.1936286426265538,-0.4714387382679554,0.4435555447489412,0.7372325731374927,-0.8668901324272156,0.1327198445796967,-0.4805069267749786,0,0,0,-1,-1,3060.052598125,unknown,2,2022-06-02T10:51:55.774+02:00,2022-06-02T10:17:13.754+02:00,512,1.445976,0,0,397.4887,0,0,2022-06-02T10:51:55.774+02:00,675852715.7740434,0,5.082031,101.3204,1,0.79
337,2022-06-02T10:51:56.181+02:00,1654159913.391448,53.22890644898008,10.39872511290982,41.44577,0.74,2.25,37.6171875,89.16535338790261,8.0,30.0,-9999,3060.459614125,-2.2957763671875,-0.1209869384765625,0.107818603515625,3060.449619125,1.035649950606716,-1.056287938657375,-0.1582515974324708,1.385135173797607,0.5862259864807129,3.357567071914673,-1.679161548614502,-0.3756400346755981,0.6569782495498657,XArbitraryZVertical,0.1893387743761657,-0.4702892523686316,0.4608183596662159,0.7284402028408737,-0.8596567511558533,0.1575918942689896,-0.4859576821327209,0,0,0,-1,-1,3060.052598125,unknown,2,2022-06-02T10:51:55.774+02:00,2022-06-02T10:17:13.754+02:00,512,1.445976,0,0,397.4887,0,0,2022-06-02T10:51:55.774+02:00,675852715.7740434,0,5.082031,101.3204,1,0.79
338,2022-06-02T10:51:56.192+02:00,1654159913.391448,53.22890644898008,10.39872511290982,41.44577,0.74,2.25,37.6171875,89.16535338790261,8.0,30.0,-9999,3060.469608125,-2.067825317382812,-0.0404815673828125,0.0938262939453125,3060.469608125,1.090357889755708,-1.028067245507976,-0.1914243351242169,1.673161745071411,1.204433917999268,2.225514650344849,-1.339514374732971,-0.2802690863609314,0.6039038300514221,XArbitraryZVertical,0.1826586155079135,-0.4616441642955152,0.4896659686747548,0.7167618866529025,-0.8406612873077393,0.1902574002742767,-0.5070409774780273,0,0,0,-1,-1,3060.052598125,unknown,2,2022-06-02T10:51:55.774+02:00,2022-06-02T10:17:13.754+02:00,512,1.445976,0,0,397.4887,0,0,2022-06-02T10:51:55.774+02:00,675852715.7740434,0,5.082031,101.3204,1,0.79
339,2022-06-02T10:51:56.202+02:00,1654159913.391448,53.22890644898008,10.39872511290982,41.44577,0.74,2.25,37.6171875,89.16535338790261,8.0,30.0,-9999,3060.479602125,-1.852645874023438,0.080718994140625,0.0702362060546875,3060.469608125,1.090357889755708,-1.028067245507976,-0.1914243351242169,1.673161745071411,1.204433917999268,2.225514650344849,-1.339514374732971,-0.2802690863609314,0.6039038300514221,XArbitraryZVertical,0.1826586155079135,-0.4616441642955152,0.4896659686747548,0.7167618866529025,-0.8406612873077393,0.1902574002742767,-0.5070409774780273,0,0,0,-1,-1,3060.052598125,unknown,2,2022-06-02T10:51:55.774+02:00,2022-06-02T10:17:13.754+02:00,512,1.445976,0,0,397.4887,0,0,2022-06-02T10:51:55.774+02:00,675852715.7740434,0,5.082031,101.3204,1,0.79
340,2022-06-02T10:51:56.211+02:00,1654159913.391448,53.22890644898008,10.39872511290982,41.44577,0.74,2.25,37.6171875,89.16535338790261,8.0,30.0,-9999,3060.489597125,-1.638778686523438,0.1856231689453125,0.02227783203125,3060.479602125,1.116115875711337,-1.009942472514649,-0.1984349345644733,1.912163257598877,1.4108065366745,1.615007877349854,-1.129700660705566,-0.1775582581758499,0.6102012991905212,XArbitraryZVertical,0.1813829008637964,-0.4542736550887511,0.5018184449500857,0.7133819597710556,-0.8301838040351868,0.1971352249383926,-0.521471381187439,0,0,0,-1,-1,3060.052598125,unknown,2,2022-06-02T10:51:55.774+02:00,2022-06-02T10:17:13.754+02:00,512,1.445976,0,0,397.4887,0,0,2022-06-02T10:51:55.774+02:00,675852715.7740434,0,5.082031,101.3204,1,0.79
341,2022-06-02T10:51:56.222+02:00,1654159913.391448,53.22890644898008,10.39872511290982,41.44577,0.74,2.25,37.6171875,89.16535338790261,8.0,30.0,-9999,3060.499591125,-1.431991577148438,0.23516845703125,-0.010345458984375,3060.499591125,1.163662345864772,-0.9703937019650436,-0.1920140251815528,2.308086156845093,1.565564632415771,0.4430269002914429,-0.7255018949508667,0.0276390016078949,0.5608934164047241,XArbitraryZVertical,0.1842791423579467,-0.4344484299189309,0.5212391842073473,0.7110593069985794,-0.809944212436676,0.1908362954854965,-0.5545915365219116,0,0,0,-1,-1,3060.052598125,unknown,2,2022-06-02T10:51:55.774+02:00,2022-06-02T10:17:13.754+02:00,512,1.445976,0,0,397.4887,0,0,2022-06-02T10:51:55.774+02:00,675852715.7740434,0,5.082031,101.3204,1,0.79
342,2022-06-02T10:51:56.232+02:00,1654159913.391448,53.22890644898008,10.39872511290982,41.44577,0.74,2.25,37.6171875,89.16535338790261,8.0,30.0,-9999,3060.509585125,-1.227249145507812,0.2213287353515625,-0.0384979248046875,3060.499591125,1.163662345864772,-0.9703937019650436,-0.1920140251815528,2.308086156845093,1.565564632415771,0.4430269002914429,-0.7255018949508667,0.0276390016078949,0.5608934164047241,XArbitraryZVertical,0.1842791423579467,-0.4344484299189309,0.5212391842073473,0.7110593069985794,-0.809944212436676,0.1908362954854965,-0.5545915365219116,0,0,0,-1,-1,3060.052598125,unknown,2,2022-06-02T10:51:55.774+02:00,2022-06-02T10:17:13.754+02:00,512,1.445976,0,0,397.4887,0,0,2022-06-02T10:51:55.774+02:00,675852715.7740434,0,5.082031,101.3204,1,0.79
343,2022-06-02T10:51:56.241+02:00,1654159913.391448,53.22890644898008,10.39872511290982,41.44577,0.74,2.25,37.6171875,89.16535338790261,8.0,30.0,-9999,3060.519579125,-1.0423583984375,0.158111572265625,-0.055084228515625,3060.509585125,1.184291612845476,-0.9510679570969088,-0.1802124413281825,2.359286785125732,1.526371359825134,-0.0431842878460884,-0.5281565189361572,0.0568453669548034,0.5439728498458862,XArbitraryZVertical,0.1881085903274703,-0.4229788234988553,0.528385068840176,0.7116974579244024,-0.800853431224823,0.179238572716713,-0.5714081525802612,0,0,0,-1,-1,3060.052598125,unknown,2,2022-06-02T10:51:55.774+02:00,2022-06-02T10:17:13.754+02:00,512,1.445976,0,0,397.4887,0,0,2022-06-02T10:51:55.774+02:00,675852715.7740434,0,5.082031,101.3204,1,0.79
344,2022-06-02T10:51:56.252+02:00,1654159913.391448,53.22890644898008,10.39872511290982,41.44577,0.74,2.25,37.6171875,89.16535338790261,8.0,30.0,-9999,3060.529574125,-0.879302978515625,0.1147003173828125,-0.0830841064453125,3060.519579125,1.202303610392551,-0.9331112796117806,-0.1641618883389204,2.398266077041626,1.448522686958313,-0.4555891454219818,-0.3386737108230591,0.0286825746297836,0.5415109992027283,XArbitraryZVertical,0.193165863716961,-0.4111209092235245,0.5338571732080084,0.7132061092852033,-0.7926738262176514,0.163425549864769,-0.587333083152771,0,0,0,-1,-1,3060.052598125,unknown,2,2022-06-02T10:51:55.774+02:00,2022-06-02T10:17:13.754+02:00,512,1.445976,0,0,397.4887,0,0,2022-06-02T10:51:55.774+02:00,675852715.7740434,0,5.082031,101.3204,1,0.79
