,loggingTime(txt),locationTimestamp_since1970(s),locationLatitude(WGS84),locationLongitude(WGS84),locationAltitude(m),locationSpeed(m/s),locationSpeedAccuracy(m/s),locationCourse(°),locationCourseAccuracy(°),locationVerticalAccuracy(m),locationHorizontalAccuracy(m),locationFloor(Z),accelerometerTimestamp_sinceReboot(s),accelerometerAccelerationX(G),accelerometerAccelerationY(G),accelerometerAccelerationZ(G),motionTimestamp_sinceReboot(s),motionYaw(rad),motionRoll(rad),motionPitch(rad),motionRotationRateX(rad/s),motionRotationRateY(rad/s),motionRotationRateZ(rad/s),motionUserAccelerationX(G),motionUserAccelerationY(G),motionUserAccelerationZ(G),motionAttitudeReferenceFrame(txt),motionQuaternionX(R),motionQuaternionY(R),motionQuaternionZ(R),motionQuaternionW(R),motionGravityX(G),motionGravityY(G),motionGravityZ(G),motionMagneticFieldX(µT),motionMagneticFieldY(µT),motionMagneticFieldZ(µT),motionHeading(°),motionMagneticFieldCalibrationAccuracy(Z),activityTimestamp_sinceReboot(s),activity(txt),activityActivityConfidence(Z),activityActivityStartDate(txt),pedometerStartDate(txt),pedometerNumberofSteps(N),pedometerAverageActivePace(s/m),pedometerCurrentPace(s/m),pedometerCurrentCadence(steps/s),pedometerDistance(m),pedometerFloorAscended(N),pedometerFloorDescended(N),pedometerEndDate(txt),altimeterTimestamp_sinceReboot(s),altimeterReset(bool),altimeterRelativeAltitude(m),altimeterPressure(kPa),batteryState(N),batteryLevel(R)
254,2022-06-02T10:53:50.018+02:00,1654160028.395044,53.22884031576405,10.39875847288445,35.85659,0,1.01,65.0390625,86.40273311392922,4.0,5.0,-9999,3174.295905916667,0.7009124755859375,0.8090972900390625,1.018096923828125,3174.290908916667,-2.64212018833583,1.558186888989336,0.1287777900622963,-2.776638269424438,6.971145629882812,2.535374879837036,-0.1574885845184326,0.9408459663391112,0.9436721801757812,XArbitraryZVertical,0.6907419253686385,0.1289311656905621,-0.6768742741372693,0.2193022578706094,0.9916406869888306,-0.1284221559762955,-0.0125046940520405,0,0,0,-1,-1,3170.0558465,unknown,2,2022-06-02T10:53:45.777+02:00,2022-06-02T10:17:13.754+02:00,521,1.585522,0,0,405.4342,0,0,2022-06-02T10:53:48.336+02:00,675852828.3357314,0,5.523438,101.3153,1,0.78
255,2022-06-02T10:53:50.028+02:00,1654160028.395044,53.22884031576405,10.39875847288445,35.85659,0,1.01,65.0390625,86.40273311392922,4.0,5.0,-9999,3174.305899916667,0.782501220703125,0.850982666015625,1.1488037109375,3174.300902916667,-2.612248725590992,1.626752887828261,0.1526245581879774,-3.253903150558472,7.58232593536377,2.156323432922363,-0.2859160304069519,0.9611300230026244,0.9628196954727172,XArbitraryZVertical,0.7129703067446213,0.1389674684125067,-0.6467037784352163,0.2326704721787205,0.9868284463882446,-0.1520327031612396,0.055277232080698,0,0,0,-1,-1,3170.0558465,unknown,2,2022-06-02T10:53:45.777+02:00,2022-06-02T10:17:13.754+02:00,521,1.585522,0,0,405.4342,0,0,2022-06-02T10:53:48.336+02:00,675852828.3357314,0,5.523438,101.3153,1,0.78
256,2022-06-02T10:53:50.038+02:00,1654160028.395044,53.22884031576405,10.39875847288445,35.85659,0,1.01,65.0390625,86.40273311392922,4.0,5.0,-9999,3174.315893916667,0.945770263671875,0.781341552734375,1.273971557617188,3174.310896916667,-2.57900645210937,1.699772876111663,0.1754266077052721,-3.701251745223999,8.113179206848145,1.832650184631348,-0.1939725279808044,1.025510907173157,1.02215850353241,XArbitraryZVertical,0.7349580814634121,0.152181577799191,-0.6134204521095388,0.245749252433545,0.97647362947464,-0.1745282113552094,0.1266452223062515,0,0,0,-1,-1,3170.0558465,unknown,2,2022-06-02T10:53:45.777+02:00,2022-06-02T10:17:13.754+02:00,521,1.585522,0,0,405.4342,0,0,2022-06-02T10:53:48.336+02:00,675852828.3357314,0,5.523438,101.3153,1,0.78
257,2022-06-02T10:53:50.048+02:00,1654160028.395044,53.22884031576405,10.39875847288445,35.85659,0,1.01,65.0390625,86.40273311392922,4.0,5.0,-9999,3174.325887916667,1.082595825195312,0.641815185546875,1.473861694335938,3174.320890916667,-2.542951469790712,1.776861159249241,0.1979390751545611,-4.017930030822754,8.662890434265137,1.457323908805847,-0.0139604210853576,0.9779906868934632,1.073357105255127,XArbitraryZVertical,0.756320970560036,0.1681836989843199,-0.5770305857763257,0.258318464412007,0.9597305655479432,-0.1966490596532822,0.200614333152771,0,0,0,-1,-1,3170.0558465,unknown,2,2022-06-02T10:53:45.777+02:00,2022-06-02T10:17:13.754+02:00,521,1.585522,0,0,405.4342,0,0,2022-06-02T10:53:48.336+02:00,675852828.3357314,0,5.523438,101.3153,1,0.78
258,2022-06-02T10:53:50.058+02:00,1654160028.395044,53.22884031576405,10.39875847288445,35.85659,0,1.01,65.0390625,86.40273311392922,4.0,5.0,-9999,3174.335881916667,1.173263549804688,0.7038421630859375,1.719985961914062,3174.330884916667,-2.505001778942046,1.858284256192131,0.2192551563797467,-4.231029510498047,9.189658164978027,0.9205089807510376,0.1465943455696106,0.8593178987503052,1.197105646133423,XArbitraryZVertical,0.7767926363356039,0.1870059118477871,-0.5376162088923211,0.269426788295518,0.9360014200210572,-0.2175026684999466,0.2767560184001923,0,0,0,-1,-1,3170.0558465,unknown,2,2022-06-02T10:53:45.777+02:00,2022-06-02T10:17:13.754+02:00,521,1.585522,0,0,405.4342,0,0,2022-06-02T10:53:48.336+02:00,675852828.3357314,0,5.523438,101.3153,1,0.78
259,2022-06-02T10:53:50.068+02:00,1654160028.395044,53.22884031576405,10.39875847288445,35.85659,0,1.01,65.0390625,86.40273311392922,4.0,5.0,-9999,3174.345875916667,1.127899169921875,0.930023193359375,1.995758056640625,3174.340878916667,-2.46552365646557,1.94347188124615,0.2393628381318288,-4.370681762695312,9.630988121032717,0.4416348040103912,0.268460750579834,0.9409259557724,1.366258144378662,XArbitraryZVertical,0.7958820083333933,0.2084120752168687,-0.4954505143928663,0.278684160339494,0.9048025608062744,-0.2370836734771729,0.3537275195121765,0,0,0,-1,-1,3170.0558465,unknown,2,2022-06-02T10:53:45.777+02:00,2022-06-02T10:17:13.754+02:00,521,1.585522,0,0,405.4342,0,0,2022-06-02T10:53:48.336+02:00,675852828.3357314,0,5.523438,101.3153,1,0.78
260,2022-06-02T10:53:50.078+02:00,1654160028.395044,53.22884031576405,10.39875847288445,35.85659,0,1.01,65.0390625,86.40273311392922,4.0,5.0,-9999,3174.355869916667,0.8976898193359375,1.133392333984375,2.425491333007812,3174.350872916667,-2.42458612696715,2.03200911016652,0.2589858103273647,-4.511642932891846,10.13107681274414,-0.0398366972804069,0.2622510194778442,1.186123609542847,1.565565347671509,XArbitraryZVertical,0.8131719247393295,0.2320511865588183,-0.4506332868652647,0.2860651485844674,0.8656482100486755,-0.2561003267765045,0.4301926791667938,0,0,0,-1,-1,3170.0558465,unknown,2,2022-06-02T10:53:45.777+02:00,2022-06-02T10:17:13.754+02:00,521,1.585522,0,0,405.4342,0,0,2022-06-02T10:53:48.336+02:00,675852828.3357314,0,5.523438,101.3153,1,0.78
261,2022-06-02T10:53:50.091+02:00,1654160028.395044,53.22884031576405,10.39875847288445,35.85659,0,1.01,65.0390625,86.40273311392922,4.0,5.0,-9999,3174.365863916667,0.6768951416015625,1.214447021484375,3.012420654296875,3174.360866916667,-2.380408488895188,2.125160568412632,0.2784940544298072,-4.885088443756104,10.87039661407471,-0.6843810677528381,0.0802136659622192,1.408300399780273,1.919370412826538,XArbitraryZVertical,0.8283412681768553,0.2586718579697172,-0.4023835211385788,0.291593962041407,0.8174760341644287,-0.274908035993576,0.5061208009719849,0,0,0,-1,-1,3170.0558465,unknown,2,2022-06-02T10:53:45.777+02:00,2022-06-02T10:17:13.754+02:00,521,1.585522,0,0,405.4342,0,0,2022-06-02T10:53:48.336+02:00,675852828.3357314,0,5.523438,101.3153,1,0.78
262,2022-06-02T10:53:50.099+02:00,1654160028.395044,53.22884031576405,10.39875847288445,35.85659,0,1.01,65.0390625,86.40273311392922,4.0,5.0,-9999,3174.375857916667,0.50823974609375,1.15020751953125,3.805496215820312,3174.370860916667,-2.330573608802725,2.223347737235021,0.2982041993245494,-5.209834575653076,11.60110473632812,-1.509549498558044,-0.0825755596160888,1.508251190185547,2.432003974914551,XArbitraryZVertical,0.8405719083982512,0.2892180542743286,-0.3501711479152144,0.295248846842545,0.7594706416130066,-0.2938041388988495,0.5804164409637451,0,0,0,-1,-1,3170.0558465,unknown,2,2022-06-02T10:53:45.777+02:00,2022-06-02T10:17:13.754+02:00,521,1.585522,0,0,405.4342,0,0,2022-06-02T10:53:48.336+02:00,675852828.3357314,0,5.523438,101.3153,1,0.78
263,2022-06-02T10:53:50.107+02:00,1654160028.395044,53.22884031576405,10.39875847288445,35.85659,0,1.01,65.0390625,86.40273311392922,4.0,5.0,-9999,3174.385851916667,0.3311767578125,1.239166259765625,4.75616455078125,3174.380854916667,-2.273776169369644,2.325825264214331,0.316705747751989,-5.501266479492188,12.35495376586914,-2.685591697692871,-0.1837934851646423,1.461645364761353,3.154269218444824,XArbitraryZVertical,0.8487713208611155,0.3243465707620444,-0.2945471367524086,0.2960211623709285,0.6920332312583923,-0.3114378452301025,0.6512268781661987,0,0,0,-1,-1,3170.0558465,unknown,2,2022-06-02T10:53:45.777+02:00,2022-06-02T10:17:13.754+02:00,521,1.585522,0,0,405.4342,0,0,2022-06-02T10:53:48.336+02:00,675852828.3357314,0,5.523438,101.3153,1,0.78
264,2022-06-02T10:53:50.117+02:00,1654160028.395044,53.22884031576405,10.39875847288445,35.85659,0,1.01,65.0390625,86.40273311392922,4.0,5.0,-9999,3174.395845916667,0.186981201171875,1.412002563476562,5.915695190429688,3174.390848916667,-2.206333571019415,2.431114980728263,0.3341661138626012,-5.847555637359619,12.94073963165283,-4.220422267913818,-0.2849423289299011,1.567147850990295,4.040046215057373,XArbitraryZVertical,0.851325673913738,0.3651077682065639,-0.2358633782690665,0.2937845313508884,0.6161191463470459,-0.3279815316200256,0.7161181569099426,0,0,0,-1,-1,3170.0558465,unknown,2,2022-06-02T10:53:45.777+02:00,2022-06-02T10:17:13.754+02:00,521,1.585522,0,0,405.4342,0,0,2022-06-02T10:53:48.336+02:00,675852828.3357314,0,5.523438,101.3153,1,0.78
265,2022-06-02T10:53:50.127+02:00,1654160028.395044,53.22884031576405,10.39875847288445,35.85659,0,1.01,65.0390625,86.40273311392922,4.0,5.0,-9999,3174.405839916667,0.178680419921875,1.916000366210938,7.429107666015625,3174.400842916667,-2.122079169098105,2.532108290058829,0.3499335807855064,-6.534467220306396,12.78968811035156,-6.425544261932373,-0.3507707715034485,1.754837989807129,5.145443916320801,XArbitraryZVertical,0.8454197366364541,0.4127843734783082,-0.1768726660521506,0.2891202667741901,0.5377519130706787,-0.3428354263305664,0.7702509164810181,0,0,0,-1,-1,3170.0558465,unknown,2,2022-06-02T10:53:45.777+02:00,2022-06-02T10:17:13.754+02:00,521,1.585522,0,0,405.4342,0,0,2022-06-02T10:53:48.336+02:00,675852828.3357314,0,5.523438,101.3153,1,0.78
266,2022-06-02T10:53:50.137+02:00,1654160028.395044,53.22884031576405,10.39875847288445,35.85659,0,1.01,65.0390625,86.40273311392922,4.0,5.0,-9999,3174.415833916667,0.2040863037109375,2.24346923828125,8.91949462890625,3174.410836916667,-2.012117095580492,2.616038848187776,0.3723139162658173,-8.24677562713623,11.6577672958374,-8.605023384094238,-0.2886398732662201,2.279772281646729,6.623327255249023,XArbitraryZVertical,0.8273688667446858,0.467280324022349,-0.1199829499606939,0.2876003388368726,0.4673202633857727,-0.3637717962265015,0.805780291557312,0,0,0,-1,-1,3170.0558465,unknown,2,2022-06-02T10:53:45.777+02:00,2022-06-02T10:17:13.754+02:00,521,1.585522,0,0,405.4342,0,0,2022-06-02T10:53:48.336+02:00,675852828.3357314,0,5.523438,101.3153,1,0.78
267,2022-06-02T10:53:50.147+02:00,1654160028.395044,53.22884031576405,10.39875847288445,35.85659,0,1.01,65.0390625,86.40273311392922,4.0,5.0,-9999,3174.425827916667,0.1283111572265625,2.304000854492188,10.26947021484375,3174.420830916667,-1.872362913077191,2.670502253648234,0.4028674783720675,-9.372929573059082,9.659829139709473,-11.31170654296875,-0.2134362757205963,2.63552713394165,8.099760055541992,XArbitraryZVertical,0.7949127156896676,0.5272393449951911,-0.0687933513901783,0.2922327030823214,0.4175225794315338,-0.392057865858078,0.8197351098060608,0,0,0,-1,-1,3170.0558465,unknown,2,2022-06-02T10:53:45.777+02:00,2022-06-02T10:17:13.754+02:00,521,1.585522,0,0,405.4342,0,0,2022-06-02T10:53:48.336+02:00,675852828.3357314,0,5.523438,101.3153,1,0.78
268,2022-06-02T10:53:50.157+02:00,1654160028.395044,53.22884031576405,10.39875847288445,35.85659,0,1.01,65.0390625,86.40273311392922,4.0,5.0,-9999,3174.435821916667,-0.150787353515625,2.05987548828125,11.74723815917969,3174.430824916667,-1.700885897896599,2.68193767650891,0.4296853827767249,-9.14332389831543,6.326296806335449,-14.49281692504883,-0.2749996185302734,2.720585823059082,9.45473289489746,XArbitraryZVertical,0.7470238396224624,0.5910364881748503,-0.0303436971123043,0.3028372361647823,0.4033106565475464,-0.4165848195552826,0.8147374987602234,0,0,0,-1,-1,3170.0558465,unknown,2,2022-06-02T10:53:45.777+02:00,2022-06-02T10:17:13.754+02:00,521,1.585522,0,0,405.4342,0,0,2022-06-02T10:53:48.336+02:00,675852828.3357314,0,5.523438,101.3153,1,0.78
269,2022-06-02T10:53:50.168+02:00,1654160028.395044,53.22884031576405,10.39875847288445,35.85659,0,1.01,65.0390625,86.40273311392922,4.0,5.0,-9999,3174.445816916667,-1.104232788085938,2.994369506835938,13.29794311523438,3174.440818916667,-1.499817928609816,2.632502365144714,0.4255498174911021,-6.958513259887695,0.226449579000473,-18.3428897857666,-0.5947016477584839,2.472697257995605,10.95192813873291,XArbitraryZVertical,0.683645882739909,0.6559597966372812,-0.0182061487868926,0.3193953468920711,0.4439141452312469,-0.4128216207027435,0.7953099012374878,0,0,0,-1,-1,3170.0558465,unknown,2,2022-06-02T10:53:45.777+02:00,2022-06-02T10:17:13.754+02:00,521,1.585522,0,0,405.4342,0,0,2022-06-02T10:53:48.336+02:00,675852828.3357314,0,5.523438,101.3153,1,0.78
270,2022-06-02T10:53:50.178+02:00,1654160028.395044,53.22884031576405,10.39875847288445,35.85659,0,1.01,65.0390625,86.40273311392922,4.0,5.0,-9999,3174.455810916667,-3.24566650390625,5.795303344726562,13.72938537597656,3174.450813916667,-1.278543990831057,2.511827645366642,0.3772136797454261,-7.413266181945801,-6.634032726287842,-20.8876953125,-1.651780843734741,3.362700939178467,12.54659557342529,XArbitraryZVertical,0.6038180862418554,0.7148967065111861,-0.038427773277695,0.3504989852049329,0.5475479364395142,-0.3683314621448517,0.7513471841812134,0,0,0,-1,-1,3170.0558465,unknown,2,2022-06-02T10:53:45.777+02:00,2022-06-02T10:17:13.754+02:00,521,1.585522,0,0,405.4342,0,0,2022-06-02T10:53:48.336+02:00,675852828.3357314,0,5.523438,101.3153,1,0.78
271,2022-06-02T10:53:50.188+02:00,1654160028.395044,53.22884031576405,10.39875847288445,35.85659,0,1.01,65.0390625,86.40273311392922,4.0,5.0,-9999,3174.465804916667,-7.684707641601562,7.153350830078125,13.61103820800781,3174.460807916667,-1.04561054569224,2.357299919563502,0.3077413776060131,-10.34347152709961,-8.378862380981445,-21.54244422912598,-3.918808221817017,6.098210334777832,13.05475425720215,XArbitraryZVertical,0.506708109079144,0.761946632111256,-0.0658577465234411,0.3979283805943437,0.6731416583061218,-0.3029069006443024,0.6746315360069275,0,0,0,-1,-1,3170.0558465,unknown,2,2022-06-02T10:53:45.777+02:00,2022-06-02T10:17:13.754+02:00,521,1.585522,0,0,405.4342,0,0,2022-06-02T10:53:48.336+02:00,675852828.3357314,0,5.523438,101.3153,1,0.78
272,2022-06-02T10:53:50.198+02:00,1654160028.395044,53.22884031576405,10.39875847288445,35.85659,0,1.01,65.0390625,86.40273311392922,4.0,5.0,-9999,3174.475798916667,-13.98631286621094,7.273895263671875,13.32015991210938,3174.470801916667,-0.8097876001013529,2.18258132419084,0.1975882900827276,-9.89451789855957,-15.7110767364502,-25.30251502990723,-8.487403869628906,7.349656105041504,13.04788303375244,XArbitraryZVertical,0.3896161639975793,0.793584663268689,-0.1004114252342476,0.4564428867028636,0.8026959896087646,-0.196305125951767,0.5631547570228577,0,0,0,-1,-1,3170.0558465,unknown,2,2022-06-02T10:53:45.777+02:00,2022-06-02T10:17:13.754+02:00,521,1.585522,0,0,405.4342,0,0,2022-06-02T10:53:48.336+02:00,675852828.3357314,0,5.523438,101.3153,1,0.78
273,2022-06-02T10:53:50.207+02:00,1654160028.395044,53.22884031576405,10.39875847288445,35.85659,0,1.01,65.0390625,86.40273311392922,4.0,5.0,-9999,3174.485792916667,-20.09237670898438,8.627197265625,10.74034118652344,3174.480795916667,-0.6212273767227029,1.954220076695609,0.0084285224983125,-4.061057090759277,-25.10510063171387,-25.10055351257324,-14.91366958618164,7.282323837280273,12.94607543945312,XArbitraryZVertical,0.2555851253029395,0.7884912724600486,-0.1676554281874694,0.5337128015457694,0.9273562431335448,-0.0084284227341413,0.37408447265625,0,0,0,-1,-1,3170.0558465,unknown,2,2022-06-02T10:53:45.777+02:00,2022-06-02T10:17:13.754+02:00,521,1.585522,0,0,405.4342,0,0,2022-06-02T10:53:48.336+02:00,675852828.3357314,0,5.523438,101.3153,1,0.78
274,2022-06-02T10:53:50.218+02:00,1654160028.395044,53.22884031576405,10.39875847288445,35.85659,0,1.01,65.0390625,86.40273311392922,4.0,5.0,-9999,3174.495786916667,-30.77290344238281,9.756866455078123,10.409912109375,3174.490789916667,-0.5708410951028204,1.663536054674515,-0.2243349533968877,6.395765781402588,-33.67412185668945,-23.24604034423828,-21.06312942504883,8.404739379882812,10.65005493164062,XArbitraryZVertical,0.1344564445442948,0.7259921660210115,-0.2678440738197543,0.6189638951459161,0.9707525968551636,0.2224580347537994,0.0902863219380378,0,0,0,-1,-1,3170.0558465,unknown,2,2022-06-02T10:53:45.777+02:00,2022-06-02T10:17:13.754+02:00,521,1.585522,0,0,405.4342,0,0,2022-06-02T10:53:48.336+02:00,675852828.3357314,0,5.523438,101.3153,1,0.78
275,2022-06-02T10:53:50.228+02:00,1654160028.395044,53.22884031576405,10.39875847288445,35.85659,0,1.01,65.0390625,86.40273311392922,4.0,5.0,-9999,3174.505780916667,-32.0296630859375,11.70150756835938,13.36622619628906,3174.500783916667,-0.7850194271697067,1.24340292743206,-0.4026563348594979,32.39760971069336,-35.15017700195312,-16.10494613647461,-31.64405822753906,9.365002632141112,10.70576953887939,XArbitraryZVertical,0.0680884104877616,0.589436418875342,-0.4122662454054468,0.6913501577400751,0.8711550235748291,0.391863614320755,-0.2958573400974274,0,0,0,-1,-1,3170.0558465,unknown,2,2022-06-02T10:53:45.777+02:00,2022-06-02T10:17:13.754+02:00,521,1.585522,0,0,405.4342,0,0,2022-06-02T10:53:48.336+02:00,675852828.3357314,0,5.523438,101.3153,1,0.78
276,2022-06-02T10:53:50.238+02:00,1654160028.395044,53.22884031576405,10.39875847288445,35.85659,0,1.01,65.0390625,86.40273311392922,4.0,5.0,-9999,3174.515774916667,-32.00370788574219,14.16871643066406,20.61970520019531,3174.510777916667,-1.110231699636662,0.7760563418605065,-0.2586925489604239,35.14291000366211,-35.10517120361328,11.85320568084717,-32.70682525634766,11.44569110870361,14.05615997314453,XArbitraryZVertical,0.0962797425521939,0.381789519891246,-0.525259709879703,0.7543667863849182,0.6771624088287354,0.2558168172836304,-0.6899339556694031,0,0,0,-1,-1,3170.0558465,unknown,2,2022-06-02T10:53:45.777+02:00,2022-06-02T10:17:13.754+02:00,521,1.585522,0,0,405.4342,0,0,2022-06-02T10:53:48.336+02:00,675852828.3357314,0,5.523438,101.3153,1,0.78
277,2022-06-02T10:53:50.247+02:00,1654160028.395044,53.22884031576405,10.39875847288445,35.85659,0,1.01,65.0390625,86.40273311392922,4.0,5.0,-9999,3174.525768916667,-32.04959106445312,24.04798889160156,22.31739807128906,3174.520771916667,-1.225430675733422,0.45524944334586,0.0884279182483533,35.10194396972656,-18.38102722167969,6.522529125213623,-32.44167709350586,14.25702953338623,21.51434707641602,XArbitraryZVertical,0.1648770692165793,0.1596699569897855,-0.5515492309507571,0.8019441541657638,0.4379684329032898,-0.0883127227425575,-0.8946421146392822,0,0,0,-1,-1,3170.0558465,unknown,2,2022-06-02T10:53:45.777+02:00,2022-06-02T10:17:13.754+02:00,521,1.585522,0,0,405.4342,0,0,2022-06-02T10:53:48.336+02:00,675852828.3357314,0,5.523438,101.3153,1,0.78
278,2022-06-02T10:53:50.257+02:00,1654160028.395044,53.22884031576405,10.39875847288445,35.85659,0,1.01,65.0390625,86.40273311392922,4.0,5.0,-9999,3174.535762916667,-27.19305419921875,-2.708816528320312,31.45840454101562,3174.530765916667,-1.392983367357623,0.5464115103551082,0.398434207120088,34.94377899169922,30.75966644287109,-6.478568553924561,-32.52851486206055,24.43596458435059,23.10486793518066,XArbitraryZVertical,0.3158536410581833,0.0806330469593382,-0.564557537610851,0.7582937180331287,0.4789221882820129,-0.387975662946701,-0.7874695658683777,0,0,0,-1,-1,3170.0558465,unknown,2,2022-06-02T10:53:45.777+02:00,2022-06-02T10:17:13.754+02:00,521,1.585522,0,0,405.4342,0,0,2022-06-02T10:53:48.336+02:00,675852828.3357314,0,5.523438,101.3153,1,0.78
279,2022-06-02T10:53:50.268+02:00,1654160028.395044,53.22884031576405,10.39875847288445,35.85659,0,1.01,65.0390625,86.40273311392922,4.0,5.0,-9999,3174.545756916667,0.72906494140625,-32.04353332519531,17.295166015625,3174.540759916667,-1.675418675771315,1.0018099409486,0.6437107188341705,33.47592926025391,24.32839012145996,3.132781744003296,-27.86690711975098,-2.108648777008057,31.88935852050781,XArbitraryZVertical,0.524203433635567,0.0986575244292156,-0.5166979957851423,0.6697017990367571,0.6738519668579102,-0.6001676917076111,-0.4309549033641815,0,0,0,-1,-1,3170.0558465,unknown,2,2022-06-02T10:53:45.777+02:00,2022-06-02T10:17:13.754+02:00,521,1.585522,0,0,405.4342,0,0,2022-06-02T10:53:48.336+02:00,675852828.3357314,0,5.523438,101.3153,1,0.78
280,2022-06-02T10:53:50.278+02:00,1654160028.395044,53.22884031576405,10.39875847288445,35.85659,0,1.01,65.0390625,86.40273311392922,4.0,5.0,-9999,3174.555750916667,9.701583862304688,-12.19081115722656,2.250045776367188,3174.550753916667,-1.51203248293787,1.023119602914583,0.6614756159990688,-34.45816040039062,11.05332374572754,8.166401863098145,0.0553928613662719,-31.42925071716309,17.70604705810547,XArbitraryZVertical,0.5236617158484453,0.1426102986671697,-0.4501187325835055,0.7091076362042609,0.6736720204353333,-0.6142818927764893,-0.4108814299106598,0,0,0,-1,-1,3170.0558465,unknown,2,2022-06-02T10:53:45.777+02:00,2022-06-02T10:17:13.754+02:00,521,1.585522,0,0,405.4342,0,0,2022-06-02T10:53:48.336+02:00,675852828.3357314,0,5.523438,101.3153,1,0.78
281,2022-06-02T10:53:50.287+02:00,1654160028.395044,53.22884031576405,10.39875847288445,35.85659,0,1.01,65.0390625,86.40273311392922,4.0,5.0,-9999,3174.565744916667,-3.451416015625,8.902374267578125,9.81109619140625,3174.560747916667,-1.151185838910315,0.9120661400631438,0.483717995247875,-35.03668212890625,3.028963804244995,-2.300791263580322,9.001537322998047,-11.72573757171631,2.791932344436646,XArbitraryZVertical,0.4131250741398175,0.2416286233114134,-0.3859996241103845,0.7886363906344495,0.7000464797019958,-0.465073823928833,-0.541886568069458,0,0,0,-1,-1,3170.0558465,unknown,2,2022-06-02T10:53:45.777+02:00,2022-06-02T10:17:13.754+02:00,521,1.585522,0,0,405.4342,0,0,2022-06-02T10:53:48.336+02:00,675852828.3357314,0,5.523438,101.3153,1,0.78
282,2022-06-02T10:53:50.297+02:00,1654160028.395044,53.22884031576405,10.39875847288445,35.85659,0,1.01,65.0390625,86.40273311392922,4.0,5.0,-9999,3174.575739916667,-28.95391845703125,4.470077514648438,6.16680908203125,3174.570742916667,-0.9468995987404184,0.7993952222660687,0.1780301034199132,-33.91324996948242,4.362114906311035,-15.31828784942627,-4.157019138336182,9.079465866088867,10.49721813201904,XArbitraryZVertical,0.2496120585161025,0.3076247043768451,-0.3875687602769474,0.8323768692792173,0.7056030631065369,-0.1770911514759064,-0.6861217021942139,0,0,0,-1,-1,3170.0558465,unknown,2,2022-06-02T10:53:45.777+02:00,2022-06-02T10:17:13.754+02:00,521,1.585522,0,0,405.4342,0,0,2022-06-02T10:53:48.336+02:00,675852828.3357314,0,5.523438,101.3153,1,0.78
283,2022-06-02T10:53:50.307+02:00,1654160028.395044,53.22884031576405,10.39875847288445,35.85659,0,1.01,65.0390625,86.40273311392922,4.0,5.0,-9999,3174.585733916667,-6.028427124023438,5.8704833984375,7.386642456054688,3174.580736916667,-0.7793604615051846,0.8242863823435305,0.1468827751986403,1.611714363098145,2.224674701690674,24.34863662719727,-29.68007659912109,4.616432666778564,6.838577747344971,XArbitraryZVertical,0.213955872559481,0.3440036828387291,-0.3199550677362214,0.8564537831823683,0.7261590361595154,-0.1463551968336105,-0.6717687249183655,0,0,0,-1,-1,3170.0558465,unknown,2,2022-06-02T10:53:45.777+02:00,2022-06-02T10:17:13.754+02:00,521,1.585522,0,0,405.4342,0,0,2022-06-02T10:53:48.336+02:00,675852828.3357314,0,5.523438,101.3153,1,0.78
284,2022-06-02T10:53:50.318+02:00,1654160028.395044,53.22884031576405,10.39875847288445,35.85659,0,1.01,65.0390625,86.40273311392922,4.0,5.0,-9999,3174.595727916667,-5.668685913085938,5.302413940429688,7.831527709960938,3174.590730916667,-0.7210958873129042,0.8183107896210049,0.3661207119779354,16.73993682861328,-1.220703125,12.18337059020996,-6.710038185119629,6.228479385375977,8.024800300598145,XArbitraryZVertical,0.2942809760538102,0.3071151125148545,-0.2504936543161438,0.8696734908001652,0.6816107630729675,-0.3579959571361542,-0.6381580233573914,0,0,0,-1,-1,3170.0558465,unknown,2,2022-06-02T10:53:45.777+02:00,2022-06-02T10:17:13.754+02:00,521,1.585522,0,0,405.4342,0,0,2022-06-02T10:53:48.336+02:00,675852828.3357314,0,5.523438,101.3153,1,0.78
285,2022-06-02T10:53:50.327+02:00,1654160028.395044,53.22884031576405,10.39875847288445,35.85659,0,1.01,65.0390625,86.40273311392922,4.0,5.0,-9999,3174.605721916667,-19.34971618652344,-0.058685302734375,4.121231079101562,3174.600724916667,-0.7437215231439914,0.8205342421570404,0.515551746734171,7.75682258605957,-2.328012704849243,7.295605659484863,-6.305115222930908,5.79542875289917,8.424734115600586,XArbitraryZVertical,0.3579323420204328,0.2743739977102573,-0.2274571873153378,0.8630564470718206,0.6364290714263916,-0.4930149614810944,-0.5932067036628723,0,0,0,-1,-1,3170.0558465,unknown,2,2022-06-02T10:53:45.777+02:00,2022-06-02T10:17:13.754+02:00,521,1.585522,0,0,405.4342,0,0,2022-06-02T10:53:48.336+02:00,675852828.3357314,0,5.523438,101.3153,1,0.78
286,2022-06-02T10:53:50.337+02:00,1654160028.395044,53.22884031576405,10.39875847288445,35.85659,0,1.01,65.0390625,86.40273311392922,4.0,5.0,-9999,3174.615715916667,-21.12156677246094,-9.462387084960938,6.288955688476562,3174.610718916667,-0.7192055230339225,0.8400665955313116,0.6354349743508261,3.763170003890991,9.038488388061523,13.79812335968018,-19.94905090332031,0.5348424315452576,4.658374309539795,XArbitraryZVertical,0.4033192484457396,0.2622250787992388,-0.1859870024116439,0.8567264755613955,0.5993345975875854,-0.593527615070343,-0.5371431708335876,0,0,0,-1,-1,3170.0558465,unknown,2,2022-06-02T10:53:45.777+02:00,2022-06-02T10:17:13.754+02:00,521,1.585522,0,0,405.4342,0,0,2022-06-02T10:53:48.336+02:00,675852828.3357314,0,5.523438,101.3153,1,0.78
287,2022-06-02T10:53:50.351+02:00,1654160028.395044,53.22884031576405,10.39875847288445,35.85659,0,1.01,65.0390625,86.40273311392922,4.0,5.0,-9999,3174.625709916667,-8.88934326171875,-6.247879028320312,5.678604125976562,3174.620712916667,-0.6060767416335299,0.8847038623471055,0.7766907394153717,3.489593267440796,12.68990039825439,17.7347469329834,-21.67341804504395,-8.76146411895752,6.740804672241211,XArbitraryZVertical,0.4448496051023737,0.2760152256118711,-0.0949103916378158,0.8467090811702361,0.5518509149551392,-0.700922966003418,-0.4518488347530365,0,0,0,-1,-1,3170.0558465,unknown,2,2022-06-02T10:53:45.777+02:00,2022-06-02T10:17:13.754+02:00,521,1.585522,0,0,405.4342,0,0,2022-06-02T10:53:48.336+02:00,675852828.3357314,0,5.523438,101.3153,1,0.78
288,2022-06-02T10:53:50.358+02:00,1654160028.999734,53.22884031576405,10.39875847288445,35.76297,0,0.06,65.0390625,86.40273311392922,4.0,5.0,-9999,3174.635703916667,-6.468063354492188,-4.673477172851562,2.6197509765625,3174.630706916667,-0.5159542869641944,0.917035532661166,0.9333322827125136,5.442063331604004,6.824529647827148,13.82109451293945,-9.361782073974608,-5.444271564483643,6.040565967559814,XArbitraryZVertical,0.4909380595965275,0.2792829428307108,-0.0117615597219038,0.8251318354667928,0.4724389016628265,-0.8036076426506042,-0.3619617223739624,0,0,0,-1,-1,3170.0558465,unknown,2,2022-06-02T10:53:45.777+02:00,2022-06-02T10:17:13.754+02:00,521,1.585522,0,0,405.4342,0,0,2022-06-02T10:53:48.336+02:00,675852828.3357314,0,5.523438,101.3153,1,0.78
289,2022-06-02T10:53:50.367+02:00,1654160028.999734,53.22884031576405,10.39875847288445,35.76297,0,0.06,65.0390625,86.40273311392922,4.0,5.0,-9999,3174.645697916667,-7.096771240234375,-7.311767578125,3.373458862304688,3174.640700916667,-0.4379090783092199,0.9005173569629793,1.043268056867251,1.410903453826904,3.212039470672607,9.675700187683104,-6.862551212310791,-3.809423208236694,2.932464838027954,XArbitraryZVertical,0.5198806692253812,0.2708636746909611,0.0421282450965139,0.8090625434014025,0.3944879770278931,-0.8640539646148682,-0.3127139210700989,0,0,0,-1,-1,3170.0558465,unknown,2,2022-06-02T10:53:45.777+02:00,2022-06-02T10:17:13.754+02:00,521,1.585522,0,0,405.4342,0,0,2022-06-02T10:53:48.336+02:00,675852828.3357314,0,5.523438,101.3153,1,0.78
290,2022-06-02T10:53:50.377+02:00,1654160028.999734,53.22884031576405,10.39875847288445,35.76297,0,0.06,65.0390625,86.40273311392922,4.0,5.0,-9999,3174.655691916667,-7.095565795898438,-4.813262939453125,3.1793212890625,3174.650694916667,-0.3050603762698258,0.8060005148335482,1.12555900130606,0.4771300554275513,1.760043501853943,10.99536228179932,-7.407511234283447,-6.409258842468262,3.671651601791382,XArbitraryZVertical,0.5354960757099425,0.2532738158337277,0.0886023572657894,0.8007781998971959,0.3107398748397827,-0.9025084972381592,-0.2981926500797272,0,0,0,-1,-1,3170.0558465,unknown,2,2022-06-02T10:53:45.777+02:00,2022-06-02T10:17:13.754+02:00,521,1.585522,0,0,405.4342,0,0,2022-06-02T10:53:48.336+02:00,675852828.3357314,0,5.523438,101.3153,1,0.78
291,2022-06-02T10:53:50.387+02:00,1654160028.999734,53.22884031576405,10.39875847288445,35.76297,0,0.06,65.0390625,86.40273311392922,4.0,5.0,-9999,3174.665685916667,-6.74029541015625,-4.30224609375,2.032943725585938,3174.660688916667,-0.1278478847415243,0.6688053872664474,1.204572921798982,2.019224882125854,3.41430401802063,9.723199844360352,-7.317600250244141,-3.879576683044434,3.460266828536987,XArbitraryZVertical,0.5513299078432052,0.2357171100148934,0.1358333558507265,0.7886837482618428,0.2220345288515091,-0.933686375617981,-0.2809455394744873,0,0,0,-1,-1,3170.0558465,unknown,2,2022-06-02T10:53:45.777+02:00,2022-06-02T10:17:13.754+02:00,521,1.585522,0,0,405.4342,0,0,2022-06-02T10:53:48.336+02:00,675852828.3357314,0,5.523438,101.3153,1,0.78
292,2022-06-02T10:53:50.397+02:00,1654160028.999734,53.22884031576405,10.39875847288445,35.76297,0,0.06,65.0390625,86.40273311392922,4.0,5.0,-9999,3174.675679916667,-6.427047729492188,-4.880615234375,2.07159423828125,3174.670682916667,0.0626577526874563,0.5278598888516908,1.278747965113194,2.942776918411255,4.248115062713623,9.104724884033203,-6.885313510894775,-3.344589710235596,2.281668901443481,XArbitraryZVertical,0.5691909943333803,0.2272861344174324,0.1798528432583489,0.7694254000441996,0.1450182050466537,-0.9576561450958252,-0.2487252503633499,0,0,0,-1,-1,3170.0558465,unknown,2,2022-06-02T10:53:45.777+02:00,2022-06-02T10:17:13.754+02:00,521,1.585522,0,0,405.4342,0,0,2022-06-02T10:53:48.336+02:00,675852828.3357314,0,5.523438,101.3153,1,0.78
293,2022-06-02T10:53:50.407+02:00,1654160028.999734,53.22884031576405,10.39875847288445,35.76297,0,0.06,65.0390625,86.40273311392922,4.0,5.0,-9999,3174.685673916667,-5.815444946289062,-5.599273681640625,1.883758544921875,3174.680676916667,0.3308754905852535,0.3149270534223919,1.339451146591433,2.151933908462524,4.911142349243164,8.428667068481445,-6.498068809509277,-3.907256364822388,2.289604663848877,XArbitraryZVertical,0.5844735060328732,0.2222283468745563,0.2235298949012534,0.7476895669809995,0.0710210278630256,-0.9733588695526124,-0.2180105596780777,0,0,0,-1,-1,3170.0558465,unknown,2,2022-06-02T10:53:45.777+02:00,2022-06-02T10:17:13.754+02:00,521,1.585522,0,0,405.4342,0,0,2022-06-02T10:53:48.336+02:00,675852828.3357314,0,5.523438,101.3153,1,0.78
294,2022-06-02T10:53:50.418+02:00,1654160028.999734,53.22884031576405,10.39875847288445,35.76297,0,0.06,65.0390625,86.40273311392922,4.0,5.0,-9999,3174.695667916667,-4.583099365234375,-5.144515991210938,1.75823974609375,3174.690670916667,0.691587763873345,0.0106480189023754,1.367150630334303,0.7283482551574707,4.622562885284424,7.731762409210205,-5.817598342895508,-4.619937896728516,2.08598780632019,XArbitraryZVertical,0.5927769680925388,0.2179468732318869,0.2659494252040378,0.7282756698107354,0.0021534222178161,-0.9793357849121094,-0.2022292464971542,0,0,0,-1,-1,3170.0558465,unknown,2,2022-06-02T10:53:45.777+02:00,2022-06-02T10:17:13.754+02:00,521,1.585522,0,0,405.4342,0,0,2022-06-02T10:53:48.336+02:00,675852828.3357314,0,5.523438,101.3153,1,0.78
295,2022-06-02T10:53:50.427+02:00,1654160028.999734,53.22884031576405,10.39875847288445,35.76297,0,0.06,65.0390625,86.40273311392922,4.0,5.0,-9999,3174.705662916667,-3.892410278320312,-3.688949584960938,1.76904296875,3174.700664916667,1.042789128976338,-0.2894691640503164,1.361980466478122,0.4936718344688416,4.136035442352295,6.509376525878906,-4.523926734924316,-4.166238784790039,1.956916451454163,XArbitraryZVertical,0.5960175453542843,0.2131307365995136,0.3042080292960994,0.7118959152319423,-0.0591728426516056,-0.9782770872116088,-0.1986767500638962,0,0,0,-1,-1,3170.0558465,unknown,2,2022-06-02T10:53:45.777+02:00,2022-06-02T10:17:13.754+02:00,521,1.585522,0,0,405.4342,0,0,2022-06-02T10:53:48.336+02:00,675852828.3357314,0,5.523438,101.3153,1,0.78
296,2022-06-02T10:53:50.438+02:00,1654160028.999734,53.22884031576405,10.39875847288445,35.76297,0,0.06,65.0390625,86.40273311392922,4.0,5.0,-9999,3174.715656916667,-3.20953369140625,-3.002197265625,1.87554931640625,3174.710659916667,1.312582088873055,-0.5127208458850897,1.349855480769925,1.914770364761353,3.949495553970337,5.016357421875,-3.784907579421997,-2.713257789611816,1.960010886192322,XArbitraryZVertical,0.5996559169897784,0.2119641739393164,0.3353097879589111,0.695018884085185,-0.1075027883052826,-0.9756916761398317,-0.1909679472446442,0,0,0,-1,-1,3170.0558465,unknown,2,2022-06-02T10:53:45.777+02:00,2022-06-02T10:17:13.754+02:00,521,1.585522,0,0,405.4342,0,0,2022-06-02T10:53:48.336+02:00,675852828.3357314,0,5.523438,101.3153,1,0.78
297,2022-06-02T10:53:50.447+02:00,1654160028.999734,53.22884031576405,10.39875847288445,35.76297,0,0.06,65.0390625,86.40273311392922,4.0,5.0,-9999,3174.725650916667,-2.470626831054688,-2.830703735351562,1.77313232421875,3174.720653916667,1.544231870792,-0.6999736663669388,1.346633286523255,3.282452583312988,3.733769655227661,3.778653383255005,-3.066335201263428,-2.027216672897339,2.045569658279419,XArbitraryZVertical,0.6066814163590682,0.2166274576144622,0.3591455188367044,0.675295891098796,-0.1431985646486282,-0.9749804735183716,-0.1700204014778137,0,0,0,-1,-1,3170.0558465,unknown,2,2022-06-02T10:53:45.777+02:00,2022-06-02T10:17:13.754+02:00,521,1.585522,0,0,405.4342,0,0,2022-06-02T10:53:48.336+02:00,675852828.3357314,0,5.523438,101.3153,1,0.78
298,2022-06-02T10:53:50.457+02:00,1654160028.999734,53.22884031576405,10.39875847288445,35.76297,0,0.06,65.0390625,86.40273311392922,4.0,5.0,-9999,3174.735644916667,-2.092666625976562,-2.799468994140625,1.548873901367188,3174.730647916667,1.762473932996728,-0.8776951732681066,1.34854547743919,3.680533647537231,3.279759883880615,2.770615577697754,-2.301060676574707,-1.855299949645996,1.913967847824097,XArbitraryZVertical,0.6156384956462789,0.2248810805494973,0.3768095298489944,0.6545473625073804,-0.16956627368927,-0.9754037857055664,-0.1408354789018631,0,0,0,-1,-1,3170.0558465,unknown,2,2022-06-02T10:53:45.777+02:00,2022-06-02T10:17:13.754+02:00,521,1.585522,0,0,405.4342,0,0,2022-06-02T10:53:48.336+02:00,675852828.3357314,0,5.523438,101.3153,1,0.78
299,2022-06-02T10:53:50.467+02:00,1654160028.999734,53.22884031576405,10.39875847288445,35.76297,0,0.06,65.0390625,86.40273311392922,4.0,5.0,-9999,3174.745638916667,-1.836563110351562,-2.805877685546875,1.613754272460938,3174.740641916667,1.950029420939079,-1.0291429835818,1.349479237886473,3.102838516235352,3.099303245544434,1.91187858581543,-1.904574394226074,-1.823859691619873,1.662045001983643,XArbitraryZVertical,0.6232565588107692,0.234447603294918,0.3901078826256107,0.6359254850348268,-0.1880921870470047,-0.9756091833114624,-0.1131711676716805,0,0,0,-1,-1,3170.0558465,unknown,2,2022-06-02T10:53:45.777+02:00,2022-06-02T10:17:13.754+02:00,521,1.585522,0,0,405.4342,0,0,2022-06-02T10:53:48.336+02:00,675852828.3357314,0,5.523438,101.3153,1,0.78
300,2022-06-02T10:53:50.477+02:00,1654160028.999734,53.22884031576405,10.39875847288445,35.76297,0,0.06,65.0390625,86.40273311392922,4.0,5.0,-9999,3174.755632916667,-1.395889282226562,-2.682174682617188,1.522018432617188,3174.750635916667,2.09169021735817,-1.13671831019017,1.346807767243716,2.127318620681763,2.975826501846313,1.46428382396698,-1.635043025016785,-1.83085834980011,1.707172155380249,XArbitraryZVertical,0.6275139384414194,0.2439617113254602,0.401865464057254,0.6206552929193081,-0.201520100235939,-0.9750192761421204,-0.0934178829193115,0,0,0,-1,-1,3170.0558465,unknown,2,2022-06-02T10:53:45.777+02:00,2022-06-02T10:17:13.754+02:00,521,1.585522,0,0,405.4342,0,0,2022-06-02T10:53:48.336+02:00,675852828.3357314,0,5.523438,101.3153,1,0.78
301,2022-06-02T10:53:50.487+02:00,1654160028.999734,53.22884031576405,10.39875847288445,35.76297,0,0.06,65.0390625,86.40273311392922,4.0,5.0,-9999,3174.765626916667,-0.921600341796875,-2.186904907226562,1.356216430664062,3174.760629916667,2.183260707108846,-1.198121992710031,1.342016187617137,1.356219410896301,2.536652565002441,1.057367444038391,-1.184667348861694,-1.70823073387146,1.604594111442566,XArbitraryZVertical,0.6286281137171295,0.2520691035868278,0.4123295636683061,0.6093210497907131,-0.2112218886613846,-0.9739437699317932,-0.082575723528862,0,0,0,-1,-1,3170.0558465,unknown,2,2022-06-02T10:53:45.777+02:00,2022-06-02T10:17:13.754+02:00,521,1.585522,0,0,405.4342,0,0,2022-06-02T10:53:48.336+02:00,675852828.3357314,0,5.523438,101.3153,1,0.78
302,2022-06-02T10:53:50.497+02:00,1654160028.999734,53.22884031576405,10.39875847288445,35.76297,0,0.06,65.0390625,86.40273311392922,4.0,5.0,-9999,3174.775620916667,-0.613372802734375,-1.782852172851562,1.212921142578125,3174.770623916667,2.244405293612113,-1.235844146406314,1.339136346674587,1.149669289588928,1.817136406898499,0.3906289339065552,-0.7047661542892456,-1.213618278503418,1.431689381599426,XArbitraryZVertical,0.6287110617319341,0.2588164068040569,0.4199212958825438,0.6011677061741977,-0.2168342024087906,-0.9732866287231444,-0.0754729360342025,0,0,0,-1,-1,3170.0558465,unknown,2,2022-06-02T10:53:45.777+02:00,2022-06-02T10:17:13.754+02:00,521,1.585522,0,0,405.4342,0,0,2022-06-02T10:53:48.336+02:00,675852828.3357314,0,5.523438,101.3153,1,0.78
303,2022-06-02T10:53:50.507+02:00,1654160028.999734,53.22884031576405,10.39875847288445,35.76297,0,0.06,65.0390625,86.40273311392922,4.0,5.0,-9999,3174.785614916667,-0.335418701171875,-1.625656127929688,1.089187622070312,3174.780617916667,2.293610854141067,-1.269995805786549,1.343185473461324,1.274667143821716,0.8807497620582581,-0.4230088591575623,-0.3978547155857086,-0.8086436986923218,1.279777765274048,XArbitraryZVertical,0.6293287592546033,0.2655503688559428,0.4225857367124237,0.5956923784541239,-0.215518057346344,-0.9742082953453064,-0.0668566301465034,0,0,0,-1,-1,3170.0558465,unknown,2,2022-06-02T10:53:45.777+02:00,2022-06-02T10:17:13.754+02:00,521,1.585522,0,0,405.4342,0,0,2022-06-02T10:53:48.336+02:00,675852828.3357314,0,5.523438,101.3153,1,0.78
304,2022-06-02T10:53:50.517+02:00,1654160028.999734,53.22884031576405,10.39875847288445,35.76297,0,0.06,65.0390625,86.40273311392922,4.0,5.0,-9999,3174.795608916667,-0.307586669921875,-1.312271118164062,0.737274169921875,3174.790611916667,2.341864330603785,-1.314742164246735,1.353920941646251,1.313489437103271,-0.4619527161121368,-1.105859756469727,-0.1272556483745575,-0.6490813493728638,1.143684864044189,XArbitraryZVertical,0.6317620023334858,0.2713450582315305,0.4193516954747641,0.5927837892859649,-0.2081630229949951,-0.9765745401382446,-0.0544972643256187,0,0,0,-1,-1,3170.0558465,unknown,2,2022-06-02T10:53:45.777+02:00,2022-06-02T10:17:13.754+02:00,521,1.585522,0,0,405.4342,0,0,2022-06-02T10:53:48.336+02:00,675852828.3357314,0,5.523438,101.3153,1,0.78
305,2022-06-02T10:53:50.527+02:00,1654160028.999734,53.22884031576405,10.39875847288445,35.76297,0,0.06,65.0390625,86.40273311392922,4.0,5.0,-9999,3174.805602916667,-0.7673492431640625,-0.7402191162109375,0.0699615478515625,3174.800605916667,2.383719638249183,-1.367267597555135,1.371873700875762,1.243280529975891,-1.807892203330994,-1.988806247711182,-0.114052802324295,-0.3319909572601318,0.777216911315918,XArbitraryZVertical,0.6357464378298986,0.2754180151092357,0.4093769223921057,0.5936175544857968,-0.1935338973999023,-0.9802800416946412,-0.039942767471075,0,0,0,-1,-1,3170.0558465,unknown,2,2022-06-02T10:53:45.777+02:00,2022-06-02T10:17:13.754+02:00,521,1.585522,0,0,405.4342,0,0,2022-06-02T10:53:48.336+02:00,675852828.3357314,0,5.523438,101.3153,1,0.78
306,2022-06-02T10:53:50.537+02:00,1654160028.999734,53.22884031576405,10.39875847288445,35.76297,0,0.06,65.0390625,86.40273311392922,4.0,5.0,-9999,3174.815596916667,-1.4847412109375,-0.2045135498046875,-0.4593048095703125,3174.810599916667,2.435896731225516,-1.440369572163241,1.397200474628925,1.487292170524597,-2.43128514289856,-2.635995626449585,-0.5960923433303833,0.2447512149810791,0.0924254655838012,XArbitraryZVertical,0.6409763372303445,0.2791367683845087,0.3935537338458039,0.596948250877891,-0.1712568551301956,-0.9849700331687928,-0.0224639996886253,0,0,0,-1,-1,3170.0558465,unknown,2,2022-06-02T10:53:45.777+02:00,2022-06-02T10:17:13.754+02:00,521,1.585522,0,0,405.4342,0,0,2022-06-02T10:53:48.336+02:00,675852828.3357314,0,5.523438,101.3153,1,0.78
307,2022-06-02T10:53:50.547+02:00,1654160028.999734,53.22884031576405,10.39875847288445,35.76297,0,0.06,65.0390625,86.40273311392922,4.0,5.0,-9999,3174.825590916667,-1.848037719726562,0.074188232421875,-0.7332611083984375,3174.820593916667,2.51846576693508,-1.545020210392651,1.42672045579377,1.586215853691101,-2.090113878250122,-3.020086526870728,-1.341211676597595,0.7851255536079407,-0.4556044340133667,XArbitraryZVertical,0.6460074298145417,0.2842959254778527,0.3754608908829891,0.6007322626969376,-0.1435295790433884,-0.9896389842033386,-0.0037004547193646,0,0,0,-1,-1,3170.0558465,unknown,2,2022-06-02T10:53:45.777+02:00,2022-06-02T10:17:13.754+02:00,521,1.585522,0,0,405.4342,0,0,2022-06-02T10:53:48.336+02:00,675852828.3357314,0,5.523438,101.3153,1,0.78
308,2022-06-02T10:53:50.557+02:00,1654160028.999734,53.22884031576405,10.39875847288445,35.76297,0,0.06,65.0390625,86.40273311392922,4.0,5.0,-9999,3174.835584916667,-1.71478271484375,0.39276123046875,-0.8835601806640625,3174.830587916667,2.652819535486116,-1.696637940156632,1.456278101899726,1.523745775222778,-1.646536827087402,-2.988919258117676,-1.734673619270325,1.067638278007507,-0.7476029396057129,XArbitraryZVertical,0.6497735237462838,0.2914879465834188,0.3581038725596996,0.6038134807699881,-0.1133641302585602,-0.9934499263763428,0.0143417101353406,0,0,0,-1,-1,3170.0558465,unknown,2,2022-06-02T10:53:45.777+02:00,2022-06-02T10:17:13.754+02:00,521,1.585522,0,0,405.4342,0,0,2022-06-02T10:53:48.336+02:00,675852828.3357314,0,5.523438,101.3153,1,0.78
309,2022-06-02T10:53:50.567+02:00,1654160028.999734,53.22884031576405,10.39875847288445,35.76297,0,0.06,65.0390625,86.40273311392922,4.0,5.0,-9999,3174.845578916667,-1.565444946289062,0.6981964111328125,-0.8892974853515625,3174.840581916667,2.856655305732921,-1.914976119095092,1.481140316848168,1.397836804389954,-1.455482721328735,-2.79575252532959,-1.630497455596924,1.388744831085205,-0.9137721061706544,XArbitraryZVertical,0.6525921734434365,0.298712836538047,0.3421791977551819,0.6064713814333457,-0.0842853561043739,-0.9959836006164552,0.0302118062973022,0,0,0,-1,-1,3170.0558465,unknown,2,2022-06-02T10:53:45.777+02:00,2022-06-02T10:17:13.754+02:00,521,1.585522,0,0,405.4342,0,0,2022-06-02T10:53:48.336+02:00,675852828.3357314,0,5.523438,101.3153,1,0.78
310,2022-06-02T10:53:50.577+02:00,1654160028.999734,53.22884031576405,10.39875847288445,35.76297,0,0.06,65.0390625,86.40273311392922,4.0,5.0,-9999,3174.855572916667,-1.459091186523438,0.7970123291015625,-0.88531494140625,3174.850575916667,-3.11034803058461,-2.243724234144859,1.497994660731212,1.441819548606873,-1.265824317932129,-2.588925123214722,-1.508564114570618,1.695547580718994,-0.9346333742141724,XArbitraryZVertical,0.6551044246097697,0.3057876547967116,0.3273977214633597,0.6083936668312417,-0.056880846619606,-0.9973511099815368,0.0453357957303524,0,0,0,-1,-1,3170.0558465,unknown,2,2022-06-02T10:53:45.777+02:00,2022-06-02T10:17:13.754+02:00,521,1.585522,0,0,405.4342,0,0,2022-06-02T10:53:48.336+02:00,675852828.3357314,0,5.523438,101.3153,1,0.78
311,2022-06-02T10:53:50.587+02:00,1654160028.999734,53.22884031576405,10.39875847288445,35.76297,0,0.06,65.0390625,86.40273311392922,4.0,5.0,-9999,3174.865567916667,-1.406463623046875,0.7028961181640625,-1.019012451171875,3174.860570916667,-2.716131667301023,-2.648690262003018,1.50273627225928,1.338537335395813,-1.085173010826111,-2.224702119827271,-1.426911950111389,1.794697284698486,-0.945225477218628,XArbitraryZVertical,0.6575386370391794,0.3124070990987085,0.314029267994362,0.609450774412905,-0.0321792550384998,-0.9976848363876344,0.0599105097353458,0,0,0,-1,-1,3170.0558465,unknown,2,2022-06-02T10:53:45.777+02:00,2022-06-02T10:17:13.754+02:00,521,1.585522,0,0,405.4342,0,0,2022-06-02T10:53:48.336+02:00,675852828.3357314,0,5.523438,101.3153,1,0.78
312,2022-06-02T10:53:50.597+02:00,1654160028.999734,53.22884031576405,10.39875847288445,35.76297,0,0.06,65.0390625,86.40273311392922,4.0,5.0,-9999,3174.875561916667,-1.355087280273438,0.5760498046875,-1.1202392578125,3174.870564916667,-2.380863259498031,-2.99301321678489,1.498161702202274,0.9747447967529296,-0.8723663091659546,-1.985851645469666,-1.395721077919006,1.700259566307068,-1.090781331062317,XArbitraryZVertical,0.6593357318247343,0.3180578391166649,0.3025859153678643,0.6103746403924964,-0.0107425339519977,-0.997363269329071,0.0717687904834747,0,0,0,-1,-1,3170.0558465,unknown,2,2022-06-02T10:53:45.777+02:00,2022-06-02T10:17:13.754+02:00,521,1.585522,0,0,405.4342,0,0,2022-06-02T10:53:48.336+02:00,675852828.3357314,0,5.523438,101.3153,1,0.78
313,2022-06-02T10:53:50.607+02:00,1654160028.999734,53.22884031576405,10.39875847288445,35.76297,0,0.06,65.0390625,86.40273311392922,4.0,5.0,-9999,3174.885555916667,-1.170578002929688,0.3484649658203125,-1.151458740234375,3174.880558916667,-2.118533192485049,3.021475173449355,1.49055079828918,0.5833394527435303,-0.5558730363845825,-2.002370119094849,-1.364692687988281,1.572831869125366,-1.199820637702942,XArbitraryZVertical,0.6596018623434141,0.3235985880319027,0.2929112906688415,0.6118923708733843,0.0096053490415215,-0.9967820644378662,0.0795813277363777,0,0,0,-1,-1,3170.0558465,unknown,2,2022-06-02T10:53:45.777+02:00,2022-06-02T10:17:13.754+02:00,521,1.585522,0,0,405.4342,0,0,2022-06-02T10:53:48.336+02:00,675852828.3357314,0,5.523438,101.3153,1,0.78
