,loggingTime(txt),locationTimestamp_since1970(s),locationLatitude(WGS84),locationLongitude(WGS84),locationAltitude(m),locationSpeed(m/s),locationSpeedAccuracy(m/s),locationCourse(°),locationCourseAccuracy(°),locationVerticalAccuracy(m),locationHorizontalAccuracy(m),locationFloor(Z),accelerometerTimestamp_sinceReboot(s),accelerometerAccelerationX(G),accelerometerAccelerationY(G),accelerometerAccelerationZ(G),motionTimestamp_sinceReboot(s),motionYaw(rad),motionRoll(rad),motionPitch(rad),motionRotationRateX(rad/s),motionRotationRateY(rad/s),motionRotationRateZ(rad/s),motionUserAccelerationX(G),motionUserAccelerationY(G),motionUserAccelerationZ(G),motionAttitudeReferenceFrame(txt),motionQuaternionX(R),motionQuaternionY(R),motionQuaternionZ(R),motionQuaternionW(R),motionGravityX(G),motionGravityY(G),motionGravityZ(G),motionMagneticFieldX(µT),motionMagneticFieldY(µT),motionMagneticFieldZ(µT),motionHeading(°),motionMagneticFieldCalibrationAccuracy(Z),activityTimestamp_sinceReboot(s),activity(txt),activityActivityConfidence(Z),activityActivityStartDate(txt),pedometerStartDate(txt),pedometerNumberofSteps(N),pedometerAverageActivePace(s/m),pedometerCurrentPace(s/m),pedometerCurrentCadence(steps/s),pedometerDistance(m),pedometerFloorAscended(N),pedometerFloorDescended(N),pedometerEndDate(txt),altimeterTimestamp_sinceReboot(s),altimeterReset(bool),altimeterRelativeAltitude(m),altimeterPressure(kPa),batteryState(N),batteryLevel(R)
226,2022-06-02T10:55:12.314+02:00,1654160109.256374,53.22891026274602,10.3985482547529,37.52755,0.0,0.73,174.375,99.68955474786836,4.0,5,-9999,3250.454563875,0.66259765625,0.8139190673828125,1.542449951171875,3250.444569875,-2.203518713824351,1.695714412172447,-0.0114429884788115,-0.5365358591079712,5.713199615478516,2.80007529258728,-0.2748730182647705,0.6003890037536621,1.114519834518433,XArbitraryZVertical,0.6671601215673721,0.3423302900703004,-0.5920719694290836,0.2952256786544279,0.9921429753303528,0.011442738585174,0.1245853081345558,0,0,0,-1,-1,3248.267537541667,unknown,2,2022-06-02T10:55:10.126+02:00,2022-06-02T10:17:13.754+02:00,521,1.61832,0,0,405.4342,0,0,2022-06-02T10:55:10.126+02:00,675852910.1255727,0,4.160156,101.3301,1,0.78
227,2022-06-02T10:55:12.324+02:00,1654160109.256374,53.22891026274602,10.3985482547529,37.52755,0.0,0.73,174.375,99.68955474786836,4.0,5,-9999,3250.464557875,0.72637939453125,0.7272491455078125,1.718246459960938,3250.454563875,-2.198534039992118,1.754400640482773,0.0163380193935946,-1.315758228302002,6.021431446075439,2.546541213989258,-0.3153972625732422,0.8125867247581482,1.26235032081604,XArbitraryZVertical,0.6873893061584224,0.3446316948235787,-0.5666695690908656,0.2959908431113517,0.9830608367919922,-0.0163372922688722,0.1825501322746277,0,0,0,-1,-1,3248.267537541667,unknown,2,2022-06-02T10:55:10.126+02:00,2022-06-02T10:17:13.754+02:00,521,1.61832,0,0,405.4342,0,0,2022-06-02T10:55:10.126+02:00,675852910.1255727,0,4.160156,101.3301,1,0.78
228,2022-06-02T10:55:12.334+02:00,1654160109.256374,53.22891026274602,10.3985482547529,37.52755,0.0,0.73,174.375,99.68955474786836,4.0,5,-9999,3250.474551875,0.7904052734375,0.6119232177734375,1.851150512695312,3250.464557875,-2.186787141725734,1.815984740532935,0.0429854962648753,-2.117790937423706,6.378282070159912,2.174369096755981,-0.2837554812431335,0.8284184336662292,1.388924241065979,XArbitraryZVertical,0.706048946146921,0.3503602879135327,-0.5386202783894767,0.2977092265661922,0.969195544719696,-0.0429722592234611,0.24251489341259,0,0,0,-1,-1,3248.267537541667,unknown,2,2022-06-02T10:55:10.126+02:00,2022-06-02T10:17:13.754+02:00,521,1.61832,0,0,405.4342,0,0,2022-06-02T10:55:10.126+02:00,675852910.1255727,0,4.160156,101.3301,1,0.78
229,2022-06-02T10:55:12.344+02:00,1654160109.256374,53.22891026274602,10.3985482547529,37.52755,0.0,0.73,174.375,99.68955474786836,4.0,5,-9999,3250.484545875,0.7953338623046875,0.6481781005859375,1.990951538085938,3250.474551875,-2.168348571551636,1.880996715903285,0.0683823808955155,-2.799302101135254,6.831987380981445,1.722224950790405,-0.1851084232330322,0.7284548878669739,1.487028837203979,XArbitraryZVertical,0.7230791741672269,0.3597561818266746,-0.5077492221712882,0.2998709943922937,0.9500466585159302,-0.0683290958404541,0.3045360147953033,0,0,0,-1,-1,3248.267537541667,unknown,2,2022-06-02T10:55:10.126+02:00,2022-06-02T10:17:13.754+02:00,521,1.61832,0,0,405.4342,0,0,2022-06-02T10:55:10.126+02:00,675852910.1255727,0,4.160156,101.3301,1,0.78
230,2022-06-02T10:55:12.354+02:00,1654160109.256374,53.22891026274602,10.3985482547529,37.52755,0.0,0.73,174.375,99.68955474786836,4.0,5,-9999,3250.494539875,0.7483978271484375,0.7516632080078125,2.169845581054688,3250.484545875,-2.14473990220351,1.949649695240759,0.0925652385719341,-3.258415699005127,7.281703472137451,1.256768345832825,-0.1255207657814026,0.7065841555595398,1.546446561813354,XArbitraryZVertical,0.7385502225729407,0.3723970490349423,-0.4741891197466753,0.3016764135863285,0.9251117706298828,-0.0924331098794937,0.3682719767093658,0,0,0,-1,-1,3248.267537541667,unknown,2,2022-06-02T10:55:10.126+02:00,2022-06-02T10:17:13.754+02:00,521,1.61832,0,0,405.4342,0,0,2022-06-02T10:55:10.126+02:00,675852910.1255727,0,4.160156,101.3301,1,0.78
231,2022-06-02T10:55:12.364+02:00,1654160109.256374,53.22891026274602,10.3985482547529,37.52755,0.0,0.73,174.375,99.68955474786836,4.0,5,-9999,3250.504533875,0.6395111083984375,0.757720947265625,2.383560180664062,3250.494539875,-2.116923907671155,2.022169145870121,0.1157735886511651,-3.674843311309814,7.803318023681641,0.7746583819389343,-0.1152608394622803,0.8187164664268494,1.646430730819702,XArbitraryZVertical,0.7524240510446969,0.3879415237696541,-0.4379618197662883,0.3025702618807575,0.8938251733779907,-0.1155151352286339,0.4332811534404755,0,0,0,-1,-1,3248.267537541667,unknown,2,2022-06-02T10:55:10.126+02:00,2022-06-02T10:17:13.754+02:00,521,1.61832,0,0,405.4342,0,0,2022-06-02T10:55:10.126+02:00,675852910.1255727,0,4.160156,101.3301,1,0.78
232,2022-06-02T10:55:12.374+02:00,1654160109.256374,53.22891026274602,10.3985482547529,37.52755,0.0,0.73,174.375,99.68955474786836,4.0,5,-9999,3250.514527875,0.621002197265625,0.7476654052734375,2.742889404296875,3250.504533875,-2.086219645694907,2.098610974484498,0.1375843027348884,-3.766794919967651,8.273406028747559,0.2009676694869995,-0.1587702631950378,0.9040268659591676,1.765959501266479,XArbitraryZVertical,0.764603531538016,0.4059864860558891,-0.3993796417347146,0.3017486209556764,0.8557459115982056,-0.1371506452560425,0.4988871812820435,0,0,0,-1,-1,3248.267537541667,unknown,2,2022-06-02T10:55:10.126+02:00,2022-06-02T10:17:13.754+02:00,521,1.61832,0,0,405.4342,0,0,2022-06-02T10:55:10.126+02:00,675852910.1255727,0,4.160156,101.3301,1,0.78
233,2022-06-02T10:55:12.384+02:00,1654160109.256374,53.22891026274602,10.3985482547529,37.52755,0.0,0.73,174.375,99.68955474786836,4.0,5,-9999,3250.524521875,0.6345672607421875,0.720489501953125,3.1705322265625,3250.514527875,-2.052403300079564,2.179350761301098,0.1576240325552967,-4.070451736450195,8.874402046203613,-0.4006819725036621,-0.1993266940116882,0.9107868671417236,1.980693101882935,XArbitraryZVertical,0.7747586356439606,0.4266690091202105,-0.3584408328363095,0.2987016264791738,0.8103036880493164,-0.1569721400737762,0.5645947456359863,0,0,0,-1,-1,3248.267537541667,unknown,2,2022-06-02T10:55:10.126+02:00,2022-06-02T10:17:13.754+02:00,521,1.61832,0,0,405.4342,0,0,2022-06-02T10:55:10.126+02:00,675852910.1255727,0,4.160156,101.3301,1,0.78
234,2022-06-02T10:55:12.394+02:00,1654160109.256374,53.22891026274602,10.3985482547529,37.52755,0.0,0.73,174.375,99.68955474786836,4.0,5,-9999,3250.534515875,0.5206451416015625,0.80023193359375,3.716079711914062,3250.524521875,-2.013483295427543,2.264913492354071,0.1778854357094125,-4.524933815002441,9.536288261413574,-1.018197417259216,-0.1190388202667236,0.9027178287506104,2.31916356086731,XArbitraryZVertical,0.7823279793967023,0.4502990187385176,-0.3142731059848002,0.2939831685539899,0.7564899325370789,-0.1769487708806992,0.6296125650405884,0,0,0,-1,-1,3248.267537541667,unknown,2,2022-06-02T10:55:10.126+02:00,2022-06-02T10:17:13.754+02:00,521,1.61832,0,0,405.4342,0,0,2022-06-02T10:55:10.126+02:00,675852910.1255727,0,4.160156,101.3301,1,0.78
235,2022-06-02T10:55:12.404+02:00,1654160109.256374,53.22891026274602,10.3985482547529,37.52755,0.0,0.73,174.375,99.68955474786836,4.0,5,-9999,3250.544509875,0.290313720703125,0.9794464111328124,4.447723388671875,3250.534515875,-1.96868750021386,2.355096241719592,0.1993599014759977,-4.851202487945557,10.18108177185059,-1.772621154785156,-0.0987237095832824,0.9470043778419496,2.730008125305176,XArbitraryZVertical,0.7866168886328657,0.4768686708643207,-0.2667098391569442,0.2875688855121729,0.6938621401786804,-0.1980419456958771,0.6923397183418274,0,0,0,-1,-1,3248.267537541667,unknown,2,2022-06-02T10:55:10.126+02:00,2022-06-02T10:17:13.754+02:00,521,1.61832,0,0,405.4342,0,0,2022-06-02T10:55:10.126+02:00,675852910.1255727,0,4.160156,101.3301,1,0.78
236,2022-06-02T10:55:12.414+02:00,1654160109.256374,53.22891026274602,10.3985482547529,37.52755,0.0,0.73,174.375,99.68955474786836,4.0,5,-9999,3250.554503875,0.007781982421875,1.193145751953125,5.314346313476562,3250.544509875,-1.917105502036901,2.449370856832275,0.2202581155832592,-5.01526927947998,10.81718158721924,-2.91697096824646,-0.2039759755134583,1.096075534820557,3.312473773956299,XArbitraryZVertical,0.7865953392081618,0.5068367659182026,-0.2165221674486714,0.2783923820265905,0.6228296160697937,-0.2184815108776093,0.7512314915657043,0,0,0,-1,-1,3248.267537541667,unknown,2,2022-06-02T10:55:10.126+02:00,2022-06-02T10:17:13.754+02:00,521,1.61832,0,0,405.4342,0,0,2022-06-02T10:55:10.126+02:00,675852910.1255727,0,4.160156,101.3301,1,0.78
237,2022-06-02T10:55:12.424+02:00,1654160109.256374,53.22891026274602,10.3985482547529,37.52755,0.0,0.73,174.375,99.68955474786836,4.0,5,-9999,3250.564497875,-0.0892486572265625,1.655136108398438,6.349319458007812,3250.554503875,-1.856640011704835,2.546431920401344,0.2374809933903909,-4.783539295196533,11.33620643615723,-4.484542369842529,-0.4013519883155823,1.313120603561401,4.058249950408936,XArbitraryZVertical,0.7808486307147056,0.5410030935977411,-0.1652332628819189,0.2651208342823735,0.544906735420227,-0.2352550625801086,0.8048178553581238,0,0,0,-1,-1,3248.267537541667,unknown,2,2022-06-02T10:55:10.126+02:00,2022-06-02T10:17:13.754+02:00,521,1.61832,0,0,405.4342,0,0,2022-06-02T10:55:10.126+02:00,675852910.1255727,0,4.160156,101.3301,1,0.78
238,2022-06-02T10:55:12.434+02:00,1654160109.256374,53.22891026274602,10.3985482547529,37.52755,0.0,0.73,174.375,99.68955474786836,4.0,5,-9999,3250.574491875,-0.11151123046875,1.929641723632812,7.589813232421875,3250.564497875,-1.783505284911571,2.643848832062995,0.2509982665484583,-4.980948925018311,11.62346363067627,-6.266209125518799,-0.5362904071807861,1.642612457275391,4.949865818023682,XArbitraryZVertical,0.7676305223777221,0.579920657750774,-0.113974245159268,0.2478816930959251,0.4624836444854736,-0.2483710646629333,0.8511291742324829,0,0,0,-1,-1,3248.267537541667,unknown,2,2022-06-02T10:55:10.126+02:00,2022-06-02T10:17:13.754+02:00,521,1.61832,0,0,405.4342,0,0,2022-06-02T10:55:10.126+02:00,675852910.1255727,0,4.160156,101.3301,1,0.78
239,2022-06-02T10:55:12.444+02:00,1654160109.256374,53.22891026274602,10.3985482547529,37.52755,0.0,0.73,174.375,99.68955474786836,4.0,5,-9999,3250.584485875,-0.178375244140625,2.207763671875,8.801727294921875,3250.574491875,-1.691860320238152,2.734475091835676,0.2650063725919122,-5.295871734619141,11.07573699951172,-8.570507049560547,-0.4703066349029541,2.106596231460571,6.062062740325928,XArbitraryZVertical,0.7444142410618286,0.6236605379744077,-0.0642161503553542,0.22971993090269,0.3821413516998291,-0.2619154155254364,0.8862100839614868,0,0,0,-1,-1,3248.267537541667,unknown,2,2022-06-02T10:55:10.126+02:00,2022-06-02T10:17:13.754+02:00,521,1.61832,0,0,405.4342,0,0,2022-06-02T10:55:10.126+02:00,675852910.1255727,0,4.160156,101.3301,1,0.78
240,2022-06-02T10:55:12.454+02:00,1654160109.256374,53.22891026274602,10.3985482547529,37.52755,0.0,0.73,174.375,99.68955474786836,4.0,5,-9999,3250.594479875,-0.394927978515625,2.213531494140625,9.6800537109375,3250.584485875,-1.574609204151847,2.805943416262815,0.2832490847764196,-6.293380737304688,9.436816215515137,-11.19419384002686,-0.4634434878826141,2.323544263839722,7.335584163665771,XArbitraryZVertical,0.7081468402611248,0.6721713975151352,-0.0189346217750685,0.2153023497439739,0.3162571489810944,-0.2794767320156097,0.906572699546814,0,0,0,-1,-1,3248.267537541667,unknown,2,2022-06-02T10:55:10.126+02:00,2022-06-02T10:17:13.754+02:00,521,1.61832,0,0,405.4342,0,0,2022-06-02T10:55:10.126+02:00,675852910.1255727,0,4.160156,101.3301,1,0.78
241,2022-06-02T10:55:12.464+02:00,1654160109.256374,53.22891026274602,10.3985482547529,37.52755,0.0,0.73,174.375,99.68955474786836,4.0,5,-9999,3250.604473875,-1.224014282226562,2.660552978515625,10.72836303710938,3250.594479875,-1.427384313788146,2.844755984302106,0.3043144288812841,-6.134280204772949,6.694607734680176,-14.43923759460449,-0.5201461315155029,2.567293643951416,8.338190078735352,XArbitraryZVertical,0.6568956758083758,0.7243289256906034,0.0176359974636834,0.2086257062341542,0.2790572345256805,-0.2996391654014587,0.9123286604881288,0,0,0,-1,-1,3248.267537541667,unknown,2,2022-06-02T10:55:10.126+02:00,2022-06-02T10:17:13.754+02:00,521,1.61832,0,0,405.4342,0,0,2022-06-02T10:55:10.126+02:00,675852910.1255727,0,4.160156,101.3301,1,0.78
242,2022-06-02T10:55:12.474+02:00,1654160109.256374,53.22891026274602,10.3985482547529,37.52755,0.0,0.73,174.375,99.68955474786836,4.0,5,-9999,3250.614467875,-2.9595947265625,4.233367919921875,11.83992004394531,3250.604473875,-1.248417168224278,2.836927790363601,0.3082513902349474,-4.579605102539062,2.358475208282471,-17.91579246520996,-0.9837714433670044,2.597353458404541,9.267971992492676,XArbitraryZVertical,0.5897416475960072,0.7789074191717951,0.0354882490024932,0.2103537975159204,0.2858344614505768,-0.3033929169178009,0.9089839458465576,0,0,0,-1,-1,3248.267537541667,unknown,2,2022-06-02T10:55:10.126+02:00,2022-06-02T10:17:13.754+02:00,521,1.61832,0,0,405.4342,0,0,2022-06-02T10:55:10.126+02:00,675852910.1255727,0,4.160156,101.3301,1,0.78
243,2022-06-02T10:55:12.484+02:00,1654160109.256374,53.22891026274602,10.3985482547529,37.52755,0.0,0.73,174.375,99.68955474786836,4.0,5,-9999,3250.624461875,-4.87921142578125,6.382568359375,12.22975158691406,3250.614467875,-1.042727066818816,2.771813036895834,0.2859550236718342,-4.496643543243408,-3.418364763259888,-20.5485668182373,-2.349770545959473,3.584716796875,10.40701484680176,XArbitraryZVertical,0.5072936905822036,0.8306173886565816,0.0308250688725282,0.2275468337133087,0.3467339873313904,-0.2820738255977631,0.894544243812561,0,0,0,-1,-1,3248.267537541667,unknown,2,2022-06-02T10:55:10.126+02:00,2022-06-02T10:17:13.754+02:00,521,1.61832,0,0,405.4342,0,0,2022-06-02T10:55:10.126+02:00,675852910.1255727,0,4.160156,101.3301,1,0.78
244,2022-06-02T10:55:12.494+02:00,1654160109.256374,53.22891026274602,10.3985482547529,37.52755,0.0,0.73,174.375,99.68955474786836,4.0,5,-9999,3250.634455875,-7.375411987304688,7.34136962890625,11.79618835449219,3250.624461875,-0.8180643300412189,2.648870056419117,0.2480284936135033,-6.698343276977539,-9.082992553710938,-21.88353157043457,-4.415139675140381,5.60454797744751,11.34879398345947,XArbitraryZVertical,0.4104287267528048,0.8709716409340834,0.0138155262693295,0.2697513417698906,0.4585509598255157,-0.2454932630062103,0.854086697101593,0,0,0,-1,-1,3248.267537541667,unknown,2,2022-06-02T10:55:10.126+02:00,2022-06-02T10:17:13.754+02:00,521,1.61832,0,0,405.4342,0,0,2022-06-02T10:55:10.126+02:00,675852910.1255727,0,4.160156,101.3301,1,0.78
245,2022-06-02T10:55:12.504+02:00,1654160109.256374,53.22891026274602,10.3985482547529,37.52755,0.0,0.73,174.375,99.68955474786836,4.0,5,-9999,3250.644449875,-12.4183349609375,7.599273681640625,12.43434143066406,3250.634455875,-0.584262946477807,2.482655017653075,0.1882279028822216,-7.80377721786499,-13.85949516296387,-23.12763595581055,-6.500922679901123,7.255111694335938,11.16153907775879,XArbitraryZVertical,0.3004146983390089,0.8933589225339319,-0.0076121762213459,0.3340702114069033,0.6014628410339355,-0.1871183961629868,0.7766783237457275,0,0,0,-1,-1,3248.267537541667,unknown,2,2022-06-02T10:55:10.126+02:00,2022-06-02T10:17:13.754+02:00,521,1.61832,0,0,405.4342,0,0,2022-06-02T10:55:10.126+02:00,675852910.1255727,0,4.160156,101.3301,1,0.78
246,2022-06-02T10:55:12.514+02:00,1654160109.256374,53.22891026274602,10.3985482547529,37.52755,0.0,0.73,174.375,99.68955474786836,4.0,5,-9999,3250.654443875,-18.46507263183594,8.467849731445312,11.5640869140625,3250.644449875,-0.3617958855778514,2.277058571847835,0.075038822513711,-5.80852746963501,-21.94890213012695,-24.37312507629395,-10.37335205078125,7.458467483520508,11.41838359832764,XArbitraryZVertical,0.1787072054583694,0.8897459358554886,-0.0418134036493735,0.4179323159699275,0.758651852607727,-0.0749684199690818,0.6471682190895081,0,0,0,-1,-1,3248.267537541667,unknown,2,2022-06-02T10:55:10.126+02:00,2022-06-02T10:17:13.754+02:00,521,1.61832,0,0,405.4342,0,0,2022-06-02T10:55:10.126+02:00,675852910.1255727,0,4.160156,101.3301,1,0.78
247,2022-06-02T10:55:12.524+02:00,1654160109.256374,53.22891026274602,10.3985482547529,37.52755,0.0,0.73,174.375,99.68955474786836,4.0,5,-9999,3250.664438875,-28.9105224609375,10.26841735839844,11.17718505859375,3250.654443875,-0.2100540092163529,2.015049963707424,-0.1089543957301709,1.682026386260986,-29.95997428894043,-23.18162155151367,-16.22693824768066,7.90937328338623,11.92920970916748,XArbitraryZVertical,0.0595932437514666,0.8426543999756309,-0.1016783211337965,0.525398595144224,0.8975775837898254,0.1087389588356018,0.4272355735301971,0,0,0,-1,-1,3248.267537541667,unknown,2,2022-06-02T10:55:10.126+02:00,2022-06-02T10:17:13.754+02:00,521,1.61832,0,0,405.4342,0,0,2022-06-02T10:55:10.126+02:00,675852910.1255727,0,4.160156,101.3301,1,0.78
248,2022-06-02T10:55:12.534+02:00,1654160109.256374,53.22891026274602,10.3985482547529,37.52755,0.0,0.73,174.375,99.68955474786836,4.0,5,-9999,3250.674432875,-32.03785705566406,9.665313720703123,13.06013488769531,3250.664438875,-0.2392858937948358,1.674915207257159,-0.3301892744173265,17.40652656555176,-35.06836700439453,-17.49761581420898,-23.77559089660645,8.894695281982422,10.89170455932617,XArbitraryZVertical,-0.0217486937847596,0.740732949249513,-0.2000329819221797,0.6409590200194675,0.940858006477356,0.3242220878601074,0.0983166173100471,0,0,0,-1,-1,3248.267537541667,unknown,2,2022-06-02T10:55:10.126+02:00,2022-06-02T10:17:13.754+02:00,521,1.61832,0,0,405.4342,0,0,2022-06-02T10:55:10.126+02:00,675852910.1255727,0,4.160156,101.3301,1,0.78
249,2022-06-02T10:55:12.544+02:00,1654160109.256374,53.22891026274602,10.3985482547529,37.52755,0.0,0.73,174.375,99.68955474786836,4.0,5,-9999,3250.684426875,-31.87370300292969,19.40951538085938,14.27565002441406,3250.674432875,-0.5497663833613745,1.2084894836152,-0.3785273558141309,35.05715179443359,-35.12359237670898,1.26775598526001,-32.89144134521484,9.921829223632812,12.16437911987305,XArbitraryZVertical,0.0024489028477295,0.5790708249630194,-0.3222579401765419,0.7488797308012077,0.868887186050415,0.3695524632930756,-0.3293419778347015,0,0,0,-1,-1,3248.267537541667,unknown,2,2022-06-02T10:55:10.126+02:00,2022-06-02T10:17:13.754+02:00,521,1.61832,0,0,405.4342,0,0,2022-06-02T10:55:10.126+02:00,675852910.1255727,0,4.160156,101.3301,1,0.78
250,2022-06-02T10:55:12.555+02:00,1654160109.256374,53.22891026274602,10.3985482547529,37.52755,0.0,0.73,174.375,99.68955474786836,4.0,5,-9999,3250.694420875,-32.05183410644531,28.54788208007812,25.0494384765625,3250.684426875,-0.7774190046017126,0.7975225837957022,-0.0831610263972817,35.11618423461914,-35.09731674194336,15.85705471038818,-32.72241592407227,12.41812515258789,14.71593475341797,XArbitraryZVertical,0.1115782741784133,0.3735188625094378,-0.3638937614310757,0.8459404983038521,0.7131547331809998,0.0830652043223381,-0.6960678696632385,0,0,0,-1,-1,3248.267537541667,unknown,2,2022-06-02T10:55:10.126+02:00,2022-06-02T10:17:13.754+02:00,521,1.61832,0,0,405.4342,0,0,2022-06-02T10:55:10.126+02:00,675852910.1255727,0,4.160156,101.3301,1,0.78
251,2022-06-02T10:55:12.572+02:00,1654160109.256374,53.22891026274602,10.3985482547529,37.52755,0.0,0.73,174.375,99.68955474786836,4.0,5,-9999,3250.704414875,-27.33978271484375,-5.209884643554688,31.44908142089844,3250.694420875,-0.942463688014502,0.609507328252388,0.2369578443382807,35.03694915771484,5.921642780303955,-1.56253969669342,-32.51026153564453,24.04540061950684,15.3518123626709,XArbitraryZVertical,0.2357327710558412,0.2142913825121321,-0.3984272091115355,0.8600959528395993,0.5564669966697693,-0.2347465753555298,-0.7970185279846191,0,0,0,-1,-1,3248.267537541667,unknown,2,2022-06-02T10:55:10.126+02:00,2022-06-02T10:17:13.754+02:00,521,1.61832,0,0,405.4342,0,0,2022-06-02T10:55:10.126+02:00,675852910.1255727,0,4.160156,101.3301,1,0.78
252,2022-06-02T10:55:12.577+02:00,1654160109.256374,53.22891026274602,10.3985482547529,37.52755,0.0,0.73,174.375,99.68955474786836,4.0,5,-9999,3250.714408875,3.084457397460938,-32.04330444335938,11.3343505859375,3250.704414875,-1.200422929238952,0.9667690481507992,0.4911357013168863,34.79348754882812,34.97613906860352,8.883249282836914,-32.87516784667969,19.70614051818848,31.96074295043945,XArbitraryZVertical,0.432270026077395,0.2504574006028844,-0.3918587667908286,0.7725674543793877,0.7257680892944336,-0.4716276526451111,-0.500827431678772,0,0,0,-1,-1,3248.267537541667,unknown,2,2022-06-02T10:55:10.126+02:00,2022-06-02T10:17:13.754+02:00,521,1.61832,0,0,405.4342,0,0,2022-06-02T10:55:10.126+02:00,675852910.1255727,0,4.160156,101.3301,1,0.78
253,2022-06-02T10:55:12.585+02:00,1654160109.256374,53.22891026274602,10.3985482547529,37.52755,0.0,0.73,174.375,99.68955474786836,4.0,5,-9999,3250.724402875,3.501983642578125,-9.470138549804688,-0.012725830078125,3250.714408875,-1.332225571967079,1.211480222160902,0.7081761797330631,-21.23937797546387,8.043824195861816,17.7654857635498,-13.37859916687012,-27.23303413391113,25.35074806213379,XArbitraryZVertical,0.5541173891804307,0.2437461464810157,-0.3212597082649982,0.7282402785966025,0.7110427021980286,-0.6504495739936829,-0.267083466053009,0,0,0,-1,-1,3248.267537541667,unknown,2,2022-06-02T10:55:10.126+02:00,2022-06-02T10:17:13.754+02:00,521,1.61832,0,0,405.4342,0,0,2022-06-02T10:55:10.126+02:00,675852910.1255727,0,4.160156,101.3301,1,0.78
254,2022-06-02T10:55:12.594+02:00,1654160109.256374,53.22891026274602,10.3985482547529,37.52755,0.0,0.73,174.375,99.68955474786836,4.0,5,-9999,3250.734396875,-1.1612548828125,10.43006896972656,9.12493896484375,3250.724402875,-0.92954455253923,1.10020679935982,0.6382634933600356,-35.06578826904297,15.52296733856201,-3.597165822982788,6.48463773727417,-27.31499481201172,2.142927408218384,XArbitraryZVertical,0.4615721549227589,0.3238464200459459,-0.2161826021717718,0.7970819001715104,0.715831995010376,-0.5958017110824585,-0.364149272441864,0,0,0,-1,-1,3248.267537541667,unknown,2,2022-06-02T10:55:10.126+02:00,2022-06-02T10:17:13.754+02:00,521,1.61832,0,0,405.4342,0,0,2022-06-02T10:55:10.126+02:00,675852910.1255727,0,4.160156,101.3301,1,0.78
255,2022-06-02T10:55:12.604+02:00,1654160109.256374,53.22891026274602,10.3985482547529,37.52755,0.0,0.73,174.375,99.68955474786836,4.0,5,-9999,3250.744390875,-27.76570129394531,4.541900634765625,7.901840209960938,3250.734396875,-0.6270506029093349,0.9371305741980906,0.3956123782717974,-34.62706756591797,-20.22353553771973,-10.46103191375732,-0.700603723526001,5.774441719055176,3.924771785736084,XArbitraryZVertical,0.303355971150185,0.3671383320819724,-0.1853835378717928,0.8595448829688571,0.7436181306838989,-0.3853733539581299,-0.546369194984436,0,0,0,-1,-1,3248.267537541667,unknown,2,2022-06-02T10:55:10.126+02:00,2022-06-02T10:17:13.754+02:00,521,1.61832,0,0,405.4342,0,0,2022-06-02T10:55:10.126+02:00,675852910.1255727,0,4.160156,101.3301,1,0.78
256,2022-06-02T10:55:12.614+02:00,1654160109.256374,53.22891026274602,10.3985482547529,37.52755,0.0,0.73,174.375,99.68955474786836,4.0,5,-9999,3250.754384875,-6.91168212890625,2.483856201171875,5.74981689453125,3250.744390875,-0.4481157117384114,0.8970346310001388,0.2081808048969838,-11.89348316192627,13.86993026733398,9.412370681762695,-11.57089614868164,11.28878784179688,11.07315063476562,XArbitraryZVertical,0.187111217723775,0.3997000703755479,-0.1551987970142128,0.8838226564715281,0.7646068334579468,-0.2066803276538849,-0.610458493232727,0,0,0,-1,-1,3248.267537541667,unknown,2,2022-06-02T10:55:10.126+02:00,2022-06-02T10:17:13.754+02:00,521,1.61832,0,0,405.4342,0,0,2022-06-02T10:55:10.126+02:00,675852910.1255727,0,4.160156,101.3301,1,0.78
257,2022-06-02T10:55:12.624+02:00,1654160109.256374,53.22891026274602,10.3985482547529,37.52755,0.0,0.73,174.375,99.68955474786836,4.0,5,-9999,3250.764378875,-3.541824340820312,5.699981689453125,1.6591796875,3250.754384875,-0.2855679466587884,0.90659840738369,0.3127307136716133,0.7099793553352356,-1.38989520072937,20.94548606872559,-26.15743827819824,0.6036480069160461,9.728816986083984,XArbitraryZVertical,0.2001341490007136,0.4082667619058508,-0.0588623751831886,0.8887067762688833,0.7492195963859558,-0.3076580464839935,-0.5865291357040405,0,0,0,-1,-1,3248.267537541667,unknown,2,2022-06-02T10:55:10.126+02:00,2022-06-02T10:17:13.754+02:00,521,1.61832,0,0,405.4342,0,0,2022-06-02T10:55:10.126+02:00,675852910.1255727,0,4.160156,101.3301,1,0.78
258,2022-06-02T10:55:12.634+02:00,1654160109.256374,53.22891026274602,10.3985482547529,37.52755,0.0,0.73,174.375,99.68955474786836,4.0,5,-9999,3250.774372875,-22.91749572753906,6.69427490234375,5.227783203125,3250.764378875,-0.2307863560193049,0.8545232334309794,0.4679108525525389,9.32460880279541,-0.0396847613155841,9.948701858520508,1.776507139205933,5.735766887664795,3.528371810913086,XArbitraryZVertical,0.2559943180432265,0.3761180531918759,-0.0065065292192018,0.8904829030819923,0.6731846332550049,-0.4510226845741272,-0.5860042572021484,0,0,0,-1,-1,3248.267537541667,unknown,2,2022-06-02T10:55:10.126+02:00,2022-06-02T10:17:13.754+02:00,521,1.61832,0,0,405.4342,0,0,2022-06-02T10:55:10.126+02:00,675852910.1255727,0,4.160156,101.3301,1,0.78
259,2022-06-02T10:55:12.644+02:00,1654160109.256374,53.22891026274602,10.3985482547529,37.52755,0.0,0.73,174.375,99.68955474786836,4.0,5,-9999,3250.784366875,-16.12754821777344,-6.760757446289062,7.596450805664062,3250.774372875,-0.2565710567566975,0.8903770949353731,0.627803936262242,14.02883243560791,6.40142822265625,12.54724597930908,-16.05354499816895,7.196484565734863,3.323519706726074,XArbitraryZVertical,0.3287860437703494,0.3705680145316995,0.0220512553673335,0.8683852155629307,0.6290912628173828,-0.5873688459396362,-0.509158194065094,0,0,0,-1,-1,3248.267537541667,unknown,2,2022-06-02T10:55:10.126+02:00,2022-06-02T10:17:13.754+02:00,521,1.61832,0,0,405.4342,0,0,2022-06-02T10:55:10.126+02:00,675852910.1255727,0,4.160156,101.3301,1,0.78
260,2022-06-02T10:55:12.654+02:00,1654160109.256374,53.22891026274602,10.3985482547529,37.52755,0.0,0.73,174.375,99.68955474786836,4.0,5,-9999,3250.794360875,-9.386764526367188,-9.21392822265625,3.786117553710938,3250.784366875,-0.2882677947115422,1.016954508577209,0.8088068608609111,10.21787548065186,13.74372673034668,13.87206840515137,-21.75984382629395,1.970274925231934,7.425296783447266,XArbitraryZVertical,0.4044152766897546,0.393569972711769,0.0742304245639695,0.8222170346300922,0.587160050868988,-0.7234640121459961,-0.3631019294261932,0,0,0,-1,-1,3248.267537541667,unknown,2,2022-06-02T10:55:10.126+02:00,2022-06-02T10:17:13.754+02:00,521,1.61832,0,0,405.4342,0,0,2022-06-02T10:55:10.126+02:00,675852910.1255727,0,4.160156,101.3301,1,0.78
261,2022-06-02T10:55:12.664+02:00,1654160109.256374,53.22891026274602,10.3985482547529,37.52755,0.0,0.73,174.375,99.68955474786836,4.0,5,-9999,3250.804354875,-6.104354858398438,-3.99139404296875,3.595413208007812,3250.794360875,-0.2626805015109186,1.11615945840461,0.9619897554751454,1.999593496322632,9.026753425598145,14.1918773651123,-12.63281536102295,-9.773128509521484,6.366630554199219,XArbitraryZVertical,0.450566734618528,0.4140303625365297,0.144408735552319,0.7776338712224407,0.5137965083122253,-0.8203310966491699,-0.2511369585990906,0,0,0,-1,-1,3248.267537541667,unknown,2,2022-06-02T10:55:10.126+02:00,2022-06-02T10:17:13.754+02:00,521,1.61832,0,0,405.4342,0,0,2022-06-02T10:55:10.126+02:00,675852910.1255727,0,4.160156,101.3301,1,0.78
262,2022-06-02T10:55:12.674+02:00,1654160109.256374,53.22891026274602,10.3985482547529,37.52755,0.0,0.73,174.375,99.68955474786836,4.0,5,-9999,3250.814348875,-7.524429321289062,-4.0301513671875,3.71649169921875,3250.804354875,-0.1354676574124437,1.05746541165844,1.080179373874973,-1.918209433555603,2.02770733833313,12.45568084716797,-7.528866291046143,-5.083152294158936,3.098494052886963,XArbitraryZVertical,0.4722593966802826,0.4015962821730559,0.2086728328371401,0.7564040800430183,0.4104427099227905,-0.8820423483848572,-0.2313829809427261,0,0,0,-1,-1,3248.267537541667,unknown,2,2022-06-02T10:55:10.126+02:00,2022-06-02T10:17:13.754+02:00,521,1.61832,0,0,405.4342,0,0,2022-06-02T10:55:10.126+02:00,675852910.1255727,0,4.160156,101.3301,1,0.78
263,2022-06-02T10:55:12.684+02:00,1654160109.256374,53.22891026274602,10.3985482547529,37.52755,0.0,0.73,174.375,99.68955474786836,4.0,5,-9999,3250.824343875,-8.569412231445312,-2.975479125976562,2.389007568359375,3250.824343875,0.0728210548104337,0.9258848734097488,1.274666969671959,4.2653489112854,4.436789989471436,9.324162483215332,-8.619484901428223,-2.556679725646973,2.961370944976807,XArbitraryZVertical,0.5190022897863881,0.37805555113469,0.2917416487981389,0.7089410759122011,0.2332090437412262,-0.956473171710968,-0.1754212528467178,0,0,0,-1,-1,3248.267537541667,unknown,2,2022-06-02T10:55:10.126+02:00,2022-06-02T10:17:13.754+02:00,521,1.61832,0,0,405.4342,0,0,2022-06-02T10:55:10.126+02:00,675852910.1255727,0,4.160156,101.3301,1,0.78
264,2022-06-02T10:55:12.698+02:00,1654160109.256374,53.22891026274602,10.3985482547529,37.52755,0.0,0.73,174.375,99.68955474786836,4.0,5,-9999,3250.834337875,-7.62255859375,-4.7679443359375,2.390655517578125,3250.824343875,0.0728210548104337,0.9258848734097488,1.274666969671959,4.2653489112854,4.436789989471436,9.324162483215332,-8.619484901428223,-2.556679725646973,2.961370944976807,XArbitraryZVertical,0.5190022897863881,0.37805555113469,0.2917416487981389,0.7089410759122011,0.2332090437412262,-0.956473171710968,-0.1754212528467178,0,0,0,-1,-1,3248.267537541667,unknown,2,2022-06-02T10:55:10.126+02:00,2022-06-02T10:17:13.754+02:00,521,1.61832,0,0,405.4342,0,0,2022-06-02T10:55:10.126+02:00,675852910.1255727,0,4.160156,101.3301,1,0.78
265,2022-06-02T10:55:12.704+02:00,1654160109.256374,53.22891026274602,10.3985482547529,37.52755,0.0,0.73,174.375,99.68955474786836,4.0,5,-9999,3250.844331875,-6.707183837890625,-5.13470458984375,2.282516479492188,3250.834337875,0.1692891599833038,0.8796943387284751,1.36624105980687,3.172106027603149,4.848822593688965,8.024568557739258,-8.334622383117676,-2.574361085891724,2.555376768112183,XArbitraryZVertical,0.5411695227934237,0.3773576980933078,0.3271415786245696,0.6765464459539205,0.1565219163894653,-0.9791514277458192,-0.1294734328985214,0,0,0,-1,-1,3250.824964875,running,2,2022-06-02T10:55:12.683+02:00,2022-06-02T10:17:13.754+02:00,521,1.61832,0,0,405.4342,0,0,2022-06-02T10:55:12.683+02:00,675852912.682642,0,4.363281,101.3293,1,0.78
266,2022-06-02T10:55:12.714+02:00,1654160109.256374,53.22891026274602,10.3985482547529,37.52755,0.0,0.73,174.375,99.68955474786836,4.0,5,-9999,3250.854325875,-6.39849853515625,-4.642959594726562,1.866790771484375,3250.844331875,0.4266296976419456,0.6696219535086124,1.435785769912003,0.5746952891349792,4.050529479980469,7.903566360473633,-7.13368558883667,-4.341482162475586,2.401157855987549,XArbitraryZVertical,0.5547974058146363,0.3734069397107018,0.3618454269610029,0.6494881876541448,0.083544984459877,-0.990899920463562,-0.1055341884493828,0,0,0,-1,-1,3250.824964875,running,2,2022-06-02T10:55:12.683+02:00,2022-06-02T10:17:13.754+02:00,521,1.61832,0,0,405.4342,0,0,2022-06-02T10:55:12.683+02:00,675852912.682642,0,4.363281,101.3293,1,0.78
267,2022-06-02T10:55:12.724+02:00,1654160109.256374,53.22891026274602,10.3985482547529,37.52755,0.0,0.73,174.375,99.68955474786836,4.0,5,-9999,3250.864319875,-5.6448974609375,-3.953079223632812,1.155059814453125,3250.854325875,1.036921286465216,0.1026620406601717,1.463550782008198,-0.9427447915077208,3.831337928771973,7.456905364990234,-6.553465366363525,-3.809547662734985,2.285460710525513,XArbitraryZVertical,0.5606992139721679,0.3638389748133316,0.3979721691443859,0.6283753541958215,0.0109695242717862,-0.9942547082901,-0.1064751818776131,0,0,0,-1,-1,3250.824964875,running,2,2022-06-02T10:55:12.683+02:00,2022-06-02T10:17:13.754+02:00,521,1.61832,0,0,405.4342,0,0,2022-06-02T10:55:12.683+02:00,675852912.682642,0,4.363281,101.3293,1,0.78
268,2022-06-02T10:55:12.734+02:00,1654160109.256374,53.22891026274602,10.3985482547529,37.52755,0.0,0.73,174.375,99.68955474786836,4.0,5,-9999,3250.874313875,-4.883346557617188,-2.688446044921875,1.619857788085938,3250.864319875,1.621842773609675,-0.4442564002159003,1.439458539914201,-1.134002923965454,2.957767724990845,6.868429183959961,-6.011188983917236,-3.455984830856323,1.552925586700439,XArbitraryZVertical,0.5630036607641348,0.3519980463416477,0.4317035666420757,0.6105377348512186,-0.056285198777914,-0.9913876056671144,-0.1182485073804855,0,0,0,-1,-1,3250.824964875,running,2,2022-06-02T10:55:12.683+02:00,2022-06-02T10:17:13.754+02:00,521,1.61832,0,0,405.4342,0,0,2022-06-02T10:55:12.683+02:00,675852912.682642,0,4.363281,101.3293,1,0.78
269,2022-06-02T10:55:12.744+02:00,1654160109.256374,53.22891026274602,10.3985482547529,37.52755,0.0,0.73,174.375,99.68955474786836,4.0,5,-9999,3250.884307875,-4.174850463867188,-2.522994995117188,2.364425659179688,3250.874313875,1.987255805268336,-0.7762736808245074,1.401508881629068,1.72449517250061,3.164076805114746,6.381288051605225,-5.107269763946533,-2.266202211380005,1.381155967712402,XArbitraryZVertical,0.5680844983066641,0.3423044302457721,0.4597359889734699,0.590550999767055,-0.1180413290858269,-0.9857050776481628,-0.1202153563499451,0,0,0,-1,-1,3250.824964875,running,2,2022-06-02T10:55:12.683+02:00,2022-06-02T10:17:13.754+02:00,521,1.61832,0,0,405.4342,0,0,2022-06-02T10:55:12.683+02:00,675852912.682642,0,4.363281,101.3293,1,0.78
270,2022-06-02T10:55:12.754+02:00,1654160109.256374,53.22891026274602,10.3985482547529,37.52755,0.0,0.73,174.375,99.68955474786836,4.0,5,-9999,3250.894301875,-3.385940551757812,-3.94964599609375,2.280471801757812,3250.884307875,2.334812949179342,-1.081998829881821,1.371630835845195,4.534810543060303,3.960139513015747,5.861470222473145,-4.360794067382812,-1.418190240859985,2.134331703186035,XArbitraryZVertical,0.5796600925540064,0.3428441561488618,0.4821138743272678,0.5603733872980643,-0.1746828705072403,-0.980232000350952,-0.09290412068367,0,0,0,-1,-1,3250.824964875,running,2,2022-06-02T10:55:12.683+02:00,2022-06-02T10:17:13.754+02:00,521,1.61832,0,0,405.4342,0,0,2022-06-02T10:55:12.683+02:00,675852912.682642,0,4.363281,101.3293,1,0.78
271,2022-06-02T10:55:12.764+02:00,1654160109.256374,53.22891026274602,10.3985482547529,37.52755,0.0,0.73,174.375,99.68955474786836,4.0,5,-9999,3250.904295875,-2.554092407226562,-4.623458862304688,1.444259643554688,3250.894301875,2.62917978454274,-1.328627877737207,1.337753819205626,4.603410243988037,4.1671462059021,4.867878437042236,-3.560040712356567,-2.152672529220581,2.528373003005981,XArbitraryZVertical,0.5916074467272896,0.3497286152992934,0.5006391789166454,0.5263562654775632,-0.224200040102005,-0.9729682803153992,-0.0553810484707355,0,0,0,-1,-1,3250.824964875,running,2,2022-06-02T10:55:12.683+02:00,2022-06-02T10:17:13.754+02:00,521,1.61832,0,0,405.4342,0,0,2022-06-02T10:55:12.683+02:00,675852912.682642,0,4.363281,101.3293,1,0.78
272,2022-06-02T10:55:12.774+02:00,1654160109.256374,53.22891026274602,10.3985482547529,37.52755,0.0,0.73,174.375,99.68955474786836,4.0,5,-9999,3250.914289875,-2.109222412109375,-4.203811645507812,1.202102661132812,3250.904295875,2.813541059677846,-1.470200096339226,1.301199563411622,3.107292652130127,3.182370185852051,3.808694362640381,-2.681888103485107,-3.550907135009766,1.878584980964661,XArbitraryZVertical,0.5998564262387934,0.3560875235583062,0.5159861642155611,0.4971238758067933,-0.2649960219860077,-0.9638783931732178,-0.0267478860914707,0,0,0,-1,-1,3250.824964875,running,2,2022-06-02T10:55:12.683+02:00,2022-06-02T10:17:13.754+02:00,521,1.61832,0,0,405.4342,0,0,2022-06-02T10:55:12.683+02:00,675852912.682642,0,4.363281,101.3293,1,0.78
273,2022-06-02T10:55:12.784+02:00,1654160109.256374,53.22891026274602,10.3985482547529,37.52755,0.0,0.73,174.375,99.68955474786836,4.0,5,-9999,3250.924283875,-1.744949340820312,-3.972427368164062,1.236785888671875,3250.914289875,2.900300017190557,-1.525982165343963,1.271649994005192,1.377963423728943,2.524482727050781,2.361838102340698,-1.974695444107056,-3.455819129943848,1.241595983505249,XArbitraryZVertical,0.6036512506296912,0.359171145816286,0.5279096022413572,0.4774019956519825,-0.2944085299968719,-0.955588400363922,-0.0132025117054581,0,0,0,-1,-1,3250.824964875,running,2,2022-06-02T10:55:12.683+02:00,2022-06-02T10:17:13.754+02:00,521,1.61832,0,0,405.4342,0,0,2022-06-02T10:55:12.683+02:00,675852912.682642,0,4.363281,101.3293,1,0.78
274,2022-06-02T10:55:12.794+02:00,1654160109.256374,53.22891026274602,10.3985482547529,37.52755,0.0,0.73,174.375,99.68955474786836,4.0,5,-9999,3250.934277875,-1.083831787109375,-2.982131958007812,1.508941650390625,3250.924283875,2.929779386317407,-1.530036213962013,1.25486114608198,0.3160082697868347,2.205238819122314,1.180558323860168,-1.664665341377258,-3.185815811157227,1.24569308757782,XArbitraryZVertical,0.6022716214315867,0.361854181139934,0.5377265250036395,0.466026478802941,-0.3104476034641266,-0.9505062103271484,-0.0126608908176422,0,0,0,-1,-1,3250.824964875,running,2,2022-06-02T10:55:12.683+02:00,2022-06-02T10:17:13.754+02:00,521,1.61832,0,0,405.4342,0,0,2022-06-02T10:55:12.683+02:00,675852912.682642,0,4.363281,101.3293,1,0.78
275,2022-06-02T10:55:12.804+02:00,1654160109.256374,53.22891026274602,10.3985482547529,37.52755,0.0,0.73,174.375,99.68955474786836,4.0,5,-9999,3250.944271875,-0.6367645263671875,-1.860992431640625,1.609909057617188,3250.934277875,2.935705715038348,-1.517123127529191,1.24686581698638,0.24823397397995,1.519070148468018,0.4597975611686707,-1.09422755241394,-2.605688571929932,1.362855076789856,XArbitraryZVertical,0.5990631340404534,0.3641229482561977,0.5448938404613037,0.4600307941920591,-0.3178360760211945,-0.947991669178009,-0.0170756801962852,0,0,0,-1,-1,3250.824964875,running,2,2022-06-02T10:55:12.683+02:00,2022-06-02T10:17:13.754+02:00,521,1.61832,0,0,405.4342,0,0,2022-06-02T10:55:12.683+02:00,675852912.682642,0,4.363281,101.3293,1,0.78
276,2022-06-02T10:55:12.814+02:00,1654160109.256374,53.22891026274602,10.3985482547529,37.52755,0.0,0.73,174.375,99.68955474786836,4.0,5,-9999,3250.954265875,-0.4526214599609375,-1.504196166992188,1.366104125976562,3250.944271875,2.961015880482424,-1.528764320376509,1.248226238064899,1.398808002471924,0.8724029660224915,-0.7035247683525085,-0.505891740322113,-1.430787563323975,1.623412489891052,XArbitraryZVertical,0.5973645182122096,0.3694528665811607,0.5468827581568896,0.4556087598258022,-0.3167247772216797,-0.9484238028526306,-0.0133204236626625,0,0,0,-1,-1,3250.824964875,running,2,2022-06-02T10:55:12.683+02:00,2022-06-02T10:17:13.754+02:00,521,1.61832,0,0,405.4342,0,0,2022-06-02T10:55:12.683+02:00,675852912.682642,0,4.363281,101.3293,1,0.78
277,2022-06-02T10:55:12.824+02:00,1654160109.256374,53.22891026274602,10.3985482547529,37.52755,0.0,0.73,174.375,99.68955474786836,4.0,5,-9999,3250.964259875,-0.652496337890625,-1.355270385742188,1.046600341796875,3250.954265875,3.020290829564694,-1.582489626611421,1.261352956686988,2.25123143196106,-0.411870926618576,-1.785782814025879,-0.205182284116745,-0.6167867183685303,1.501047253608704,XArbitraryZVertical,0.5984789178966697,0.3789504086221195,0.5412651801622549,0.4530467895292067,-0.3045070767402649,-0.9525032043457032,0.0035608548205345,0,0,0,-1,-1,3250.824964875,running,2,2022-06-02T10:55:12.683+02:00,2022-06-02T10:17:13.754+02:00,521,1.61832,0,0,405.4342,0,0,2022-06-02T10:55:12.683+02:00,675852912.682642,0,4.363281,101.3293,1,0.78
278,2022-06-02T10:55:12.834+02:00,1654160109.256374,53.22891026274602,10.3985482547529,37.52755,0.0,0.73,174.375,99.68955474786836,4.0,5,-9999,3250.974253875,-1.34112548828125,-0.981964111328125,0.525146484375,3250.964259875,3.103586815051303,-1.673263627940984,1.280874119284137,2.396037340164185,-1.767380475997925,-2.37467885017395,-0.2039492428302765,-0.5132761001586914,1.195809960365295,XArbitraryZVertical,0.6027742571306868,0.3889525852368266,0.5286762241052662,0.4537404698688142,-0.284377783536911,-0.9582661390304564,0.0292418375611305,0,0,0,-1,-1,3250.824964875,running,2,2022-06-02T10:55:12.683+02:00,2022-06-02T10:17:13.754+02:00,521,1.61832,0,0,405.4342,0,0,2022-06-02T10:55:12.683+02:00,675852912.682642,0,4.363281,101.3293,1,0.78
279,2022-06-02T10:55:12.844+02:00,1654160109.256374,53.22891026274602,10.3985482547529,37.52755,0.0,0.73,174.375,99.68955474786836,4.0,5,-9999,3250.984247875,-2.091796875,-0.8934173583984375,-0.0477752685546875,3250.974253875,-3.079918598519418,-1.790054735466331,1.302532290144044,2.285984992980957,-2.299709558486938,-2.74174165725708,-0.6917732357978821,-0.2030800580978394,0.7527577877044678,XArbitraryZVertical,0.6085413573558958,0.3981246317804574,0.5118147186837663,0.4574055488391044,-0.2587120234966278,-0.9642325043678284,0.057651612907648,0,0,0,-1,-1,3250.824964875,running,2,2022-06-02T10:55:12.683+02:00,2022-06-02T10:17:13.754+02:00,521,1.61832,0,0,405.4342,0,0,2022-06-02T10:55:12.683+02:00,675852912.682642,0,4.363281,101.3293,1,0.78
280,2022-06-02T10:55:12.854+02:00,1654160109.256374,53.22891026274602,10.3985482547529,37.52755,0.0,0.73,174.375,99.68955474786836,4.0,5,-9999,3250.994241875,-2.2554931640625,-0.916107177734375,-0.2513427734375,3250.984247875,-2.974471395057171,-1.913593388941893,1.324177555014823,1.585893034934998,-1.943310856819153,-2.868810176849365,-1.517147421836853,0.0881363153457641,0.1411490440368652,XArbitraryZVertical,0.6128408205853947,0.406760855027148,0.4947614282503132,0.4627990079097344,-0.2299229651689529,-0.9697434306144714,0.0820565298199653,0,0,0,-1,-1,3250.824964875,running,2,2022-06-02T10:55:12.683+02:00,2022-06-02T10:17:13.754+02:00,521,1.61832,0,0,405.4342,0,0,2022-06-02T10:55:12.683+02:00,675852912.682642,0,4.363281,101.3293,1,0.78
281,2022-06-02T10:55:12.864+02:00,1654160109.256374,53.22891026274602,10.3985482547529,37.52755,0.0,0.73,174.375,99.68955474786836,4.0,5,-9999,3251.004235875,-1.7271728515625,-0.3528289794921875,-0.2346343994140625,3250.994241875,-2.885430619513739,-2.016921058913449,1.345982060150831,0.6602826714515686,-1.4454665184021,-2.712927103042603,-2.081791400909424,0.0330477952957153,-0.3121591806411743,XArbitraryZVertical,0.6136797821194206,0.414113789196641,0.4808562194359253,0.4697703616520897,-0.2011067122220993,-0.9748355150222778,0.0961862131953239,0,0,0,-1,-1,3250.824964875,running,2,2022-06-02T10:55:12.683+02:00,2022-06-02T10:17:13.754+02:00,521,1.61832,0,0,405.4342,0,0,2022-06-02T10:55:12.683+02:00,675852912.682642,0,4.363281,101.3293,1,0.78
282,2022-06-02T10:55:12.874+02:00,1654160109.256374,53.22891026274602,10.3985482547529,37.52755,0.0,0.73,174.375,99.68955474786836,4.0,5,-9999,3251.014230875,-1.364547729492188,0.30120849609375,-0.2416839599609375,3251.004235875,-2.80671491833365,-2.106977535349638,1.367275839474864,0.3795945346355438,-1.213733196258545,-2.69848108291626,-1.848370909690857,0.2751679420471191,-0.3360112905502319,XArbitraryZVertical,0.6123565694675597,0.4202930629473413,0.4695369315433819,0.4773973955243057,-0.1737544238567352,-0.9793611168861388,0.1032536551356316,0,0,0,-1,-1,3250.824964875,running,2,2022-06-02T10:55:12.683+02:00,2022-06-02T10:17:13.754+02:00,521,1.61832,0,0,405.4342,0,0,2022-06-02T10:55:12.683+02:00,675852912.682642,0,4.363281,101.3293,1,0.78
283,2022-06-02T10:55:12.884+02:00,1654160109.256374,53.22891026274602,10.3985482547529,37.52755,0.0,0.73,174.375,99.68955474786836,4.0,5,-9999,3251.024224875,-1.24102783203125,0.6017913818359375,-0.3502197265625,3251.014230875,-2.699533449090968,-2.223968878157976,1.387795529100515,0.8005673289299011,-1.150920152664185,-2.993085145950317,-1.35617995262146,0.9884748458862304,-0.3528554439544678,XArbitraryZVertical,0.6103894028843344,0.4274582065553764,0.4578958360195802,0.4848047524337098,-0.1445219963788986,-0.9833020567893982,0.1105914860963821,0,0,0,-1,-1,3250.824964875,running,2,2022-06-02T10:55:12.683+02:00,2022-06-02T10:17:13.754+02:00,521,1.61832,0,0,405.4342,0,0,2022-06-02T10:55:12.683+02:00,675852912.682642,0,4.363281,101.3293,1,0.78
284,2022-06-02T10:55:12.894+02:00,1654160109.256374,53.22891026274602,10.3985482547529,37.52755,0.0,0.73,174.375,99.68955474786836,4.0,5,-9999,3251.034219,-1.254653930664062,0.519256591796875,-0.597198486328125,3251.024224875,-2.53499069314882,-2.397737602054656,1.403134100592755,1.346472144126892,-1.212924957275391,-3.114349126815796,-1.171838283538818,1.492584705352783,-0.3881798982620239,XArbitraryZVertical,0.6090726299129361,0.4363828661492889,0.4445029649232153,0.4909353978083281,-0.1129975840449333,-0.985977590084076,0.1227989494800568,0,0,0,-1,-1,3250.824964875,running,2,2022-06-02T10:55:12.683+02:00,2022-06-02T10:17:13.754+02:00,521,1.61832,0,0,405.4342,0,0,2022-06-02T10:55:12.683+02:00,675852912.682642,0,4.363281,101.3293,1,0.78
285,2022-06-02T10:55:12.904+02:00,1654160109.256374,53.22891026274602,10.3985482547529,37.52755,0.0,0.73,174.375,99.68955474786836,4.0,5,-9999,3251.044213,-1.373062133789062,0.3902740478515625,-0.8865814208984375,3251.034219,-2.328559829578952,-2.614098899207446,1.410275382147685,1.448068976402283,-1.318200588226318,-3.136435031890869,-1.151723265647888,1.580665349960327,-0.6060168743133545,XArbitraryZVertical,0.608461117148234,0.4459014617490664,0.4297687368525356,0.496231493255489,-0.0804544314742088,-0.98714417219162,0.1381060928106308,0,0,0,-1,-1,3250.824964875,running,2,2022-06-02T10:55:12.683+02:00,2022-06-02T10:17:13.754+02:00,521,1.61832,0,0,405.4342,0,0,2022-06-02T10:55:12.683+02:00,675852912.682642,0,4.363281,101.3293,1,0.78
