,loggingTime(txt),locationTimestamp_since1970(s),locationLatitude(WGS84),locationLongitude(WGS84),locationAltitude(m),locationSpeed(m/s),locationSpeedAccuracy(m/s),locationCourse(°),locationCourseAccuracy(°),locationVerticalAccuracy(m),locationHorizontalAccuracy(m),locationFloor(Z),accelerometerTimestamp_sinceReboot(s),accelerometerAccelerationX(G),accelerometerAccelerationY(G),accelerometerAccelerationZ(G),motionTimestamp_sinceReboot(s),motionYaw(rad),motionRoll(rad),motionPitch(rad),motionRotationRateX(rad/s),motionRotationRateY(rad/s),motionRotationRateZ(rad/s),motionUserAccelerationX(G),motionUserAccelerationY(G),motionUserAccelerationZ(G),motionAttitudeReferenceFrame(txt),motionQuaternionX(R),motionQuaternionY(R),motionQuaternionZ(R),motionQuaternionW(R),motionGravityX(G),motionGravityY(G),motionGravityZ(G),motionMagneticFieldX(µT),motionMagneticFieldY(µT),motionMagneticFieldZ(µT),motionHeading(°),motionMagneticFieldCalibrationAccuracy(Z),activityTimestamp_sinceReboot(s),activity(txt),activityActivityConfidence(Z),activityActivityStartDate(txt),pedometerStartDate(txt),pedometerNumberofSteps(N),pedometerAverageActivePace(s/m),pedometerCurrentPace(s/m),pedometerCurrentCadence(steps/s),pedometerDistance(m),pedometerFloorAscended(N),pedometerFloorDescended(N),pedometerEndDate(txt),altimeterTimestamp_sinceReboot(s),altimeterReset(bool),altimeterRelativeAltitude(m),altimeterPressure(kPa),batteryState(N),batteryLevel(R)
186,2022-06-02T10:55:56.609+02:00,1654160152.999776,53.22881542151163,10.39860147983804,40.05172,0,0.31,107.9296875,18.71859275064163,4,5,-9999,3294.750013416667,0.857391357421875,0.529266357421875,1.670303344726562,3294.740019416667,-1.301122254852919,1.862475406566302,0.0030904258950583,-3.219460725784302,5.300881385803223,2.633569955825806,-0.2742708921432495,0.7920766472816467,1.202018737792969,XArbitraryZVertical,0.4866685413481736,0.6379133554964991,-0.3604798333881096,0.4756833263806245,0.9577578902244568,-0.0030904209706932,0.287559449672699,0,0,0,-1,-1,3294.316185416667,walking,2,2022-06-02T10:55:56.174+02:00,2022-06-02T10:17:13.754+02:00,521,1.631355,0,0,405.4342,0,0,2022-06-02T10:55:56.174+02:00,675852956.1742305,0,4.382812,101.3313,1,0.77
187,2022-06-02T10:55:56.619+02:00,1654160152.999776,53.22881542151163,10.39860147983804,40.05172,0,0.31,107.9296875,18.71859275064163,4,5,-9999,3294.760007416667,0.9113616943359376,0.495819091796875,1.795608520507812,3294.750013416667,-1.276711520452077,1.917421487726254,0.0368317707683685,-3.522174119949341,5.814401149749756,2.225462675094604,-0.1577211618423462,0.7152597308158875,1.218625426292419,XArbitraryZVertical,0.4961098518546333,0.6508629893192929,-0.3302139805775944,0.4703308743815448,0.939886748790741,-0.0368234440684318,0.3394952416419983,0,0,0,-1,-1,3294.316185416667,walking,2,2022-06-02T10:55:56.174+02:00,2022-06-02T10:17:13.754+02:00,521,1.631355,0,0,405.4342,0,0,2022-06-02T10:55:56.174+02:00,675852956.1742305,0,4.382812,101.3313,1,0.77
188,2022-06-02T10:55:56.629+02:00,1654160152.999776,53.22881542151163,10.39860147983804,40.05172,0,0.31,107.9296875,18.71859275064163,4,5,-9999,3294.770002416667,0.957916259765625,0.5544586181640625,1.862503051757812,3294.760007416667,-1.250750860216798,1.976459900596403,0.0686583167721992,-3.623142719268799,6.256706714630127,1.80834949016571,-0.059284508228302,0.5978707075119019,1.276604533195496,XArbitraryZVertical,0.50386307835185,0.6655609435963905,-0.2986432135398336,0.4625610859103092,0.9166757464408876,-0.0686043873429298,0.3936987519264221,0,0,0,-1,-1,3294.316185416667,walking,2,2022-06-02T10:55:56.174+02:00,2022-06-02T10:17:13.754+02:00,521,1.631355,0,0,405.4342,0,0,2022-06-02T10:55:56.174+02:00,675852956.1742305,0,4.382812,101.3313,1,0.77
189,2022-06-02T10:55:56.640+02:00,1654160152.999776,53.22881542151163,10.39860147983804,40.05172,0,0.31,107.9296875,18.71859275064163,4,5,-9999,3294.779996416667,0.9217071533203124,0.5816497802734375,2.003265380859375,3294.770002416667,-1.22441718543814,2.039165016912551,0.0986844373955497,-3.687102317810059,6.724781036376953,1.412267327308655,0.0233972072601318,0.5943434238433838,1.346373558044434,XArbitraryZVertical,0.5101045605295148,0.6814768926628451,-0.266218163565903,0.4522282584945829,0.8879644274711609,-0.0985243394970893,0.4492348432540894,0,0,0,-1,-1,3294.316185416667,walking,2,2022-06-02T10:55:56.174+02:00,2022-06-02T10:17:13.754+02:00,521,1.631355,0,0,405.4342,0,0,2022-06-02T10:55:56.174+02:00,675852956.1742305,0,4.382812,101.3313,1,0.77
190,2022-06-02T10:55:56.649+02:00,1654160152.999776,53.22881542151163,10.39860147983804,40.05172,0,0.31,107.9296875,18.71859275064163,4,5,-9999,3294.789990416667,0.969573974609375,0.697265625,2.248245239257812,3294.779996416667,-1.197396754542283,2.105677116842857,0.1267960028749577,-3.753299951553345,7.174416542053223,0.9235373735427856,0.1044934391975403,0.6809151768684387,1.35685658454895,XArbitraryZVertical,0.5145740418019399,0.6985962168151539,-0.2329943405052923,0.4391928217589204,0.8534225821495056,-0.1264565140008926,0.5056462287902832,0,0,0,-1,-1,3294.316185416667,walking,2,2022-06-02T10:55:56.174+02:00,2022-06-02T10:17:13.754+02:00,521,1.631355,0,0,405.4342,0,0,2022-06-02T10:55:56.174+02:00,675852956.1742305,0,4.382812,101.3313,1,0.77
191,2022-06-02T10:55:56.659+02:00,1654160152.999776,53.22881542151163,10.39860147983804,40.05172,0,0.31,107.9296875,18.71859275064163,4,5,-9999,3294.799984416667,0.9771881103515624,0.8294219970703125,2.545333862304688,3294.789990416667,-1.168828644422362,2.175748952627426,0.1527733330944666,-3.782798528671265,7.665303230285645,0.3832499086856842,0.1087582111358643,0.7338295578956604,1.441166162490845,XArbitraryZVertical,0.5167493589469608,0.7169516018164905,-0.1990816467116879,0.4234582484203211,0.8129487633705139,-0.1521797478199005,0.5620989799499512,0,0,0,-1,-1,3294.316185416667,walking,2,2022-06-02T10:55:56.174+02:00,2022-06-02T10:17:13.754+02:00,521,1.631355,0,0,405.4342,0,0,2022-06-02T10:55:56.174+02:00,675852956.1742305,0,4.382812,101.3313,1,0.77
192,2022-06-02T10:55:56.669+02:00,1654160152.999776,53.22881542151163,10.39860147983804,40.05172,0,0.31,107.9296875,18.71859275064163,4,5,-9999,3294.809979416667,0.850555419921875,0.8497467041015625,2.968475341796875,3294.799984416667,-1.138265870609467,2.250552659318367,0.1768414279574722,-3.981142282485962,8.310461044311523,-0.1456416249275208,0.2039773464202881,0.8731867074966431,1.629445195198059,XArbitraryZVertical,0.5164529900557902,0.736665673164371,-0.1641954797313717,0.4045242254564113,0.7655966877937317,-0.1759211421012878,0.6187999844551086,0,0,0,-1,-1,3294.316185416667,walking,2,2022-06-02T10:55:56.174+02:00,2022-06-02T10:17:13.754+02:00,521,1.631355,0,0,405.4342,0,0,2022-06-02T10:55:56.174+02:00,675852956.1742305,0,4.382812,101.3313,1,0.77
193,2022-06-02T10:55:56.679+02:00,1654160152.999776,53.22881542151163,10.39860147983804,40.05172,0,0.31,107.9296875,18.71859275064163,4,5,-9999,3294.819973416667,0.641937255859375,1.009124755859375,3.51116943359375,3294.809979416667,-1.103240807594729,2.330565860999847,0.199678543669552,-4.196876049041748,9.021347045898438,-0.9895407557487488,0.2665987610816956,1.02777636051178,1.870264768600464,XArbitraryZVertical,0.5126561114538348,0.758101687797271,-0.1277053089478511,0.3823045153276088,0.7105892300605774,-0.1983542740345001,0.6750689148902893,0,0,0,-1,-1,3294.316185416667,walking,2,2022-06-02T10:55:56.174+02:00,2022-06-02T10:17:13.754+02:00,521,1.631355,0,0,405.4342,0,0,2022-06-02T10:55:56.174+02:00,675852956.1742305,0,4.382812,101.3313,1,0.77
194,2022-06-02T10:55:56.689+02:00,1654160152.999776,53.22881542151163,10.39860147983804,40.05172,0,0.31,107.9296875,18.71859275064163,4,5,-9999,3294.829967416667,0.35992431640625,1.221084594726562,4.118026733398438,3294.819973416667,-1.06090857379757,2.415681228498355,0.2215281681030477,-4.751773357391357,9.777509689331056,-1.967244625091553,0.2029598951339722,1.069467425346375,2.23885703086853,XArbitraryZVertical,0.5039186644877828,0.7815849451586373,-0.0893867885415652,0.3566522385557045,0.6475954055786133,-0.2197207063436508,0.7296180725097656,0,0,0,-1,-1,3294.316185416667,walking,2,2022-06-02T10:55:56.174+02:00,2022-06-02T10:17:13.754+02:00,521,1.631355,0,0,405.4342,0,0,2022-06-02T10:55:56.174+02:00,675852956.1742305,0,4.382812,101.3313,1,0.77
195,2022-06-02T10:55:56.699+02:00,1654160152.999776,53.22881542151163,10.39860147983804,40.05172,0,0.31,107.9296875,18.71859275064163,4,5,-9999,3294.839961416667,0.0170745849609375,1.471099853515625,4.92230224609375,3294.829967416667,-1.007862065569288,2.504585906023172,0.2451611720261537,-5.396697044372559,10.46835517883301,-3.089093685150146,0.0649306774139404,1.251837372779846,2.731327056884766,XArbitraryZVertical,0.4886744131936864,0.8069191148630335,-0.0483856571315212,0.3282341935897034,0.5770065784454346,-0.242712676525116,0.7798422574996948,0,0,0,-1,-1,3294.316185416667,walking,2,2022-06-02T10:55:56.174+02:00,2022-06-02T10:17:13.754+02:00,521,1.631355,0,0,405.4342,0,0,2022-06-02T10:55:56.174+02:00,675852956.1742305,0,4.382812,101.3313,1,0.77
196,2022-06-02T10:55:56.709+02:00,1654160152.999776,53.22881542151163,10.39860147983804,40.05172,0,0.31,107.9296875,18.71859275064163,4,5,-9999,3294.849955416667,-0.3115386962890625,1.998886108398438,5.794876098632812,3294.839961416667,-0.9427056348794814,2.59609375715897,0.2703763670328683,-5.748639106750488,11.14550971984863,-4.650506496429443,-0.140070915222168,1.488178730010986,3.294215202331543,XArbitraryZVertical,0.4656631805883006,0.8337047488584204,-0.0055662188568066,0.2967545289069302,0.4999952912330627,-0.2670941352844238,0.8238115906715393,0,0,0,-1,-1,3294.316185416667,walking,2,2022-06-02T10:55:56.174+02:00,2022-06-02T10:17:13.754+02:00,521,1.631355,0,0,405.4342,0,0,2022-06-02T10:55:56.174+02:00,675852956.1742305,0,4.382812,101.3313,1,0.77
197,2022-06-02T10:55:56.719+02:00,1654160152.999776,53.22881542151163,10.39860147983804,40.05172,0,0.31,107.9296875,18.71859275064163,4,5,-9999,3294.859950416667,-0.6516571044921875,2.397811889648438,7.020660400390625,3294.849955416667,-0.8626968472434678,2.68783859428693,0.2968406105933846,-6.310254096984863,11.66631126403809,-6.271830081939697,-0.4020974636077881,1.76360023021698,4.062803268432617,XArbitraryZVertical,0.4331188315306412,0.8614856598499592,0.0378777470868305,0.2623277589994061,0.419172078371048,-0.2925004661083221,0.859498918056488,0,0,0,-1,-1,3294.316185416667,walking,2,2022-06-02T10:55:56.174+02:00,2022-06-02T10:17:13.754+02:00,521,1.631355,0,0,405.4342,0,0,2022-06-02T10:55:56.174+02:00,675852956.1742305,0,4.382812,101.3313,1,0.77
198,2022-06-02T10:55:56.729+02:00,1654160152.999776,53.22881542151163,10.39860147983804,40.05172,0,0.31,107.9296875,18.71859275064163,4,5,-9999,3294.869944416667,-0.83831787109375,2.9622802734375,8.58056640625,3294.859950416667,-0.7655183611167651,2.77461542437946,0.3266692568782204,-6.48917293548584,11.54179096221924,-8.420709609985352,-0.6513599157333374,2.319776296615601,4.91082239151001,XArbitraryZVertical,0.3898472651810712,0.8888453542380731,0.0810716708524583,0.2267168100750724,0.3398212194442749,-0.3208902180194855,0.8840538859367371,0,0,0,-1,-1,3294.316185416667,walking,2,2022-06-02T10:55:56.174+02:00,2022-06-02T10:17:13.754+02:00,521,1.631355,0,0,405.4342,0,0,2022-06-02T10:55:56.174+02:00,675852956.1742305,0,4.382812,101.3313,1,0.77
199,2022-06-02T10:55:56.740+02:00,1654160152.999776,53.22881542151163,10.39860147983804,40.05172,0,0.31,107.9296875,18.71859275064163,4,5,-9999,3294.879938416667,-0.9702301025390624,3.090133666992188,9.795181274414062,3294.869944416667,-0.6463117953286838,2.844953319972669,0.3592046396998692,-6.963474273681641,10.32305145263672,-10.78564262390137,-0.9253090620040894,2.749341487884521,6.125371932983398,XArbitraryZVertical,0.3340542715607723,0.9143587551882456,0.1213586921863641,0.1939789314890484,0.2736518979072571,-0.3515297472476959,0.8952884078025818,0,0,0,-1,-1,3294.316185416667,walking,2,2022-06-02T10:55:56.174+02:00,2022-06-02T10:17:13.754+02:00,521,1.631355,0,0,405.4342,0,0,2022-06-02T10:55:56.174+02:00,675852956.1742305,0,4.382812,101.3313,1,0.77
200,2022-06-02T10:55:56.749+02:00,1654160152.999776,53.22881542151163,10.39860147983804,40.05172,0,0.31,107.9296875,18.71859275064163,4,5,-9999,3294.889932416667,-1.407745361328125,2.937820434570312,10.62069702148438,3294.879938416667,-0.5001941439071095,2.880682727560697,0.3922216807167108,-6.507481575012207,7.362661838531494,-13.6640510559082,-1.076688766479492,3.344522476196289,7.687778472900391,XArbitraryZVertical,0.265250505131325,0.9359679935333668,0.1556109919334715,0.1714389044203727,0.2383708655834198,-0.3822423219680786,0.8927878141403198,0,0,0,-1,-1,3294.316185416667,walking,2,2022-06-02T10:55:56.174+02:00,2022-06-02T10:17:13.754+02:00,521,1.631355,0,0,405.4342,0,0,2022-06-02T10:55:56.174+02:00,675852956.1742305,0,4.382812,101.3313,1,0.77
201,2022-06-02T10:55:56.759+02:00,1654160152.999776,53.22881542151163,10.39860147983804,40.05172,0,0.31,107.9296875,18.71859275064163,4,5,-9999,3294.899926416667,-2.9716796875,4.134262084960938,11.91229248046875,3294.889932416667,-0.3244190784846217,2.865061683681291,0.403589152597355,-4.1062331199646,3.065755128860474,-16.99881744384766,-1.221315026283264,3.482855319976807,8.910463333129883,XArbitraryZVertical,0.1839734978934488,0.953159352776824,0.1741020951466752,0.1653161337590717,0.2510848939418793,-0.3927216529846191,0.8847180008888245,0,0,0,-1,-1,3294.316185416667,walking,2,2022-06-02T10:55:56.174+02:00,2022-06-02T10:17:13.754+02:00,521,1.631355,0,0,405.4342,0,0,2022-06-02T10:55:56.174+02:00,675852956.1742305,0,4.382812,101.3313,1,0.77
202,2022-06-02T10:55:56.769+02:00,1654160152.999776,53.22881542151163,10.39860147983804,40.05172,0,0.31,107.9296875,18.71859275064163,4,5,-9999,3294.909921416667,-5.34295654296875,6.288986206054688,13.06121826171875,3294.899926416667,-0.1228880109661818,2.79019072545718,0.3794033907571461,-3.03078031539917,-2.828361511230469,-19.8940601348877,-1.727481245994568,3.308186769485474,9.748574256896973,XArbitraryZVertical,0.0922741682341781,0.9630922372224096,0.1747714856796924,0.1827392859835629,0.3197357952594757,-0.3703663647174835,0.8721223473548889,0,0,0,-1,-1,3294.316185416667,walking,2,2022-06-02T10:55:56.174+02:00,2022-06-02T10:17:13.754+02:00,521,1.631355,0,0,405.4342,0,0,2022-06-02T10:55:56.174+02:00,675852956.1742305,0,4.382812,101.3313,1,0.77
203,2022-06-02T10:55:56.779+02:00,1654160152.999776,53.22881542151163,10.39860147983804,40.05172,0,0.31,107.9296875,18.71859275064163,4,5,-9999,3294.919915416667,-8.585891723632812,7.502151489257812,12.78543090820312,3294.909921416667,0.0998766940653053,2.652212566719852,0.3316776460596229,-5.517308712005615,-9.042444229125977,-22.01886177062988,-3.416137933731079,4.459891796112061,11.07777309417725,XArbitraryZVertical,-0.0078245846066586,0.9577047135985628,0.1718896242095558,0.2306391315582276,0.4444583058357239,-0.3256296813488007,0.83451908826828,0,0,0,-1,-1,3294.316185416667,walking,2,2022-06-02T10:55:56.174+02:00,2022-06-02T10:17:13.754+02:00,521,1.631355,0,0,405.4342,0,0,2022-06-02T10:55:56.174+02:00,675852956.1742305,0,4.382812,101.3313,1,0.77
204,2022-06-02T10:55:56.790+02:00,1654160152.999776,53.22881542151163,10.39860147983804,40.05172,0,0.31,107.9296875,18.71859275064163,4,5,-9999,3294.929909416667,-13.64692687988281,7.764572143554688,11.89974975585938,3294.919915416667,0.337219178876967,2.469405954804366,0.2645549654680049,-7.725343227386475,-13.49269676208496,-23.35348320007324,-5.943990707397461,6.550466060638428,12.30597877502441,XArbitraryZVertical,-0.1141574769506141,0.9298320307572612,0.1776081529360117,0.3013896161130137,0.6010340452194214,-0.2614797353744507,0.7552390694618225,0,0,0,-1,-1,3294.316185416667,walking,2,2022-06-02T10:55:56.174+02:00,2022-06-02T10:17:13.754+02:00,521,1.631355,0,0,405.4342,0,0,2022-06-02T10:55:56.174+02:00,675852956.1742305,0,4.382812,101.3313,1,0.77
205,2022-06-02T10:55:56.799+02:00,1654160152.999776,53.22881542151163,10.39860147983804,40.05172,0,0.31,107.9296875,18.71859275064163,4,5,-9999,3294.939903416667,-19.32583618164062,8.2764892578125,9.656845092773438,3294.929909416667,0.5611536631815296,2.251004724243326,0.1443453031329521,-5.291397571563721,-21.22819900512695,-24.60772323608398,-9.35524845123291,7.64599609375,12.1630163192749,XArbitraryZVertical,-0.2194113713078295,0.8735362881173931,0.1814943587252999,0.3947818279976064,0.769356369972229,-0.1438445746898651,0.6224139928817749,0,0,0,-1,-1,3294.316185416667,walking,2,2022-06-02T10:55:56.174+02:00,2022-06-02T10:17:13.754+02:00,521,1.631355,0,0,405.4342,0,0,2022-06-02T10:55:56.174+02:00,675852956.1742305,0,4.382812,101.3313,1,0.77
206,2022-06-02T10:55:56.809+02:00,1654160152.999776,53.22881542151163,10.39860147983804,40.05172,0,0.31,107.9296875,18.71859275064163,4,5,-9999,3294.949898416667,-28.74320983886719,10.04937744140625,8.458969116210938,3294.939903416667,0.6968846704720412,1.987297604923643,-0.0554824423772436,4.171751022338867,-30.05380630493164,-23.92919731140137,-14.56002998352051,7.709118366241455,11.49580860137939,XArbitraryZVertical,-0.3002445611882794,0.7821915386679849,0.1643790903875968,0.520585364662515,0.9131028056144714,0.0554539822041988,0.4039407968521118,0,0,0,-1,-1,3294.316185416667,walking,2,2022-06-02T10:55:56.174+02:00,2022-06-02T10:17:13.754+02:00,521,1.631355,0,0,405.4342,0,0,2022-06-02T10:55:56.174+02:00,675852956.1742305,0,4.382812,101.3313,1,0.77
207,2022-06-02T10:55:56.820+02:00,1654160152.999776,53.22881542151163,10.39860147983804,40.05172,0,0.31,107.9296875,18.71859275064163,4,5,-9999,3294.959892416667,-32.02085876464844,9.53961181640625,11.29463195800781,3294.949898416667,0.6213536620809312,1.636032931680287,-0.284360239912266,22.93026542663574,-35.10443878173828,-15.69065761566162,-20.28363609313965,7.995945930480957,9.594272613525392,XArbitraryZVertical,-0.3130875840607859,0.6582266739819864,0.1084292825254377,0.6759858169462849,0.95779949426651,0.2805434465408325,0.0625723823904991,0,0,0,-1,-1,3294.316185416667,walking,2,2022-06-02T10:55:56.174+02:00,2022-06-02T10:17:13.754+02:00,521,1.631355,0,0,405.4342,0,0,2022-06-02T10:55:56.174+02:00,675852956.1742305,0,4.382812,101.3313,1,0.77
208,2022-06-02T10:55:56.829+02:00,1654160152.999776,53.22881542151163,10.39860147983804,40.05172,0,0.31,107.9296875,18.71859275064163,4,5,-9999,3294.969886416667,-31.97821044921875,13.30368041992188,20.62928771972656,3294.959892416667,0.2925728371214464,1.182802699962091,-0.2974090525783062,35.15832901000977,-35.12083435058594,2.913933038711548,-29.62824249267578,9.756333351135254,8.82069206237793,XArbitraryZVertical,-0.2020513251646408,0.5275546427779614,0.0379539906649416,0.8242697705796859,0.8850319981575012,0.2930440008640289,-0.3617227077484131,0,0,0,-1,-1,3294.316185416667,walking,2,2022-06-02T10:55:56.174+02:00,2022-06-02T10:17:13.754+02:00,521,1.631355,0,0,405.4342,0,0,2022-06-02T10:55:56.174+02:00,675852956.1742305,0,4.382812,101.3313,1,0.77
209,2022-06-02T10:55:56.840+02:00,1654160152.999776,53.22881542151163,10.39860147983804,40.05172,0,0.31,107.9296875,18.71859275064163,4,5,-9999,3294.979880416667,-32.13105773925781,14.16799926757812,24.94105529785156,3294.969886416667,0.0715261683588453,0.7928486829418939,-0.0003090771001722,35.10286712646484,-34.57307052612305,17.03504371643066,-32.73321533203125,9.539302825927734,11.99645042419434,XArbitraryZVertical,-0.0139484487363583,0.3858704578921068,0.0329229036299055,0.9218598203625163,0.712355375289917,0.000309077091515,-0.7018188834190369,0,0,0,-1,-1,3294.316185416667,walking,2,2022-06-02T10:55:56.174+02:00,2022-06-02T10:17:13.754+02:00,521,1.631355,0,0,405.4342,0,0,2022-06-02T10:55:56.174+02:00,675852956.1742305,0,4.382812,101.3313,1,0.77
210,2022-06-02T10:55:56.849+02:00,1654160152.999776,53.22881542151163,10.39860147983804,40.05172,0,0.31,107.9296875,18.71859275064163,4,5,-9999,3294.989875416667,-28.5994873046875,-8.024795532226562,31.42631530761719,3294.979880416667,-0.0804630217530824,0.6519143458048958,0.3328409304061584,35.01000213623047,7.067368984222412,0.9583477973937988,-32.55162048339844,13.63041019439697,21.38058471679688,XArbitraryZVertical,0.1695051799818608,0.3092242467234727,0.0154254881001384,0.9356336123189476,0.5734118223190308,-0.3267293572425842,-0.7512966990470886,0,0,0,-1,-1,3294.316185416667,walking,2,2022-06-02T10:55:56.174+02:00,2022-06-02T10:17:13.754+02:00,521,1.631355,0,0,405.4342,0,0,2022-06-02T10:55:56.174+02:00,675852956.1742305,0,4.382812,101.3313,1,0.77
211,2022-06-02T10:55:56.859+02:00,1654160152.999776,53.22881542151163,10.39860147983804,40.05172,0,0.31,107.9296875,18.71859275064163,4,5,-9999,3294.999869416667,3.363906860351562,-32.05528259277344,15.62162780761719,3294.989875416667,-0.3562100705816511,1.04406121110106,0.5810547672904526,34.78210830688477,34.99327087402344,10.20707321166992,-32.85364151000977,14.71690559387207,25.36126518249512,XArbitraryZVertical,0.3290155555683328,0.4261966436170134,-0.0065524174965381,0.8426518633060881,0.7225824594497681,-0.5489059090614319,-0.4202103614807129,0,0,0,-1,-1,3294.316185416667,walking,2,2022-06-02T10:55:56.174+02:00,2022-06-02T10:17:13.754+02:00,521,1.631355,0,0,405.4342,0,0,2022-06-02T10:55:56.174+02:00,675852956.1742305,0,4.382812,101.3313,1,0.77
212,2022-06-02T10:55:56.869+02:00,1654160152.999776,53.22881542151163,10.39860147983804,40.05172,0,0.31,107.9296875,18.71859275064163,4,5,-9999,3295.009863416667,8.98046875,-7.697097778320312,-2.119613647460938,3294.999869416667,-0.5733565758117509,1.353201672046885,0.7769512123628348,-12.5587329864502,8.507782936096191,13.3306131362915,-29.29572677612305,-7.323686599731445,31.58024978637695,XArbitraryZVertical,0.4471434699114075,0.4723293931243817,0.0234438528197611,0.7592219653921294,0.6962401866912842,-0.7011087536811829,-0.1539353281259537,0,0,0,-1,-1,3294.316185416667,walking,2,2022-06-02T10:55:56.174+02:00,2022-06-02T10:17:13.754+02:00,521,1.631355,0,0,405.4342,0,0,2022-06-02T10:55:56.174+02:00,675852956.1742305,0,4.382812,101.3313,1,0.77
213,2022-06-02T10:55:56.879+02:00,1654160152.999776,53.22881542151163,10.39860147983804,40.05172,0,0.31,107.9296875,18.71859275064163,4,5,-9999,3295.019857416667,-3.636367797851562,10.26939392089844,2.277847290039062,3295.009863416667,-0.1707731461769946,1.191114925502059,0.7447668708426916,-34.99627304077148,9.610198974609377,-2.197363615036011,2.681023120880127,-31.37748146057129,15.89412784576416,XArbitraryZVertical,0.3446618932978167,0.494932404647539,0.1375964745114866,0.7856953787758154,0.6828836798667908,-0.6778004169464111,-0.2725001871585846,0,0,0,-1,-1,3294.316185416667,walking,2,2022-06-02T10:55:56.174+02:00,2022-06-02T10:17:13.754+02:00,521,1.631355,0,0,405.4342,0,0,2022-06-02T10:55:56.174+02:00,675852956.1742305,0,4.382812,101.3313,1,0.77
214,2022-06-02T10:55:56.889+02:00,1654160152.999776,53.22881542151163,10.39860147983804,40.05172,0,0.31,107.9296875,18.71859275064163,4,5,-9999,3295.029852416667,-30.58198547363281,-1.30535888671875,8.279281616210938,3295.019857416667,0.1910631490242685,0.97931532135853,0.5408392457341241,-34.9653434753418,-3.011308193206787,-6.956335544586182,8.268829345703125,-7.182242393493652,-1.641603708267212,XArbitraryZVertical,0.1914387155982067,0.4736520579655488,0.2061862177168446,0.8345610373771348,0.7116390466690063,-0.5148556232452393,-0.4780098795890808,0,0,0,-1,-1,3294.316185416667,walking,2,2022-06-02T10:55:56.174+02:00,2022-06-02T10:17:13.754+02:00,521,1.631355,0,0,405.4342,0,0,2022-06-02T10:55:56.174+02:00,675852956.1742305,0,4.382812,101.3313,1,0.77
215,2022-06-02T10:55:56.899+02:00,1654160152.999776,53.22881542151163,10.39860147983804,40.05172,0,0.31,107.9296875,18.71859275064163,4,5,-9999,3295.039846416667,-8.480224609375,-0.6675567626953125,7.867141723632812,3295.029852416667,0.4071405443500042,0.9296704644983084,0.269153993308494,-24.7824764251709,10.17398262023926,5.47962760925293,-4.408936500549316,10.53530979156494,2.854411602020264,XArbitraryZVertical,0.0276512835093043,0.4592964677457478,0.2379859877739061,0.8553624205945713,0.7725686430931091,-0.2659159898757935,-0.5765643119812012,0,0,0,-1,-1,3294.316185416667,walking,2,2022-06-02T10:55:56.174+02:00,2022-06-02T10:17:13.754+02:00,521,1.631355,0,0,405.4342,0,0,2022-06-02T10:55:56.174+02:00,675852956.1742305,0,4.382812,101.3313,1,0.77
216,2022-06-02T10:55:56.909+02:00,1654160152.999776,53.22881542151163,10.39860147983804,40.05172,0,0.31,107.9296875,18.71859275064163,4,5,-9999,3295.049840416667,-0.956695556640625,11.73477172851562,2.91412353515625,3295.039846416667,0.6476615164021676,0.8959688925170362,0.2926558406898763,-6.27577543258667,-2.482525825500488,19.73067855834961,-31.3296012878418,-1.016862750053406,8.877479553222656,XArbitraryZVertical,-0.0117678039617588,0.4480651216008955,0.3436094647824087,0.825246434955439,0.7476153373718262,-0.2884961664676666,-0.5981983542442322,0,0,0,-1,-1,3294.316185416667,walking,2,2022-06-02T10:55:56.174+02:00,2022-06-02T10:17:13.754+02:00,521,1.631355,0,0,405.4342,0,0,2022-06-02T10:55:56.174+02:00,675852956.1742305,0,4.382812,101.3313,1,0.77
217,2022-06-02T10:55:56.919+02:00,1654160152.999776,53.22881542151163,10.39860147983804,40.05172,0,0.31,107.9296875,18.71859275064163,4,5,-9999,3295.059834416667,-19.01983642578125,7.369598388671875,5.4132080078125,3295.049840416667,0.7114226501374579,0.823627511207156,0.469655160464364,12.62764263153076,-3.166532278060913,14.85415744781494,-9.134407997131348,-0.2149779498577118,8.473125457763672,XArbitraryZVertical,0.0643029833556189,0.4391731334020417,0.3976858859361084,0.8030179301289316,0.654183030128479,-0.4525788128376007,-0.6059841513633728,0,0,0,-1,-1,3294.316185416667,walking,2,2022-06-02T10:55:56.174+02:00,2022-06-02T10:17:13.754+02:00,521,1.631355,0,0,405.4342,0,0,2022-06-02T10:55:56.174+02:00,675852956.1742305,0,4.382812,101.3313,1,0.77
218,2022-06-02T10:55:56.929+02:00,1654160152.999776,53.22881542151163,10.39860147983804,40.05172,0,0.31,107.9296875,18.71859275064163,4,5,-9999,3295.069829416667,-23.87300109863281,-7.232864379882812,6.814239501953125,3295.059834416667,0.6611471735387452,0.8415352555823272,0.6381377749561908,15.17286205291748,6.563819408416748,6.405635356903076,-1.555620193481445,12.33047294616699,3.449315071105957,XArbitraryZVertical,0.1449302953305656,0.4597819029413385,0.4025101667031675,0.7781911387192324,0.5989245772361755,-0.595700740814209,-0.5351915955543518,0,0,0,-1,-1,3294.316185416667,walking,2,2022-06-02T10:55:56.174+02:00,2022-06-02T10:17:13.754+02:00,521,1.631355,0,0,405.4342,0,0,2022-06-02T10:55:56.174+02:00,675852956.1742305,0,4.382812,101.3313,1,0.77
219,2022-06-02T10:55:56.940+02:00,1654160152.999776,53.22881542151163,10.39860147983804,40.05172,0,0.31,107.9296875,18.71859275064163,4,5,-9999,3295.079824,-9.51129150390625,-12.02008056640625,6.565475463867188,3295.069829416667,0.6249202212493746,0.9697377631897938,0.7871520459820319,6.125224590301514,13.02961826324463,14.2339506149292,-19.60198974609375,8.0779447555542,5.812386035919189,XArbitraryZVertical,0.1905395161516296,0.5139121150789144,0.4212633378998684,0.7225829445875881,0.5821536183357239,-0.708345890045166,-0.3991780579090118,0,0,0,-1,-1,3294.316185416667,walking,2,2022-06-02T10:55:56.174+02:00,2022-06-02T10:17:13.754+02:00,521,1.631355,0,0,405.4342,0,0,2022-06-02T10:55:56.174+02:00,675852956.1742305,0,4.382812,101.3313,1,0.77
220,2022-06-02T10:55:56.949+02:00,1654160152.999776,53.22881542151163,10.39860147983804,40.05172,0,0.31,107.9296875,18.71859275064163,4,5,-9999,3295.089818,-5.842727661132812,-3.534713745117188,4.224029541015625,3295.079824,0.7089241069954715,1.039869907489514,0.9390746390193868,1.860198974609375,13.11141490936279,15.32381153106689,-24.38224220275879,-6.425852298736572,7.113246440887451,XArbitraryZVertical,0.2144897682080837,0.5518067126245637,0.4794451017314255,0.6477929909793053,0.5092409253120422,-0.8070119619369507,-0.2990069687366486,0,0,0,-1,-1,3294.316185416667,walking,2,2022-06-02T10:55:56.174+02:00,2022-06-02T10:17:13.754+02:00,521,1.631355,0,0,405.4342,0,0,2022-06-02T10:55:56.174+02:00,675852956.1742305,0,4.382812,101.3313,1,0.77
221,2022-06-02T10:55:56.959+02:00,1654160152.999776,53.22881542151163,10.39860147983804,40.05172,0,0.31,107.9296875,18.71859275064163,4,5,-9999,3295.099812,-6.6124267578125,-4.933822631835938,4.107513427734375,3295.089818,0.8316860998476175,1.031180859399925,1.064754895359423,-0.5375630259513855,5.604985237121582,12.97492027282715,-9.92713451385498,-11.14541053771973,6.814526557922363,XArbitraryZVertical,0.2323559348647093,0.5669964776506945,0.5317424780505505,0.5846158473561112,0.4158432185649872,-0.874670147895813,-0.249051421880722,0,0,0,-1,-1,3294.316185416667,walking,2,2022-06-02T10:55:56.174+02:00,2022-06-02T10:17:13.754+02:00,521,1.631355,0,0,405.4342,0,0,2022-06-02T10:55:56.174+02:00,675852956.1742305,0,4.382812,101.3313,1,0.77
222,2022-06-02T10:55:56.969+02:00,1654160152.999776,53.22881542151163,10.39860147983804,40.05172,0,0.31,107.9296875,18.71859275064163,4,5,-9999,3295.109806,-7.349700927734375,-6.041763305664062,3.603439331054688,3295.099812,0.9923817750856444,0.9244928155431408,1.153433732519465,-0.8982482552528381,2.708509922027588,9.588768005371094,-6.166325569152832,-2.620552539825439,4.468147754669189,XArbitraryZVertical,0.2512198020909489,0.5610966931840865,0.5710399218170585,0.5440334863103412,0.3235976994037628,-0.914161205291748,-0.2441182285547256,0,0,0,-1,-1,3294.316185416667,walking,2,2022-06-02T10:55:56.174+02:00,2022-06-02T10:17:13.754+02:00,521,1.631355,0,0,405.4342,0,0,2022-06-02T10:55:56.174+02:00,675852956.1742305,0,4.382812,101.3313,1,0.77
223,2022-06-02T10:55:56.979+02:00,1654160152.999776,53.22881542151163,10.39860147983804,40.05172,0,0.31,107.9296875,18.71859275064163,4,5,-9999,3295.119801,-7.051986694335938,-3.746063232421875,2.747177124023438,3295.109806,1.170142605969182,0.7849974938131381,1.226592251688682,0.4851089417934418,2.576466083526611,10.08614349365234,-6.850942611694336,-3.992478370666504,4.346220016479492,XArbitraryZVertical,0.270604178391138,0.5544546232813204,0.6008058850915742,0.5083164900055802,0.2385156899690628,-0.9413443207740784,-0.2387069016695023,0,0,0,-1,-1,3294.316185416667,walking,2,2022-06-02T10:55:56.174+02:00,2022-06-02T10:17:13.754+02:00,521,1.631355,0,0,405.4342,0,0,2022-06-02T10:55:56.174+02:00,675852956.1742305,0,4.382812,101.3313,1,0.77
224,2022-06-02T10:55:56.990+02:00,1654160152.999776,53.22881542151163,10.39860147983804,40.05172,0,0.31,107.9296875,18.71859275064163,4,5,-9999,3295.129795,-6.322952270507812,-5.304840087890625,2.246612548828125,3295.119801,1.37024671325996,0.6280727902565554,1.297462464528153,2.394816637039185,4.222730159759521,7.925086498260498,-7.508315563201904,-5.078886985778809,3.821866512298584,XArbitraryZVertical,0.2892039070658433,0.5542088682312319,0.6240783070002464,0.4687641230268648,0.1586146950721741,-0.962876319885254,-0.2184272557497025,0,0,0,-1,-1,3294.316185416667,walking,2,2022-06-02T10:55:56.174+02:00,2022-06-02T10:17:13.754+02:00,521,1.631355,0,0,405.4342,0,0,2022-06-02T10:55:56.174+02:00,675852956.1742305,0,4.382812,101.3313,1,0.77
225,2022-06-02T10:55:56.999+02:00,1654160152.999776,53.22881542151163,10.39860147983804,40.05172,0,0.31,107.9296875,18.71859275064163,4,5,-9999,3295.139789,-5.9326171875,-5.4285888671875,2.152359008789062,3295.129795,1.5853875303902,0.4608735022369237,1.356579534810083,1.810852527618408,3.819446563720703,7.396183490753174,-7.146528720855713,-2.768919944763184,2.93757963180542,XArbitraryZVertical,0.3021224588548538,0.5599292497777493,0.6405254733682227,0.4300330657499942,0.094541922211647,-0.977143168449402,-0.1904025077819824,0,0,0,-1,-1,3294.316185416667,walking,2,2022-06-02T10:55:56.174+02:00,2022-06-02T10:17:13.754+02:00,521,1.631355,0,0,405.4342,0,0,2022-06-02T10:55:56.174+02:00,675852956.1742305,0,4.382812,101.3313,1,0.77
226,2022-06-02T10:55:57.009+02:00,1654160152.999776,53.22881542151163,10.39860147983804,40.05172,0,0.31,107.9296875,18.71859275064163,4,5,-9999,3295.149783,-5.744918823242188,-4.607467651367188,1.985946655273438,3295.139789,1.940279591532318,0.1467847943807668,1.385581630100954,-0.4112997949123383,3.148796081542969,7.579326152801514,-6.349886894226074,-4.321943283081055,2.428789615631104,XArbitraryZVertical,0.3134576964760141,0.5573649394839498,0.6595430320885141,0.3950842708828896,0.0269345622509717,-0.9828967452049256,-0.1821772009134293,0,0,0,-1,-1,3294.316185416667,walking,2,2022-06-02T10:55:56.174+02:00,2022-06-02T10:17:13.754+02:00,521,1.631355,0,0,405.4342,0,0,2022-06-02T10:55:56.174+02:00,675852956.1742305,0,4.382812,101.3313,1,0.77
227,2022-06-02T10:55:57.020+02:00,1654160152.999776,53.22881542151163,10.39860147983804,40.05172,0,0.31,107.9296875,18.71859275064163,4,5,-9999,3295.159778,-5.102127075195312,-3.6929931640625,2.01171875,3295.149783,2.340288656534664,-0.2129134263079271,1.375970743926769,-0.7573890089988708,3.5568687915802,7.496230125427246,-5.891708850860596,-4.447507381439209,2.341582536697388,XArbitraryZVertical,0.3218377418026667,0.5493711615439497,0.6810061011247619,0.3617214437612511,-0.0409082733094692,-0.9810814261436462,-0.18922358751297,0,0,0,-1,-1,3294.316185416667,walking,2,2022-06-02T10:55:56.174+02:00,2022-06-02T10:17:13.754+02:00,521,1.631355,0,0,405.4342,0,0,2022-06-02T10:55:56.174+02:00,675852956.1742305,0,4.382812,101.3313,1,0.77
228,2022-06-02T10:55:57.039+02:00,1654160152.999776,53.22881542151163,10.39860147983804,40.05172,0,0.31,107.9296875,18.71859275064163,4,5,-9999,3295.169772,-3.847213745117188,-3.49053955078125,2.466445922851562,3295.159778,2.674631370219005,-0.5035567951682054,1.344770443994008,0.0727081894874572,3.903179407119751,7.460821151733398,-5.636777877807617,-3.632902860641479,2.182234764099121,XArbitraryZVertical,0.3291761697177408,0.5417554491304634,0.7012129971569628,0.326258108139913,-0.1081409975886345,-0.9745647311210632,-0.1962881684303284,0,0,0,-1,-1,3294.316185416667,walking,2,2022-06-02T10:55:56.174+02:00,2022-06-02T10:17:13.754+02:00,521,1.631355,0,0,405.4342,0,0,2022-06-02T10:55:56.174+02:00,675852956.1742305,0,4.382812,101.3313,1,0.77
229,2022-06-02T10:55:57.044+02:00,1654160153.99977,53.22881542151163,10.39860147983804,40.14157,0,0.36,107.9296875,18.71859275064163,4,5,-9999,3295.179766,-1.734283447265625,-4.197952270507812,2.190582275390625,3295.169772,2.936630119180653,-0.715451473015009,1.312524447239355,1.890922427177429,4.397347450256348,6.477792739868164,-4.93458890914917,-2.726160287857056,2.204501390457153,XArbitraryZVertical,0.3344257953404892,0.5401555634488846,0.7163736965493345,0.2884441456768332,-0.1675382703542709,-0.9668328166007996,-0.1927827149629593,0,0,0,-1,-1,3294.316185416667,walking,2,2022-06-02T10:55:56.174+02:00,2022-06-02T10:17:13.754+02:00,521,1.631355,0,0,405.4342,0,0,2022-06-02T10:55:56.174+02:00,675852956.1742305,0,4.382812,101.3313,1,0.77
230,2022-06-02T10:55:57.049+02:00,1654160153.99977,53.22881542151163,10.39860147983804,40.14157,0,0.36,107.9296875,18.71859275064163,4,5,-9999,3295.18976,-0.75775146484375,-4.62139892578125,1.791702270507812,3295.179766,-3.13820392429861,-0.8757340109350412,1.28668935778769,2.197949171066284,3.659847259521484,4.762209892272949,-3.63193941116333,-2.530627012252808,2.645959138870239,XArbitraryZVertical,0.338325779494632,0.5438556521138727,0.7250411678892722,0.2531241902212351,-0.2152741998434067,-0.959912359714508,-0.1795133948326111,0,0,0,-1,-1,3294.316185416667,walking,2,2022-06-02T10:55:56.174+02:00,2022-06-02T10:17:13.754+02:00,521,1.631355,0,0,405.4342,0,0,2022-06-02T10:55:56.174+02:00,675852956.1742305,0,4.382812,101.3313,1,0.77
231,2022-06-02T10:55:57.059+02:00,1654160153.99977,53.22881542151163,10.39860147983804,40.14157,0,0.36,107.9296875,18.71859275064163,4,5,-9999,3295.199755,-0.7532806396484375,-3.886245727539062,1.63629150390625,3295.18976,-3.015504948141674,-0.9627510331481216,1.269220509238317,1.332252621650696,2.346375226974487,2.416311979293823,-1.490495562553406,-3.243082523345947,2.360261917114258,XArbitraryZVertical,0.3390066547943952,0.5479367656915771,0.7296627376072422,0.2289800717277423,-0.2437878549098969,-0.9548696279525756,-0.169679582118988,0,0,0,-1,-1,3294.316185416667,walking,2,2022-06-02T10:55:56.174+02:00,2022-06-02T10:17:13.754+02:00,521,1.631355,0,0,405.4342,0,0,2022-06-02T10:55:56.174+02:00,675852956.1742305,0,4.382812,101.3313,1,0.77
232,2022-06-02T10:55:57.069+02:00,1654160153.99977,53.22881542151163,10.39860147983804,40.14157,0,0.36,107.9296875,18.71859275064163,4,5,-9999,3295.209749,-1.158172607421875,-3.315444946289062,1.365280151367188,3295.199755,-2.958546863478395,-1.000407291548136,1.261704074126726,0.7375280857086182,1.123991847038269,0.7599645256996155,-0.5017145872116089,-3.66878867149353,1.955954313278198,XArbitraryZVertical,0.3383683420023313,0.5508001428834897,0.7314796325229145,0.2169409829512041,-0.2560368478298187,-0.9526100754737854,-0.1642521321773529,0,0,0,-1,-1,3294.316185416667,walking,2,2022-06-02T10:55:56.174+02:00,2022-06-02T10:17:13.754+02:00,521,1.631355,0,0,405.4342,0,0,2022-06-02T10:55:56.174+02:00,675852956.1742305,0,4.382812,101.3313,1,0.77
233,2022-06-02T10:55:57.080+02:00,1654160153.99977,53.22881542151163,10.39860147983804,40.14157,0,0.36,107.9296875,18.71859275064163,4,5,-9999,3295.219743,-1.246231079101562,-2.9219970703125,1.130950927734375,3295.209749,-2.94146574106861,-1.008028017987871,1.263694950169769,0.3411083221435547,0.6520616412162781,-0.5089324712753296,-0.497603714466095,-2.933031797409058,1.797575712203979,XArbitraryZVertical,0.336090960538332,0.5535347723933577,0.7315561806009432,0.2132313375961543,-0.2556769251823425,-0.9532138109207152,-0.1612842381000519,0,0,0,-1,-1,3294.316185416667,walking,2,2022-06-02T10:55:56.174+02:00,2022-06-02T10:17:13.754+02:00,521,1.631355,0,0,405.4342,0,0,2022-06-02T10:55:56.174+02:00,675852956.1742305,0,4.382812,101.3313,1,0.77
234,2022-06-02T10:55:57.093+02:00,1654160153.99977,53.22881542151163,10.39860147983804,40.14157,0,0.36,107.9296875,18.71859275064163,4,5,-9999,3295.229737,-1.258819580078125,-2.084014892578125,1.023681640625,3295.219743,-2.955382677788579,-0.9908301475148305,1.272387910954998,-0.0829340368509292,0.0974807515740394,-1.32793390750885,-0.9122480154037476,-2.359639167785645,1.526390194892883,XArbitraryZVertical,0.3321392176438292,0.555993219866296,0.730850017308967,0.2154372442012534,-0.2459246069192886,-0.9558055996894836,-0.1611101627349854,0,0,0,-1,-1,3294.316185416667,walking,2,2022-06-02T10:55:56.174+02:00,2022-06-02T10:17:13.754+02:00,521,1.631355,0,0,405.4342,0,0,2022-06-02T10:55:56.174+02:00,675852956.1742305,0,4.382812,101.3313,1,0.77
235,2022-06-02T10:55:57.100+02:00,1654160153.99977,53.22881542151163,10.39860147983804,40.14157,0,0.36,107.9296875,18.71859275064163,4,5,-9999,3295.239731,-1.425369262695312,-1.3760986328125,0.8515625,3295.229737,-2.991960293042902,-0.9578028268805492,1.284343767325371,-0.2452856600284576,-0.4411838054656982,-1.869091749191284,-1.015124559402466,-1.96274471282959,1.29350745677948,XArbitraryZVertical,0.328246581725684,0.5576521018899602,0.7293495609818996,0.22209768388023,-0.2311065196990967,-0.9592522382736206,-0.1625566333532333,0,0,0,-1,-1,3294.316185416667,walking,2,2022-06-02T10:55:56.174+02:00,2022-06-02T10:17:13.754+02:00,521,1.631355,0,0,405.4342,0,0,2022-06-02T10:55:56.174+02:00,675852956.1742305,0,4.382812,101.3313,1,0.77
236,2022-06-02T10:55:57.109+02:00,1654160153.99977,53.22881542151163,10.39860147983804,40.14157,0,0.36,107.9296875,18.71859275064163,4,5,-9999,3295.249726,-1.47515869140625,-1.096023559570312,0.7651214599609375,3295.239731,-3.041689445799704,-0.9159599156220928,1.300456870445346,-0.0601181983947753,-0.731184720993042,-2.310755968093872,-1.047002911567688,-1.120334386825562,1.186327934265137,XArbitraryZVertical,0.3243665486737675,0.559877798947294,0.7263949496127035,0.2316753787700896,-0.2118166387081146,-0.9636803269386292,-0.1626463830471039,0,0,0,-1,-1,3294.316185416667,walking,2,2022-06-02T10:55:56.174+02:00,2022-06-02T10:17:13.754+02:00,521,1.631355,0,0,405.4342,0,0,2022-06-02T10:55:56.174+02:00,675852956.1742305,0,4.382812,101.3313,1,0.77
237,2022-06-02T10:55:57.119+02:00,1654160153.99977,53.22881542151163,10.39860147983804,40.14157,0,0.36,107.9296875,18.71859275064163,4,5,-9999,3295.25972,-1.303817749023438,-1.104171752929688,0.6449737548828125,3295.249726,-3.101240538622757,-0.8664960425143382,1.319446886120452,0.033950075507164,-0.894869327545166,-2.575936079025269,-1.235835313796997,-0.4075208902359009,1.012603044509888,XArbitraryZVertical,0.3204363670671648,0.562850095970116,0.7222013598321645,0.2427868514083315,-0.1895339488983154,-0.9685776829719543,-0.1610406041145325,0,0,0,-1,-1,3294.316185416667,walking,2,2022-06-02T10:55:56.174+02:00,2022-06-02T10:17:13.754+02:00,521,1.631355,0,0,405.4342,0,0,2022-06-02T10:55:56.174+02:00,675852956.1742305,0,4.382812,101.3313,1,0.77
238,2022-06-02T10:55:57.129+02:00,1654160153.99977,53.22881542151163,10.39860147983804,40.14157,0,0.36,107.9296875,18.71859275064163,4,5,-9999,3295.269714,-1.277175903320312,-0.872344970703125,0.478607177734375,3295.25972,3.104797981117808,-0.8021970260631572,1.339201365558746,-0.1276939362287521,-1.252713799476624,-2.83287501335144,-1.310152888298035,-0.1227220296859741,0.9246744513511658,XArbitraryZVertical,0.3165842688305058,0.5656835365932628,0.717259927482099,0.2555674625271078,-0.1650058031082153,-0.9733015298843384,-0.1595530807971954,0,0,0,-1,-1,3294.316185416667,walking,2,2022-06-02T10:55:56.174+02:00,2022-06-02T10:17:13.754+02:00,521,1.631355,0,0,405.4342,0,0,2022-06-02T10:55:56.174+02:00,675852956.1742305,0,4.382812,101.3313,1,0.77
239,2022-06-02T10:55:57.139+02:00,1654160153.99977,53.22881542151163,10.39860147983804,40.14157,0,0.36,107.9296875,18.71859275064163,4,5,-9999,3295.279708,-1.457351684570312,-0.40411376953125,0.28912353515625,3295.269714,3.001760119264073,-0.7162592623637966,1.358763393065494,-0.1251611113548279,-1.64983606338501,-3.142619132995605,-1.165644526481628,-0.1265666484832764,0.8037075400352478,XArbitraryZVertical,0.3131358215448047,0.567960416480407,0.7114371516134685,0.2705995534883158,-0.1381732374429703,-0.9776051044464112,-0.1587338447570801,0,0,0,-1,-1,3294.316185416667,walking,2,2022-06-02T10:55:56.174+02:00,2022-06-02T10:17:13.754+02:00,521,1.631355,0,0,405.4342,0,0,2022-06-02T10:55:56.174+02:00,675852956.1742305,0,4.382812,101.3313,1,0.77
240,2022-06-02T10:55:57.149+02:00,1654160153.99977,53.22881542151163,10.39860147983804,40.14157,0,0.36,107.9296875,18.71859275064163,4,5,-9999,3295.289703,-1.6234130859375,-0.0278778076171875,0.0085296630859375,3295.279708,2.871807652702804,-0.6064921136672533,1.378608736854101,0.0720616728067398,-1.822844266891479,-3.419439315795898,-1.168304443359375,0.1092438697814941,0.6355479955673218,XArbitraryZVertical,0.3099772103531636,0.5704767027571468,0.7042462510689166,0.2872414091880289,-0.1088715121150017,-0.9815887212753296,-0.1569409221410751,0,0,0,-1,-1,3294.316185416667,walking,2,2022-06-02T10:55:56.174+02:00,2022-06-02T10:17:13.754+02:00,521,1.631355,0,0,405.4342,0,0,2022-06-02T10:55:56.174+02:00,675852956.1742305,0,4.382812,101.3313,1,0.77
241,2022-06-02T10:55:57.159+02:00,1654160153.99977,53.22881542151163,10.39860147983804,40.14157,0,0.36,107.9296875,18.71859275064163,4,5,-9999,3295.299697,-1.638458251953125,0.1133880615234375,-0.1747589111328125,3295.289703,2.709850041996124,-0.4652601757256708,1.398852288560298,0.3921212255954742,-1.774266123771667,-3.660306453704834,-1.380587816238403,0.5811403393745422,0.4420343041419983,XArbitraryZVertical,0.3064976296386761,0.5741113005902816,0.6955270290568318,0.3044626372549898,-0.0767638906836509,-0.9852539896965028,-0.1529108285903931,0,0,0,-1,-1,3294.316185416667,walking,2,2022-06-02T10:55:56.174+02:00,2022-06-02T10:17:13.754+02:00,521,1.631355,0,0,405.4342,0,0,2022-06-02T10:55:56.174+02:00,675852956.1742305,0,4.382812,101.3313,1,0.77
242,2022-06-02T10:55:57.169+02:00,1654160153.99977,53.22881542151163,10.39860147983804,40.14157,0,0.36,107.9296875,18.71859275064163,4,5,-9999,3295.309691,-1.576889038085938,0.0936737060546875,-0.2561492919921875,3295.299697,2.505973061091699,-0.2814161961620075,1.416593166328242,0.4570903778076172,-1.699020624160767,-3.776159286499023,-1.580757856369019,0.9602563977241516,0.1560807675123215,XArbitraryZVertical,0.3024539897734489,0.5785723528778789,0.6857988949466931,0.3216450755071473,-0.0426553264260292,-0.9881342053413392,-0.1475512385368347,0,0,0,-1,-1,3294.316185416667,walking,2,2022-06-02T10:55:56.174+02:00,2022-06-02T10:17:13.754+02:00,521,1.631355,0,0,405.4342,0,0,2022-06-02T10:55:56.174+02:00,675852956.1742305,0,4.382812,101.3313,1,0.77
243,2022-06-02T10:55:57.179+02:00,1654160153.99977,53.22881542151163,10.39860147983804,40.14157,0,0.36,107.9296875,18.71859275064163,4,5,-9999,3295.319685,-1.606903076171875,0.101776123046875,-0.288055419921875,3295.309691,2.257911839761146,-0.0528819503837056,1.426626267563925,0.2287939935922623,-1.670897960662842,-3.797811031341553,-1.630864262580872,1.103013634681702,-0.0312893390655517,XArbitraryZVertical,0.2977739695432051,0.5827485193688713,0.6759411315035534,0.338878006044954,-0.0075940354727208,-0.9896255135536194,-0.1434696465730667,0,0,0,-1,-1,3294.316185416667,walking,2,2022-06-02T10:55:56.174+02:00,2022-06-02T10:17:13.754+02:00,521,1.631355,0,0,405.4342,0,0,2022-06-02T10:55:56.174+02:00,675852956.1742305,0,4.382812,101.3313,1,0.77
244,2022-06-02T10:55:57.189+02:00,1654160153.99977,53.22881542151163,10.39860147983804,40.14157,0,0.36,107.9296875,18.71859275064163,4,5,-9999,3295.329679,-1.55975341796875,0.137969970703125,-0.240478515625,3295.319685,2.002410751547324,0.1834668823889823,1.423674198139434,-0.3591954708099365,-1.610501170158386,-3.585485219955444,-1.603633165359497,1.082870841026306,-0.1120182275772095,XArbitraryZVertical,0.2923859783480669,0.5851878796290657,0.6672126847320027,0.356220047195008,0.0267440415918827,-0.989197075366974,-0.1441311687231064,0,0,0,-1,-1,3294.316185416667,walking,2,2022-06-02T10:55:56.174+02:00,2022-06-02T10:17:13.754+02:00,521,1.631355,0,0,405.4342,0,0,2022-06-02T10:55:56.174+02:00,675852956.1742305,0,4.382812,101.3313,1,0.77
245,2022-06-02T10:55:57.199+02:00,1654160153.99977,53.22881542151163,10.39860147983804,40.14157,0,0.36,107.9296875,18.71859275064163,4,5,-9999,3295.339674,-1.36004638671875,0.2414398193359375,-0.20477294921875,3295.329679,1.801269601796192,0.3669867940236408,1.407678120705886,-1.017202258110046,-1.436256647109985,-3.253428936004639,-1.665171265602112,1.088501930236816,-0.1364738345146179,XArbitraryZVertical,0.2861849945111993,0.5850703574031847,0.6607925254695612,0.3730200109668905,0.058268092572689,-0.986725687980652,-0.1515816450119019,0,0,0,-1,-1,3294.316185416667,walking,2,2022-06-02T10:55:56.174+02:00,2022-06-02T10:17:13.754+02:00,521,1.631355,0,0,405.4342,0,0,2022-06-02T10:55:56.174+02:00,675852956.1742305,0,4.382812,101.3313,1,0.77
