,loggingTime(txt),locationTimestamp_since1970(s),locationLatitude(WGS84),locationLongitude(WGS84),locationAltitude(m),locationSpeed(m/s),locationSpeedAccuracy(m/s),locationCourse(°),locationCourseAccuracy(°),locationVerticalAccuracy(m),locationHorizontalAccuracy(m),locationFloor(Z),accelerometerTimestamp_sinceReboot(s),accelerometerAccelerationX(G),accelerometerAccelerationY(G),accelerometerAccelerationZ(G),motionTimestamp_sinceReboot(s),motionYaw(rad),motionRoll(rad),motionPitch(rad),motionRotationRateX(rad/s),motionRotationRateY(rad/s),motionRotationRateZ(rad/s),motionUserAccelerationX(G),motionUserAccelerationY(G),motionUserAccelerationZ(G),motionAttitudeReferenceFrame(txt),motionQuaternionX(R),motionQuaternionY(R),motionQuaternionZ(R),motionQuaternionW(R),motionGravityX(G),motionGravityY(G),motionGravityZ(G),motionMagneticFieldX(µT),motionMagneticFieldY(µT),motionMagneticFieldZ(µT),motionHeading(°),motionMagneticFieldCalibrationAccuracy(Z),activityTimestamp_sinceReboot(s),activity(txt),activityActivityConfidence(Z),activityActivityStartDate(txt),pedometerStartDate(txt),pedometerNumberofSteps(N),pedometerAverageActivePace(s/m),pedometerCurrentPace(s/m),pedometerCurrentCadence(steps/s),pedometerDistance(m),pedometerFloorAscended(N),pedometerFloorDescended(N),pedometerEndDate(txt),altimeterTimestamp_sinceReboot(s),altimeterReset(bool),altimeterRelativeAltitude(m),altimeterPressure(kPa),batteryState(N),batteryLevel(R)
210,2022-06-02T10:56:24.829+02:00,1654160184.00035,53.22910234186067,10.39851788970107,36.81704,0,20,-1,-1,2.400000095367432,7.999579855010837,-9999,3322.970020375,0.8724365234375,0.5204620361328125,1.542556762695312,3322.960026375,-2.496753502814118,1.75456972699821,0.0840360763932793,-1.048419833183289,4.859410762786865,2.769000291824341,-0.167298436164856,0.4331040978431702,1.051683902740479,XArbitraryZVertical,0.7372449192502121,0.2179859084544964,-0.5955317243417336,0.2330109295420767,0.9796916842460632,-0.0839371979236602,0.182095855474472,0,0,0,-1,-1,3322.467053375,unknown,2,2022-06-02T10:56:24.325+02:00,2022-06-02T10:17:13.754+02:00,521,1.631355,0,0,405.4342,0,0,2022-06-02T10:55:58.733+02:00,675852984.3250794,0,3.660156,101.3368,1,0.77
211,2022-06-02T10:56:24.839+02:00,1654160184.00035,53.22910234186067,10.39851788970107,36.81704,0,20,-1,-1,2.400000095367432,7.999579855010837,-9999,3322.980015375,0.8802642822265625,0.556549072265625,1.700393676757812,3322.970020375,-2.491670569372585,1.804654180390561,0.1110350666745063,-1.113934636116028,5.252893924713135,2.479458570480347,-0.1102829575538635,0.4549690783023834,1.135814666748047,XArbitraryZVertical,0.7535332342036689,0.2175780341935356,-0.5725398318428835,0.2388423088467528,0.9667892456054688,-0.1108070537447929,0.2303050756454468,0,0,0,-1,-1,3322.467053375,unknown,2,2022-06-02T10:56:24.325+02:00,2022-06-02T10:17:13.754+02:00,521,1.631355,0,0,405.4342,0,0,2022-06-02T10:55:58.733+02:00,675852984.3250794,0,3.660156,101.3368,1,0.77
212,2022-06-02T10:56:24.849+02:00,1654160184.00035,53.22910234186067,10.39851788970107,36.81704,0,20,-1,-1,2.400000095367432,7.999579855010837,-9999,3322.990009375,0.9075164794921876,0.5179443359375,1.86737060546875,3322.980015375,-2.485963843555158,1.858848090760457,0.1353654451995029,-1.307855844497681,5.730844020843506,2.077044725418091,-0.077591598033905,0.6554145216941833,1.261070728302002,XArbitraryZVertical,0.7698974719468292,0.2190909878672989,-0.5476901665586003,0.2435002030021145,0.9500279426574708,-0.1349524259567261,0.2814859449863434,0,0,0,-1,-1,3322.467053375,unknown,2,2022-06-02T10:56:24.325+02:00,2022-06-02T10:17:13.754+02:00,521,1.631355,0,0,405.4342,0,0,2022-06-02T10:55:58.733+02:00,675852984.3250794,0,3.660156,101.3368,1,0.77
213,2022-06-02T10:56:24.860+02:00,1654160184.00035,53.22910234186067,10.39851788970107,36.81704,0,20,-1,-1,2.400000095367432,7.999579855010837,-9999,3323.000003375,0.903045654296875,0.6119232177734375,2.044967651367188,3322.990009375,-2.476551622097196,1.917470604788205,0.1573501706244815,-1.938368916511536,6.248517513275146,1.658302664756775,-0.0486245155334472,0.7132507562637329,1.364819407463074,XArbitraryZVertical,0.7859793975511871,0.2236594207787427,-0.5204051483428475,0.2477728397187767,0.9288889169692992,-0.1567016690969467,0.3355742990970612,0,0,0,-1,-1,3322.467053375,unknown,2,2022-06-02T10:56:24.325+02:00,2022-06-02T10:17:13.754+02:00,521,1.631355,0,0,405.4342,0,0,2022-06-02T10:55:58.733+02:00,675852984.3250794,0,3.660156,101.3368,1,0.77
214,2022-06-02T10:56:24.869+02:00,1654160184.00035,53.22910234186067,10.39851788970107,36.81704,0,20,-1,-1,2.400000095367432,7.999579855010837,-9999,3323.009997375,0.9228515625,0.744110107421875,2.241607666015625,3323.000003375,-2.459809190575216,1.979797263535349,0.178511114334905,-2.72298789024353,6.76338005065918,1.171674966812134,0.0045780539512634,0.6955089569091797,1.475997447967529,XArbitraryZVertical,0.8010838441281587,0.2322740177123272,-0.4902247960758633,0.2529682215324979,0.9029382467269896,-0.1775645464658737,0.3913730978965759,0,0,0,-1,-1,3322.467053375,unknown,2,2022-06-02T10:56:24.325+02:00,2022-06-02T10:17:13.754+02:00,521,1.631355,0,0,405.4342,0,0,2022-06-02T10:55:58.733+02:00,675852984.3250794,0,3.660156,101.3368,1,0.77
215,2022-06-02T10:56:24.879+02:00,1654160184.00035,53.22910234186067,10.39851788970107,36.81704,0,20,-1,-1,2.400000095367432,7.999579855010837,-9999,3323.019992375,0.9251251220703124,0.8760223388671875,2.5802001953125,3323.009997375,-2.436243944228567,2.045663753718472,0.1991721867185149,-3.255201101303101,7.275820255279541,0.6694347262382507,0.0312741994857788,0.8097811937332153,1.596786022186279,XArbitraryZVertical,0.8149715671970726,0.2447696066979408,-0.4571521570217079,0.2586911464206825,0.8717714548110962,-0.1978579461574554,0.4481816291809082,0,0,0,-1,-1,3322.467053375,unknown,2,2022-06-02T10:56:24.325+02:00,2022-06-02T10:17:13.754+02:00,521,1.631355,0,0,405.4342,0,0,2022-06-02T10:55:58.733+02:00,675852984.3250794,0,3.660156,101.3368,1,0.77
216,2022-06-02T10:56:24.889+02:00,1654160184.00035,53.22910234186067,10.39851788970107,36.81704,0,20,-1,-1,2.400000095367432,7.999579855010837,-9999,3323.029986375,0.879364013671875,0.927459716796875,2.970687866210938,3323.019992375,-2.406712408225455,2.115200977957201,0.2196156580854411,-3.859170436859131,7.855093955993652,0.1562477946281433,0.08796226978302,0.9619647264480592,1.736138343811035,XArbitraryZVertical,0.8274595572529574,0.2608549328505635,-0.4211367956009617,0.2644031034006967,0.8348890542984009,-0.2178545296192169,0.5054692029953003,0,0,0,-1,-1,3322.467053375,unknown,2,2022-06-02T10:56:24.325+02:00,2022-06-02T10:17:13.754+02:00,521,1.631355,0,0,405.4342,0,0,2022-06-02T10:55:58.733+02:00,675852984.3250794,0,3.660156,101.3368,1,0.77
217,2022-06-02T10:56:24.899+02:00,1654160184.00035,53.22910234186067,10.39851788970107,36.81704,0,20,-1,-1,2.400000095367432,7.999579855010837,-9999,3323.039980375,0.7848663330078125,0.9975128173828124,3.380416870117188,3323.029986375,-2.369633141563179,2.189045321957148,0.2416253763290609,-4.638108730316162,8.594696044921875,-0.4062841534614563,0.1339030265808105,1.115303516387939,2.017428398132324,XArbitraryZVertical,0.8381274308116653,0.2809417484518876,-0.3813231090823599,0.2705676051188056,0.7912222146987915,-0.239281103014946,0.562771737575531,0,0,0,-1,-1,3322.467053375,unknown,2,2022-06-02T10:56:24.325+02:00,2022-06-02T10:17:13.754+02:00,521,1.631355,0,0,405.4342,0,0,2022-06-02T10:55:58.733+02:00,675852984.3250794,0,3.660156,101.3368,1,0.77
218,2022-06-02T10:56:24.909+02:00,1654160184.00035,53.22910234186067,10.39851788970107,36.81704,0,20,-1,-1,2.400000095367432,7.999579855010837,-9999,3323.049975375,0.578887939453125,1.215194702148438,3.897903442382812,3323.039980375,-2.325099179328164,2.268188584685761,0.2646286315986099,-4.958355903625488,9.449137687683104,-1.207762956619263,0.1395272612571716,1.189010620117188,2.350822687149048,XArbitraryZVertical,0.8465653237357889,0.3053844483913565,-0.337340776314006,0.2761677604296949,0.7398366928100586,-0.2615508437156677,0.6198650002479553,0,0,0,-1,-1,3322.467053375,unknown,2,2022-06-02T10:56:24.325+02:00,2022-06-02T10:17:13.754+02:00,521,1.631355,0,0,405.4342,0,0,2022-06-02T10:55:58.733+02:00,675852984.3250794,0,3.660156,101.3368,1,0.77
219,2022-06-02T10:56:24.919+02:00,1654160184.00035,53.22910234186067,10.39851788970107,36.81704,0,20,-1,-1,2.400000095367432,7.999579855010837,-9999,3323.059969375,0.328582763671875,1.31732177734375,4.5438232421875,3323.049975375,-2.275353093418794,2.353579021559113,0.2855819840912066,-4.96705436706543,10.30755138397217,-2.131621837615967,0.1046267151832581,1.279228806495667,2.703726291656494,XArbitraryZVertical,0.8525130147751895,0.334016241892011,-0.289746614614138,0.2787500330524549,0.6802396178245544,-0.2817158997058868,0.6766905784606934,0,0,0,-1,-1,3322.467053375,unknown,2,2022-06-02T10:56:24.325+02:00,2022-06-02T10:17:13.754+02:00,521,1.631355,0,0,405.4342,0,0,2022-06-02T10:55:58.733+02:00,675852984.3250794,0,3.660156,101.3368,1,0.77
220,2022-06-02T10:56:24.929+02:00,1654160184.00035,53.22910234186067,10.39851788970107,36.81704,0,20,-1,-1,2.400000095367432,7.999579855010837,-9999,3323.069963375,0.24530029296875,1.666519165039062,5.3369140625,3323.059969375,-2.220856101095898,2.444855025375271,0.3018007785265232,-4.420573234558105,11.08143424987793,-3.40876030921936,-0.0338272452354431,1.512434840202332,3.165627241134644,XArbitraryZVertical,0.8553033191277502,0.3668709600966705,-0.2395740845375995,0.2765250725961903,0.6127150654792786,-0.2972400784492493,0.7322761416435242,0,0,0,-1,-1,3322.467053375,unknown,2,2022-06-02T10:56:24.325+02:00,2022-06-02T10:17:13.754+02:00,521,1.631355,0,0,405.4342,0,0,2022-06-02T10:55:58.733+02:00,675852984.3250794,0,3.660156,101.3368,1,0.77
221,2022-06-02T10:56:24.939+02:00,1654160184.00035,53.22910234186067,10.39851788970107,36.81704,0,20,-1,-1,2.400000095367432,7.999579855010837,-9999,3323.079958375,0.2464599609375,1.885421752929688,6.250885009765625,3323.069963375,-2.158906311575996,2.539609339824277,0.3108530025362519,-4.348194122314453,11.53399658203125,-4.860915660858154,-0.2105554938316345,1.623192667961121,3.759111404418945,XArbitraryZVertical,0.853563853103371,0.4047032917289279,-0.1884908951275144,0.2685426743906407,0.5391382575035095,-0.3058708608150482,0.784712016582489,0,0,0,-1,-1,3322.467053375,unknown,2,2022-06-02T10:56:24.325+02:00,2022-06-02T10:17:13.754+02:00,521,1.631355,0,0,405.4342,0,0,2022-06-02T10:55:58.733+02:00,675852984.3250794,0,3.660156,101.3368,1,0.77
222,2022-06-02T10:56:24.949+02:00,1654160184.00035,53.22910234186067,10.39851788970107,36.81704,0,20,-1,-1,2.400000095367432,7.999579855010837,-9999,3323.089952375,0.3830108642578125,2.038619995117188,7.829177856445312,3323.079958375,-2.082460154691348,2.631772914184805,0.3194752729831135,-4.712690830230713,11.55384254455566,-6.738502025604248,-0.2180259823799133,1.980587601661682,4.508246421813965,XArbitraryZVertical,0.8447673123646219,0.4479977043764174,-0.1370948943879367,0.2585947736162266,0.4633263051509857,-0.3140684366226196,0.8286675214767456,0,0,0,-1,-1,3322.467053375,unknown,2,2022-06-02T10:56:24.325+02:00,2022-06-02T10:17:13.754+02:00,521,1.631355,0,0,405.4342,0,0,2022-06-02T10:55:58.733+02:00,675852984.3250794,0,3.660156,101.3368,1,0.77
223,2022-06-02T10:56:24.960+02:00,1654160184.00035,53.22910234186067,10.39851788970107,36.81704,0,20,-1,-1,2.400000095367432,7.999579855010837,-9999,3323.099946375,0.52685546875,2.562515258789062,9.589584350585938,3323.089952375,-1.983439444903428,2.710759909265069,0.3259842587412935,-5.081475257873535,10.28706741333008,-9.479388236999512,-0.1491736471652985,2.205663204193115,5.39011812210083,XArbitraryZVertical,0.8257693002536683,0.4984861807626644,-0.0897835404681021,0.2481038425566716,0.3956336677074432,-0.3202413618564606,0.8607668280601501,0,0,0,-1,-1,3322.467053375,unknown,2,2022-06-02T10:56:24.325+02:00,2022-06-02T10:17:13.754+02:00,521,1.631355,0,0,405.4342,0,0,2022-06-02T10:55:58.733+02:00,675852984.3250794,0,3.660156,101.3368,1,0.77
224,2022-06-02T10:56:24.969+02:00,1654160184.00035,53.22910234186067,10.39851788970107,36.81704,0,20,-1,-1,2.400000095367432,7.999579855010837,-9999,3323.109942125,0.49029541015625,2.427886962890625,10.77299499511719,3323.099946375,-1.854392801187336,2.758601536716687,0.3371415453643691,-6.610215663909912,7.496891498565674,-12.14642715454102,0.0303519070148468,2.369410991668701,6.95384407043457,XArbitraryZVertical,0.7933485494615726,0.55521608189305,-0.0512554270886818,0.2443482042140255,0.3526589572429657,-0.3307909071445465,0.8753336668014526,0,0,0,-1,-1,3322.467053375,unknown,2,2022-06-02T10:56:24.325+02:00,2022-06-02T10:17:13.754+02:00,521,1.631355,0,0,405.4342,0,0,2022-06-02T10:55:58.733+02:00,675852984.3250794,0,3.660156,101.3368,1,0.77
225,2022-06-02T10:56:24.980+02:00,1654160184.00035,53.22910234186067,10.39851788970107,36.81704,0,20,-1,-1,2.400000095367432,7.999579855010837,-9999,3323.119937125,-0.87274169921875,3.215652465820312,11.79452514648438,3323.109942125,-1.6925699862443,2.762209605409431,0.3478294579802323,-6.338112831115723,4.038692474365234,-15.48502445220947,0.1786863207817078,2.903373241424561,8.716318130493164,XArbitraryZVertical,0.7459224606737312,0.6166301673260361,-0.0264371188420751,0.2503356066428823,0.3481690585613251,-0.3408580422401428,0.8732661604881287,0,0,0,-1,-1,3322.467053375,unknown,2,2022-06-02T10:56:24.325+02:00,2022-06-02T10:17:13.754+02:00,521,1.631355,0,0,405.4342,0,0,2022-06-02T10:55:58.733+02:00,675852984.3250794,0,3.660156,101.3368,1,0.77
226,2022-06-02T10:56:24.989+02:00,1654160184.00035,53.22910234186067,10.39851788970107,36.81704,0,20,-1,-1,2.400000095367432,7.999579855010837,-9999,3323.129931125,-3.21990966796875,5.072921752929688,12.53236389160156,3323.119937125,-1.500361604267097,2.715311916482189,0.3360904471929509,-5.882266044616699,-0.6357734799385071,-18.73798179626465,0.0999422371387481,2.757685899734497,9.913427352905272,XArbitraryZVertical,0.6828396576407407,0.6808185356875776,-0.0225941699486399,0.2640179573196899,0.3903530240058899,-0.3297988176345825,0.8595677614212036,0,0,0,-1,-1,3322.467053375,unknown,2,2022-06-02T10:56:24.325+02:00,2022-06-02T10:17:13.754+02:00,521,1.631355,0,0,405.4342,0,0,2022-06-02T10:55:58.733+02:00,675852984.3250794,0,3.660156,101.3368,1,0.77
227,2022-06-02T10:56:24.999+02:00,1654160184.00035,53.22910234186067,10.39851788970107,36.81704,0,20,-1,-1,2.400000095367432,7.999579855010837,-9999,3323.139925125,-5.935684204101562,6.860855102539062,12.34907531738281,3323.129931125,-1.27873591097629,2.611269124417346,0.3055290606712974,-8.290328979492188,-6.190454483032227,-21.3458366394043,-1.35512900352478,3.51645040512085,10.97183227539062,XArbitraryZVertical,0.6011297504968407,0.7416126397014963,-0.0367049567286199,0.2954765551643582,0.4823871850967407,-0.3007977902889252,0.8226925730705261,0,0,0,-1,-1,3322.467053375,unknown,2,2022-06-02T10:56:24.325+02:00,2022-06-02T10:17:13.754+02:00,521,1.631355,0,0,405.4342,0,0,2022-06-02T10:55:58.733+02:00,675852984.3250794,0,3.660156,101.3368,1,0.77
228,2022-06-02T10:56:25.009+02:00,1654160184.00035,53.22910234186067,10.39851788970107,36.81704,0,20,-1,-1,2.400000095367432,7.999579855010837,-9999,3323.149920125,-10.37681579589844,7.429412841796875,11.51353454589844,3323.139925125,-1.031885848151223,2.457660847387873,0.2608386690801075,-11.09192657470703,-10.19467544555664,-22.57458114624023,-3.830382347106934,5.330812931060791,11.78348731994629,XArbitraryZVertical,0.4987753977101013,0.7909873779569704,-0.0574655727043247,0.3496564082090193,0.6104724407196045,-0.2578909397125244,0.7488758563995361,0,0,0,-1,-1,3322.467053375,unknown,2,2022-06-02T10:56:24.325+02:00,2022-06-02T10:17:13.754+02:00,521,1.631355,0,0,405.4342,0,0,2022-06-02T10:55:58.733+02:00,675852984.3250794,0,3.660156,101.3368,1,0.77
229,2022-06-02T10:56:25.020+02:00,1654160184.00035,53.22910234186067,10.39851788970107,36.81704,0,20,-1,-1,2.400000095367432,7.999579855010837,-9999,3323.159914125,-16.70465087890625,8.365158081054688,10.40374755859375,3323.149920125,-0.7851223629179646,2.286655003751675,0.1738691561925302,-9.37596035003662,-13.77439785003662,-24.43909645080566,-6.678837776184082,7.033849716186523,11.70270442962646,XArbitraryZVertical,0.3800751025452304,0.8238497108449542,-0.0849947037553229,0.4118135820065451,0.7431537508964539,-0.1729944497346878,0.6463708877563477,0,0,0,-1,-1,3322.467053375,unknown,2,2022-06-02T10:56:24.325+02:00,2022-06-02T10:17:13.754+02:00,521,1.631355,0,0,405.4342,0,0,2022-06-02T10:55:58.733+02:00,675852984.3250794,0,3.660156,101.3368,1,0.77
230,2022-06-02T10:56:25.029+02:00,1654160184.00035,53.22910234186067,10.39851788970107,36.81704,0,20,-1,-1,2.400000095367432,7.999579855010837,-9999,3323.169908125,-24.14053344726562,9.569625854492188,8.3497314453125,3323.159914125,-0.5857487332987145,2.083227220800846,0.0045087933942643,-2.89861536026001,-23.43092727661133,-25.83000755310059,-11.24836254119873,7.433921813964844,11.02324199676514,XArbitraryZVertical,0.2503052390699112,0.8261316225944152,-0.1438830213981539,0.4838920009836498,0.8715463280677795,-0.0045087779872119,0.4902923405170441,0,0,0,-1,-1,3322.467053375,unknown,2,2022-06-02T10:56:24.325+02:00,2022-06-02T10:17:13.754+02:00,521,1.631355,0,0,405.4342,0,0,2022-06-02T10:55:58.733+02:00,675852984.3250794,0,3.660156,101.3368,1,0.77
231,2022-06-02T10:56:25.039+02:00,1654160184.00035,53.22910234186067,10.39851788970107,36.81704,0,20,-1,-1,2.400000095367432,7.999579855010837,-9999,3323.179903125,-31.97846984863281,11.60246276855469,8.122451782226562,3323.169908125,-0.5172174189923454,1.801016550453104,-0.2255182706362315,8.701628684997559,-34.02455520629883,-22.20211029052734,-17.65361404418945,8.141546249389648,10.18133354187012,XArbitraryZVertical,0.1315582329905625,0.7706486139247587,-0.2431007952905391,0.5741907561674424,0.9489624500274658,0.2236115336418152,0.2224137037992477,0,0,0,-1,-1,3322.467053375,unknown,2,2022-06-02T10:56:24.325+02:00,2022-06-02T10:17:13.754+02:00,521,1.631355,0,0,405.4342,0,0,2022-06-02T10:55:58.733+02:00,675852984.3250794,0,3.660156,101.3368,1,0.77
232,2022-06-02T10:56:25.049+02:00,1654160184.00035,53.22910234186067,10.39851788970107,36.81704,0,20,-1,-1,2.400000095367432,7.999579855010837,-9999,3323.189897125,-32.08045959472656,15.003662109375,22.94230651855469,3323.179903125,-0.7299341143990207,1.381316630370479,-0.3944909453359547,33.59777450561523,-35.14312744140625,-11.09641075134277,-25.04720306396484,9.185287475585938,8.523612976074219,XArbitraryZVertical,0.0818556068728601,0.6374629320243616,-0.3864061978866847,0.6615366777445026,0.90666925907135,0.3843382894992828,-0.1738813370466232,0,0,0,-1,-1,3322.467053375,unknown,2,2022-06-02T10:56:24.325+02:00,2022-06-02T10:17:13.754+02:00,521,1.631355,0,0,405.4342,0,0,2022-06-02T10:55:58.733+02:00,675852984.3250794,0,3.660156,101.3368,1,0.77
233,2022-06-02T10:56:25.060+02:00,1654160184.00035,53.22910234186067,10.39851788970107,36.81704,0,20,-1,-1,2.400000095367432,7.999579855010837,-9999,3323.199891125,-32.12956237792969,15.01058959960938,26.85691833496094,3323.189897125,-1.069009978282278,0.910378531332018,-0.2726621969888511,35.17824935913086,-35.11143112182617,7.942066669464111,-32.73903274536133,11.33316612243652,8.713235855102539,XArbitraryZVertical,0.1168330854951979,0.4369871839822952,-0.5047161581337617,0.7352914978800769,0.7605609893798828,0.2692962288856506,-0.59078449010849,0,0,0,-1,-1,3322.467053375,unknown,2,2022-06-02T10:56:24.325+02:00,2022-06-02T10:17:13.754+02:00,521,1.631355,0,0,405.4342,0,0,2022-06-02T10:55:58.733+02:00,675852984.3250794,0,3.660156,101.3368,1,0.77
234,2022-06-02T10:56:25.070+02:00,1654160184.00035,53.22910234186067,10.39851788970107,36.81704,0,20,-1,-1,2.400000095367432,7.999579855010837,-9999,3323.209886125,-32.190673828125,11.67167663574219,30.79563903808594,3323.199891125,-1.242072649209064,0.5591628420241835,0.0435818767285226,35.14820861816406,-25.9454174041748,5.919433116912842,-32.61043167114258,15.0472297668457,23.7892017364502,XArbitraryZVertical,0.1775657423835956,0.2121865491996612,-0.5542617128034688,0.7850102115951724,0.529973030090332,-0.0435680821537971,-0.8468945622444153,0,0,0,-1,-1,3322.467053375,unknown,2,2022-06-02T10:56:24.325+02:00,2022-06-02T10:17:13.754+02:00,521,1.631355,0,0,405.4342,0,0,2022-06-02T10:55:58.733+02:00,675852984.3250794,0,3.660156,101.3368,1,0.77
235,2022-06-02T10:56:25.086+02:00,1654160184.00035,53.22910234186067,10.39851788970107,36.81704,0,20,-1,-1,2.400000095367432,7.999579855010837,-9999,3323.219880125,-12.78359985351562,-30.15753173828125,27.20475769042969,3323.209886125,-1.441103689439947,0.628384423235334,0.3347618228430068,34.92734146118164,32.03163146972656,-5.350211620330811,-32.68476867675781,15.33913421630859,27.6209888458252,XArbitraryZVertical,0.3201221885755778,0.1244444879404191,-0.5800402892513418,0.7386396101654805,0.5552067756652832,-0.3285442292690277,-0.7640706896781921,0,0,0,-1,-1,3322.467053375,unknown,2,2022-06-02T10:56:24.325+02:00,2022-06-02T10:17:13.754+02:00,521,1.631355,0,0,405.4342,0,0,2022-06-02T10:55:58.733+02:00,675852984.3250794,0,3.660156,101.3368,1,0.77
236,2022-06-02T10:56:25.094+02:00,1654160184.00035,53.22910234186067,10.39851788970107,36.81704,0,20,-1,-1,2.400000095367432,7.999579855010837,-9999,3323.229874125,7.326324462890625,-29.78363037109375,-1.0528564453125,3323.219880125,-1.636541209479991,1.01292734327632,0.6334111246074173,25.58921241760254,16.4244213104248,22.67237091064453,-32.87448501586914,12.26357460021973,31.22232627868652,XArbitraryZVertical,0.5226279120793935,0.1162612466768813,-0.5033255374967341,0.678237901289438,0.6838095188140869,-0.5918976068496704,-0.4266867637634277,0,0,0,-1,-1,3322.467053375,unknown,2,2022-06-02T10:56:24.325+02:00,2022-06-02T10:17:13.754+02:00,521,1.631355,0,0,405.4342,0,0,2022-06-02T10:55:58.733+02:00,675852984.3250794,0,3.660156,101.3368,1,0.77
237,2022-06-02T10:56:25.099+02:00,1654160184.00035,53.22910234186067,10.39851788970107,36.81704,0,20,-1,-1,2.400000095367432,7.999579855010837,-9999,3323.239869125,-0.99005126953125,0.53680419921875,1.51531982421875,3323.229874125,-1.417626073896443,0.9675952215467796,0.782596177618062,-30.86435127258301,15.50870800018311,8.500066757202148,-13.36754894256592,-29.4524097442627,27.60700798034668,XArbitraryZVertical,0.5361904258685857,0.1066504887449843,-0.3980031890919352,0.7366945920766838,0.5839486718177795,-0.705122709274292,-0.4022510051727295,0,0,0,-1,-1,3322.467053375,unknown,2,2022-06-02T10:56:24.325+02:00,2022-06-02T10:17:13.754+02:00,521,1.631355,0,0,405.4342,0,0,2022-06-02T10:55:58.733+02:00,675852984.3250794,0,3.660156,101.3368,1,0.77
238,2022-06-02T10:56:25.109+02:00,1654160184.00035,53.22910234186067,10.39851788970107,36.81704,0,20,-1,-1,2.400000095367432,7.999579855010837,-9999,3323.249863125,-5.858489990234375,-1.523101806640625,16.15513610839844,3323.239869125,-1.107338515125147,0.917548085945134,0.5381984059864462,-34.95895767211914,8.032902717590332,-13.95761680603027,6.644471645355225,-29.27103996276855,-0.5310055613517761,XArbitraryZVertical,0.4272344775574953,0.2377924921765991,-0.3543265657826491,0.7971059749495555,0.6818526983261108,-0.5125899314880371,-0.5218508839607239,0,0,0,-1,-1,3322.467053375,unknown,2,2022-06-02T10:56:24.325+02:00,2022-06-02T10:17:13.754+02:00,521,1.631355,0,0,405.4342,0,0,2022-06-02T10:55:58.733+02:00,675852984.3250794,0,3.660156,101.3368,1,0.77
239,2022-06-02T10:56:25.119+02:00,1654160184.00035,53.22910234186067,10.39851788970107,36.81704,0,20,-1,-1,2.400000095367432,7.999579855010837,-9999,3323.259857125,-27.27801513671875,3.782669067382812,17.82716369628906,3323.249863125,-0.9284311332080076,0.7938675580707687,0.2412767482102681,-23.08123970031738,-7.825892448425293,5.989391803741455,-1.682466387748718,0.7757468223571777,2.196104526519775,XArbitraryZVertical,0.2710712668100786,0.2934758167627262,-0.3683092062643561,0.8394882312471941,0.6924150586128235,-0.2389425933361053,-0.6807846426963806,0,0,0,-1,-1,3322.467053375,unknown,2,2022-06-02T10:56:24.325+02:00,2022-06-02T10:17:13.754+02:00,521,1.631355,0,0,405.4342,0,0,2022-06-02T10:55:58.733+02:00,675852984.3250794,0,3.660156,101.3368,1,0.77
240,2022-06-02T10:56:25.129+02:00,1654160184.00035,53.22910234186067,10.39851788970107,36.81704,0,20,-1,-1,2.400000095367432,7.999579855010837,-9999,3323.269851125,5.098098754882812,11.7410888671875,-2.630386352539062,3323.259857125,-0.6204438300696746,0.78878363556798,0.2243498084608566,-21.4289608001709,11.35404109954834,21.56698036193848,-6.550206184387207,-1.300629258155823,16.84218406677246,XArbitraryZVertical,0.2149748432513759,0.3320568537593879,-0.2391038463948698,0.8867657449622013,0.6917158961296082,-0.2224725186824799,-0.6870481371879578,0,0,0,-1,-1,3322.467053375,unknown,2,2022-06-02T10:56:24.325+02:00,2022-06-02T10:17:13.754+02:00,521,1.631355,0,0,405.4342,0,0,2022-06-02T10:55:58.733+02:00,675852984.3250794,0,3.660156,101.3368,1,0.77
241,2022-06-02T10:56:25.139+02:00,1654160184.00035,53.22910234186067,10.39851788970107,36.81704,0,20,-1,-1,2.400000095367432,7.999579855010837,-9999,3323.279846125,-6.565826416015625,6.19927978515625,3.189315795898438,3323.269851125,-0.4592376346344059,0.7420230821806462,0.2786530010191214,7.56502628326416,-13.3637113571167,9.986056327819824,-27.9277286529541,4.057729721069336,18.53583335876465,XArbitraryZVertical,0.2077510729498127,0.3201628247845259,-0.161035603223123,0.9101663818551952,0.6497135162353516,-0.2750608623027802,-0.7086704969406128,0,0,0,-1,-1,3322.467053375,unknown,2,2022-06-02T10:56:24.325+02:00,2022-06-02T10:17:13.754+02:00,521,1.631355,0,0,405.4342,0,0,2022-06-02T10:55:58.733+02:00,675852984.3250794,0,3.660156,101.3368,1,0.77
242,2022-06-02T10:56:25.149+02:00,1654160184.00035,53.22910234186067,10.39851788970107,36.81704,0,20,-1,-1,2.400000095367432,7.999579855010837,-9999,3323.289840125,-27.88349914550781,-6.186721801757812,9.58453369140625,3323.279846125,-0.4910604115439332,0.6464418253779413,0.4469134897736438,19.79396820068359,-9.514013290405272,7.719698429107666,4.554908275604248,12.17327308654785,-1.910552263259888,XArbitraryZVertical,0.2791097601181138,0.2493606495830346,-0.1564786539117567,0.9140193894172488,0.5431903600692749,-0.4321842193603516,-0.71983402967453,0,0,0,-1,-1,3322.467053375,unknown,2,2022-06-02T10:56:24.325+02:00,2022-06-02T10:17:13.754+02:00,521,1.631355,0,0,405.4342,0,0,2022-06-02T10:55:58.733+02:00,675852984.3250794,0,3.660156,101.3368,1,0.77
243,2022-06-02T10:56:25.159+02:00,1654160184.00035,53.22910234186067,10.39851788970107,36.81704,0,20,-1,-1,2.400000095367432,7.999579855010837,-9999,3323.299834125,-8.148483276367188,-15.275146484375,0.419158935546875,3323.289840125,-0.524371094293911,0.6759939068713597,0.6409364318036204,11.76619815826416,10.8088846206665,12.77997303009033,-7.067326068878174,6.797225952148438,3.814582586288452,XArbitraryZVertical,0.3686035890173545,0.2269318441143929,-0.1311904809942387,0.8918644616368263,0.5014994740486145,-0.597946286201477,-0.6252666711807251,0,0,0,-1,-1,3322.467053375,unknown,2,2022-06-02T10:56:24.325+02:00,2022-06-02T10:17:13.754+02:00,521,1.631355,0,0,405.4342,0,0,2022-06-02T10:55:58.733+02:00,675852984.3250794,0,3.660156,101.3368,1,0.77
244,2022-06-02T10:56:25.169+02:00,1654160184.00035,53.22910234186067,10.39851788970107,36.81704,0,20,-1,-1,2.400000095367432,7.999579855010837,-9999,3323.309829125,-1.68218994140625,-10.39271545410156,1.6019287109375,3323.299834125,-0.4566810595543022,0.724309642170445,0.8004568907237491,3.527819871902466,6.347404003143311,13.63201999664307,-28.34493255615234,-5.469047546386719,10.10609149932861,XArbitraryZVertical,0.4287580415100494,0.2353457685014143,-0.0604915660603441,0.8701261910146072,0.4614335298538208,-0.7176743149757385,-0.5215578079223633,0,0,0,-1,-1,3322.467053375,unknown,2,2022-06-02T10:56:24.325+02:00,2022-06-02T10:17:13.754+02:00,521,1.631355,0,0,405.4342,0,0,2022-06-02T10:55:58.733+02:00,675852984.3250794,0,3.660156,101.3368,1,0.77
245,2022-06-02T10:56:25.179+02:00,1654160184.00035,53.22910234186067,10.39851788970107,36.81704,0,20,-1,-1,2.400000095367432,7.999579855010837,-9999,3323.319823125,-2.573562622070312,-5.614227294921875,1.733322143554688,3323.309829125,-0.3113148165925752,0.6363211448363344,0.86095326430812,-4.095389366149902,-1.334067106246948,9.71603298187256,-8.535758972167969,-14.51668262481689,0.9433248043060304,XArbitraryZVertical,0.4356403818122468,0.2193958526603033,-0.0048522682259151,0.8729600498783412,0.3872753083705902,-0.7584641575813293,-0.5241658091545105,0,0,0,-1,-1,3322.467053375,unknown,2,2022-06-02T10:56:24.325+02:00,2022-06-02T10:17:13.754+02:00,521,1.631355,0,0,405.4342,0,0,2022-06-02T10:55:58.733+02:00,675852984.3250794,0,3.660156,101.3368,1,0.77
246,2022-06-02T10:56:25.189+02:00,1654160184.00035,53.22910234186067,10.39851788970107,36.81704,0,20,-1,-1,2.400000095367432,7.999579855010837,-9999,3323.329817125,-5.5986328125,-3.993270874023438,1.11334228515625,3323.319823125,-0.1849112189293736,0.5223153743689133,0.8789421841418785,-1.21981143951416,-1.524696707725525,6.118213176727295,-2.000463724136353,-9.622651100158691,2.154832363128662,XArbitraryZVertical,0.4308515689875468,0.1947179873098287,0.0286665305432737,0.8806985230947014,0.3182736337184906,-0.7700644731521606,-0.5529036521911621,0,0,0,-1,-1,3322.467053375,unknown,2,2022-06-02T10:56:24.325+02:00,2022-06-02T10:17:13.754+02:00,521,1.631355,0,0,405.4342,0,0,2022-06-02T10:55:58.733+02:00,675852984.3250794,0,3.660156,101.3368,1,0.77
247,2022-06-02T10:56:25.199+02:00,1654160184.00035,53.22910234186067,10.39851788970107,36.81704,0,20,-1,-1,2.400000095367432,7.999579855010837,-9999,3323.339812125,-5.85205078125,-5.2459716796875,1.087905883789062,3323.329817125,-0.1088761991048743,0.4571546891619919,0.9130537711127878,2.217066764831543,0.2391283065080643,6.020095825195312,-2.843402624130249,-4.822853088378906,2.281877517700195,XArbitraryZVertical,0.4397976745061773,0.1797229073523421,0.0521728249879179,0.8783823059532863,0.269839882850647,-0.7913742661476135,-0.5485553741455078,0,0,0,-1,-1,3322.467053375,unknown,2,2022-06-02T10:56:24.325+02:00,2022-06-02T10:17:13.754+02:00,521,1.631355,0,0,405.4342,0,0,2022-06-02T10:55:58.733+02:00,675852984.3250794,0,3.660156,101.3368,1,0.77
248,2022-06-02T10:56:25.209+02:00,1654160184.00035,53.22910234186067,10.39851788970107,36.81704,0,20,-1,-1,2.400000095367432,7.999579855010837,-9999,3323.349806125,-3.50360107421875,-5.289291381835938,0.5974273681640625,3323.339812125,-0.0315496645803333,0.4042858864739524,0.9610053005712874,2.590266466140747,1.300485491752625,6.329463005065918,-5.823909759521484,-3.173503160476685,1.639869689941406,XArbitraryZVertical,0.4555654568379299,0.1708696494979268,0.0790858262465093,0.8700626523622912,0.2252770662307739,-0.8197677135467529,-0.5265273451805115,0,0,0,-1,-1,3322.467053375,unknown,2,2022-06-02T10:56:24.325+02:00,2022-06-02T10:17:13.754+02:00,521,1.631355,0,0,405.4342,0,0,2022-06-02T10:55:58.733+02:00,675852984.3250794,0,3.660156,101.3368,1,0.77
249,2022-06-02T10:56:25.220+02:00,1654160184.00035,53.22910234186067,10.39851788970107,36.81704,0,20,-1,-1,2.400000095367432,7.999579855010837,-9999,3323.359800125,-3.27362060546875,-5.398162841796875,0.573394775390625,3323.349806125,0.0537318881846082,0.3443958226008424,1.004743253651088,1.988290667533875,0.9423134922981262,5.486992835998535,-6.033122539520264,-4.401947021484375,1.592718601226807,XArbitraryZVertical,0.4701790024832113,0.1628659982174163,0.1056707931200109,0.8609528897702082,0.1810715347528458,-0.8440243005752563,-0.5048127174377441,0,0,0,-1,-1,3322.467053375,unknown,2,2022-06-02T10:56:24.325+02:00,2022-06-02T10:17:13.754+02:00,521,1.631355,0,0,405.4342,0,0,2022-06-02T10:55:58.733+02:00,675852984.3250794,0,3.660156,101.3368,1,0.77
250,2022-06-02T10:56:25.229+02:00,1654160184.00035,53.22910234186067,10.39851788970107,36.81704,0,20,-1,-1,2.400000095367432,7.999579855010837,-9999,3323.369794125,-3.218780517578125,-5.501083374023438,0.42694091796875,3323.359800125,0.1260090544784113,0.2927713114230757,1.032961611217915,1.000559568405151,0.9705230593681335,3.636356592178345,-3.651447772979736,-4.430471420288086,1.087906241416931,XArbitraryZVertical,0.4795861782466078,0.157345672752097,0.1260523980527024,0.8540199435390271,0.1478467136621475,-0.8588199019432068,-0.4904788732528687,0,0,0,-1,-1,3322.467053375,unknown,2,2022-06-02T10:56:24.325+02:00,2022-06-02T10:17:13.754+02:00,521,1.631355,0,0,405.4342,0,0,2022-06-02T10:55:58.733+02:00,675852984.3250794,0,3.660156,101.3368,1,0.77
251,2022-06-02T10:56:25.239+02:00,1654160184.00035,53.22910234186067,10.39851788970107,36.81704,0,20,-1,-1,2.400000095367432,7.999579855010837,-9999,3323.379789125,-2.789596557617188,-4.023544311523438,0.4622955322265625,3323.369794125,0.1813013967455585,0.2518071934116748,1.046500255873992,0.2306718528270721,0.3033290505409241,2.498285055160522,-3.398348331451416,-4.532486438751221,1.058211326599121,XArbitraryZVertical,0.483860685151687,0.1532010627807341,0.1402834944376075,0.8501345635023512,0.1247277036309242,-0.8656765222549438,-0.4848165512084961,0,0,0,-1,-1,3322.467053375,unknown,2,2022-06-02T10:56:24.325+02:00,2022-06-02T10:17:13.754+02:00,521,1.631355,0,0,405.4342,0,0,2022-06-02T10:55:58.733+02:00,675852984.3250794,0,3.660156,101.3368,1,0.77
252,2022-06-02T10:56:25.249+02:00,1654160184.00035,53.22910234186067,10.39851788970107,36.81704,0,20,-1,-1,2.400000095367432,7.999579855010837,-9999,3323.389783125,-2.649642944335938,-2.698089599609375,0.2742462158203125,3323.379789125,0.2141167118183506,0.2256573188746435,1.055196875053499,0.8405002951622009,0.2620796263217926,1.132559537887573,-3.329100370407104,-4.631086349487305,0.9074972867965698,XArbitraryZVertical,0.4869997761614449,0.1501770121351585,0.148096489494088,0.8475526877888578,0.1103199496865273,-0.8699973225593567,-0.4805561602115631,0,0,0,-1,-1,3322.467053375,unknown,2,2022-06-02T10:56:24.325+02:00,2022-06-02T10:17:13.754+02:00,521,1.631355,0,0,405.4342,0,0,2022-06-02T10:55:58.733+02:00,675852984.3250794,0,3.660156,101.3368,1,0.77
253,2022-06-02T10:56:25.260+02:00,1654160184.00035,53.22910234186067,10.39851788970107,36.81704,0,20,-1,-1,2.400000095367432,7.999579855010837,-9999,3323.399777125,-2.687637329101562,-2.10675048828125,0.033111572265625,3323.389783125,0.2204819199915548,0.2250587200427006,1.069823084846244,1.81719970703125,0.7058185338973999,0.2308658361434937,-2.896777391433716,-3.14642858505249,0.9304625988006592,XArbitraryZVertical,0.4928375878746325,0.1517484911139889,0.1509462963175515,0.8433851479041269,0.1071808338165283,-0.8771155476570129,-0.4681670069694519,0,0,0,-1,-1,3322.467053375,unknown,2,2022-06-02T10:56:24.325+02:00,2022-06-02T10:17:13.754+02:00,521,1.631355,0,0,405.4342,0,0,2022-06-02T10:55:58.733+02:00,675852984.3250794,0,3.660156,101.3368,1,0.77
254,2022-06-02T10:56:25.269+02:00,1654160184.00035,53.22910234186067,10.39851788970107,36.81704,0,20,-1,-1,2.400000095367432,7.999579855010837,-9999,3323.409772125,-2.502700805664062,-1.586715698242188,0.0281524658203125,3323.399777125,0.2123391852284559,0.2406946204079657,1.08981198949335,2.171409130096436,0.9405055642127992,0.0389105156064033,-2.759928703308105,-1.811549663543701,0.7235612273216248,XArbitraryZVertical,0.5008111234561772,0.1566228557191357,0.1518474172502792,0.8376155751444871,0.1102857366204262,-0.8865399360656738,-0.4493150115013123,0,0,0,-1,-1,3322.467053375,unknown,2,2022-06-02T10:56:24.325+02:00,2022-06-02T10:17:13.754+02:00,521,1.631355,0,0,405.4342,0,0,2022-06-02T10:55:58.733+02:00,675852984.3250794,0,3.660156,101.3368,1,0.77
255,2022-06-02T10:56:25.279+02:00,1654160184.00035,53.22910234186067,10.39851788970107,36.81704,0,20,-1,-1,2.400000095367432,7.999579855010837,-9999,3323.419766125,-2.121795654296875,-1.631591796875,0.37371826171875,3323.409772125,0.2034873299795112,0.2587378141265006,1.109404982807041,1.727581977844238,1.089262962341309,0.1651604622602463,-2.801544904708862,-1.211316347122192,0.4634868800640106,XArbitraryZVertical,0.508449823766803,0.162145377740118,0.153213433142099,0.8316929285569524,0.1139076426625252,-0.8954339623451233,-0.4303753077983856,0,0,0,-1,-1,3322.467053375,unknown,2,2022-06-02T10:56:24.325+02:00,2022-06-02T10:17:13.754+02:00,521,1.631355,0,0,405.4342,0,0,2022-06-02T10:55:58.733+02:00,675852984.3250794,0,3.660156,101.3368,1,0.77
256,2022-06-02T10:56:25.289+02:00,1654160184.00035,53.22910234186067,10.39851788970107,36.81704,0,20,-1,-1,2.400000095367432,7.999579855010837,-9999,3323.429760125,-1.5562744140625,-2.12066650390625,0.4322662353515625,3323.419766125,0.1988204745861446,0.2744556582051048,1.122276531819075,0.8558528423309326,1.136173486709595,0.0907410904765129,-2.620225191116333,-0.6856256127357483,0.4455549120903015,XArbitraryZVertical,0.5130503127443967,0.1675654451042349,0.1556746648468113,0.8273248682860537,0.1175242513418198,-0.9010899662971495,-0.4174023866653442,0,0,0,-1,-1,3322.467053375,unknown,2,2022-06-02T10:56:24.325+02:00,2022-06-02T10:17:13.754+02:00,521,1.631355,0,0,405.4342,0,0,2022-06-02T10:55:58.733+02:00,675852984.3250794,0,3.660156,101.3368,1,0.77
257,2022-06-02T10:56:25.299+02:00,1654160184.00035,53.22910234186067,10.39851788970107,36.81704,0,20,-1,-1,2.400000095367432,7.999579855010837,-9999,3323.439755125,-1.0689697265625,-1.753250122070312,0.1542205810546875,3323.429760125,0.193982029312461,0.2876018987975351,1.125530223869663,0.0081849265843629,0.5395827293395996,-0.3780926465988159,-2.243964672088623,-0.7290957570075989,0.786726176738739,XArbitraryZVertical,0.5138009676945181,0.1717689439473261,0.1571575886892292,0.8257151646302829,0.1221690028905869,-0.902496099472046,-0.4130080044269562,0,0,0,-1,-1,3322.467053375,unknown,2,2022-06-02T10:56:24.325+02:00,2022-06-02T10:17:13.754+02:00,521,1.631355,0,0,405.4342,0,0,2022-06-02T10:55:58.733+02:00,675852984.3250794,0,3.660156,101.3368,1,0.77
258,2022-06-02T10:56:25.309+02:00,1654160184.00035,53.22910234186067,10.39851788970107,36.81704,0,20,-1,-1,2.400000095367432,7.999579855010837,-9999,3323.449749125,-1.05145263671875,-0.7598419189453125,0.061767578125,3323.439755125,0.1748154300981774,0.3050478959320039,1.123763816569209,0.269436240196228,-0.5064608454704285,-1.333941102027893,-1.686108350753784,-1.218932509422302,0.8445998430252075,XArbitraryZVertical,0.513360191299893,0.174053144634154,0.1536553099357081,0.8261699350443331,0.1298339068889618,-0.9017338752746582,-0.4123336374759674,0,0,0,-1,-1,3322.467053375,unknown,2,2022-06-02T10:56:24.325+02:00,2022-06-02T10:17:13.754+02:00,521,1.631355,0,0,405.4342,0,0,2022-06-02T10:55:58.733+02:00,675852984.3250794,0,3.660156,101.3368,1,0.77
259,2022-06-02T10:56:25.320+02:00,1654160184.00035,53.22910234186067,10.39851788970107,36.81704,0,20,-1,-1,2.400000095367432,7.999579855010837,-9999,3323.459743125,-1.399505615234375,-0.3419189453125,-0.1617431640625,3323.449749125,0.1288033434450815,0.3393189084886794,1.125785240907774,1.362413763999939,-0.8086448907852173,-2.261464834213257,-1.212248682975769,-0.850644052028656,0.5601435899734497,XArbitraryZVertical,0.5156927944798059,0.1763503645024357,0.1435621306467338,0.8260455006512244,0.1432789415121078,-0.9026058912277222,-0.4059229791164398,0,0,0,-1,-1,3322.467053375,unknown,2,2022-06-02T10:56:24.325+02:00,2022-06-02T10:17:13.754+02:00,521,1.631355,0,0,405.4342,0,0,2022-06-02T10:55:58.733+02:00,675852984.3250794,0,3.660156,101.3368,1,0.77
260,2022-06-02T10:56:25.329+02:00,1654160184.00035,53.22910234186067,10.39851788970107,36.81704,0,20,-1,-1,2.400000095367432,7.999579855010837,-9999,3323.469737125,-1.662246704101562,-0.204925537109375,-0.265411376953125,3323.459743125,0.0604318595179622,0.3939947693483132,1.132418788163577,1.890496492385864,-0.6395890116691589,-2.635249376296997,-1.214398622512817,0.1455996036529541,0.4537167549133301,XArbitraryZVertical,0.5208310055682772,0.1809984332884069,0.1299499676395135,0.8240677418821695,0.1629460006952286,-0.9054415225982666,-0.3919492661952972,0,0,0,-1,-1,3322.467053375,unknown,2,2022-06-02T10:56:24.325+02:00,2022-06-02T10:17:13.754+02:00,521,1.631355,0,0,405.4342,0,0,2022-06-02T10:55:58.733+02:00,675852984.3250794,0,3.660156,101.3368,1,0.77
261,2022-06-02T10:56:25.339+02:00,1654160184.00035,53.22910234186067,10.39851788970107,36.81704,0,20,-1,-1,2.400000095367432,7.999579855010837,-9999,3323.479732125,-1.774581909179688,0.0092926025390625,-0.360443115234375,3323.469737125,-0.0129538950248443,0.4546298774303955,1.138318450227689,1.638937473297119,-0.515058696269989,-2.469291925430298,-1.58355450630188,0.5660111308097839,0.2148057222366333,XArbitraryZVertical,0.5262787470042137,0.1864302259946883,0.1161351527822931,0.8214542248164022,0.1840488612651825,-0.9079300165176392,-0.3765489161014557,0,0,0,-1,-1,3322.467053375,unknown,2,2022-06-02T10:56:24.325+02:00,2022-06-02T10:17:13.754+02:00,521,1.631355,0,0,405.4342,0,0,2022-06-02T10:55:58.733+02:00,675852984.3250794,0,3.660156,101.3368,1,0.77
262,2022-06-02T10:56:25.349+02:00,1654160184.00035,53.22910234186067,10.39851788970107,36.81704,0,20,-1,-1,2.400000095367432,7.999579855010837,-9999,3323.489726125,-1.739425659179688,0.2147216796875,-0.390289306640625,3323.479732125,-0.074757441285874,0.507798855017565,1.139128727010128,0.8633370995521545,-0.0461679622530937,-2.030127048492432,-1.865688920021057,0.7033438682556152,0.1001812517642975,XArbitraryZVertical,0.5295168466204783,0.1918739398902752,0.1048965374622096,0.8196297192081735,0.2034422010183334,-0.9082692861557008,-0.3655925989151001,0,0,0,-1,-1,3322.467053375,unknown,2,2022-06-02T10:56:24.325+02:00,2022-06-02T10:17:13.754+02:00,521,1.631355,0,0,405.4342,0,0,2022-06-02T10:55:58.733+02:00,675852984.3250794,0,3.660156,101.3368,1,0.77
263,2022-06-02T10:56:25.359+02:00,1654160184.00035,53.22910234186067,10.39851788970107,36.81704,0,20,-1,-1,2.400000095367432,7.999579855010837,-9999,3323.499720125,-1.60198974609375,0.2282257080078125,-0.29547119140625,3323.489726125,-0.1136776257372937,0.5450378452640082,1.132567555424179,-0.2782054245471954,0.4336525797843933,-1.463844299316406,-1.994579195976257,0.9147973656654358,0.0024099349975585,XArbitraryZVertical,0.5287698517677197,0.1974231586153002,0.0979988664343145,0.8196478915941227,0.2199972569942474,-0.9055047035217284,-0.362853080034256,0,0,0,-1,-1,3322.467053375,unknown,2,2022-06-02T10:56:24.325+02:00,2022-06-02T10:17:13.754+02:00,521,1.631355,0,0,405.4342,0,0,2022-06-02T10:55:58.733+02:00,675852984.3250794,0,3.660156,101.3368,1,0.77
264,2022-06-02T10:56:25.369+02:00,1654160184.00035,53.22910234186067,10.39851788970107,36.81704,0,20,-1,-1,2.400000095367432,7.999579855010837,-9999,3323.509715125,-1.390106201171875,0.182891845703125,-0.218048095703125,3323.499720125,-0.1286421967043148,0.5650168085985829,1.120007263184391,-1.096778512001038,0.832603931427002,-0.9956751465797424,-1.972699642181396,1.114825248718262,-0.0223262906074523,XArbitraryZVertical,0.5242588016129612,0.2029068805171404,0.0954711220150862,0.821502766238256,0.2332739681005478,-0.9001036286354065,-0.3679630160331726,0,0,0,-1,-1,3322.467053375,unknown,2,2022-06-02T10:56:24.325+02:00,2022-06-02T10:17:13.754+02:00,521,1.631355,0,0,405.4342,0,0,2022-06-02T10:55:58.733+02:00,675852984.3250794,0,3.660156,101.3368,1,0.77
265,2022-06-02T10:56:25.379+02:00,1654160184.00035,53.22910234186067,10.39851788970107,36.81704,0,20,-1,-1,2.400000095367432,7.999579855010837,-9999,3323.519709125,-1.153457641601562,0.233978271484375,-0.250701904296875,3323.509715125,-0.1302348717321992,0.5752207446349408,1.104466284640505,-1.355671286582947,0.8588788509368896,-0.8372286558151245,-1.846587181091309,1.121450185775757,0.0817849040031433,XArbitraryZVertical,0.5176904329959222,0.208251282306143,0.095367303707861,0.8243378407143688,0.2445973455905914,-0.8932243585586548,-0.3772560358047485,0,0,0,-1,-1,3322.467053375,unknown,2,2022-06-02T10:56:24.325+02:00,2022-06-02T10:17:13.754+02:00,521,1.631355,0,0,405.4342,0,0,2022-06-02T10:55:58.733+02:00,675852984.3250794,0,3.660156,101.3368,1,0.77
266,2022-06-02T10:56:25.389+02:00,1654160184.00035,53.22910234186067,10.39851788970107,36.81704,0,20,-1,-1,2.400000095367432,7.999579855010837,-9999,3323.529703125,-1.024246215820312,0.376983642578125,-0.3081207275390625,3323.519709125,-0.1330079992639416,0.5849300449096244,1.090333564107089,-0.771575391292572,0.5605230331420898,-0.9611501097679138,-1.645299911499023,1.06967306137085,0.1673026084899902,XArbitraryZVertical,0.5118255086483326,0.2129772380278098,0.0947687488960545,0.8268579296610292,0.2551937103271484,-0.8867811560630798,-0.3853507041931152,0,0,0,-1,-1,3322.467053375,unknown,2,2022-06-02T10:56:24.325+02:00,2022-06-02T10:17:13.754+02:00,521,1.631355,0,0,405.4342,0,0,2022-06-02T10:55:58.733+02:00,675852984.3250794,0,3.660156,101.3368,1,0.77
267,2022-06-02T10:56:25.399+02:00,1654160184.00035,53.22910234186067,10.39851788970107,36.81704,0,20,-1,-1,2.400000095367432,7.999579855010837,-9999,3323.539698125,-0.976226806640625,0.4296875,-0.2586822509765625,3323.529703125,-0.1509040102977783,0.6051450189053412,1.082727749213282,0.4852752089500427,0.3449560701847076,-1.272453904151917,-1.420217871665955,1.117218613624573,0.1349475979804993,XArbitraryZVertical,0.5097469286397842,0.2175622173291729,0.0914453693063889,0.827322370869131,0.2667602002620697,-0.8832401633262634,-0.3856495022773743,0,0,0,-1,-1,3322.467053375,unknown,2,2022-06-02T10:56:24.325+02:00,2022-06-02T10:17:13.754+02:00,521,1.631355,0,0,405.4342,0,0,2022-06-02T10:55:58.733+02:00,675852984.3250794,0,3.660156,101.3368,1,0.77
268,2022-06-02T10:56:25.409+02:00,1654160184.00035,53.22910234186067,10.39851788970107,36.81704,0,20,-1,-1,2.400000095367432,7.999579855010837,-9999,3323.549692125,-0.946258544921875,0.1891021728515625,-0.2568817138671875,3323.539698125,-0.1868237161897451,0.6402928777719297,1.082602425605183,1.382609248161316,0.3579709231853485,-1.456372261047363,-1.304459810256958,1.260165214538574,0.0680052042007446,XArbitraryZVertical,0.5120971966214061,0.2229204148277356,0.0855663528220614,0.8250703653190489,0.280213475227356,-0.8831813931465149,-0.3761259019374847,0,0,0,-1,-1,3322.467053375,unknown,2,2022-06-02T10:56:24.325+02:00,2022-06-02T10:17:13.754+02:00,521,1.631355,0,0,405.4342,0,0,2022-06-02T10:55:58.733+02:00,675852984.3250794,0,3.660156,101.3368,1,0.77
269,2022-06-02T10:56:25.419+02:00,1654160184.00035,53.22910234186067,10.39851788970107,36.81704,0,20,-1,-1,2.400000095367432,7.999579855010837,-9999,3323.559686125,-0.9049224853515624,-0.0980987548828125,-0.1805267333984375,3323.549692125,-0.2311155990958077,0.683402381031551,1.085213546940606,1.468762159347534,0.4205740690231323,-1.462634563446045,-1.270932555198669,1.314090728759766,0.1032288074493408,XArbitraryZVertical,0.5163586279808792,0.2289502880939241,0.0788456039084575,0.8214248863329295,0.294705718755722,-0.8844031095504761,-0.3619110584259033,0,0,0,-1,-1,3322.467053375,unknown,2,2022-06-02T10:56:24.325+02:00,2022-06-02T10:17:13.754+02:00,521,1.631355,0,0,405.4342,0,0,2022-06-02T10:55:58.733+02:00,675852984.3250794,0,3.660156,101.3368,1,0.77
