,loggingTime(txt),locationTimestamp_since1970(s),locationLatitude(WGS84),locationLongitude(WGS84),locationAltitude(m),locationSpeed(m/s),locationSpeedAccuracy(m/s),locationCourse(°),locationCourseAccuracy(°),locationVerticalAccuracy(m),locationHorizontalAccuracy(m),locationFloor(Z),accelerometerTimestamp_sinceReboot(s),accelerometerAccelerationX(G),accelerometerAccelerationY(G),accelerometerAccelerationZ(G),motionTimestamp_sinceReboot(s),motionYaw(rad),motionRoll(rad),motionPitch(rad),motionRotationRateX(rad/s),motionRotationRateY(rad/s),motionRotationRateZ(rad/s),motionUserAccelerationX(G),motionUserAccelerationY(G),motionUserAccelerationZ(G),motionAttitudeReferenceFrame(txt),motionQuaternionX(R),motionQuaternionY(R),motionQuaternionZ(R),motionQuaternionW(R),motionGravityX(G),motionGravityY(G),motionGravityZ(G),motionMagneticFieldX(µT),motionMagneticFieldY(µT),motionMagneticFieldZ(µT),motionHeading(°),motionMagneticFieldCalibrationAccuracy(Z),activityTimestamp_sinceReboot(s),activity(txt),activityActivityConfidence(Z),activityActivityStartDate(txt),pedometerStartDate(txt),pedometerNumberofSteps(N),pedometerAverageActivePace(s/m),pedometerCurrentPace(s/m),pedometerCurrentCadence(steps/s),pedometerDistance(m),pedometerFloorAscended(N),pedometerFloorDescended(N),pedometerEndDate(txt),altimeterTimestamp_sinceReboot(s),altimeterReset(bool),altimeterRelativeAltitude(m),altimeterPressure(kPa),batteryState(N),batteryLevel(R)
357,2022-06-02T11:02:06.707+02:00,1654160526.61441,53.22905796575441,10.39853229659561,38.31335,0.02557389,0.4976408,176.2391252670291,115.7111921696717,3,5.999684891258127,-9999,3633.995164916667,2.273696899414062,1.038711547851562,-0.43463134765625,3633.990166916667,-3.035698564484821,0.6086400403697025,-0.7253782996138268,0.8948324918746948,3.632847785949707,2.425976753234863,1.619413137435913,0.183856189250946,-0.1008084416389465,XArbitraryZVertical,0.2618453528331159,0.3528393962138777,-0.8963623669050655,-0.0589558670007167,0.4278127253055573,0.6634185314178467,-0.6138827204704285,0,0,0,-1,-1,3631.585238875,unknown,2,2022-06-02T11:02:04.296+02:00,2022-06-02T10:17:13.754+02:00,660,1.485084,0,0,531.9442,0,0,2022-06-02T11:02:04.296+02:00,675853324.2961448,0,6.363281,101.306,1,0.76
358,2022-06-02T11:02:06.717+02:00,1654160526.61441,53.22905796575441,10.39853229659561,38.31335,0.02557389,0.4976408,176.2391252670291,115.7111921696717,3,5.999684891258127,-9999,3634.005158916667,2.477706909179688,1.44525146484375,0.034393310546875,3634.000161916667,-3.017746316644345,0.6659390136146881,-0.7054889448885612,0.5408917665481567,5.491165161132812,2.126602172851562,1.803370714187622,0.3903053402900696,0.1640027165412903,XArbitraryZVertical,0.2859332163843171,0.3448552827121411,-0.8921736800587972,-0.0578186144694571,0.4703260660171509,0.6484061479568481,-0.5986340641975403,0,0,0,-1,-1,3631.585238875,unknown,2,2022-06-02T11:02:04.296+02:00,2022-06-02T10:17:13.754+02:00,660,1.485084,0,0,531.9442,0,0,2022-06-02T11:02:04.296+02:00,675853324.2961448,0,6.363281,101.306,1,0.76
359,2022-06-02T11:02:06.727+02:00,1654160526.61441,53.22905796575441,10.39853229659561,38.31335,0.02557389,0.4976408,176.2391252670291,115.7111921696717,3,5.999684891258127,-9999,3634.015153916667,2.443008422851562,1.731796264648438,0.506744384765625,3634.010156916667,-2.995451287794592,0.7446841426125734,-0.6938758555533519,-1.160018920898438,7.385027408599854,1.968534588813782,1.956678867340088,0.8057298064231873,0.5996737480163574,XArbitraryZVertical,0.3180869251378329,0.3408525936113733,-0.8826720284486225,-0.0594169838251521,0.5210279822349548,0.6395216584205627,-0.5652804374694824,0,0,0,-1,-1,3631.585238875,unknown,2,2022-06-02T11:02:04.296+02:00,2022-06-02T10:17:13.754+02:00,660,1.485084,0,0,531.9442,0,0,2022-06-02T11:02:04.296+02:00,675853324.2961448,0,6.363281,101.306,1,0.76
360,2022-06-02T11:02:06.737+02:00,1654160526.61441,53.22905796575441,10.39853229659561,38.31335,0.02557389,0.4976408,176.2391252670291,115.7111921696717,3,5.999684891258127,-9999,3634.025148916667,2.230621337890625,2.187347412109375,0.88458251953125,3634.020151916667,-2.952454207462275,0.8558283719393659,-0.6989621239567748,-4.489432811737061,9.339638710021973,1.89268696308136,1.864960551261902,1.088372707366943,1.008607864379883,XArbitraryZVertical,0.3587289824983241,0.3469607812157738,-0.8644321810788335,-0.060735822085017,0.5780478715896606,0.6434235572814941,-0.5018634796142578,0,0,0,-1,-1,3631.585238875,unknown,2,2022-06-02T11:02:04.296+02:00,2022-06-02T10:17:13.754+02:00,660,1.485084,0,0,531.9442,0,0,2022-06-02T11:02:04.296+02:00,675853324.2961448,0,6.363281,101.306,1,0.76
361,2022-06-02T11:02:06.747+02:00,1654160526.61441,53.22905796575441,10.39853229659561,38.31335,0.02557389,0.4976408,176.2391252670291,115.7111921696717,3,5.999684891258127,-9999,3634.035143916667,1.842453002929688,2.82464599609375,1.156753540039062,3634.030146916667,-2.865971584792311,1.014601524941936,-0.7222888070340605,-8.842300415039062,11.12108325958252,2.17323637008667,1.593418478965759,1.526243686676025,1.280706763267517,XArbitraryZVertical,0.4077447356799327,0.3683505375420753,-0.8335057763806974,-0.0577065451811187,0.6372027397155762,0.6611036658287048,-0.3961242139339447,0,0,0,-1,-1,3631.585238875,unknown,2,2022-06-02T11:02:04.296+02:00,2022-06-02T10:17:13.754+02:00,660,1.485084,0,0,531.9442,0,0,2022-06-02T11:02:04.296+02:00,675853324.2961448,0,6.363281,101.306,1,0.76
362,2022-06-02T11:02:06.757+02:00,1654160526.61441,53.22905796575441,10.39853229659561,38.31335,0.02557389,0.4976408,176.2391252670291,115.7111921696717,3,5.999684891258127,-9999,3634.045138916667,1.196701049804688,3.351593017578125,1.33758544921875,3634.040141916667,-2.720652266275244,1.231379301736883,-0.7464373464706818,-12.54810047149658,12.70475482940674,2.791074991226196,1.150222182273865,2.145618200302124,1.401167035102844,XArbitraryZVertical,0.4637098021569446,0.4034432152550443,-0.7873927805251135,-0.0471104292713141,0.692230761051178,0.6790276765823364,-0.2444135844707489,0,0,0,-1,-1,3631.585238875,unknown,2,2022-06-02T11:02:04.296+02:00,2022-06-02T10:17:13.754+02:00,660,1.485084,0,0,531.9442,0,0,2022-06-02T11:02:04.296+02:00,675853324.2961448,0,6.363281,101.306,1,0.76
363,2022-06-02T11:02:06.775+02:00,1654160526.61441,53.22905796575441,10.39853229659561,38.31335,0.02557389,0.4976408,176.2391252670291,115.7111921696717,3,5.999684891258127,-9999,3634.055133916667,0.3877105712890625,3.721847534179688,1.623748779296875,3634.050135916667,-2.529495696764171,1.495886906965459,-0.7449291158069073,-14.67144393920898,14.17227840423584,3.212059497833252,0.4636267423629761,2.673673152923584,1.392602443695068,XArbitraryZVertical,0.5236815060784645,0.4452517555468555,-0.7256664002222648,-0.0302772056974985,0.7330741882324219,0.6779196858406067,-0.0550171099603176,0,0,0,-1,-1,3631.585238875,unknown,2,2022-06-02T11:02:04.296+02:00,2022-06-02T10:17:13.754+02:00,660,1.485084,0,0,531.9442,0,0,2022-06-02T11:02:04.296+02:00,675853324.2961448,0,6.363281,101.306,1,0.76
364,2022-06-02T11:02:06.778+02:00,1654160526.61441,53.22905796575441,10.39853229659561,38.31335,0.02557389,0.4976408,176.2391252670291,115.7111921696717,3,5.999684891258127,-9999,3634.065128916667,-0.4134979248046875,4.037551879882812,2.04449462890625,3634.060130916667,-2.332722987941077,1.775112050701438,-0.7040715738548383,-15.11043548583984,15.44097518920898,2.953972578048706,-0.3586483001708984,3.074521064758301,1.469097852706909,XArbitraryZVertical,0.5835834428874886,0.486575557811153,-0.6500111254121909,-0.0126523452505198,0.7463588118553162,0.6473264694213867,0.1546508222818375,0,0,0,-1,-1,3631.585238875,unknown,2,2022-06-02T11:02:04.296+02:00,2022-06-02T10:17:13.754+02:00,660,1.485084,0,0,531.9442,0,0,2022-06-02T11:02:04.296+02:00,675853324.2961448,0,6.363281,101.306,1,0.76
365,2022-06-02T11:02:06.787+02:00,1654160526.61441,53.22905796575441,10.39853229659561,38.31335,0.02557389,0.4976408,176.2391252670291,115.7111921696717,3,5.999684891258127,-9999,3634.075123916667,-1.319290161132812,4.414566040039062,2.556015014648438,3634.070125916667,-2.165537589079891,2.037839291235901,-0.6291319089072672,-14.58953380584717,16.32156944274902,2.558867454528809,-1.13544487953186,3.449108600616455,1.6804518699646,XArbitraryZVertical,0.63916539676011,0.5229617133806898,-0.5638948303289625,0.0010542800926633,0.7219468355178833,0.5884431004524231,0.364042729139328,0,0,0,-1,-1,3631.585238875,unknown,2,2022-06-02T11:02:04.296+02:00,2022-06-02T10:17:13.754+02:00,660,1.485084,0,0,531.9442,0,0,2022-06-02T11:02:04.296+02:00,675853324.2961448,0,6.363281,101.306,1,0.76
366,2022-06-02T11:02:06.797+02:00,1654160526.61441,53.22905796575441,10.39853229659561,38.31335,0.02557389,0.4976408,176.2391252670291,115.7111921696717,3,5.999684891258127,-9999,3634.085117916667,-2.266983032226562,4.25872802734375,3.373306274414062,3634.080120916667,-2.03924047066312,2.274242261377437,-0.5311120629393048,-13.82719230651855,17.00057220458984,2.070174932479858,-1.976852893829346,3.908073425292969,1.998272657394409,XArbitraryZVertical,0.6881945494623494,0.5525027928989092,-0.4701481377487295,0.0094622910000176,0.6575626730918884,0.5064924955368042,0.5577421188354492,0,0,0,-1,-1,3631.585238875,unknown,2,2022-06-02T11:02:04.296+02:00,2022-06-02T10:17:13.754+02:00,660,1.485084,0,0,531.9442,0,0,2022-06-02T11:02:04.296+02:00,675853324.2961448,0,6.363281,101.306,1,0.76
367,2022-06-02T11:02:06.808+02:00,1654160526.61441,53.22905796575441,10.39853229659561,38.31335,0.02557389,0.4976408,176.2391252670291,115.7111921696717,3,5.999684891258127,-9999,3634.095112916667,-3.0540771484375,4.023468017578125,5.203521728515625,3634.090115916667,-1.949734023497864,2.488124766466254,-0.4243223740221498,-12.61101341247559,17.46172142028809,1.10284149646759,-2.821012735366821,3.84702467918396,2.64973783493042,XArbitraryZVertical,0.7283336553585064,0.5755990861559296,-0.3716096108699,0.0110477945885498,0.5540297627449036,0.41170334815979,0.7235684394836426,0,0,0,-1,-1,3631.585238875,unknown,2,2022-06-02T11:02:04.296+02:00,2022-06-02T10:17:13.754+02:00,660,1.485084,0,0,531.9442,0,0,2022-06-02T11:02:04.296+02:00,675853324.2961448,0,6.363281,101.306,1,0.76
368,2022-06-02T11:02:06.817+02:00,1654160526.61441,53.22905796575441,10.39853229659561,38.31335,0.02557389,0.4976408,176.2391252670291,115.7111921696717,3,5.999684891258127,-9999,3634.105107916667,-3.763336181640625,4.405593872070312,8.466476440429688,3634.100110916667,-1.884518062651637,2.685466891165886,-0.3187653300571913,-11.94529914855957,17.10039901733398,-0.3887055814266205,-3.472360610961914,3.710073709487915,4.350982666015625,XArbitraryZVertical,0.7568587362933219,0.5945034754872114,-0.2714628853162513,0.0061946360744571,0.4182835817337036,0.3133943378925323,0.8525390625,0,0,0,-1,-1,3631.585238875,unknown,2,2022-06-02T11:02:04.296+02:00,2022-06-02T10:17:13.754+02:00,660,1.485084,0,0,531.9442,0,0,2022-06-02T11:02:04.296+02:00,675853324.2961448,0,6.363281,101.306,1,0.76
369,2022-06-02T11:02:06.827+02:00,1654160526.61441,53.22905796575441,10.39853229659561,38.31335,0.02557389,0.4976408,176.2391252670291,115.7111921696717,3,5.999684891258127,-9999,3634.115102916667,-4.957672119140625,3.6771240234375,11.69419860839844,3634.110105916667,-1.822370654493402,2.864219029489816,-0.2027607135151894,-14.31381034851074,15.28987407684326,-2.780528545379639,-4.031557083129883,4.204219818115234,7.524401187896729,XArbitraryZVertical,0.7700507606121767,0.6148654181671315,-0.1701076462198678,0.005072629708056,0.2682210206985474,0.2013742476701736,0.9420753121376038,0,0,0,-1,-1,3631.585238875,unknown,2,2022-06-02T11:02:04.296+02:00,2022-06-02T10:17:13.754+02:00,660,1.485084,0,0,531.9442,0,0,2022-06-02T11:02:04.296+02:00,675853324.2961448,0,6.363281,101.306,1,0.76
370,2022-06-02T11:02:06.837+02:00,1654160526.61441,53.22905796575441,10.39853229659561,38.31335,0.02557389,0.4976408,176.2391252670291,115.7111921696717,3,5.999684891258127,-9999,3634.125097916667,-6.020233154296875,2.306991577148438,14.23681640625,3634.120100916667,-1.749705184615144,3.017690745283848,-0.0573577022289641,-16.91644477844238,13.34118270874023,-5.487909317016602,-5.081054210662842,3.619797706604004,10.7034969329834,XArbitraryZVertical,0.7645236319917967,0.6409794595900399,-0.0658427660324233,0.0177113321845402,0.1233818978071213,0.0573262572288513,0.9907020926475524,0,0,0,-1,-1,3631.585238875,unknown,2,2022-06-02T11:02:04.296+02:00,2022-06-02T10:17:13.754+02:00,660,1.485084,0,0,531.9442,0,0,2022-06-02T11:02:04.296+02:00,675853324.2961448,0,6.363281,101.306,1,0.76
371,2022-06-02T11:02:06.847+02:00,1654160526.61441,53.22905796575441,10.39853229659561,38.31335,0.02557389,0.4976408,176.2391252670291,115.7111921696717,3,5.999684891258127,-9999,3634.135092916667,-5.890655517578125,1.355316162109375,15.78384399414062,3634.130094916667,-1.671140336362147,3.132558233564989,0.1087836468359663,-16.70291137695312,9.987411499023438,-8.391178131103516,-6.029213905334473,2.415560722351074,13.24276828765869,XArbitraryZVertical,0.7407393929663095,0.6695739510288651,0.0331198699519421,0.043346428263791,0.0089808935299515,-0.1085692197084427,0.994048237800598,0,0,0,-1,-1,3631.585238875,unknown,2,2022-06-02T11:02:04.296+02:00,2022-06-02T10:17:13.754+02:00,660,1.485084,0,0,531.9442,0,0,2022-06-02T11:02:04.296+02:00,675853324.2961448,0,6.363281,101.306,1,0.76
372,2022-06-02T11:02:06.857+02:00,1654160526.61441,53.22905796575441,10.39853229659561,38.31335,0.02557389,0.4976408,176.2391252670291,115.7111921696717,3,5.999684891258127,-9999,3634.145087916667,-5.543121337890625,0.39886474609375,16.45567321777344,3634.140089916667,-1.562001622313254,-3.093419323542704,0.2599369880563586,-12.62154674530029,5.091034412384033,-13.92897605895996,-5.844118595123291,1.612335920333862,14.81855869293213,XArbitraryZVertical,0.6956337537717058,0.7062125411097315,0.1088306355758945,0.0742521027118037,-0.0465369932353496,-0.2570196688175201,0.9652849435806274,0,0,0,-1,-1,3631.585238875,unknown,2,2022-06-02T11:02:04.296+02:00,2022-06-02T10:17:13.754+02:00,660,1.485084,0,0,531.9442,0,0,2022-06-02T11:02:04.296+02:00,675853324.2961448,0,6.363281,101.306,1,0.76
373,2022-06-02T11:02:06.867+02:00,1654160526.61441,53.22905796575441,10.39853229659561,38.31335,0.02557389,0.4976408,176.2391252670291,115.7111921696717,3,5.999684891258127,-9999,3634.155082916667,-7.79656982421875,1.329757690429688,16.50167846679688,3634.150084916667,-1.388989718608911,-3.139526978006172,0.3740722554770339,-9.676054954528809,-3.547162771224976,-19.50517463684082,-5.54119873046875,0.764274001121521,15.52482795715332,XArbitraryZVertical,0.6286877267408462,0.7550987133665488,0.1435272366422166,0.1182261307695158,-0.0019228258170187,-0.3654091060161591,0.9308446645736694,0,0,0,-1,-1,3634.142550916667,unknown,2,2022-06-02T11:02:06.854+02:00,2022-06-02T10:17:13.754+02:00,660,1.485084,0,0,531.9442,0,0,2022-06-02T11:02:06.854+02:00,675853326.8535149,0,6.320312,101.3061,1,0.76
374,2022-06-02T11:02:06.877+02:00,1654160526.61441,53.22905796575441,10.39853229659561,38.31335,0.02557389,0.4976408,176.2391252670291,115.7111921696717,3,5.999684891258127,-9999,3634.165077916667,-12.43559265136719,3.795166015625,13.876953125,3634.160079916667,-1.147069797627949,2.969778626871022,0.4527329747047206,-9.519973754882812,-11.25050735473633,-23.19579887390137,-7.950315475463867,1.767182469367981,15.61566352844238,XArbitraryZVertical,0.5429877561804509,0.8050910556831055,0.1424616888070232,0.1915655929170209,0.1537455916404724,-0.4374248087406158,0.8860146403312683,0,0,0,-1,-1,3634.142550916667,unknown,2,2022-06-02T11:02:06.854+02:00,2022-06-02T10:17:13.754+02:00,660,1.485084,0,0,531.9442,0,0,2022-06-02T11:02:06.854+02:00,675853326.8535149,0,6.320312,101.3061,1,0.76
375,2022-06-02T11:02:06.887+02:00,1654160526.61441,53.22905796575441,10.39853229659561,38.31335,0.02557389,0.4976408,176.2391252670291,115.7111921696717,3,5.999684891258127,-9999,3634.175071916667,-16.86386108398438,6.34130859375,9.218978881835938,3634.170074916667,-0.8566737885425916,2.688632625405287,0.457898896561228,-6.563460350036621,-19.25969314575195,-26.32312202453613,-12.82813835144043,4.23723030090332,13.07042503356934,XArbitraryZVertical,0.4405479045886993,0.8421291000932205,0.1103442897275249,0.2907926152259754,0.3925459682941437,-0.4420644342899323,0.8065277338027954,0,0,0,-1,-1,3634.142550916667,unknown,2,2022-06-02T11:02:06.854+02:00,2022-06-02T10:17:13.754+02:00,660,1.485084,0,0,531.9442,0,0,2022-06-02T11:02:06.854+02:00,675853326.8535149,0,6.320312,101.3061,1,0.76
376,2022-06-02T11:02:06.897+02:00,1654160526.61441,53.22905796575441,10.39853229659561,38.31335,0.02557389,0.4976408,176.2391252670291,115.7111921696717,3,5.999684891258127,-9999,3634.185066916667,-25.47868347167969,10.57441711425781,3.999481201171875,3634.180069916667,-0.6092433379556794,2.344222521883818,0.3052526998448899,6.541329383850098,-30.94842338562012,-28.96411514282227,-17.54630470275879,6.641842842102051,8.552682876586914,XArbitraryZVertical,0.3294996185790796,0.851221355902391,0.018577906598529,0.4080526436814728,0.6824434399604797,-0.300534188747406,0.66629558801651,0,0,0,-1,-1,3634.142550916667,unknown,2,2022-06-02T11:02:06.854+02:00,2022-06-02T10:17:13.754+02:00,660,1.485084,0,0,531.9442,0,0,2022-06-02T11:02:06.854+02:00,675853326.8535149,0,6.320312,101.3061,1,0.76
377,2022-06-02T11:02:06.907+02:00,1654160526.61441,53.22905796575441,10.39853229659561,38.31335,0.02557389,0.4976408,176.2391252670291,115.7111921696717,3,5.999684891258127,-9999,3634.195061916667,-31.82463073730469,22.54435729980469,-1.214080810546875,3634.190064916667,-0.6147912977641907,1.997858491544149,-0.0058949470283288,30.99948883056641,-35.15175628662109,-21.85168647766113,-26.38885498046875,10.56852245330811,3.585289716720581,XArbitraryZVertical,0.2529134060042291,0.8019541720041194,-0.1661174022476906,0.515081779926013,0.9101706147193908,0.0058949128724634,0.4141913652420044,0,0,0,-1,-1,3634.142550916667,unknown,2,2022-06-02T11:02:06.854+02:00,2022-06-02T10:17:13.754+02:00,660,1.485084,0,0,531.9442,0,0,2022-06-02T11:02:06.854+02:00,675853326.8535149,0,6.320312,101.3061,1,0.76
378,2022-06-02T11:02:06.917+02:00,1654160526.61441,53.22905796575441,10.39853229659561,38.31335,0.02557389,0.4976408,176.2391252670291,115.7111921696717,3,5.999684891258127,-9999,3634.205056916667,-31.21722412109375,32.16473388671875,-1.765823364257812,3634.200059916667,-0.908204586658774,1.6028083706164,-0.2384546848653337,35.30720138549805,-35.14109802246094,-8.455303192138672,-32.79583740234375,22.30815505981445,-1.245181798934937,XArbitraryZVertical,0.2385005987354301,0.6772502683702722,-0.3797889063022156,0.5832751761950661,0.9712063074111938,0.2362013161182404,0.0311009231954813,0,0,0,-1,-1,3634.142550916667,unknown,2,2022-06-02T11:02:06.854+02:00,2022-06-02T10:17:13.754+02:00,660,1.485084,0,0,531.9442,0,0,2022-06-02T11:02:06.854+02:00,675853326.8535149,0,6.320312,101.3061,1,0.76
379,2022-06-02T11:02:06.927+02:00,1654160526.61441,53.22905796575441,10.39853229659561,38.31335,0.02557389,0.4976408,176.2391252670291,115.7111921696717,3,5.999684891258127,-9999,3634.215051916667,-24.91996765136719,31.28216552734375,27.2994384765625,3634.210054916667,-1.231744482382102,1.192999073640122,-0.0797733759195519,35.032958984375,-35.02945327758789,25.70756340026855,-32.14374923706055,32.08504486083984,-1.398122549057007,XArbitraryZVertical,0.2973198155604958,0.4772321115030433,-0.4958157370794003,0.6618287261730225,0.926523506641388,0.0796887949109077,-0.3677008748054504,0,0,0,-1,-1,3634.142550916667,unknown,2,2022-06-02T11:02:06.854+02:00,2022-06-02T10:17:13.754+02:00,660,1.485084,0,0,531.9442,0,0,2022-06-02T11:02:06.854+02:00,675853326.8535149,0,6.320312,101.3061,1,0.76
380,2022-06-02T11:02:06.937+02:00,1654160526.61441,53.22905796575441,10.39853229659561,38.31335,0.02557389,0.4976408,176.2391252670291,115.7111921696717,3,5.999684891258127,-9999,3634.225046916667,-32.341064453125,-12.18362426757812,31.3699951171875,3634.220048916667,-1.462081081729467,1.006516940450629,0.2319511752471688,34.88748931884766,6.870273590087891,15.82343482971191,-25.74231338500977,31.51204299926758,27.81992340087891,XArbitraryZVertical,0.3952974489218357,0.2889594302883012,-0.5393905518355733,0.6850548324226858,0.8223455548286438,-0.2298768758773804,-0.5204847455024719,0,0,0,-1,-1,3634.142550916667,unknown,2,2022-06-02T11:02:06.854+02:00,2022-06-02T10:17:13.754+02:00,660,1.485084,0,0,531.9442,0,0,2022-06-02T11:02:06.854+02:00,675853326.8535149,0,6.320312,101.3061,1,0.76
381,2022-06-02T11:02:06.947+02:00,1654160526.61441,53.22905796575441,10.39853229659561,38.31335,0.02557389,0.4976408,176.2391252670291,115.7111921696717,3,5.999684891258127,-9999,3634.235041916667,-22.55744934082031,-31.90049743652344,13.37088012695312,3634.230043916667,-1.6836105351368,1.249243899948915,0.4838911632762773,16.82750511169434,26.48163032531738,9.201778411865234,-33.18088531494141,-11.71839714050293,31.64975166320801,XArbitraryZVertical,0.5529225132785509,0.233235623931375,-0.4940667202942082,0.6291071676477569,0.8398216366767883,-0.4652271270751953,-0.2797556817531586,0,0,0,-1,-1,3634.142550916667,unknown,2,2022-06-02T11:02:06.854+02:00,2022-06-02T10:17:13.754+02:00,660,1.485084,0,0,531.9442,0,0,2022-06-02T11:02:06.854+02:00,675853326.8535149,0,6.320312,101.3061,1,0.76
382,2022-06-02T11:02:06.957+02:00,1654160526.61441,53.22905796575441,10.39853229659561,38.31335,0.02557389,0.4976408,176.2391252670291,115.7111921696717,3,5.999684891258127,-9999,3634.245036916667,1.371261596679688,-15.10818481445312,2.151687622070312,3634.240038916667,-1.713728033673325,1.489815313933533,0.5926498701254832,-13.9778003692627,12.22147941589355,9.412416458129885,-23.38419532775879,-31.3419361114502,13.43797779083252,XArbitraryZVertical,0.6305922908601223,0.2623064372137304,-0.4017835708254667,0.6100152166676434,0.8267450928688049,-0.5585609674453735,-0.0670973882079124,0,0,0,-1,-1,3634.142550916667,unknown,2,2022-06-02T11:02:06.854+02:00,2022-06-02T10:17:13.754+02:00,660,1.485084,0,0,531.9442,0,0,2022-06-02T11:02:06.854+02:00,675853326.8535149,0,6.320312,101.3061,1,0.76
383,2022-06-02T11:02:06.967+02:00,1654160526.61441,53.22905796575441,10.39853229659561,38.31335,0.02557389,0.4976408,176.2391252670291,115.7111921696717,3,5.999684891258127,-9999,3634.255031916667,-9.517562866210938,0.753173828125,6.920501708984375,3634.250033916667,-1.362337259004168,1.394173750586049,0.5913114732207224,-34.97174835205078,4.176568508148193,-0.7999266386032104,0.5539671182632446,-14.5507345199585,2.297560214996338,XArbitraryZVertical,0.5602618662133415,0.3364079509872774,-0.3165431618777496,0.6875584615181412,0.8172944188117981,-0.5574502944946289,-0.1458726674318314,0,0,0,-1,-1,3634.142550916667,unknown,2,2022-06-02T11:02:06.854+02:00,2022-06-02T10:17:13.754+02:00,660,1.485084,0,0,531.9442,0,0,2022-06-02T11:02:06.854+02:00,675853326.8535149,0,6.320312,101.3061,1,0.76
384,2022-06-02T11:02:06.977+02:00,1654160526.61441,53.22905796575441,10.39853229659561,38.31335,0.02557389,0.4976408,176.2391252670291,115.7111921696717,3,5.999684891258127,-9999,3634.265025916667,-20.16099548339844,3.899246215820312,12.084716796875,3634.260028916667,-0.937158615701194,1.123669302995875,0.5945903416167859,-28.36114311218262,1.282404065132141,20.62163162231445,-10.26450538635254,1.313343286514282,7.27867317199707,XArbitraryZVertical,0.4512245722139411,0.3425064984131286,-0.2261930382051391,0.7924154229392555,0.7469425797462463,-0.5601694583892822,-0.3581713736057281,0,0,0,-1,-1,3634.142550916667,unknown,2,2022-06-02T11:02:06.854+02:00,2022-06-02T10:17:13.754+02:00,660,1.485084,0,0,531.9442,0,0,2022-06-02T11:02:06.854+02:00,675853326.8535149,0,6.320312,101.3061,1,0.76
385,2022-06-02T11:02:06.991+02:00,1654160526.61441,53.22905796575441,10.39853229659561,38.31335,0.02557389,0.4976408,176.2391252670291,115.7111921696717,3,5.999684891258127,-9999,3634.275020916667,-10.49543762207031,5.135971069335938,4.807632446289062,3634.270023916667,-0.6167973727566725,1.020807786546769,0.6050404415531404,-17.5905647277832,6.144576549530029,5.086099624633789,-20.86218452453613,4.46804141998291,12.51460838317871,XArbitraryZVertical,0.3892420871899149,0.3654380732673906,-0.1141406287765335,0.8378050876871085,0.7011884450912476,-0.5687953233718872,-0.4298912286758423,0,0,0,-1,-1,3634.142550916667,unknown,2,2022-06-02T11:02:06.854+02:00,2022-06-02T10:17:13.754+02:00,660,1.485084,0,0,531.9442,0,0,2022-06-02T11:02:06.854+02:00,675853326.8535149,0,6.320312,101.3061,1,0.76
386,2022-06-02T11:02:07.010+02:00,1654160526.61441,53.22905796575441,10.39853229659561,38.31335,0.02557389,0.4976408,176.2391252670291,115.7111921696717,3,5.999684891258127,-9999,3634.285015916667,-3.278701782226562,-3.102752685546875,0.487579345703125,3634.280018916667,-0.4506892671234333,0.9438107174230326,0.5804497839648806,-8.268604278564453,-3.987710475921631,7.470741271972656,-11.17260551452637,5.684370994567871,5.298245906829834,XArbitraryZVertical,0.3457718006042373,0.3676074143540648,-0.0638993964060261,0.8609433903733092,0.6771675944328308,-0.5484001040458679,-0.4906133115291595,0,0,0,-1,-1,3634.142550916667,unknown,2,2022-06-02T11:02:06.854+02:00,2022-06-02T10:17:13.754+02:00,660,1.485084,0,0,531.9442,0,0,2022-06-02T11:02:06.854+02:00,675853326.8535149,0,6.320312,101.3061,1,0.76
387,2022-06-02T11:02:07.019+02:00,1654160526.61441,53.22905796575441,10.39853229659561,38.31335,0.02557389,0.4976408,176.2391252670291,115.7111921696717,3,5.999684891258127,-9999,3634.295010916667,-8.9337158203125,4.155609130859375,1.0947265625,3634.290013916667,-0.300195892413116,0.7693644377111336,0.5949156714345153,-8.456186294555664,-12.76974296569824,10.68194675445557,-3.854860067367554,-2.542313814163208,1.082516193389893,XArbitraryZVertical,0.3222672209510152,0.3141264055112093,-0.0237697683123269,0.8926944819156223,0.5761582255363464,-0.5604389309883118,-0.5949369072914124,0,0,0,-1,-1,3634.142550916667,unknown,2,2022-06-02T11:02:06.854+02:00,2022-06-02T10:17:13.754+02:00,660,1.485084,0,0,531.9442,0,0,2022-06-02T11:02:06.854+02:00,675853326.8535149,0,6.320312,101.3061,1,0.76
388,2022-06-02T11:02:07.023+02:00,1654160526.61441,53.22905796575441,10.39853229659561,38.31335,0.02557389,0.4976408,176.2391252670291,115.7111921696717,3,5.999684891258127,-9999,3634.305005916667,-13.6884765625,7.002227783203125,-1.950637817382812,3634.300008916667,-0.1688306313474516,0.5694225730534509,0.6261595324406012,0.2989033758640289,-11.36745071411133,8.933904647827148,-9.370576858520508,4.741646289825439,1.77715802192688,XArbitraryZVertical,0.3170699989655828,0.2413522795896334,0.0092131324859511,0.9171318609154432,0.4368613064289093,-0.5860372185707092,-0.6824313998222351,0,0,0,-1,-1,3634.142550916667,unknown,2,2022-06-02T11:02:06.854+02:00,2022-06-02T10:17:13.754+02:00,660,1.485084,0,0,531.9442,0,0,2022-06-02T11:02:06.854+02:00,675853326.8535149,0,6.320312,101.3061,1,0.76
389,2022-06-02T11:02:07.028+02:00,1654160526.61441,53.22905796575441,10.39853229659561,38.31335,0.02557389,0.4976408,176.2391252670291,115.7111921696717,3,5.999684891258127,-9999,3634.315000916667,-10.66035461425781,-0.155426025390625,-2.887100219726562,3634.310002916667,-0.0988531263807073,0.4322080074644494,0.6885260784663426,4.266016483306885,-8.067465782165527,7.688971996307373,-14.01192665100098,7.637627601623535,-1.249462008476257,XArbitraryZVertical,0.3392226342045214,0.1853108474694084,0.0268552676361105,0.9218821611960912,0.3234497010707855,-0.6353997588157654,-0.7011758089065552,0,0,0,-1,-1,3634.142550916667,unknown,2,2022-06-02T11:02:06.854+02:00,2022-06-02T10:17:13.754+02:00,660,1.485084,0,0,531.9442,0,0,2022-06-02T11:02:06.854+02:00,675853326.8535149,0,6.320312,101.3061,1,0.76
390,2022-06-02T11:02:07.038+02:00,1654160526.61441,53.22905796575441,10.39853229659561,38.31335,0.02557389,0.4976408,176.2391252670291,115.7111921696717,3,5.999684891258127,-9999,3634.324995916667,-9.4368896484375,-3.237396240234375,-2.927032470703125,3634.319997916667,-0.0026088358396014,0.2963498584167977,0.7436437036753056,0.107969842851162,-6.428485870361328,9.633549690246582,-10.87529182434082,0.5215482115745544,-2.183176755905151,XArbitraryZVertical,0.3595113499888103,0.1370762328210662,0.0524351344536649,0.9215271907089853,0.2149368971586227,-0.6769741773605347,-0.7039234042167664,0,0,0,-1,-1,3634.142550916667,unknown,2,2022-06-02T11:02:06.854+02:00,2022-06-02T10:17:13.754+02:00,660,1.485084,0,0,531.9442,0,0,2022-06-02T11:02:06.854+02:00,675853326.8535149,0,6.320312,101.3061,1,0.76
391,2022-06-02T11:02:07.047+02:00,1654160526.61441,53.22905796575441,10.39853229659561,38.31335,0.02557389,0.4976408,176.2391252670291,115.7111921696717,3,5.999684891258127,-9999,3634.334990916667,-8.251251220703125,-2.184967041015625,-3.055374145507812,3634.329992916667,0.1354320120920052,0.1480532428500909,0.7339611102336618,-6.148624897003174,-4.501071453094482,9.71990203857422,-9.546422004699709,-2.567580223083496,-2.192628622055054,XArbitraryZVertical,0.3523248280756756,0.0930876195977391,0.089461461319661,0.926929572528718,0.1095323488116264,-0.6698161363601685,-0.7344038486480713,0,0,0,-1,-1,3634.142550916667,unknown,2,2022-06-02T11:02:06.854+02:00,2022-06-02T10:17:13.754+02:00,660,1.485084,0,0,531.9442,0,0,2022-06-02T11:02:06.854+02:00,675853326.8535149,0,6.320312,101.3061,1,0.76
392,2022-06-02T11:02:07.057+02:00,1654160526.61441,53.22905796575441,10.39853229659561,38.31335,0.02557389,0.4976408,176.2391252670291,115.7111921696717,3,5.999684891258127,-9999,3634.344985916667,-6.1383056640625,-0.85906982421875,-3.963165283203125,3634.339987916667,0.2645337725751397,0.0254310800838588,0.6629408022825876,-9.381430625915527,-3.51650857925415,8.647449493408203,-8.271293640136719,-1.56952953338623,-2.267443180084229,XArbitraryZVertical,0.3209795718402219,0.0548332861232045,0.1287943183752564,0.9366841844499656,0.0200422536581754,-0.615437388420105,-0.7879308462142944,0,0,0,-1,-1,3634.142550916667,unknown,2,2022-06-02T11:02:06.854+02:00,2022-06-02T10:17:13.754+02:00,660,1.485084,0,0,531.9442,0,0,2022-06-02T11:02:06.854+02:00,675853326.8535149,0,6.320312,101.3061,1,0.76
393,2022-06-02T11:02:07.067+02:00,1654160526.61441,53.22905796575441,10.39853229659561,38.31335,0.02557389,0.4976408,176.2391252670291,115.7111921696717,3,5.999684891258127,-9999,3634.354979916667,-4.513046264648438,0.3465118408203125,-4.81646728515625,3634.349982916667,0.3596548978305722,-0.067846744710899,0.5621710938070833,-10.16512680053711,-4.463510036468506,7.412379741668701,-6.080944538116455,-0.3260454535484314,-3.119011878967285,XArbitraryZVertical,0.2785968363801932,0.0175266038005438,0.162484780050598,0.9464012747107936,-0.0573610924184322,-0.5330244302749634,-0.8441532254219055,0,0,0,-1,-1,3634.142550916667,unknown,2,2022-06-02T11:02:06.854+02:00,2022-06-02T10:17:13.754+02:00,660,1.485084,0,0,531.9442,0,0,2022-06-02T11:02:06.854+02:00,675853326.8535149,0,6.320312,101.3061,1,0.76
394,2022-06-02T11:02:07.077+02:00,1654160526.61441,53.22905796575441,10.39853229659561,38.31335,0.02557389,0.4976408,176.2391252670291,115.7111921696717,3,5.999684891258127,-9999,3634.364974916667,-4.52362060546875,2.556365966796875,-4.556976318359375,3634.359977916667,0.4290174238508912,-0.1572547945481005,0.4571770610068662,-9.086615562438965,-6.586494445800781,7.061307430267334,-4.372521877288818,0.7879287004470825,-3.930237054824829,XArbitraryZVertical,0.2370104941162174,-0.0266624551938247,0.189298677474887,0.952513045002078,-0.140524223446846,-0.4414168298244476,-0.8862302899360657,0,0,0,-1,-1,3634.142550916667,unknown,2,2022-06-02T11:02:06.854+02:00,2022-06-02T10:17:13.754+02:00,660,1.485084,0,0,531.9442,0,0,2022-06-02T11:02:06.854+02:00,675853326.8535149,0,6.320312,101.3061,1,0.76
395,2022-06-02T11:02:07.087+02:00,1654160526.61441,53.22905796575441,10.39853229659561,38.31335,0.02557389,0.4976408,176.2391252670291,115.7111921696717,3,5.999684891258127,-9999,3634.374969916667,-5.523178100585938,4.347000122070312,-4.39093017578125,3634.369972916667,0.4892735374761578,-0.2526574040971317,0.3693223440951546,-5.505443096160889,-7.511305332183838,7.352482318878174,-4.29049825668335,2.917349576950073,-3.654011726379395,XArbitraryZVertical,0.2067240118822417,-0.0760457609025698,0.2137436324133101,0.9517330439733764,-0.2331224083900452,-0.3609835505485535,-0.9029644727706908,0,0,0,-1,-1,3634.142550916667,unknown,2,2022-06-02T11:02:06.854+02:00,2022-06-02T10:17:13.754+02:00,660,1.485084,0,0,531.9442,0,0,2022-06-02T11:02:06.854+02:00,675853326.8535149,0,6.320312,101.3061,1,0.76
396,2022-06-02T11:02:07.097+02:00,1654160526.61441,53.22905796575441,10.39853229659561,38.31335,0.02557389,0.4976408,176.2391252670291,115.7111921696717,3,5.999684891258127,-9999,3634.384964916667,-6.1806640625,4.206100463867188,-4.876937866210938,3634.379967916667,0.5571163843887499,-0.3519434507395162,0.3177259466523104,-0.6116898655891418,-7.771355628967285,7.821660995483398,-5.195709228515625,4.659407138824463,-3.499209403991699,XArbitraryZVertical,0.1972801668937916,-0.1233699763542935,0.2406873604996663,0.9423003106089108,-0.3274688124656677,-0.3124071359634399,-0.8917207717895508,0,0,0,-1,-1,3634.142550916667,unknown,2,2022-06-02T11:02:06.854+02:00,2022-06-02T10:17:13.754+02:00,660,1.485084,0,0,531.9442,0,0,2022-06-02T11:02:06.854+02:00,675853326.8535149,0,6.320312,101.3061,1,0.76
397,2022-06-02T11:02:07.107+02:00,1654160526.61441,53.22905796575441,10.39853229659561,38.31335,0.02557389,0.4976408,176.2391252670291,115.7111921696717,3,5.999684891258127,-9999,3634.394959916667,-6.32708740234375,1.460647583007812,-5.682296752929688,3634.389962916667,0.6387020775591098,-0.4526358318001813,0.2997089957920729,3.118393421173096,-7.382233619689941,7.861356735229492,-5.762822151184082,4.5013427734375,-4.017728805541992,XArbitraryZVertical,0.2077893398507979,-0.1649821211377022,0.270709254628384,0.9253760601256942,-0.4178420007228851,-0.2952421903610229,-0.8592090010643005,0,0,0,-1,-1,3634.142550916667,unknown,2,2022-06-02T11:02:06.854+02:00,2022-06-02T10:17:13.754+02:00,660,1.485084,0,0,531.9442,0,0,2022-06-02T11:02:06.854+02:00,675853326.8535149,0,6.320312,101.3061,1,0.76
398,2022-06-02T11:02:07.117+02:00,1654160527.000427,53.2290388323529,10.39851129757015,38.37381,0.04441223,0.7954041,171.5266499095571,87.27420437990982,3,5.999684891258127,-9999,3634.404954916667,-6.31134033203125,-1.075424194335938,-5.393402099609375,3634.399956916667,0.7280041127592766,-0.5480086100242946,0.2936874764224852,3.579820156097412,-6.366347312927246,7.627365112304688,-5.82840633392334,1.750131368637085,-4.865280151367188,XArbitraryZVertical,0.2269264976763253,-0.1999901922041212,0.3020496373208933,0.9040321622405608,-0.4986812770366669,-0.2894837856292725,-0.8170166015625,0,0,0,-1,-1,3634.142550916667,unknown,2,2022-06-02T11:02:06.854+02:00,2022-06-02T10:17:13.754+02:00,660,1.485084,0,0,531.9442,0,0,2022-06-02T11:02:06.854+02:00,675853326.8535149,0,6.320312,101.3061,1,0.76
399,2022-06-02T11:02:07.127+02:00,1654160527.000427,53.2290388323529,10.39851129757015,38.37381,0.04441223,0.7954041,171.5266499095571,87.27420437990982,3,5.999684891258127,-9999,3634.414949916667,-6.245269775390625,-1.79620361328125,-5.126434326171875,3634.409951916667,0.806788136458852,-0.6259392674207116,0.2737155913536814,1.399540662765503,-4.771821022033691,7.21515941619873,-5.747291088104248,-0.8051136136054993,-4.613158226013184,XArbitraryZVertical,0.2391127536220132,-0.2295714473600388,0.3313482408581194,0.8833630789939151,-0.5640490651130676,-0.2703105807304382,-0.7802441120147705,0,0,0,-1,-1,3634.142550916667,unknown,2,2022-06-02T11:02:06.854+02:00,2022-06-02T10:17:13.754+02:00,660,1.485084,0,0,531.9442,0,0,2022-06-02T11:02:06.854+02:00,675853326.8535149,0,6.320312,101.3061,1,0.76
400,2022-06-02T11:02:07.137+02:00,1654160527.000427,53.2290388323529,10.39851129757015,38.37381,0.04441223,0.7954041,171.5266499095571,87.27420437990982,3,5.999684891258127,-9999,3634.42494575,-5.406890869140625,-1.045913696289062,-4.46710205078125,3634.419946916667,0.8662791327261589,-0.6825234219763123,0.2337966967023783,-0.6519708633422852,-3.669201135635376,6.824600696563721,-5.63167667388916,-1.564531087875366,-4.371562480926514,XArbitraryZVertical,0.2392693580450717,-0.2555663836906756,0.3573897119578403,0.8658571732748052,-0.613592803478241,-0.2316725850105286,-0.7548720240592957,0,0,0,-1,-1,3634.142550916667,unknown,2,2022-06-02T11:02:06.854+02:00,2022-06-02T10:17:13.754+02:00,660,1.485084,0,0,531.9442,0,0,2022-06-02T11:02:06.854+02:00,675853326.8535149,0,6.320312,101.3061,1,0.76
401,2022-06-02T11:02:07.147+02:00,1654160527.000427,53.2290388323529,10.39851129757015,38.37381,0.04441223,0.7954041,171.5266499095571,87.27420437990982,3,5.999684891258127,-9999,3634.43494075,-4.95849609375,0.101318359375,-3.9052734375,3634.42994275,0.9127256873834126,-0.7272483404712535,0.1825245517450407,-1.00093674659729,-3.389716148376465,6.765350341796875,-4.753117561340332,-0.8644009828567505,-3.732504367828369,XArbitraryZVertical,0.2325436277311212,-0.2804007968312853,0.3810609084821522,0.8497595337367152,-0.6537730693817139,-0.1815127581357956,-0.7345976829528809,0,0,0,-1,-1,3634.142550916667,unknown,2,2022-06-02T11:02:06.854+02:00,2022-06-02T10:17:13.754+02:00,660,1.485084,0,0,531.9442,0,0,2022-06-02T11:02:06.854+02:00,675853326.8535149,0,6.320312,101.3061,1,0.76
402,2022-06-02T11:02:07.157+02:00,1654160527.000427,53.2290388323529,10.39851129757015,38.37381,0.04441223,0.7954041,171.5266499095571,87.27420437990982,3,5.999684891258127,-9999,3634.44493475,-4.61846923828125,0.5142669677734375,-3.70941162109375,3634.43993775,0.9599339824434212,-0.7661812807040378,0.1332455741239387,0.3056548237800598,-2.871617078781128,6.762938499450684,-4.27125358581543,0.234169989824295,-3.191096782684326,XArbitraryZVertical,0.2269850415116429,-0.3023069091891519,0.4052565339763974,0.8323793932447718,-0.6872424483299255,-0.1328516453504562,-0.7141766548156738,0,0,0,-1,-1,3634.142550916667,unknown,2,2022-06-02T11:02:06.854+02:00,2022-06-02T10:17:13.754+02:00,660,1.485084,0,0,531.9442,0,0,2022-06-02T11:02:06.854+02:00,675853326.8535149,0,6.320312,101.3061,1,0.76
403,2022-06-02T11:02:07.167+02:00,1654160527.000427,53.2290388323529,10.39851129757015,38.37381,0.04441223,0.7954041,171.5266499095571,87.27420437990982,3,5.999684891258127,-9999,3634.45492975,-3.982498168945312,0.337646484375,-3.207000732421875,3634.44993275,1.017559091609345,-0.7992068861592286,0.0952748710679452,2.362097978591919,-2.485148906707764,6.68149471282959,-3.904916763305664,0.6093977689743042,-3.015298366546631,XArbitraryZVertical,0.2276087717382953,-0.318021516024132,0.4320458353074784,0.8126456132161918,-0.7135524153709412,-0.0951307937502861,-0.6941131353378296,0,0,0,-1,-1,3634.142550916667,unknown,2,2022-06-02T11:02:06.854+02:00,2022-06-02T10:17:13.754+02:00,660,1.485084,0,0,531.9442,0,0,2022-06-02T11:02:06.854+02:00,675853326.8535149,0,6.320312,101.3061,1,0.76
404,2022-06-02T11:02:07.177+02:00,1654160527.000427,53.2290388323529,10.39851129757015,38.37381,0.04441223,0.7954041,171.5266499095571,87.27420437990982,3,5.999684891258127,-9999,3634.46492475,-3.692214965820312,-0.1781768798828125,-2.857131958007812,3634.45992775,1.087195311624733,-0.8275745586182209,0.0702996943400775,4.279726505279541,-1.9919673204422,6.492975234985352,-3.248024463653564,0.407888263463974,-2.532008647918701,XArbitraryZVertical,0.2353732164278321,-0.3272664696644004,0.461181703372502,0.7904476688151795,-0.734473705291748,-0.0702418014407157,-0.6749922037124634,0,0,0,-1,-1,3634.142550916667,unknown,2,2022-06-02T11:02:06.854+02:00,2022-06-02T10:17:13.754+02:00,660,1.485084,0,0,531.9442,0,0,2022-06-02T11:02:06.854+02:00,675853326.8535149,0,6.320312,101.3061,1,0.76
405,2022-06-02T11:02:07.187+02:00,1654160527.000427,53.2290388323529,10.39851129757015,38.37381,0.04441223,0.7954041,171.5266499095571,87.27420437990982,3,5.999684891258127,-9999,3634.47491975,-3.495071411132812,-0.6641845703125,-2.460845947265625,3634.46992275,1.167788215484751,-0.848408375414646,0.0559492522960078,5.653397083282471,-1.15852689743042,6.37304162979126,-2.943159818649292,-0.1222568452358246,-2.196988582611084,XArbitraryZVertical,0.2480828293638691,-0.3292159828631638,0.4926135697333265,0.7664226280178045,-0.7490550875663757,-0.0559200681746006,-0.6601434946060181,0,0,0,-1,-1,3634.142550916667,unknown,2,2022-06-02T11:02:06.854+02:00,2022-06-02T10:17:13.754+02:00,660,1.485084,0,0,531.9442,0,0,2022-06-02T11:02:06.854+02:00,675853326.8535149,0,6.320312,101.3061,1,0.76
406,2022-06-02T11:02:07.197+02:00,1654160527.000427,53.2290388323529,10.39851129757015,38.37381,0.04441223,0.7954041,171.5266499095571,87.27420437990982,3,5.999684891258127,-9999,3634.48491475,-3.308944702148438,-0.925506591796875,-1.998641967773438,3634.47991775,1.253176008838947,-0.8601483144373288,0.0487050522068873,6.194876194000244,-0.3235287070274353,5.886004447937012,-2.738030910491943,-0.6154987812042236,-1.809294462203979,XArbitraryZVertical,0.2623417305517995,-0.3246552984598759,0.5246032699249599,0.7420021584136731,-0.7570405006408691,-0.0486857965588569,-0.6515514850616455,0,0,0,-1,-1,3634.142550916667,unknown,2,2022-06-02T11:02:06.854+02:00,2022-06-02T10:17:13.754+02:00,660,1.485084,0,0,531.9442,0,0,2022-06-02T11:02:06.854+02:00,675853326.8535149,0,6.320312,101.3061,1,0.76
407,2022-06-02T11:02:07.207+02:00,1654160527.000427,53.2290388323529,10.39851129757015,38.37381,0.04441223,0.7954041,171.5266499095571,87.27420437990982,3,5.999684891258127,-9999,3634.49490975,-3.119125366210938,-0.8980712890625,-1.652023315429688,3634.48991175,1.337806503913268,-0.8641522534604077,0.0470863246050139,6.415694713592529,0.309772789478302,5.372982978820801,-2.549242496490479,-0.8784376382827759,-1.35007643699646,XArbitraryZVertical,0.276380840539706,-0.3151680369014541,0.5552456942505251,0.7183209901853743,-0.759702205657959,-0.047068927437067,-0.6485654711723328,0,0,0,-1,-1,3634.142550916667,unknown,2,2022-06-02T11:02:06.854+02:00,2022-06-02T10:17:13.754+02:00,660,1.485084,0,0,531.9442,0,0,2022-06-02T11:02:06.854+02:00,675853326.8535149,0,6.320312,101.3061,1,0.76
408,2022-06-02T11:02:07.217+02:00,1654160527.000427,53.2290388323529,10.39851129757015,38.37381,0.04441223,0.7954041,171.5266499095571,87.27420437990982,3,5.999684891258127,-9999,3634.50490475,-2.913192749023438,-0.7216949462890625,-1.40264892578125,3634.49990675,1.420579621910541,-0.8623342359188559,0.0505375803247938,6.622212886810303,0.8444393873214722,4.838926792144775,-2.360731363296509,-0.8475552201271057,-1.002187252044678,XArbitraryZVertical,0.2898295152575507,-0.3017960645937973,0.5841816367332299,0.6954493715076968,-0.7583939433097839,-0.0505160689353942,-0.649836003780365,0,0,0,-1,-1,3634.142550916667,unknown,2,2022-06-02T11:02:06.854+02:00,2022-06-02T10:17:13.754+02:00,660,1.485084,0,0,531.9442,0,0,2022-06-02T11:02:06.854+02:00,675853326.8535149,0,6.320312,101.3061,1,0.76
409,2022-06-02T11:02:07.227+02:00,1654160527.000427,53.2290388323529,10.39851129757015,38.37381,0.04441223,0.7954041,171.5266499095571,87.27420437990982,3,5.999684891258127,-9999,3634.51489975,-2.712860107421875,-0.43475341796875,-1.155685424804688,3634.50990175,1.501975014633319,-0.8565991903549901,0.0602432997996404,6.97855806350708,1.169003248214722,4.310386180877686,-2.158944129943848,-0.6614880561828613,-0.7488262057304382,XArbitraryZVertical,0.3033001809714991,-0.2847764873940379,0.6113001544545987,0.6732186687848348,-0.7542486190795898,-0.0602068677544593,-0.6538227200508118,0,0,0,-1,-1,3634.142550916667,unknown,2,2022-06-02T11:02:06.854+02:00,2022-06-02T10:17:13.754+02:00,660,1.485084,0,0,531.9442,0,0,2022-06-02T11:02:06.854+02:00,675853326.8535149,0,6.320312,101.3061,1,0.76
410,2022-06-02T11:02:07.237+02:00,1654160527.000427,53.2290388323529,10.39851129757015,38.37381,0.04441223,0.7954041,171.5266499095571,87.27420437990982,3,5.999684891258127,-9999,3634.52489475,-2.622116088867188,-0.2675323486328125,-0.9843597412109376,3634.51989675,1.582074444300273,-0.8487706193172218,0.0768808445875084,7.253829479217529,1.514804244041443,3.681759834289551,-1.964608430862427,-0.3579483032226562,-0.4967314004898071,XArbitraryZVertical,0.317203835676587,-0.2643950026949866,0.636399252863853,0.6515159160889205,-0.7482516765594482,-0.0768051296472549,-0.6589540243148804,0,0,0,-1,-1,3634.142550916667,unknown,2,2022-06-02T11:02:06.854+02:00,2022-06-02T10:17:13.754+02:00,660,1.485084,0,0,531.9442,0,0,2022-06-02T11:02:06.854+02:00,675853326.8535149,0,6.320312,101.3061,1,0.76
411,2022-06-02T11:02:07.247+02:00,1654160527.000427,53.2290388323529,10.39851129757015,38.37381,0.04441223,0.7954041,171.5266499095571,87.27420437990982,3,5.999684891258127,-9999,3634.53488875,-2.489227294921875,-0.115234375,-0.9217681884765624,3634.52989175,1.659978354111358,-0.8381455294267183,0.1007314914392254,7.518793106079102,1.965695738792419,3.112995147705078,-1.882480382919312,-0.1669711470603943,-0.318907618522644,XArbitraryZVertical,0.3309271338469436,-0.2403355156917716,0.659388672840657,0.630819019741432,-0.7396356463432312,-0.10056122392416,-0.6654521226882935,0,0,0,-1,-1,3634.142550916667,unknown,2,2022-06-02T11:02:06.854+02:00,2022-06-02T10:17:13.754+02:00,660,1.485084,0,0,531.9442,0,0,2022-06-02T11:02:06.854+02:00,675853326.8535149,0,6.320312,101.3061,1,0.76
412,2022-06-02T11:02:07.257+02:00,1654160527.000427,53.2290388323529,10.39851129757015,38.37381,0.04441223,0.7954041,171.5266499095571,87.27420437990982,3,5.999684891258127,-9999,3634.54488375,-2.388809204101562,0.10546875,-0.8046112060546875,3634.53988675,1.736559597728164,-0.8262342277076272,0.1312735514052389,7.862203598022461,2.170244932174683,2.575626373291016,-1.760169744491577,0.0156624615192413,-0.2499488592147827,XArbitraryZVertical,0.3445614965602447,-0.2129969638980302,0.6804925509950516,0.6106058585006165,-0.7290574312210083,-0.1308968365192413,-0.6718193292617798,0,0,0,-1,-1,3634.142550916667,unknown,2,2022-06-02T11:02:06.854+02:00,2022-06-02T10:17:13.754+02:00,660,1.485084,0,0,531.9442,0,0,2022-06-02T11:02:06.854+02:00,675853326.8535149,0,6.320312,101.3061,1,0.76
413,2022-06-02T11:02:07.267+02:00,1654160527.000427,53.2290388323529,10.39851129757015,38.37381,0.04441223,0.7954041,171.5266499095571,87.27420437990982,3,5.999684891258127,-9999,3634.55487875,-2.303497314453125,0.1779327392578125,-0.6345062255859375,3634.54988175,1.811098736676426,-0.814783441047236,0.1701407045596947,8.189776420593262,2.356291770935059,1.782961010932922,-1.671737670898438,0.2747897803783417,-0.1284908056259155,XArbitraryZVertical,0.358755554328633,-0.1823026891730743,0.6989809576934577,0.5911730634984258,-0.7170714735984802,-0.1693210303783417,-0.6761203408241272,0,0,0,-1,-1,3634.142550916667,unknown,2,2022-06-02T11:02:06.854+02:00,2022-06-02T10:17:13.754+02:00,660,1.485084,0,0,531.9442,0,0,2022-06-02T11:02:06.854+02:00,675853326.8535149,0,6.320312,101.3061,1,0.76
414,2022-06-02T11:02:07.277+02:00,1654160527.000427,53.2290388323529,10.39851129757015,38.37381,0.04441223,0.7954041,171.5266499095571,87.27420437990982,3,5.999684891258127,-9999,3634.56487375,-2.174880981445312,0.06695556640625,-0.4496002197265625,3634.55987675,1.880955968965784,-0.8038142703717237,0.2165461796484974,8.110705375671387,2.503143787384033,0.9717531204223632,-1.60030460357666,0.3927904963493347,0.0432518720626831,XArbitraryZVertical,0.3727723036506516,-0.1488682715165906,0.7142002932072158,0.5734080507606122,-0.7031927108764648,-0.2148577570915222,-0.6777580976486206,0,0,0,-1,-1,3634.142550916667,unknown,2,2022-06-02T11:02:06.854+02:00,2022-06-02T10:17:13.754+02:00,660,1.485084,0,0,531.9442,0,0,2022-06-02T11:02:06.854+02:00,675853326.8535149,0,6.320312,101.3061,1,0.76
415,2022-06-02T11:02:07.287+02:00,1654160527.000427,53.2290388323529,10.39851129757015,38.37381,0.04441223,0.7954041,171.5266499095571,87.27420437990982,3,5.999684891258127,-9999,3634.57486875,-2.027755737304688,0.046478271484375,-0.2982635498046875,3634.56987075,1.944252837399923,-0.7935504918968513,0.2675906952593024,7.782551288604736,2.58025860786438,0.3021591901779175,-1.48740291595459,0.3313642144203186,0.226759135723114,XArbitraryZVertical,0.385719259999919,-0.1141971117336872,0.7260485148275373,0.5577034625329584,-0.6874780654907227,-0.2644086480140686,-0.6763593554496765,0,0,0,-1,-1,3634.142550916667,unknown,2,2022-06-02T11:02:06.854+02:00,2022-06-02T10:17:13.754+02:00,660,1.485084,0,0,531.9442,0,0,2022-06-02T11:02:06.854+02:00,675853326.8535149,0,6.320312,101.3061,1,0.76
416,2022-06-02T11:02:07.297+02:00,1654160527.000427,53.2290388323529,10.39851129757015,38.37381,0.04441223,0.7954041,171.5266499095571,87.27420437990982,3,5.999684891258127,-9999,3634.58486375,-1.905059814453125,0.0865325927734375,-0.2001953125,3634.57986575,1.999213801017518,-0.7833234110935654,0.3206265476667125,7.157958507537842,2.647503137588501,-0.4169938862323761,-1.358078241348267,0.3616395592689514,0.3741985559463501,XArbitraryZVertical,0.3967764472364956,-0.0796076334555794,0.7346419214316774,0.5445477581705311,-0.6696775555610657,-0.3151612281799316,-0.6724621653556824,0,0,0,-1,-1,3634.142550916667,unknown,2,2022-06-02T11:02:06.854+02:00,2022-06-02T10:17:13.754+02:00,660,1.485084,0,0,531.9442,0,0,2022-06-02T11:02:06.854+02:00,675853326.8535149,0,6.320312,101.3061,1,0.76
