,loggingTime(txt),locationTimestamp_since1970(s),locationLatitude(WGS84),locationLongitude(WGS84),locationAltitude(m),locationSpeed(m/s),locationSpeedAccuracy(m/s),locationCourse(°),locationCourseAccuracy(°),locationVerticalAccuracy(m),locationHorizontalAccuracy(m),locationFloor(Z),accelerometerTimestamp_sinceReboot(s),accelerometerAccelerationX(G),accelerometerAccelerationY(G),accelerometerAccelerationZ(G),motionTimestamp_sinceReboot(s),motionYaw(rad),motionRoll(rad),motionPitch(rad),motionRotationRateX(rad/s),motionRotationRateY(rad/s),motionRotationRateZ(rad/s),motionUserAccelerationX(G),motionUserAccelerationY(G),motionUserAccelerationZ(G),motionAttitudeReferenceFrame(txt),motionQuaternionX(R),motionQuaternionY(R),motionQuaternionZ(R),motionQuaternionW(R),motionGravityX(G),motionGravityY(G),motionGravityZ(G),motionMagneticFieldX(µT),motionMagneticFieldY(µT),motionMagneticFieldZ(µT),motionHeading(°),motionMagneticFieldCalibrationAccuracy(Z),activityTimestamp_sinceReboot(s),activity(txt),activityActivityConfidence(Z),activityActivityStartDate(txt),pedometerStartDate(txt),pedometerNumberofSteps(N),pedometerAverageActivePace(s/m),pedometerCurrentPace(s/m),pedometerCurrentCadence(steps/s),pedometerDistance(m),pedometerFloorAscended(N),pedometerFloorDescended(N),pedometerEndDate(txt),altimeterTimestamp_sinceReboot(s),altimeterReset(bool),altimeterRelativeAltitude(m),altimeterPressure(kPa),batteryState(N),batteryLevel(R)
323,2022-06-02T11:03:18.667+02:00,1654160593.964612,53.22888156262182,10.39816453433297,36.08895,0,1.918238,-1,-1,1114.33447265625,23.99873956503252,-9999,3690.331882125,2.597320556640625,-1.240402221679688,-1.127105712890625,3690.321888125,-2.415624204784937,0.1890175024573669,-0.3820510389675148,7.127332210540771,8.200769424438477,0.3247579038143158,1.098144292831421,-0.6855075359344482,-1.769487142562866,XArbitraryZVertical,0.0195005386383369,0.209599757958903,-0.9201025103444402,0.3303014322782475,0.1743471920490265,0.3728244006633759,-0.9113753437995912,0,0,0,-1,-1,3690.078714125,unknown,2,2022-06-02T11:03:18.412+02:00,2022-06-02T10:17:13.754+02:00,693,1.485188,0.8367646,1.650349,555.2257,0,0,2022-06-02T11:03:18.412+02:00,675853398.412239,0,6.960938,101.2997,1,0.76
324,2022-06-02T11:03:18.677+02:00,1654160593.964612,53.22888156262182,10.39816453433297,36.08895,0,1.918238,-1,-1,1114.33447265625,23.99873956503252,-9999,3690.341877125,2.698760986328125,-1.2703857421875,-0.3824615478515625,3690.331882125,-2.430174785549907,0.2786070986110932,-0.3212378061088517,5.1014723777771,10.61914730072021,-0.2566743493080139,1.590217471122742,-1.139639616012573,-1.03294837474823,XArbitraryZVertical,0.0733292156469748,0.1961993045000398,-0.924103938082238,0.3196257503221053,0.2609483301639557,0.3157413005828857,-0.9122573137283324,0,0,0,-1,-1,3690.078714125,unknown,2,2022-06-02T11:03:18.412+02:00,2022-06-02T10:17:13.754+02:00,693,1.485188,0.8367646,1.650349,555.2257,0,0,2022-06-02T11:03:18.412+02:00,675853398.412239,0,6.960938,101.2997,1,0.76
325,2022-06-02T11:03:18.687+02:00,1654160593.964612,53.22888156262182,10.39816453433297,36.08895,0,1.918238,-1,-1,1114.33447265625,23.99873956503252,-9999,3690.351872125,2.256393432617188,-0.9855804443359376,-0.0847930908203125,3690.341877125,-2.44725118320735,0.3891580316448843,-0.2899076299832232,1.910526633262634,12.51223087310791,-0.7578240036964417,2.233743667602539,-1.526265859603882,-0.2404863834381104,XArbitraryZVertical,0.1316921319646248,0.1983621202742095,-0.9224210986310132,0.3040542276266686,0.3635768890380859,0.2858636975288391,-0.8866193294525146,0,0,0,-1,-1,3690.078714125,unknown,2,2022-06-02T11:03:18.412+02:00,2022-06-02T10:17:13.754+02:00,693,1.485188,0.8367646,1.650349,555.2257,0,0,2022-06-02T11:03:18.412+02:00,675853398.412239,0,6.960938,101.2997,1,0.76
326,2022-06-02T11:03:18.697+02:00,1654160593.964612,53.22888156262182,10.39816453433297,36.08895,0,1.918238,-1,-1,1114.33447265625,23.99873956503252,-9999,3690.361866125,2.239181518554688,-0.2351226806640625,0.1405792236328125,3690.351872125,-2.455701382586166,0.5227684133058237,-0.2884850192883306,-0.931340515613556,14.75501155853271,-0.55472332239151,2.220112562179565,-1.554885864257812,0.4481739401817322,XArbitraryZVertical,0.1941489273746495,0.2167681873466307,-0.9128221144707832,0.2864847497073346,0.4786484241485596,0.2845001816749573,-0.8306354880332947,0,0,0,-1,-1,3690.078714125,unknown,2,2022-06-02T11:03:18.412+02:00,2022-06-02T10:17:13.754+02:00,693,1.485188,0.8367646,1.650349,555.2257,0,0,2022-06-02T11:03:18.412+02:00,675853398.412239,0,6.960938,101.2997,1,0.76
327,2022-06-02T11:03:18.707+02:00,1654160593.964612,53.22888156262182,10.39816453433297,36.08895,0,1.918238,-1,-1,1114.33447265625,23.99873956503252,-9999,3690.371861125,2.861282348632812,0.7304229736328125,0.0493316650390625,3690.361866125,-2.44457284298038,0.6856686033319428,-0.3108484079214722,-3.973856210708618,17.12090110778809,-0.307030975818634,1.653548717498779,-1.291446924209595,0.6521085500717163,XArbitraryZVertical,0.2623532265332182,0.2504395483472583,-0.8922871503332812,0.2688388662376417,0.6028445959091187,0.3058664798736572,-0.7369016408920288,0,0,0,-1,-1,3690.078714125,unknown,2,2022-06-02T11:03:18.412+02:00,2022-06-02T10:17:13.754+02:00,693,1.485188,0.8367646,1.650349,555.2257,0,0,2022-06-02T11:03:18.412+02:00,675853398.412239,0,6.960938,101.2997,1,0.76
328,2022-06-02T11:03:18.717+02:00,1654160593.964612,53.22888156262182,10.39816453433297,36.08895,0,1.918238,-1,-1,1114.33447265625,23.99873956503252,-9999,3690.381856125,2.808120727539062,1.685333251953125,-0.0768890380859375,3690.371861125,-2.407795667459215,0.8765994754212535,-0.3488035869850789,-6.106442928314209,18.51507568359375,-0.120572954416275,1.516895055770874,-0.5768963694572449,0.7418221831321716,XArbitraryZVertical,0.3337835284071261,0.2965924629277659,-0.8588055396915479,0.2511460296062452,0.7222863435745239,0.3417736887931824,-0.6012429594993591,0,0,0,-1,-1,3690.078714125,unknown,2,2022-06-02T11:03:18.412+02:00,2022-06-02T10:17:13.754+02:00,693,1.485188,0.8367646,1.650349,555.2257,0,0,2022-06-02T11:03:18.412+02:00,675853398.412239,0,6.960938,101.2997,1,0.76
329,2022-06-02T11:03:18.727+02:00,1654160593.964612,53.22888156262182,10.39816453433297,36.08895,0,1.918238,-1,-1,1114.33447265625,23.99873956503252,-9999,3690.391850125,1.8001708984375,2.58099365234375,0.16949462890625,3690.381856125,-2.353978798973307,1.085468445039619,-0.3835839661107267,-5.828856945037842,19.48494148254395,-0.1384657323360443,2.041038990020752,0.3561765849590302,0.4819293022155762,XArbitraryZVertical,0.4055691279981837,0.3452750749854951,-0.8140311989166039,0.231628803639339,0.8202431797981262,0.3742463886737823,-0.4325976073741913,0,0,0,-1,-1,3690.078714125,unknown,2,2022-06-02T11:03:18.412+02:00,2022-06-02T10:17:13.754+02:00,693,1.485188,0.8367646,1.650349,555.2257,0,0,2022-06-02T11:03:18.412+02:00,675853398.412239,0,6.960938,101.2997,1,0.76
330,2022-06-02T11:03:18.737+02:00,1654160593.964612,53.22888156262182,10.39816453433297,36.08895,0,1.918238,-1,-1,1114.33447265625,23.99873956503252,-9999,3690.401845125,0.647796630859375,3.225387573242188,1.460357666015625,3690.391850125,-2.302874527318825,1.307625588412524,-0.4076069873018778,-4.850059032440186,21.0770320892334,-0.91738760471344,1.921657800674438,1.288919687271118,0.1619412899017334,XArbitraryZVertical,0.4786033319470212,0.3892603844232562,-0.7601093619110001,0.2040807123749975,0.8864628076553345,0.3964135050773621,-0.2388304024934769,0,0,0,-1,-1,3690.078714125,unknown,2,2022-06-02T11:03:18.412+02:00,2022-06-02T10:17:13.754+02:00,693,1.485188,0.8367646,1.650349,555.2257,0,0,2022-06-02T11:03:18.412+02:00,675853398.412239,0,6.960938,101.2997,1,0.76
331,2022-06-02T11:03:18.747+02:00,1654160593.964612,53.22888156262182,10.39816453433297,36.08895,0,1.918238,-1,-1,1114.33447265625,23.99873956503252,-9999,3690.411840125,-0.37652587890625,3.142532348632812,3.05279541015625,3690.401845125,-2.247838766253583,1.548983000489216,-0.4284409131667747,-6.023006439208984,22.73054695129395,-1.8097984790802,0.8907727003097534,2.165540456771851,0.1893346905708313,XArbitraryZVertical,0.5505953692298762,0.4323478564190657,-0.6941016426405657,0.1677580172051205,0.9093979597091676,0.4154531359672546,-0.0198401417583227,0,0,0,-1,-1,3690.078714125,unknown,2,2022-06-02T11:03:18.412+02:00,2022-06-02T10:17:13.754+02:00,693,1.485188,0.8367646,1.650349,555.2257,0,0,2022-06-02T11:03:18.412+02:00,675853398.412239,0,6.960938,101.2997,1,0.76
332,2022-06-02T11:03:18.757+02:00,1654160593.964612,53.22888156262182,10.39816453433297,36.08895,0,1.918238,-1,-1,1114.33447265625,23.99873956503252,-9999,3690.421834125,-1.62200927734375,3.7108154296875,4.20458984375,3690.411840125,-2.165612804743123,1.819463030054267,-0.4423070732611857,-8.553118705749512,24.38400459289551,-2.694694757461548,-0.2281713485717773,2.797361850738525,1.237929940223694,XArbitraryZVertical,0.6170821335501845,0.4800244509055839,-0.6102667003345357,0.1279085950234599,0.8759678602218628,0.4280256628990173,0.2224276661872864,0,0,0,-1,-1,3690.078714125,unknown,2,2022-06-02T11:03:18.412+02:00,2022-06-02T10:17:13.754+02:00,693,1.485188,0.8367646,1.650349,555.2257,0,0,2022-06-02T11:03:18.412+02:00,675853398.412239,0,6.960938,101.2997,1,0.76
333,2022-06-02T11:03:18.767+02:00,1654160593.964612,53.22888156262182,10.39816453433297,36.08895,0,1.918238,-1,-1,1114.33447265625,23.99873956503252,-9999,3690.431829125,-3.424667358398438,4.749984741210938,6.757614135742188,3690.421834125,-2.054949260127312,2.11686237245975,-0.4341563539128848,-10.33558464050293,25.65991592407227,-3.679718732833862,-1.151817083358765,2.721887111663818,2.581646680831909,XArbitraryZVertical,0.6739794313428356,0.5304017391966421,-0.5068428149530566,0.0868093605913534,0.7752909064292908,0.4206451773643494,0.4711485505104065,0,0,0,-1,-1,3690.078714125,unknown,2,2022-06-02T11:03:18.412+02:00,2022-06-02T10:17:13.754+02:00,693,1.485188,0.8367646,1.650349,555.2257,0,0,2022-06-02T11:03:18.412+02:00,675853398.412239,0,6.960938,101.2997,1,0.76
334,2022-06-02T11:03:18.777+02:00,1654160593.964612,53.22888156262182,10.39816453433297,36.08895,0,1.918238,-1,-1,1114.33447265625,23.99873956503252,-9999,3690.441824125,-5.01776123046875,6.057769775390625,11.77061462402344,3690.431829125,-1.936345546042511,2.423173074265104,-0.4012039305326318,-10.47120761871338,25.58455657958984,-5.398999214172363,-2.227938652038574,3.320288419723511,3.511525392532349,XArbitraryZVertical,0.7160998287967381,0.57769651545849,-0.3895374230017187,0.0415737220916907,0.6059293746948242,0.3905269503593445,0.6930644512176514,0,0,0,-1,-1,3690.078714125,unknown,2,2022-06-02T11:03:18.412+02:00,2022-06-02T10:17:13.754+02:00,693,1.485188,0.8367646,1.650349,555.2257,0,0,2022-06-02T11:03:18.412+02:00,675853398.412239,0,6.960938,101.2997,1,0.76
335,2022-06-02T11:03:18.787+02:00,1654160593.964612,53.22888156262182,10.39816453433297,36.08895,0,1.918238,-1,-1,1114.33447265625,23.99873956503252,-9999,3690.451818125,-9.020263671875,3.958450317382812,14.96852111816406,3690.441824125,-1.800693502807814,2.708895220165567,-0.3263721999305607,-17.10476493835449,20.98750114440918,-8.49701976776123,-3.821853399276733,4.429376125335693,5.897699356079102,XArbitraryZVertical,0.7334401220459678,0.6261174213330242,-0.2645556090269387,0.0072786448640196,0.3971859812736511,0.3206088542938232,0.8599148988723755,0,0,0,-1,-1,3690.078714125,unknown,2,2022-06-02T11:03:18.412+02:00,2022-06-02T10:17:13.754+02:00,693,1.485188,0.8367646,1.650349,555.2257,0,0,2022-06-02T11:03:18.412+02:00,675853398.412239,0,6.960938,101.2997,1,0.76
336,2022-06-02T11:03:18.797+02:00,1654160593.964612,53.22888156262182,10.39816453433297,36.08895,0,1.918238,-1,-1,1114.33447265625,23.99873956503252,-9999,3690.461813125,-13.77590942382812,1.812408447265625,19.49246215820312,3690.451818125,-1.637446789140585,2.955784266484873,-0.1613035587659613,-23.81019592285156,20.8815746307373,-9.974913597106934,-5.200104236602783,5.897164821624756,10.80058479309082,XArbitraryZVertical,0.7196555212450736,0.6834549331959329,-0.1223282937225679,0.0045902322473351,0.1823429018259048,0.1606049835681915,0.9700294137001038,0,0,0,-1,-1,3690.078714125,unknown,2,2022-06-02T11:03:18.412+02:00,2022-06-02T10:17:13.754+02:00,693,1.485188,0.8367646,1.650349,555.2257,0,0,2022-06-02T11:03:18.412+02:00,675853398.412239,0,6.960938,101.2997,1,0.76
337,2022-06-02T11:03:18.807+02:00,1654160593.964612,53.22888156262182,10.39816453433297,36.08895,0,1.918238,-1,-1,1114.33447265625,23.99873956503252,-9999,3690.471807125,-7.26226806640625,0.812530517578125,19.19662475585938,3690.461813125,-1.511043283380185,3.139516647968314,0.0672913466619387,-23.04812240600586,14.21307849884033,-13.59871673583984,-9.022335052490234,4.025691032409668,13.97078609466553,XArbitraryZVertical,0.6853054591458003,0.7274776107057145,0.023775199132693,0.0238205632704583,0.0020713054109364,-0.0672405734658241,0.9977344870567322,0,0,0,-1,-1,3690.078714125,unknown,2,2022-06-02T11:03:18.412+02:00,2022-06-02T10:17:13.754+02:00,693,1.485188,0.8367646,1.650349,555.2257,0,0,2022-06-02T11:03:18.412+02:00,675853398.412239,0,6.960938,101.2997,1,0.76
338,2022-06-02T11:03:18.817+02:00,1654160593.964612,53.22888156262182,10.39816453433297,36.08895,0,1.918238,-1,-1,1114.33447265625,23.99873956503252,-9999,3690.481802166667,-11.11915588378906,-0.2230377197265625,17.96812438964844,3690.471807125,-1.351490409876541,-3.069046600673216,0.2750221394913301,-15.73129558563232,5.47417163848877,-18.95201683044434,-13.70615100860596,2.083976745605469,18.53257369995117,XArbitraryZVertical,0.6152883191130187,0.7754766781849814,0.1293525289706647,0.0576546826324945,-0.0697584748268127,-0.271568238735199,0.9598875641822816,0,0,0,-1,-1,3690.078714125,unknown,2,2022-06-02T11:03:18.412+02:00,2022-06-02T10:17:13.754+02:00,693,1.485188,0.8367646,1.650349,555.2257,0,0,2022-06-02T11:03:18.412+02:00,675853398.412239,0,6.960938,101.2997,1,0.76
339,2022-06-02T11:03:18.827+02:00,1654160593.964612,53.22888156262182,10.39816453433297,36.08895,0,1.918238,-1,-1,1114.33447265625,23.99873956503252,-9999,3690.491797166667,-14.10659790039062,1.51934814453125,15.48403930664062,3690.481802166667,-1.123538131539773,3.138261362286421,0.4088332251738088,-9.963940620422363,-4.874145984649658,-25.11399078369141,-7.26532506942749,1.210069537162781,18.27904510498047,XArbitraryZVertical,0.5218789473396018,0.8285121413986622,0.1709293098707614,0.1095129118520402,0.0030567375943064,-0.3975389897823334,0.9175800085067748,0,0,0,-1,-1,3690.078714125,unknown,2,2022-06-02T11:03:18.412+02:00,2022-06-02T10:17:13.754+02:00,693,1.485188,0.8367646,1.650349,555.2257,0,0,2022-06-02T11:03:18.412+02:00,675853398.412239,0,6.960938,101.2997,1,0.76
340,2022-06-02T11:03:18.837+02:00,1654160593.964612,53.22888156262182,10.39816453433297,36.08895,0,1.918238,-1,-1,1114.33447265625,23.99873956503252,-9999,3690.501791166667,-19.01434326171875,6.449356079101562,10.36207580566406,3690.491797166667,-0.822737784876863,2.90743011210628,0.4568942018891826,-5.595133304595947,-15.50687313079834,-27.89765930175781,-11.32738494873047,0.2181253731250763,17.09518814086914,XArbitraryZVertical,0.4110565469737983,0.8760707840902839,0.1606549733988197,0.1942223719316538,0.2082285284996033,-0.4411630034446716,0.8729349970817566,0,0,0,-1,-1,3690.078714125,unknown,2,2022-06-02T11:03:18.412+02:00,2022-06-02T10:17:13.754+02:00,693,1.485188,0.8367646,1.650349,555.2257,0,0,2022-06-02T11:03:18.412+02:00,675853398.412239,0,6.960938,101.2997,1,0.76
341,2022-06-02T11:03:18.847+02:00,1654160593.964612,53.22888156262182,10.39816453433297,36.08895,0,1.918238,-1,-1,1114.33447265625,23.99873956503252,-9999,3690.511786166667,-28.20172119140625,14.20036315917969,2.048583984375,3690.501791166667,-0.5221088685712573,2.571767793895891,0.3515639737792818,5.168490886688232,-27.19179344177246,-31.34959602355957,-14.61308479309082,1.863714694976807,14.69354438781738,XArbitraryZVertical,0.2913657139312691,0.9001963049439032,0.0907149018849565,0.3106818924899177,0.5064869523048401,-0.3443665504455566,0.7904947400093079,0,0,0,-1,-1,3690.078714125,unknown,2,2022-06-02T11:03:18.412+02:00,2022-06-02T10:17:13.754+02:00,693,1.485188,0.8367646,1.650349,555.2257,0,0,2022-06-02T11:03:18.412+02:00,675853398.412239,0,6.960938,101.2997,1,0.76
342,2022-06-02T11:03:18.857+02:00,1654160593.964612,53.22888156262182,10.39816453433297,36.08895,0,1.918238,-1,-1,1114.33447265625,23.99873956503252,-9999,3690.521781166667,-30.74066162109375,26.04942321777344,-1.625625610351562,3690.511786166667,-0.4102919519074149,2.217702262922565,0.0452042009302725,26.01111030578613,-35.10419845581055,-26.14470863342285,-19.81148147583008,6.494544982910156,9.759971618652344,XArbitraryZVertical,0.1921735753062761,0.8741404658254024,-0.0709612364084117,0.4403544648100621,0.7971370816230774,-0.0451888069510459,0.6021044850349426,0,0,0,-1,-1,3690.078714125,unknown,2,2022-06-02T11:03:18.412+02:00,2022-06-02T10:17:13.754+02:00,693,1.485188,0.8367646,1.650349,555.2257,0,0,2022-06-02T11:03:18.412+02:00,675853398.412239,0,6.960938,101.2997,1,0.76
343,2022-06-02T11:03:18.867+02:00,1654160593.964612,53.22888156262182,10.39816453433297,36.08895,0,1.918238,-1,-1,1114.33447265625,23.99873956503252,-9999,3690.531775166667,-30.48664855957031,31.690185546875,8.095718383789062,3690.521781166667,-0.6078517493569748,1.834467248920772,-0.287024923487455,35.34583282470703,-35.154296875,-16.33315658569336,-29.12766456604004,13.91726303100586,1.798619747161865,XArbitraryZVertical,0.1521798658961203,0.775772756469638,-0.2884333483536708,0.5402073115293534,0.9259437322616576,0.2831001281738281,0.2499641627073288,0,0,0,-1,-1,3690.078714125,unknown,2,2022-06-02T11:03:18.412+02:00,2022-06-02T10:17:13.754+02:00,693,1.485188,0.8367646,1.650349,555.2257,0,0,2022-06-02T11:03:18.412+02:00,675853398.412239,0,6.960938,101.2997,1,0.76
344,2022-06-02T11:03:18.877+02:00,1654160593.964612,53.22888156262182,10.39816453433297,36.08895,0,1.918238,-1,-1,1114.33447265625,23.99873956503252,-9999,3690.541770166667,-29.99937438964844,30.47659301757812,31.28172302246094,3690.531775166667,-0.9662233928600582,1.367168817737009,-0.3046069203302656,35.11065673828125,-35.09645080566406,16.49794387817383,-31.67491722106934,25.74950408935547,-1.432711720466614,XArbitraryZVertical,0.1858292742581315,0.6074624013798483,-0.4408463930538859,0.6341223789813408,0.9342553615570068,0.2999182045459747,-0.192913830280304,0,0,0,-1,-1,3690.078714125,unknown,2,2022-06-02T11:03:18.412+02:00,2022-06-02T10:17:13.754+02:00,693,1.485188,0.8367646,1.650349,555.2257,0,0,2022-06-02T11:03:18.412+02:00,675853398.412239,0,6.960938,101.2997,1,0.76
345,2022-06-02T11:03:18.887+02:00,1654160593.964612,53.22888156262182,10.39816453433297,36.08895,0,1.918238,-1,-1,1114.33447265625,23.99873956503252,-9999,3690.551765166667,-32.34083557128906,-12.30146789550781,31.22824096679688,3690.541770166667,-1.21760712778546,1.008831373747097,0.0073346014412848,35.03826522827148,-21.30296325683594,16.09921836853027,-31.33283615112305,31.69751930236816,8.628554344177246,XArbitraryZVertical,0.2790222890952913,0.3946248181883128,-0.4992046403814269,0.7191748334493555,0.8461869359016418,-0.0073345354758203,-0.5328356027603149,0,0,0,-1,-1,3690.078714125,unknown,2,2022-06-02T11:03:18.412+02:00,2022-06-02T10:17:13.754+02:00,693,1.485188,0.8367646,1.650349,555.2257,0,0,2022-06-02T11:03:18.412+02:00,675853398.412239,0,6.960938,101.2997,1,0.76
346,2022-06-02T11:03:18.897+02:00,1654160593.964612,53.22888156262182,10.39816453433297,36.08895,0,1.918238,-1,-1,1114.33447265625,23.99873956503252,-9999,3690.561759166667,-23.48921203613281,-28.42115783691406,11.45645141601562,3690.551765166667,-1.414383532433027,1.031311899539611,0.351105022258787,34.84257507324219,11.08523845672607,18.59281349182129,-30.80500602722168,30.82052803039551,31.76407814025879,XArbitraryZVertical,0.4309522174116928,0.2703752031709222,-0.4910641365444889,0.7071303179343911,0.8056313395500183,-0.343935638666153,-0.4823548793792725,0,0,0,-1,-1,3690.078714125,unknown,2,2022-06-02T11:03:18.412+02:00,2022-06-02T10:17:13.754+02:00,693,1.485188,0.8367646,1.650349,555.2257,0,0,2022-06-02T11:03:18.412+02:00,675853398.412239,0,6.960938,101.2997,1,0.76
347,2022-06-02T11:03:18.907+02:00,1654160593.964612,53.22888156262182,10.39816453433297,36.08895,0,1.918238,-1,-1,1114.33447265625,23.99873956503252,-9999,3690.571754166667,-3.478805541992188,-12.001708984375,-0.148590087890625,3690.561759166667,-1.579409115885808,1.290251039199188,0.5861498684144925,12.26760101318359,23.42740058898926,13.29433536529541,-33.14134216308594,-11.74831008911133,31.45890235900879,XArbitraryZVertical,0.5713231597601423,0.2413687815449635,-0.4209244092975163,0.6619315941628877,0.8005069494247437,-0.5531576871871948,-0.2306619137525558,0,0,0,-1,-1,3690.078714125,unknown,2,2022-06-02T11:03:18.412+02:00,2022-06-02T10:17:13.754+02:00,693,1.485188,0.8367646,1.650349,555.2257,0,0,2022-06-02T11:03:18.412+02:00,675853398.412239,0,6.960938,101.2997,1,0.76
348,2022-06-02T11:03:18.917+02:00,1654160593.964612,53.22888156262182,10.39816453433297,36.08895,0,1.918238,-1,-1,1114.33447265625,23.99873956503252,-9999,3690.581749166667,-7.024658203125,-3.357666015625,1.278839111328125,3690.571754166667,-1.534003133273344,1.442868841648854,0.6809278213616112,-17.15153121948242,14.4031982421875,4.128166675567627,-24.25985145568848,-27.7916431427002,11.55557918548584,XArbitraryZVertical,0.6125626172479404,0.2742323372721426,-0.33237977553615,0.6626365569828534,0.7706395983695984,-0.629514217376709,-0.0991273298859596,0,0,0,-1,-1,3690.078714125,unknown,2,2022-06-02T11:03:18.412+02:00,2022-06-02T10:17:13.754+02:00,693,1.485188,0.8367646,1.650349,555.2257,0,0,2022-06-02T11:03:18.412+02:00,675853398.412239,0,6.960938,101.2997,1,0.76
349,2022-06-02T11:03:18.927+02:00,1654160593.964612,53.22888156262182,10.39816453433297,36.08895,0,1.918238,-1,-1,1114.33447265625,23.99873956503252,-9999,3690.591743166667,-20.42681884765625,0.5500335693359375,8.288650512695312,3690.581749166667,-1.19943181473328,1.333167869518732,0.6385021198558822,-31.99567794799805,1.764571189880371,1.845658421516418,-4.259230136871338,-11.40571594238281,0.0404322296380996,XArbitraryZVertical,0.5349687086516062,0.3453943948404589,-0.2609811964432995,0.7255342236111955,0.7804244756698608,-0.5959933400154114,-0.1890223920345306,0,0,0,-1,-1,3690.078714125,unknown,2,2022-06-02T11:03:18.412+02:00,2022-06-02T10:17:13.754+02:00,693,1.485188,0.8367646,1.650349,555.2257,0,0,2022-06-02T11:03:18.412+02:00,675853398.412239,0,6.960938,101.2997,1,0.76
350,2022-06-02T11:03:18.937+02:00,1654160593.964612,53.22888156262182,10.39816453433297,36.08895,0,1.918238,-1,-1,1114.33447265625,23.99873956503252,-9999,3690.601738166667,-17.85202026367188,4.954925537109375,7.905364990234375,3690.591743166667,-0.832101925448602,1.159424808492776,0.6536035704487286,-21.74543762207031,15.40503215789795,13.91479110717773,-7.752323627471924,-2.749614715576172,1.596292495727539,XArbitraryZVertical,0.4553274930287038,0.3659920431991779,-0.159379921198802,0.7958170671623988,0.7276655435562134,-0.6080512404441833,-0.3174533843994141,0,0,0,-1,-1,3690.078714125,unknown,2,2022-06-02T11:03:18.412+02:00,2022-06-02T10:17:13.754+02:00,693,1.485188,0.8367646,1.650349,555.2257,0,0,2022-06-02T11:03:18.412+02:00,675853398.412239,0,6.960938,101.2997,1,0.76
351,2022-06-02T11:03:18.947+02:00,1654160593.964612,53.22888156262182,10.39816453433297,36.08895,0,1.918238,-1,-1,1114.33447265625,23.99873956503252,-9999,3690.611733166667,-4.11004638671875,-1.22900390625,2.259918212890625,3690.601738166667,-0.5732434982512283,1.16275271779555,0.6486633944093564,-16.66817474365234,15.00849056243896,4.527148723602295,-21.15828514099121,1.154155373573303,8.60486888885498,XArbitraryZVertical,0.4026192204872551,0.4240149465153299,-0.0560788936307444,0.8092986628759603,0.7314663529396057,-0.6041218042373657,-0.3162181675434113,0,0,0,-1,-1,3690.078714125,unknown,2,2022-06-02T11:03:18.412+02:00,2022-06-02T10:17:13.754+02:00,693,1.485188,0.8367646,1.650349,555.2257,0,0,2022-06-02T11:03:18.412+02:00,675853398.412239,0,6.960938,101.2997,1,0.76
352,2022-06-02T11:03:18.957+02:00,1654160593.964612,53.22888156262182,10.39816453433297,36.08895,0,1.918238,-1,-1,1114.33447265625,23.99873956503252,-9999,3690.621727166667,-4.1856689453125,-0.2034149169921875,3.073928833007812,3690.611733166667,-0.3562172571054155,1.135504934046155,0.6330802652789036,-16.8697395324707,4.637921333312988,7.184480667114258,-18.58304786682129,5.54655647277832,8.245323181152344,XArbitraryZVertical,0.3488295728920153,0.4564416923218743,0.0227878739912317,0.8182050362066513,0.7310276031494141,-0.5916308760643005,-0.3399578332901001,0,0,0,-1,-1,3690.078714125,unknown,2,2022-06-02T11:03:18.412+02:00,2022-06-02T10:17:13.754+02:00,693,1.485188,0.8367646,1.650349,555.2257,0,0,2022-06-02T11:03:18.412+02:00,675853398.412239,0,6.960938,101.2997,1,0.76
353,2022-06-02T11:03:18.967+02:00,1654160593.964612,53.22888156262182,10.39816453433297,36.08895,0,1.918238,-1,-1,1114.33447265625,23.99873956503252,-9999,3690.631722166667,-5.838043212890625,5.75128173828125,2.369247436523438,3690.621727166667,-0.1216215399100402,0.9983461517939988,0.6263954953589239,-16.48471450805664,-3.709311723709106,9.525069236755373,-4.791035652160645,-0.6427754759788513,2.698768615722656,XArbitraryZVertical,0.2976842639122284,0.4381310738999583,0.0964539341684494,0.8426872485963052,0.6809893250465393,-0.5862283706665039,-0.4388504922389984,0,0,0,-1,-1,3690.078714125,unknown,2,2022-06-02T11:03:18.412+02:00,2022-06-02T10:17:13.754+02:00,693,1.485188,0.8367646,1.650349,555.2257,0,0,2022-06-02T11:03:18.412+02:00,675853398.412239,0,6.960938,101.2997,1,0.76
354,2022-06-02T11:03:18.977+02:00,1654160593.964612,53.22888156262182,10.39816453433297,36.08895,0,1.918238,-1,-1,1114.33447265625,23.99873956503252,-9999,3690.641717166667,-7.94097900390625,6.262741088867188,-0.4933013916015625,3690.631722166667,0.0851524209869134,0.818083007374881,0.6200360315938831,-10.04459667205811,-7.534823894500732,9.743293762207031,-4.779652118682861,0.3776495456695557,3.63029932975769,XArbitraryZVertical,0.2635324385060222,0.3903401004428833,0.1584181698915712,0.8678069375371942,0.5939830541610718,-0.5810644626617432,-0.5563704967498779,0,0,0,-1,-1,3690.078714125,unknown,2,2022-06-02T11:03:18.412+02:00,2022-06-02T10:17:13.754+02:00,693,1.485188,0.8367646,1.650349,555.2257,0,0,2022-06-02T11:03:18.412+02:00,675853398.412239,0,6.960938,101.2997,1,0.76
355,2022-06-02T11:03:18.987+02:00,1654160593.964612,53.22888156262182,10.39816453433297,36.08895,0,1.918238,-1,-1,1114.33447265625,23.99873956503252,-9999,3690.651711166667,-8.383987426757812,1.828948974609375,-1.562332153320312,3690.641717166667,0.2134582833020651,0.6616129825005389,0.6358797797596493,-2.336185693740845,-8.759966850280762,7.892135620117188,-6.332350730895996,6.34516716003418,3.00403881072998,XArbitraryZVertical,0.2611121460537834,0.338267291564307,0.1966612782552734,0.882451125976736,0.4943073987960815,-0.5938855409622192,-0.634791374206543,0,0,0,-1,-1,3690.078714125,unknown,2,2022-06-02T11:03:18.412+02:00,2022-06-02T10:17:13.754+02:00,693,1.485188,0.8367646,1.650349,555.2257,0,0,2022-06-02T11:03:18.412+02:00,675853398.412239,0,6.960938,101.2997,1,0.76
356,2022-06-02T11:03:18.997+02:00,1654160593.964612,53.22888156262182,10.39816453433297,36.08895,0,1.918238,-1,-1,1114.33447265625,23.99873956503252,-9999,3690.661706166667,-9.286880493164062,-0.7205047607421875,-2.246429443359375,3690.651711166667,0.308178122082216,0.5148295626801664,0.6715171242743756,-0.903523564338684,-8.882765769958496,8.841245651245117,-8.326457977294922,6.884915351867676,0.1880978941917419,XArbitraryZVertical,0.2779628543785674,0.2864210723125453,0.223022269064398,0.8893596106587287,0.3854788541793823,-0.6221744418144226,-0.6813992261886597,0,0,0,-1,-1,3690.078714125,unknown,2,2022-06-02T11:03:18.412+02:00,2022-06-02T10:17:13.754+02:00,693,1.485188,0.8367646,1.650349,555.2257,0,0,2022-06-02T11:03:18.412+02:00,675853398.412239,0,6.960938,101.2997,1,0.76
357,2022-06-02T11:03:19.007+02:00,1654160593.964612,53.22888156262182,10.39816453433297,36.08895,0,1.918238,-1,-1,1114.33447265625,23.99873956503252,-9999,3690.671701166667,-8.716049194335938,-0.110443115234375,-3.075241088867188,3690.661706166667,0.4304431477143649,0.353320062823351,0.6877355615823713,-4.39037561416626,-7.882311820983887,9.688536643981934,-8.651348114013672,2.463738203048706,-0.8373761773109436,XArbitraryZVertical,0.2888920144724865,0.232515485660902,0.2558134837881802,0.8927694327725516,0.2673604786396027,-0.6347891092300415,-0.7249559164047241,0,0,0,-1,-1,3690.078714125,unknown,2,2022-06-02T11:03:18.412+02:00,2022-06-02T10:17:13.754+02:00,693,1.485188,0.8367646,1.650349,555.2257,0,0,2022-06-02T11:03:18.412+02:00,675853398.412239,0,6.960938,101.2997,1,0.76
358,2022-06-02T11:03:19.024+02:00,1654160593.964612,53.22888156262182,10.39816453433297,36.08895,0,1.918238,-1,-1,1114.33447265625,23.99873956503252,-9999,3690.681695166667,-7.375686645507812,0.5488433837890625,-4.2418212890625,3690.671701166667,0.5683435263540088,0.1928648323929705,0.6563100535048717,-7.163351535797119,-7.083481788635254,9.309775352478027,-9.438732147216797,-0.1103070974349976,-1.468869209289551,XArbitraryZVertical,0.2823800307525454,0.1774299919648431,0.2939561221781619,0.8957510015455147,0.1518515050411224,-0.6101976633071899,-0.7775602340698242,0,0,0,-1,-1,3690.078714125,unknown,2,2022-06-02T11:03:18.412+02:00,2022-06-02T10:17:13.754+02:00,693,1.485188,0.8367646,1.650349,555.2257,0,0,2022-06-02T11:03:18.412+02:00,675853398.412239,0,6.960938,101.2997,1,0.76
359,2022-06-02T11:03:19.035+02:00,1654160593.964612,53.22888156262182,10.39816453433297,36.08895,0,1.918238,-1,-1,1114.33447265625,23.99873956503252,-9999,3690.691690166667,-6.472946166992188,0.3334197998046875,-4.487808227539062,3690.681695166667,0.6858271601279746,0.0544576985666572,0.5913314587824424,-7.941555500030518,-6.866917133331299,8.000271797180176,-8.761237144470215,0.4470238089561462,-2.246272563934326,XArbitraryZVertical,0.2655539308392258,0.1224618427581162,0.3289945977640103,0.8979123784590742,0.0451883934438228,-0.5574668645858765,-0.8289684057235718,0,0,0,-1,-1,3690.078714125,unknown,2,2022-06-02T11:03:18.412+02:00,2022-06-02T10:17:13.754+02:00,693,1.485188,0.8367646,1.650349,555.2257,0,0,2022-06-02T11:03:18.412+02:00,675853398.412239,0,6.960938,101.2997,1,0.76
360,2022-06-02T11:03:19.037+02:00,1654160593.964612,53.22888156262182,10.39816453433297,36.08895,0,1.918238,-1,-1,1114.33447265625,23.99873956503252,-9999,3690.701685166667,-6.302032470703125,1.016769409179688,-3.790390014648438,3690.691690166667,0.7726609562223358,-0.0601960517164384,0.5108462074653976,-8.144427299499512,-6.956338405609131,6.948508262634277,-7.323207378387451,1.037758946418762,-3.371070146560669,XArbitraryZVertical,0.2448987316958865,0.0681840120450878,0.3573594274966058,0.8987045234223898,-0.0524791814386844,-0.4889155924320221,-0.8707510828971863,0,0,0,-1,-1,3690.078714125,unknown,2,2022-06-02T11:03:18.412+02:00,2022-06-02T10:17:13.754+02:00,693,1.485188,0.8367646,1.650349,555.2257,0,0,2022-06-02T11:03:18.412+02:00,675853398.412239,0,6.960938,101.2997,1,0.76
361,2022-06-02T11:03:19.047+02:00,1654160593.964612,53.22888156262182,10.39816453433297,36.08895,0,1.918238,-1,-1,1114.33447265625,23.99873956503252,-9999,3690.711679166667,-6.5631103515625,2.134658813476562,-3.37774658203125,3690.701685166667,0.8362887724748588,-0.1579553857290787,0.4228603404742629,-8.025408744812012,-6.815962314605713,6.30854320526123,-6.329502105712891,0.7437903881072998,-3.587241888046265,XArbitraryZVertical,0.2225034791445991,0.0144578545297786,0.380655077057206,0.8974322935786178,-0.1434442698955536,-0.4103705286979675,-0.9005663394927979,0,0,0,-1,-1,3690.078714125,unknown,2,2022-06-02T11:03:18.412+02:00,2022-06-02T10:17:13.754+02:00,693,1.485188,0.8367646,1.650349,555.2257,0,0,2022-06-02T11:03:18.412+02:00,675853398.412239,0,6.960938,101.2997,1,0.76
362,2022-06-02T11:03:19.056+02:00,1654160593.964612,53.22888156262182,10.39816453433297,36.08895,0,1.918238,-1,-1,1114.33447265625,23.99873956503252,-9999,3690.721674166667,-6.871719360351562,2.921707153320312,-3.332489013671875,3690.711679166667,0.8848512985142338,-0.2436475866022311,0.3383914861945878,-6.511887550354004,-6.812595844268799,5.956416130065918,-6.074469566345215,1.348739624023438,-2.874960660934448,XArbitraryZVertical,0.2023334834905534,-0.0366949393432772,0.4003987114420604,0.8929699476995007,-0.2275630831718445,-0.33197021484375,-0.9154292941093444,0,0,0,-1,-1,3690.078714125,unknown,2,2022-06-02T11:03:18.412+02:00,2022-06-02T10:17:13.754+02:00,693,1.485188,0.8367646,1.650349,555.2257,0,0,2022-06-02T11:03:18.412+02:00,675853398.412239,0,6.960938,101.2997,1,0.76
363,2022-06-02T11:03:19.067+02:00,1654160593.964612,53.22888156262182,10.39816453433297,36.08895,0,1.918238,-1,-1,1114.33447265625,23.99873956503252,-9999,3690.731669166667,-7.061355590820312,2.248489379882812,-4.191085815429688,3690.721674166667,0.9286667394930752,-0.3275070191424751,0.2720553711589874,-3.875628471374512,-7.324048519134521,5.741369247436523,-6.253258228302002,2.40337061882019,-2.465723752975464,XArbitraryZVertical,0.1919598491882753,-0.084498633136203,0.4179879466097711,0.8839103607738216,-0.3098522424697876,-0.2687117755413055,-0.9120227694511414,0,0,0,-1,-1,3690.078714125,unknown,2,2022-06-02T11:03:18.412+02:00,2022-06-02T10:17:13.754+02:00,693,1.485188,0.8367646,1.650349,555.2257,0,0,2022-06-02T11:03:18.412+02:00,675853398.412239,0,6.960938,101.2997,1,0.76
364,2022-06-02T11:03:19.077+02:00,1654160593.964612,53.22888156262182,10.39816453433297,36.08895,0,1.918238,-1,-1,1114.33447265625,23.99873956503252,-9999,3690.741663166667,-6.175155639648438,0.374298095703125,-5.031295776367188,3690.731669166667,0.9714547244034192,-0.4108414264604386,0.2282474885427743,-1.322822451591492,-7.168967247009277,5.211981773376465,-6.482696533203125,3.147977828979492,-2.439481258392334,XArbitraryZVertical,0.1931959701068586,-0.1271669714141319,0.4335215718332091,0.8709551842152972,-0.3890227079391479,-0.2262708097696304,-0.893007755279541,0,0,0,-1,-1,3690.078714125,unknown,2,2022-06-02T11:03:18.412+02:00,2022-06-02T10:17:13.754+02:00,693,1.485188,0.8367646,1.650349,555.2257,0,0,2022-06-02T11:03:18.412+02:00,675853398.412239,0,6.960938,101.2997,1,0.76
365,2022-06-02T11:03:19.087+02:00,1654160593.964612,53.22888156262182,10.39816453433297,36.08895,0,1.918238,-1,-1,1114.33447265625,23.99873956503252,-9999,3690.751658166667,-5.9710693359375,-0.9842681884765624,-4.939376831054688,3690.741663166667,1.015206852862652,-0.4911030705223548,0.199161771722071,-0.5217579007148743,-7.040582656860352,4.945776462554932,-6.599079132080078,2.446337223052979,-3.326703548431396,XArbitraryZVertical,0.2018525582630675,-0.1645128262875231,0.4480474658639638,0.8552451709995137,-0.4622766673564911,-0.1978477388620377,-0.8643821477890015,0,0,0,-1,-1,3690.078714125,unknown,2,2022-06-02T11:03:18.412+02:00,2022-06-02T10:17:13.754+02:00,693,1.485188,0.8367646,1.650349,555.2257,0,0,2022-06-02T11:03:18.412+02:00,675853398.412239,0,6.960938,101.2997,1,0.76
366,2022-06-02T11:03:19.097+02:00,1654160593.964612,53.22888156262182,10.39816453433297,36.08895,0,1.918238,-1,-1,1114.33447265625,23.99873956503252,-9999,3690.761653166667,-5.831268310546875,-1.565887451171875,-4.80291748046875,3690.751658166667,1.052268690105978,-0.5639231557209072,0.1645199512420081,-2.097851276397705,-6.02259349822998,4.910261631011963,-5.647867202758789,0.5380768775939941,-4.197543144226074,XArbitraryZVertical,0.2075069079550999,-0.2001615727133738,0.4609620574915386,0.8392794422761501,-0.5272886157035828,-0.1637787818908691,-0.833752453327179,0,0,0,-1,-1,3690.078714125,unknown,2,2022-06-02T11:03:18.412+02:00,2022-06-02T10:17:13.754+02:00,693,1.485188,0.8367646,1.650349,555.2257,0,0,2022-06-02T11:03:18.412+02:00,675853398.412239,0,6.960938,101.2997,1,0.76
367,2022-06-02T11:03:19.106+02:00,1654160593.964612,53.22888156262182,10.39816453433297,36.08895,0,1.918238,-1,-1,1114.33447265625,23.99873956503252,-9999,3690.771647166667,-4.492660522460938,-0.809814453125,-4.439346313476562,3690.761653166667,1.077124370600995,-0.6205933750188326,0.1140656135871353,-3.22577428817749,-4.77575159072876,4.959722518920898,-5.393330097198486,-0.8704497814178467,-4.131130218505859,XArbitraryZVertical,0.2029517341299147,-0.2338528744569627,0.4726721638498356,0.8250481664227595,-0.5777390599250793,-0.113818421959877,-0.8082468509674072,0,0,0,-1,-1,3690.078714125,unknown,2,2022-06-02T11:03:18.412+02:00,2022-06-02T10:17:13.754+02:00,693,1.485188,0.8367646,1.650349,555.2257,0,0,2022-06-02T11:03:18.412+02:00,675853398.412239,0,6.960938,101.2997,1,0.76
368,2022-06-02T11:03:19.116+02:00,1654160593.964612,53.22888156262182,10.39816453433297,36.08895,0,1.918238,-1,-1,1114.33447265625,23.99873956503252,-9999,3690.781642166667,-3.790802001953125,-0.237548828125,-4.976425170898438,3690.771647166667,1.10332739941473,-0.6703316951798776,0.0584754596877431,-2.225019216537476,-4.851995944976807,5.857614994049072,-5.211084365844727,-1.507445335388184,-4.020641326904297,XArbitraryZVertical,0.1958294396962954,-0.2655422573872108,0.4865406831003979,0.8089599896598878,-0.6201841235160828,-0.0584421418607235,-0.7822762727737427,0,0,0,-1,-1,3690.078714125,unknown,2,2022-06-02T11:03:18.412+02:00,2022-06-02T10:17:13.754+02:00,693,1.485188,0.8367646,1.650349,555.2257,0,0,2022-06-02T11:03:18.412+02:00,675853398.412239,0,6.960938,101.2997,1,0.76
369,2022-06-02T11:03:19.127+02:00,1654160593.964612,53.22888156262182,10.39816453433297,36.08895,0,1.918238,-1,-1,1114.33447265625,23.99873956503252,-9999,3690.791637166667,-4.39544677734375,-0.7790374755859375,-5.405715942382812,3690.781642166667,1.146232122963219,-0.7231577346661122,0.0141975593100319,1.070396423339844,-5.341401100158691,6.345633506774902,-3.830971717834473,-0.795617401599884,-3.689702033996582,XArbitraryZVertical,0.197396680666546,-0.2936195111281729,0.5050677659850817,0.7872284943369583,-0.6616886854171753,-0.0141970822587609,-0.7496442794799805,0,0,0,-1,-1,3690.078714125,unknown,2,2022-06-02T11:03:18.412+02:00,2022-06-02T10:17:13.754+02:00,693,1.485188,0.8367646,1.650349,555.2257,0,0,2022-06-02T11:03:18.412+02:00,675853398.412239,0,6.960938,101.2997,1,0.76
370,2022-06-02T11:03:19.137+02:00,1654160593.964612,53.22888156262182,10.39816453433297,36.08895,0,1.918238,-1,-1,1114.33447265625,23.99873956503252,-9999,3690.801631166667,-4.752166748046875,-2.670639038085938,-5.332077026367188,3690.791637166667,1.2080532004579,-0.7741332114606975,-0.0081656784171729,3.982375383377075,-4.488705635070801,5.500358104705811,-3.091728687286377,-0.2457144558429718,-4.261421680450439,XArbitraryZVertical,0.2112768150401284,-0.3128264603070689,0.5272076747831287,0.7612842747683346,-0.6990732550621033,0.008165587671101,-0.7150034308433533,0,0,0,-1,-1,3690.078714125,unknown,2,2022-06-02T11:03:18.412+02:00,2022-06-02T10:17:13.754+02:00,693,1.485188,0.8367646,1.650349,555.2257,0,0,2022-06-02T11:03:18.412+02:00,675853398.412239,0,6.960938,101.2997,1,0.76
371,2022-06-02T11:03:19.149+02:00,1654160593.964612,53.22888156262182,10.39816453433297,36.08895,0,1.918238,-1,-1,1114.33447265625,23.99873956503252,-9999,3690.811626166667,-4.01580810546875,-3.69451904296875,-3.961746215820312,3690.801631166667,1.280218185662252,-0.8061033412096014,-0.0068336676529164,6.135168552398682,-1.939249873161316,4.563748836517334,-3.673868656158447,-0.785871148109436,-4.713416576385498,XArbitraryZVertical,0.2317485100058461,-0.3164537401216095,0.5504933138378748,0.7369577514819868,-0.721578061580658,0.0068336143158376,-0.6922993063926697,0,0,0,-1,-1,3690.078714125,unknown,2,2022-06-02T11:03:18.412+02:00,2022-06-02T10:17:13.754+02:00,693,1.485188,0.8367646,1.650349,555.2257,0,0,2022-06-02T11:03:18.412+02:00,675853398.412239,0,6.960938,101.2997,1,0.76
372,2022-06-02T11:03:19.157+02:00,1654160593.964612,53.22888156262182,10.39816453433297,36.08895,0,1.918238,-1,-1,1114.33447265625,23.99873956503252,-9999,3690.821621166667,-2.967941284179688,-4.098236083984375,-2.754776000976562,3690.811626166667,1.353403863688083,-0.8137947728891438,0.0080632054448414,6.413159370422363,0.2847753465175629,3.231168985366821,-4.025291919708252,-2.662575960159302,-4.645354270935059,XArbitraryZVertical,0.250720660366167,-0.3062316846613237,0.5738471675555599,0.7169801787883439,-0.7268747687339783,-0.0080631179735064,-0.6867226362228394,0,0,0,-1,-1,3690.078714125,unknown,2,2022-06-02T11:03:18.412+02:00,2022-06-02T10:17:13.754+02:00,693,1.485188,0.8367646,1.650349,555.2257,0,0,2022-06-02T11:03:18.412+02:00,675853398.412239,0,6.960938,101.2997,1,0.76
373,2022-06-02T11:03:19.167+02:00,1654160593.964612,53.22888156262182,10.39816453433297,36.08895,0,1.918238,-1,-1,1114.33447265625,23.99873956503252,-9999,3690.831615166667,-2.258102416992188,-3.750701904296875,-1.955978393554688,3690.821621166667,1.412975608152168,-0.805904608050079,0.0323576641927331,5.456732749938965,1.427202701568604,1.483336448669434,-3.29472827911377,-3.662167072296143,-3.269649744033813,XArbitraryZVertical,0.2658483237901959,-0.2885766421881729,0.592269043472347,0.7037509891285284,-0.7210796475410461,-0.0323520191013813,-0.6920963525772095,0,0,0,-1,-1,3690.078714125,unknown,2,2022-06-02T11:03:18.412+02:00,2022-06-02T10:17:13.754+02:00,693,1.485188,0.8367646,1.650349,555.2257,0,0,2022-06-02T11:03:18.412+02:00,675853398.412239,0,6.960938,101.2997,1,0.76
374,2022-06-02T11:03:19.177+02:00,1654160593.964612,53.22888156262182,10.39816453433297,36.08895,0,1.918238,-1,-1,1114.33447265625,23.99873956503252,-9999,3690.841610166667,-1.985366821289062,-2.945526123046875,-1.499191284179688,3690.831615166667,1.451887279455135,-0.7906633409571759,0.0593776047339502,3.825416088104248,1.919424414634705,0.0837238579988479,-2.258373975753784,-4.038893222808838,-2.052641630172729,XArbitraryZVertical,0.276030066308372,-0.2697039507384998,0.6038190317430526,0.6974737961495449,-0.7095673084259033,-0.0593427196145057,-0.702134370803833,0,0,0,-1,-1,3690.078714125,unknown,2,2022-06-02T11:03:18.412+02:00,2022-06-02T10:17:13.754+02:00,693,1.485188,0.8367646,1.650349,555.2257,0,0,2022-06-02T11:03:18.412+02:00,675853398.412239,0,6.960938,101.2997,1,0.76
375,2022-06-02T11:03:19.187+02:00,1654160593.964612,53.22888156262182,10.39816453433297,36.08895,0,1.918238,-1,-1,1114.33447265625,23.99873956503252,-9999,3690.851604166667,-1.961685180664062,-2.010726928710938,-1.398681640625,3690.841610166667,1.46932627717483,-0.7711465194154152,0.0854835770752175,2.466064214706421,2.21649432182312,-1.255340337753296,-1.563689470291138,-3.665322303771973,-1.241484880447388,XArbitraryZVertical,0.2812564721770672,-0.252285630255467,0.6086310335379214,0.6977212449584078,-0.6944129467010498,-0.0853795036673545,-0.7144935131072998,0,0,0,-1,-1,3690.078714125,unknown,2,2022-06-02T11:03:18.412+02:00,2022-06-02T10:17:13.754+02:00,693,1.485188,0.8367646,1.650349,555.2257,0,0,2022-06-02T11:03:18.412+02:00,675853398.412239,0,6.960938,101.2997,1,0.76
376,2022-06-02T11:03:19.196+02:00,1654160593.964612,53.22888156262182,10.39816453433297,36.08895,0,1.918238,-1,-1,1114.33447265625,23.99873956503252,-9999,3690.861599166667,-2.14361572265625,-1.172164916992188,-1.337982177734375,3690.851604166667,1.472594471059439,-0.7484393294825599,0.1137098741370305,2.20961594581604,2.389204740524292,-2.120307683944702,-1.309265375137329,-2.832061052322388,-0.7711715698242188,XArbitraryZVertical,0.284276237829944,-0.2348982663364766,0.6086719670226868,0.7025155736611748,-0.6761013269424438,-0.1134649887681007,-0.728019654750824,0,0,0,-1,-1,3690.078714125,unknown,2,2022-06-02T11:03:18.412+02:00,2022-06-02T10:17:13.754+02:00,693,1.485188,0.8367646,1.650349,555.2257,0,0,2022-06-02T11:03:18.412+02:00,675853398.412239,0,6.960938,101.2997,1,0.76
377,2022-06-02T11:03:19.207+02:00,1654160593.964612,53.22888156262182,10.39816453433297,36.08895,0,1.918238,-1,-1,1114.33447265625,23.99873956503252,-9999,3690.871594166667,-2.4920654296875,-0.5767364501953125,-1.482269287109375,3690.861599166667,1.470833634947601,-0.7224529460163518,0.1491060439432288,2.915252447128296,2.843968629837036,-2.910253047943115,-1.307795166969299,-1.862172842025757,-0.6568194627761841,XArbitraryZVertical,0.2881198997399009,-0.2146062571152416,0.6063352510914561,0.7094283194977771,-0.6538900136947632,-0.1485541611909866,-0.7418621778488159,0,0,0,-1,-1,3690.078714125,unknown,2,2022-06-02T11:03:18.412+02:00,2022-06-02T10:17:13.754+02:00,693,1.485188,0.8367646,1.650349,555.2257,0,0,2022-06-02T11:03:18.412+02:00,675853398.412239,0,6.960938,101.2997,1,0.76
378,2022-06-02T11:03:19.217+02:00,1654160593.964612,53.22888156262182,10.39816453433297,36.08895,0,1.918238,-1,-1,1114.33447265625,23.99873956503252,-9999,3690.881588166667,-2.721267700195312,-0.0799407958984375,-1.715133666992188,3690.871594166667,1.466942592332512,-0.6890848966366023,0.1959084763018409,3.637011051177979,3.689143180847168,-3.712606906890869,-1.519947290420532,-0.97750723361969,-0.5809180736541748,XArbitraryZVertical,0.2934142298281126,-0.1880852523636812,0.602549608988356,0.7179595621883179,-0.6236684918403625,-0.1946577131748199,-0.7570640444755554,0,0,0,-1,-1,3690.078714125,unknown,2,2022-06-02T11:03:18.412+02:00,2022-06-02T10:17:13.754+02:00,693,1.485188,0.8367646,1.650349,555.2257,0,0,2022-06-02T11:03:18.412+02:00,675853398.412239,0,6.960938,101.2997,1,0.76
379,2022-06-02T11:03:19.227+02:00,1654160593.964612,53.22888156262182,10.39816453433297,36.08895,0,1.918238,-1,-1,1114.33447265625,23.99873956503252,-9999,3690.891583166667,-2.818328857421875,0.2198333740234375,-1.761093139648438,3690.881588166667,1.459018799679089,-0.6479356128851934,0.2504755141786323,3.951921939849854,4.139224529266357,-4.2709641456604,-1.907357454299927,-0.3288717865943909,-0.7098188400268555,XArbitraryZVertical,0.2987837252536297,-0.1565345820479995,0.5972405176537637,0.7276873131523809,-0.5847079753875732,-0.2478646636009216,-0.7724504470825195,0,0,0,-1,-1,3690.078714125,unknown,2,2022-06-02T11:03:18.412+02:00,2022-06-02T10:17:13.754+02:00,693,1.485188,0.8367646,1.650349,555.2257,0,0,2022-06-02T11:03:18.412+02:00,675853398.412239,0,6.960938,101.2997,1,0.76
380,2022-06-02T11:03:19.237+02:00,1654160593.964612,53.22888156262182,10.39816453433297,36.08895,0,1.918238,-1,-1,1114.33447265625,23.99873956503252,-9999,3690.901578166667,-2.890182495117188,0.285980224609375,-1.51629638671875,3690.891583166667,1.444667114543043,-0.6018502037130482,0.3092843325651952,3.895231008529663,4.251172542572021,-4.858684539794922,-2.181962966918945,0.2244362235069275,-0.9299553632736206,XArbitraryZVertical,0.303992890653915,-0.1224710876429315,0.5896398746746512,0.7381828516265881,-0.539304792881012,-0.3043769896030426,-0.7851783037185669,0,0,0,-1,-1,3690.078714125,unknown,2,2022-06-02T11:03:18.412+02:00,2022-06-02T10:17:13.754+02:00,693,1.485188,0.8367646,1.650349,555.2257,0,0,2022-06-02T11:03:18.412+02:00,675853398.412239,0,6.960938,101.2997,1,0.76
381,2022-06-02T11:03:19.246+02:00,1654160593.964612,53.22888156262182,10.39816453433297,36.08895,0,1.918238,-1,-1,1114.33447265625,23.99873956503252,-9999,3690.911572166667,-2.917205810546875,0.1643218994140625,-1.091232299804688,3690.901578166667,1.420168884788886,-0.5507106304621462,0.3677336061832758,3.362369775772095,4.345310211181641,-5.371570110321045,-2.330020904541016,0.5793348550796509,-0.965911328792572,XArbitraryZVertical,0.3076764948178108,-0.0880017350880917,0.5790699916262902,0.7498457306450486,-0.4883078932762146,-0.3595014810562134,-0.7951817512512207,0,0,0,-1,-1,3690.078714125,unknown,2,2022-06-02T11:03:18.412+02:00,2022-06-02T10:17:13.754+02:00,693,1.485188,0.8367646,1.650349,555.2257,0,0,2022-06-02T11:03:18.412+02:00,675853398.412239,0,6.960938,101.2997,1,0.76
382,2022-06-02T11:03:19.257+02:00,1654160593.964612,53.22888156262182,10.39816453433297,36.08895,0,1.918238,-1,-1,1114.33447265625,23.99873956503252,-9999,3690.921567166667,-2.9317626953125,0.2457122802734375,-0.7063140869140625,3690.911572166667,1.384329343891417,-0.4927908555017698,0.4203951585948295,2.461282014846802,4.494080543518066,-5.578879833221436,-2.458288669586182,0.6941014528274536,-0.7119924426078796,XArbitraryZVertical,0.3080218146753992,-0.0545032276443956,0.566126760159579,0.7626614173757,-0.4318937957286835,-0.4081212282180786,-0.8043039441108704,0,0,0,-1,-1,3690.078714125,unknown,2,2022-06-02T11:03:18.412+02:00,2022-06-02T10:17:13.754+02:00,693,1.485188,0.8367646,1.650349,555.2257,0,0,2022-06-02T11:03:18.412+02:00,675853398.412239,0,6.960938,101.2997,1,0.76
