,loggingTime(txt),locationTimestamp_since1970(s),locationLatitude(WGS84),locationLongitude(WGS84),locationAltitude(m),locationSpeed(m/s),locationSpeedAccuracy(m/s),locationCourse(°),locationCourseAccuracy(°),locationVerticalAccuracy(m),locationHorizontalAccuracy(m),locationFloor(Z),accelerometerTimestamp_sinceReboot(s),accelerometerAccelerationX(G),accelerometerAccelerationY(G),accelerometerAccelerationZ(G),motionTimestamp_sinceReboot(s),motionYaw(rad),motionRoll(rad),motionPitch(rad),motionRotationRateX(rad/s),motionRotationRateY(rad/s),motionRotationRateZ(rad/s),motionUserAccelerationX(G),motionUserAccelerationY(G),motionUserAccelerationZ(G),motionAttitudeReferenceFrame(txt),motionQuaternionX(R),motionQuaternionY(R),motionQuaternionZ(R),motionQuaternionW(R),motionGravityX(G),motionGravityY(G),motionGravityZ(G),motionMagneticFieldX(µT),motionMagneticFieldY(µT),motionMagneticFieldZ(µT),motionHeading(°),motionMagneticFieldCalibrationAccuracy(Z),activityTimestamp_sinceReboot(s),activity(txt),activityActivityConfidence(Z),activityActivityStartDate(txt),pedometerStartDate(txt),pedometerNumberofSteps(N),pedometerAverageActivePace(s/m),pedometerCurrentPace(s/m),pedometerCurrentCadence(steps/s),pedometerDistance(m),pedometerFloorAscended(N),pedometerFloorDescended(N),pedometerEndDate(txt),altimeterTimestamp_sinceReboot(s),altimeterReset(bool),altimeterRelativeAltitude(m),altimeterPressure(kPa),batteryState(N),batteryLevel(R)
991,2022-06-02T11:05:34.154+02:00,1654160727.135313,53.22900154167154,10.39889660664871,37.52536,-1,-1,-1,-1,29.18292999267578,178.6873636504573,-9999,3818.290245041667,1.196823120117188,-0.3511505126953125,0.4217071533203125,3818.280250041667,-2.089171814593285,0.1898339699167888,0.7182803770717393,-8.834436416625977,10.01173973083496,-7.848509788513184,0.7483502626419067,-0.610295832157135,0.5984364151954651,XArbitraryZVertical,0.2524588940810722,-0.257989030302763,-0.7891726818015019,0.4969028450744167,0.1420763581991196,-0.6580908894538879,-0.7394123077392578,0,0,0,-1,-1,3818.072656041667,unknown,2,2022-06-02T11:05:33.935+02:00,2022-06-02T10:17:13.754+02:00,731,1.513853,0.0,0.0,586.7537,0,0,2022-06-02T11:05:33.935+02:00,675853533.934871,0,5.570312,101.3156,1,0.75
992,2022-06-02T11:05:34.164+02:00,1654160727.135313,53.22900154167154,10.39889660664871,37.52536,-1,-1,-1,-1,29.18292999267578,178.6873636504573,-9999,3818.300239041667,1.270187377929688,0.2118072509765625,1.013839721679688,3818.290245041667,-2.154147388004096,0.3439322481420121,0.601275176527392,-11.1282958984375,12.74273586273193,-8.1326322555542,0.8555831909179688,-0.0866796970367431,0.949890911579132,XArbitraryZVertical,0.2821931432805855,-0.1794601342001136,-0.8046588076060723,0.4905968022861964,0.2780532538890839,-0.5656944513320923,-0.7763221859931946,0,0,0,-1,-1,3818.072656041667,unknown,2,2022-06-02T11:05:33.935+02:00,2022-06-02T10:17:13.754+02:00,731,1.513853,0.0,0.0,586.7537,0,0,2022-06-02T11:05:33.935+02:00,675853533.934871,0,5.570312,101.3156,1,0.75
993,2022-06-02T11:05:34.174+02:00,1654160727.135313,53.22900154167154,10.39889660664871,37.52536,-1,-1,-1,-1,29.18292999267578,178.6873636504573,-9999,3818.310234041667,1.28326416015625,0.7092437744140625,1.280364990234375,3818.300239041667,-2.179084207910347,0.4979034232074734,0.456092982967568,-13.71224498748779,15.48815059661865,-7.633853912353516,0.8185027241706848,0.3884114325046539,1.515812397003174,XArbitraryZVertical,0.3141696810847591,-0.0831202144196253,-0.8110620144023529,0.4863813353607532,0.4287659525871277,-0.4404438436031342,-0.7887768745422363,0,0,0,-1,-1,3818.072656041667,unknown,2,2022-06-02T11:05:33.935+02:00,2022-06-02T10:17:13.754+02:00,731,1.513853,0.0,0.0,586.7537,0,0,2022-06-02T11:05:33.935+02:00,675853533.934871,0,5.570312,101.3156,1,0.75
994,2022-06-02T11:05:34.184+02:00,1654160727.135313,53.22900154167154,10.39889660664871,37.52536,-1,-1,-1,-1,29.18292999267578,178.6873636504573,-9999,3818.320228041667,0.847015380859375,1.175125122070312,1.189865112304688,3818.310234041667,-2.155895162584703,0.6581072322050109,0.2922583450293307,-16.11625862121582,18.08864402770996,-6.569274425506592,0.6979147791862488,0.7245932817459106,1.969868063926697,XArbitraryZVertical,0.3468523109141871,0.0298656832581721,-0.8025738277097029,0.4844343835230397,0.5856850743293762,-0.288115531206131,-0.7576030492782593,0,0,0,-1,-1,3818.072656041667,unknown,2,2022-06-02T11:05:33.935+02:00,2022-06-02T10:17:13.754+02:00,731,1.513853,0.0,0.0,586.7537,0,0,2022-06-02T11:05:33.935+02:00,675853533.934871,0,5.570312,101.3156,1,0.75
995,2022-06-02T11:05:34.194+02:00,1654160727.135313,53.22900154167154,10.39889660664871,37.52536,-1,-1,-1,-1,29.18292999267578,178.6873636504573,-9999,3818.330223041667,0.379302978515625,1.165481567382812,1.5380859375,3818.320228041667,-2.079141467724787,0.8380567838077034,0.1278466107411546,-18.26237869262695,20.99334144592285,-4.714204788208008,0.4342154264450073,1.117229461669922,1.872662782669067,XArbitraryZVertical,0.3796453522635984,0.1553856573388624,-0.7728190892964549,0.484226432870609,0.7372780442237854,-0.1274986267089844,-0.6634494066238403,0,0,0,-1,-1,3818.072656041667,unknown,2,2022-06-02T11:05:33.935+02:00,2022-06-02T10:17:13.754+02:00,731,1.513853,0.0,0.0,586.7537,0,0,2022-06-02T11:05:33.935+02:00,675853533.934871,0,5.570312,101.3156,1,0.75
996,2022-06-02T11:05:34.204+02:00,1654160727.135313,53.22900154167154,10.39889660664871,37.52536,-1,-1,-1,-1,29.18292999267578,178.6873636504573,-9999,3818.340217041667,0.13629150390625,0.67926025390625,1.95916748046875,3818.330223041667,-1.945329364584359,1.053931647191589,-0.0139847157765533,-20.1121826171875,23.38214874267578,-2.596226930618286,-0.3530372381210327,1.204002857208252,1.808851480484009,XArbitraryZVertical,0.4121885838885612,0.2881776200689971,-0.7162413325933842,0.4837897031708502,0.8692877292633057,0.0139842601493001,-0.4941084682941437,0,0,0,-1,-1,3818.072656041667,unknown,2,2022-06-02T11:05:33.935+02:00,2022-06-02T10:17:13.754+02:00,731,1.513853,0.0,0.0,586.7537,0,0,2022-06-02T11:05:33.935+02:00,675853533.934871,0,5.570312,101.3156,1,0.75
997,2022-06-02T11:05:34.214+02:00,1654160727.135313,53.22900154167154,10.39889660664871,37.52536,-1,-1,-1,-1,29.18292999267578,178.6873636504573,-9999,3818.350212041667,-0.4169921875,0.2812652587890625,2.313369750976562,3818.340217041667,-1.758603006848487,1.308077972082617,-0.1062526715886631,-21.47299766540527,24.84781265258789,-0.2023104876279831,-0.6704466938972473,0.8600268363952637,1.976442575454712,XArbitraryZVertical,0.4411089184540884,0.4198832551744864,-0.6310695236159853,0.4804915238050269,0.9602414965629578,0.1060528606176376,-0.2582419514656067,0,0,0,-1,-1,3818.072656041667,unknown,2,2022-06-02T11:05:33.935+02:00,2022-06-02T10:17:13.754+02:00,731,1.513853,0.0,0.0,586.7537,0,0,2022-06-02T11:05:33.935+02:00,675853533.934871,0,5.570312,101.3156,1,0.75
998,2022-06-02T11:05:34.223+02:00,1654160727.135313,53.22900154167154,10.39889660664871,37.52536,-1,-1,-1,-1,29.18292999267578,178.6873636504573,-9999,3818.360206041667,-2.07763671875,-0.399322509765625,2.457733154296875,3818.350212041667,-1.54556178678057,1.585466469216237,-0.1208954473833598,-20.89150810241699,25.55729103088379,2.621127605438232,-1.044565677642822,0.3152813911437988,2.149637222290039,XArbitraryZVertical,0.4659921936864629,0.5386395335969917,-0.5199302140452489,0.4715838321717284,0.9925942420959472,0.1206011697649956,0.0145625434815883,0,0,0,-1,-1,3818.072656041667,unknown,2,2022-06-02T11:05:33.935+02:00,2022-06-02T10:17:13.754+02:00,731,1.513853,0.0,0.0,586.7537,0,0,2022-06-02T11:05:33.935+02:00,675853533.934871,0,5.570312,101.3156,1,0.75
999,2022-06-02T11:05:34.234+02:00,1654160727.135313,53.22900154167154,10.39889660664871,37.52536,-1,-1,-1,-1,29.18292999267578,178.6873636504573,-9999,3818.370201041667,-4.520721435546875,-1.67169189453125,2.910842895507812,3818.360206041667,-1.355627994242295,1.860771452324608,-0.0519692253439519,-18.57578086853027,25.93261528015137,5.313561916351318,-2.069078922271729,0.0093487128615379,2.124262809753418,XArbitraryZVertical,0.4905712135989906,0.63412225595686,-0.3908044100435481,0.4522174360737108,0.9569570422172546,0.0519458353519439,0.2855423092842102,0,0,0,-1,-1,3818.072656041667,unknown,2,2022-06-02T11:05:33.935+02:00,2022-06-02T10:17:13.754+02:00,731,1.513853,0.0,0.0,586.7537,0,0,2022-06-02T11:05:33.935+02:00,675853533.934871,0,5.570312,101.3156,1,0.75
1000,2022-06-02T11:05:34.244+02:00,1654160727.135313,53.22900154167154,10.39889660664871,37.52536,-1,-1,-1,-1,29.18292999267578,178.6873636504573,-9999,3818.380195041667,-7.4952392578125,-3.261993408203125,4.626739501953125,3818.370201041667,-1.230046852275084,2.120333376157604,0.0742935190767449,-14.58090496063232,26.04816818237305,7.59574556350708,-4.075801849365234,-0.929970920085907,2.075415849685669,XArbitraryZVertical,0.5178539476627882,0.7016075205105228,-0.2553261737022238,0.4175914106791092,0.8504138588905334,-0.0742251947522163,0.5208516716957092,0,0,0,-1,-1,3818.072656041667,unknown,2,2022-06-02T11:05:33.935+02:00,2022-06-02T10:17:13.754+02:00,731,1.513853,0.0,0.0,586.7537,0,0,2022-06-02T11:05:33.935+02:00,675853533.934871,0,5.570312,101.3156,1,0.75
1001,2022-06-02T11:05:34.253+02:00,1654160727.135313,53.22900154167154,10.39889660664871,37.52536,-1,-1,-1,-1,29.18292999267578,178.6873636504573,-9999,3818.390190041667,-10.82511901855469,-4.303909301757812,8.200836181640625,3818.380195041667,-1.192036169970601,2.377016277299838,0.2086307013981535,-7.959438323974609,26.24670028686523,8.602486610412598,-6.623769283294678,-2.230120182037354,2.831052303314209,XArbitraryZVertical,0.5501445653802199,0.7418586176651569,-0.1283187260261262,0.3612770341714332,0.6772206425666809,-0.20712049305439,0.7060264945030212,0,0,0,-1,-1,3818.072656041667,unknown,2,2022-06-02T11:05:33.935+02:00,2022-06-02T10:17:13.754+02:00,731,1.513853,0.0,0.0,586.7537,0,0,2022-06-02T11:05:33.935+02:00,675853533.934871,0,5.570312,101.3156,1,0.75
1002,2022-06-02T11:05:34.263+02:00,1654160727.135313,53.22900154167154,10.39889660664871,37.52536,-1,-1,-1,-1,29.18292999267578,178.6873636504573,-9999,3818.400185041667,-13.62867736816406,-3.774032592773438,12.71708679199219,3818.390190041667,-1.232291753808199,2.649064719805421,0.2871074476744422,-0.210166871547699,26.02187156677246,6.772292613983154,-9.589104652404783,-3.657586097717285,5.397679328918457,XArbitraryZVertical,0.5831565584181856,0.7631937765558219,-0.0261998125110348,0.2770871091174953,0.4534994959831238,-0.2831792533397675,0.8450726270675659,0,0,0,-1,-1,3818.072656041667,unknown,2,2022-06-02T11:05:33.935+02:00,2022-06-02T10:17:13.754+02:00,731,1.513853,0.0,0.0,586.7537,0,0,2022-06-02T11:05:33.935+02:00,675853533.934871,0,5.570312,101.3156,1,0.75
1003,2022-06-02T11:05:34.274+02:00,1654160727.135313,53.22900154167154,10.39889660664871,37.52536,-1,-1,-1,-1,29.18292999267578,178.6873636504573,-9999,3818.410179041667,-13.92286682128906,-2.372711181640625,16.96458435058594,3818.400185041667,-1.277798882466633,2.914073053606587,0.285111611889861,2.752661943435669,24.07228088378906,0.8094428777694702,-12.64470863342285,-3.957001447677612,9.465231895446776,XArbitraryZVertical,0.5993944651162108,0.7798563435114514,0.0463091439419348,0.1743723140841809,0.2164558172225952,-0.2812645733356476,0.9348992705345154,0,0,0,-1,-1,3818.072656041667,unknown,2,2022-06-02T11:05:33.935+02:00,2022-06-02T10:17:13.754+02:00,731,1.513853,0.0,0.0,586.7537,0,0,2022-06-02T11:05:33.935+02:00,675853533.934871,0,5.570312,101.3156,1,0.75
1004,2022-06-02T11:05:34.284+02:00,1654160727.135313,53.22900154167154,10.39889660664871,37.52536,-1,-1,-1,-1,29.18292999267578,178.6873636504573,-9999,3818.420174041667,-12.34910583496094,-1.698806762695312,19.36799621582031,3818.410179041667,-1.24497812404444,3.125080438868433,0.2730590913269472,-1.349817395210266,19.63718605041504,-7.588522911071777,-14.214111328125,-2.806508779525757,14.00701427459717,XArbitraryZVertical,0.578526614391355,0.8041869054877808,0.1058036614781702,0.0860000270842313,0.0158997233957052,-0.2696784436702728,0.9628192186355592,0,0,0,-1,-1,3818.072656041667,unknown,2,2022-06-02T11:05:33.935+02:00,2022-06-02T10:17:13.754+02:00,731,1.513853,0.0,0.0,586.7537,0,0,2022-06-02T11:05:33.935+02:00,675853533.934871,0,5.570312,101.3156,1,0.75
1005,2022-06-02T11:05:34.293+02:00,1654160727.135313,53.22900154167154,10.39889660664871,37.52536,-1,-1,-1,-1,29.18292999267578,178.6873636504573,-9999,3818.430168041667,-13.45916748046875,-0.3531951904296875,18.52641296386719,3818.420174041667,-1.122367142426985,-3.031017607215814,0.3134491435896408,-4.876566410064697,12.45898628234863,-16.48675727844238,-12.90921783447266,-1.652519702911377,17.54549980163574,XArbitraryZVertical,0.5175605873810945,0.8395618583401694,0.1609906018537356,0.0367284659737086,-0.1049731448292732,-0.3083415627479553,0.945466160774231,0,0,0,-1,-1,3818.072656041667,unknown,2,2022-06-02T11:05:33.935+02:00,2022-06-02T10:17:13.754+02:00,731,1.513853,0.0,0.0,586.7537,0,0,2022-06-02T11:05:33.935+02:00,675853533.934871,0,5.570312,101.3156,1,0.75
1006,2022-06-02T11:05:34.303+02:00,1654160727.135313,53.22900154167154,10.39889660664871,37.52536,-1,-1,-1,-1,29.18292999267578,178.6873636504573,-9999,3818.440163041667,-17.0579833984375,2.291473388671875,15.41716003417969,3818.430168041667,-0.9065602157242826,-3.029208760818209,0.3884478480658909,-4.527138233184814,2.330316305160522,-25.36087417602539,-12.30816459655762,-0.8618025183677673,18.42497634887695,XArbitraryZVertical,0.4192597419176703,0.8854666182407599,0.1973727367869371,0.0348452473140816,-0.103792279958725,-0.3787523508071899,0.9196597337722778,0,0,0,-1,-1,3818.072656041667,unknown,2,2022-06-02T11:05:33.935+02:00,2022-06-02T10:17:13.754+02:00,731,1.513853,0.0,0.0,586.7537,0,0,2022-06-02T11:05:33.935+02:00,675853533.934871,0,5.570312,101.3156,1,0.75
1007,2022-06-02T11:05:34.314+02:00,1654160727.135313,53.22900154167154,10.39889660664871,37.52536,-1,-1,-1,-1,29.18292999267578,178.6873636504573,-9999,3818.450157041667,-21.30448913574219,5.6156005859375,11.28712463378906,3818.440163041667,-0.5948750039611466,3.088827187212622,0.4223126370832395,0.3875195682048798,-10.34769439697266,-31.8400936126709,-15.28676986694336,1.279606819152832,16.28807067871094,XArbitraryZVertical,0.2917483147890876,0.9329092607197068,0.1927585569766999,0.0860647959081579,0.0481073223054409,-0.4098710119724274,0.9108735322952272,0,0,0,-1,-1,3818.072656041667,unknown,2,2022-06-02T11:05:33.935+02:00,2022-06-02T10:17:13.754+02:00,731,1.513853,0.0,0.0,586.7537,0,0,2022-06-02T11:05:33.935+02:00,675853533.934871,0,5.570312,101.3156,1,0.75
1008,2022-06-02T11:05:34.324+02:00,1654160727.135313,53.22900154167154,10.39889660664871,37.52536,-1,-1,-1,-1,29.18292999267578,178.6873636504573,-9999,3818.460152041667,-27.55870056152344,8.354583740234375,8.543167114257812,3818.450157041667,-0.2490363259225684,2.792327728713751,0.3253719293967762,5.72472095489502,-22.20201110839844,-34.74061965942383,-19.29773330688477,4.204380989074707,12.39516735076904,XArbitraryZVertical,0.1486163568821583,0.9607680873793112,0.1369770855750339,0.1899346716122458,0.3242522776126862,-0.3196612298488617,0.8903242945671082,0,0,0,-1,-1,3818.072656041667,unknown,2,2022-06-02T11:05:33.935+02:00,2022-06-02T10:17:13.754+02:00,731,1.513853,0.0,0.0,586.7537,0,0,2022-06-02T11:05:33.935+02:00,675853533.934871,0,5.570312,101.3156,1,0.75
1009,2022-06-02T11:05:34.334+02:00,1654160727.135313,53.22900154167154,10.39889660664871,37.52536,-1,-1,-1,-1,29.18292999267578,178.6873636504573,-9999,3818.470146041667,-31.98733520507812,11.63104248046875,9.07281494140625,3818.460152041667,0.0031361916227162,2.446756036012279,0.0739903956559614,14.37166309356689,-34.81902313232422,-32.342529296875,-24.58293533325195,7.310891628265381,8.737116813659668,XArbitraryZVertical,0.0111195218873306,0.9396300773693048,0.0353104625024702,0.3401835952839504,0.6385082006454468,-0.0739229023456573,0.7660566568374634,0,0,0,-1,-1,3818.072656041667,unknown,2,2022-06-02T11:05:33.935+02:00,2022-06-02T10:17:13.754+02:00,731,1.513853,0.0,0.0,586.7537,0,0,2022-06-02T11:05:33.935+02:00,675853533.934871,0,5.570312,101.3156,1,0.75
1010,2022-06-02T11:05:34.343+02:00,1654160727.135313,53.22900154167154,10.39889660664871,37.52536,-1,-1,-1,-1,29.18292999267578,178.6873636504573,-9999,3818.480141041667,-31.964111328125,12.85452270507812,15.49476623535156,3818.470146041667,0.0373239262722668,2.093325215318817,-0.26338660127841,24.6123046875,-35.16299057006836,-24.49694442749023,-32.10013198852539,8.98287296295166,7.540934562683105,XArbitraryZVertical,-0.0817217744192247,0.8568853960669657,-0.1044072120451986,0.4981647732398348,0.8366755247116089,0.260351836681366,0.4818620681762695,0,0,0,-1,-1,3818.072656041667,unknown,2,2022-06-02T11:05:33.935+02:00,2022-06-02T10:17:13.754+02:00,731,1.513853,0.0,0.0,586.7537,0,0,2022-06-02T11:05:33.935+02:00,675853533.934871,0,5.570312,101.3156,1,0.75
1011,2022-06-02T11:05:34.354+02:00,1654160727.135313,53.22900154167154,10.39889660664871,37.52536,-1,-1,-1,-1,29.18292999267578,178.6873636504573,-9999,3818.490135041667,-32.14053344726562,16.33352661132812,27.08705139160156,3818.480141041667,-0.1997516153638149,1.640772155152948,-0.5465406908335741,34.89269638061523,-35.15671920776367,-17.66450500488281,-32.86134719848633,13.90255165100098,12.72127246856689,XArbitraryZVertical,-0.1129032018037129,0.7191102932911801,-0.2618833104982514,0.6336799609893544,0.8522366285324097,0.5197349786758423,0.0597334951162338,0,0,0,-1,-1,3818.072656041667,unknown,2,2022-06-02T11:05:33.935+02:00,2022-06-02T10:17:13.754+02:00,731,1.513853,0.0,0.0,586.7537,0,0,2022-06-02T11:05:33.935+02:00,675853533.934871,0,5.570312,101.3156,1,0.75
1012,2022-06-02T11:05:34.364+02:00,1654160727.135313,53.22900154167154,10.39889660664871,37.52536,-1,-1,-1,-1,29.18292999267578,178.6873636504573,-9999,3818.500130041667,-32.18165588378906,16.58963012695312,31.4522705078125,3818.490135041667,-0.6210048227925665,1.058640728133415,-0.5592016011234949,35.26272201538086,-35.12911987304688,-1.997834801673889,-32.77750396728516,10.63831329345703,19.74985313415527,XArbitraryZVertical,-0.0785257763198638,0.5349093792394405,-0.3861703310738338,0.747380812481471,0.738913357257843,0.5305095911026001,-0.4154113233089447,0,0,0,-1,-1,3818.072656041667,unknown,2,2022-06-02T11:05:33.935+02:00,2022-06-02T10:17:13.754+02:00,731,1.513853,0.0,0.0,586.7537,0,0,2022-06-02T11:05:33.935+02:00,675853533.934871,0,5.570312,101.3156,1,0.75
1013,2022-06-02T11:05:34.374+02:00,1654160727.135313,53.22900154167154,10.39889660664871,37.52536,-1,-1,-1,-1,29.18292999267578,178.6873636504573,-9999,3818.510125041667,-32.37199401855469,-18.67074584960938,31.02723693847656,3818.500130041667,-0.8863977891615406,0.6256356481068992,-0.304728489896579,35.11956024169922,-20.88975524902344,6.08013391494751,-32.71306610107422,21.33164978027344,32.23958587646484,XArbitraryZVertical,-1.739807001856686e-05,0.3367151380986508,-0.4454883160448059,0.829555878388113,0.5586325526237488,0.3000341951847076,-0.7732458114624023,0,0,0,-1,-1,3818.072656041667,unknown,2,2022-06-02T11:05:33.935+02:00,2022-06-02T10:17:13.754+02:00,731,1.513853,0.0,0.0,586.7537,0,0,2022-06-02T11:05:33.935+02:00,675853533.934871,0,5.570312,101.3156,1,0.75
1014,2022-06-02T11:05:34.384+02:00,1654160727.135313,53.22900154167154,10.39889660664871,37.52536,-1,-1,-1,-1,29.18292999267578,178.6873636504573,-9999,3818.520119041667,-21.80564880371094,-27.54939270019531,11.43763732910156,3818.510125041667,-0.9682566014288128,0.5885736366070943,0.0601281760203907,34.7884407043457,14.0197229385376,23.12494087219238,-32.82497024536133,0.113802894949913,32.22438049316406,XArbitraryZVertical,0.1604038324754482,0.2432189352070082,-0.4375092304888574,0.8507060134193662,0.5541719198226929,-0.0600919499993324,-0.8302302956581116,0,0,0,-1,-1,3818.072656041667,unknown,2,2022-06-02T11:05:33.935+02:00,2022-06-02T10:17:13.754+02:00,731,1.513853,0.0,0.0,586.7537,0,0,2022-06-02T11:05:33.935+02:00,675853533.934871,0,5.570312,101.3156,1,0.75
1015,2022-06-02T11:05:34.394+02:00,1654160727.135313,53.22900154167154,10.39889660664871,37.52536,-1,-1,-1,-1,29.18292999267578,178.6873636504573,-9999,3818.530114041667,-3.646743774414062,-10.53396606445312,-1.356903076171875,3818.520119041667,-0.8774581701326416,0.6784294638278772,0.4159115162404269,7.253101825714111,5.05038595199585,30.58924293518066,-31.77180862426758,-28.45292472839355,26.3126049041748,XArbitraryZVertical,0.3145580204698122,0.2120384706551125,-0.3297600125591044,0.8644947644964801,0.574069619178772,-0.4040239155292511,-0.7121858596801758,0,0,0,-1,-1,3818.072656041667,unknown,2,2022-06-02T11:05:33.935+02:00,2022-06-02T10:17:13.754+02:00,731,1.513853,0.0,0.0,586.7537,0,0,2022-06-02T11:05:33.935+02:00,675853533.934871,0,5.570312,101.3156,1,0.75
1016,2022-06-02T11:05:34.404+02:00,1654160727.135313,53.22900154167154,10.39889660664871,37.52536,-1,-1,-1,-1,29.18292999267578,178.6873636504573,-9999,3818.540108041667,-8.705368041992188,-4.01312255859375,1.500274658203125,3818.530114041667,-0.5954021704622677,0.5498402324957283,0.5206458633082597,-16.66801643371582,-4.965687274932861,19.7237663269043,-9.864826202392578,-18.55903244018555,1.395321249961853,XArbitraryZVertical,0.3137755706989313,0.1781206671152969,-0.2059953157085764,0.909606461042772,0.4533120095729828,-0.4974405169487,-0.7396358251571655,0,0,0,-1,-1,3818.072656041667,unknown,2,2022-06-02T11:05:33.935+02:00,2022-06-02T10:17:13.754+02:00,731,1.513853,0.0,0.0,586.7537,0,0,2022-06-02T11:05:33.935+02:00,675853533.934871,0,5.570312,101.3156,1,0.75
1017,2022-06-02T11:05:34.414+02:00,1654160727.135313,53.22900154167154,10.39889660664871,37.52536,-1,-1,-1,-1,29.18292999267578,178.6873636504573,-9999,3818.550103041667,-20.2493896484375,-0.7567138671875,5.466796875,3818.540108041667,-0.4146124351996676,0.3840992316712928,0.4465462035270569,-7.278642654418945,-6.569104194641113,5.07770299911499,-4.772520065307617,-5.477372646331787,1.109815120697021,XArbitraryZVertical,0.2510089292241929,0.1374117533115198,-0.1556671054548853,0.945452351507317,0.3379802107810974,-0.4318529963493347,-0.8362250328063965,0,0,0,-1,-1,3818.072656041667,unknown,2,2022-06-02T11:05:33.935+02:00,2022-06-02T10:17:13.754+02:00,731,1.513853,0.0,0.0,586.7537,0,0,2022-06-02T11:05:33.935+02:00,675853533.934871,0,5.570312,101.3156,1,0.75
1018,2022-06-02T11:05:34.424+02:00,1654160727.135313,53.22900154167154,10.39889660664871,37.52536,-1,-1,-1,-1,29.18292999267578,178.6873636504573,-9999,3818.560097041667,-6.646011352539062,-6.88726806640625,8.90789794921875,3818.550103041667,-0.315681221358932,0.349642199327435,0.4764617576185681,2.938748359680176,9.604771614074709,10.70419120788574,-16.06974411010742,-0.9611771702766418,3.044528484344482,XArbitraryZVertical,0.2560656097278021,0.1303905470928975,-0.1098835037654645,0.951501119936386,0.3044082820415497,-0.4586378931999207,-0.8348574042320251,0,0,0,-1,-1,3818.072656041667,unknown,2,2022-06-02T11:05:33.935+02:00,2022-06-02T10:17:13.754+02:00,731,1.513853,0.0,0.0,586.7537,0,0,2022-06-02T11:05:33.935+02:00,675853533.934871,0,5.570312,101.3156,1,0.75
1019,2022-06-02T11:05:34.434+02:00,1654160727.135313,53.22900154167154,10.39889660664871,37.52536,-1,-1,-1,-1,29.18292999267578,178.6873636504573,-9999,3818.570092041667,-2.8682861328125,-4.523513793945312,8.577362060546875,3818.560097041667,-0.1961367411008391,0.395235627724078,0.507334991011355,-3.632009029388428,8.01241683959961,10.85902976989746,-15.47014999389648,-3.063451528549194,8.972247123718262,XArbitraryZVertical,0.2634972553098721,0.1650447716562905,-0.0438988631042902,0.9494220332220332,0.3365287482738495,-0.4858496487140656,-0.8066588640213013,0,0,0,-1,-1,3818.072656041667,unknown,2,2022-06-02T11:05:33.935+02:00,2022-06-02T10:17:13.754+02:00,731,1.513853,0.0,0.0,586.7537,0,0,2022-06-02T11:05:33.935+02:00,675853533.934871,0,5.570312,101.3156,1,0.75
1020,2022-06-02T11:05:34.444+02:00,1654160727.135313,53.22900154167154,10.39889660664871,37.52536,-1,-1,-1,-1,29.18292999267578,178.6873636504573,-9999,3818.580086041667,-9.277420043945312,2.197052001953125,5.173568725585938,3818.570092041667,-0.0636561887029572,0.3669123061805388,0.4849463859829556,-9.140414237976074,-0.4181343913078308,9.722563743591309,-2.679128170013428,-6.92469310760498,9.926949501037598,XArbitraryZVertical,0.2415910393058076,0.1694900123434055,0.0134063263911441,0.9553674926773652,0.3173727989196777,-0.466160923242569,-0.8258138298988342,0,0,0,-1,-1,3818.072656041667,unknown,2,2022-06-02T11:05:33.935+02:00,2022-06-02T10:17:13.754+02:00,731,1.513853,0.0,0.0,586.7537,0,0,2022-06-02T11:05:33.935+02:00,675853533.934871,0,5.570312,101.3156,1,0.75
1021,2022-06-02T11:05:34.454+02:00,1654160727.135313,53.22900154167154,10.39889660664871,37.52536,-1,-1,-1,-1,29.18292999267578,178.6873636504573,-9999,3818.590081041667,-8.6480712890625,2.685226440429688,3.193634033203125,3818.580086041667,0.07250260940874,0.2899680159951972,0.4444886082233603,-4.81850528717041,-2.620095491409302,10.51452922821045,-6.224752426147461,-0.4098474979400635,7.852032661437988,XArbitraryZVertical,0.2128558622089002,0.1487355688215692,0.0668055701690312,0.9633831625474576,0.2581387758255005,-0.4299962222576141,-0.8651401996612549,0,0,0,-1,-1,3818.072656041667,unknown,2,2022-06-02T11:05:33.935+02:00,2022-06-02T10:17:13.754+02:00,731,1.513853,0.0,0.0,586.7537,0,0,2022-06-02T11:05:33.935+02:00,675853533.934871,0,5.570312,101.3156,1,0.75
1022,2022-06-02T11:05:34.464+02:00,1654160727.135313,53.22900154167154,10.39889660664871,37.52536,-1,-1,-1,-1,29.18292999267578,178.6873636504573,-9999,3818.600075041667,-6.677932739257812,-0.1779937744140625,4.28546142578125,3818.590081041667,0.1722899970500968,0.2083240100193609,0.461861154555541,3.144639015197754,-5.242881298065186,7.723366737365723,-10.42184543609619,3.959973573684692,4.614439964294434,XArbitraryZVertical,0.2180905530422783,0.1204243904161173,0.1070101875997586,0.9625399867600228,0.1851507574319839,-0.4456150233745575,-0.8758689761161804,0,0,0,-1,-1,3818.072656041667,unknown,2,2022-06-02T11:05:33.935+02:00,2022-06-02T10:17:13.754+02:00,731,1.513853,0.0,0.0,586.7537,0,0,2022-06-02T11:05:33.935+02:00,675853533.934871,0,5.570312,101.3156,1,0.75
1023,2022-06-02T11:05:34.474+02:00,1654160727.135313,53.22900154167154,10.39889660664871,37.52536,-1,-1,-1,-1,29.18292999267578,178.6873636504573,-9999,3818.610069541667,-8.639846801757812,-1.195632934570312,4.108978271484375,3818.600075041667,0.239379397383727,0.1141239028090834,0.5238233516712378,6.714207172393799,-7.031588077545166,6.427334308624268,-6.94853687286377,1.493099212646484,4.561421394348145,XArbitraryZVertical,0.2500791754187305,0.0855586553231376,0.1298056102274427,0.9556623182333368,0.0986070036888122,-0.5001944899559021,-0.8602802157402039,0,0,0,-1,-1,3818.072656041667,unknown,2,2022-06-02T11:05:33.935+02:00,2022-06-02T10:17:13.754+02:00,731,1.513853,0.0,0.0,586.7537,0,0,2022-06-02T11:05:33.935+02:00,675853533.934871,0,5.570312,101.3156,1,0.75
1024,2022-06-02T11:05:34.484+02:00,1654160727.135313,53.22900154167154,10.39889660664871,37.52536,-1,-1,-1,-1,29.18292999267578,178.6873636504573,-9999,3818.620063541667,-8.108108520507812,-2.4349365234375,2.855117797851562,3818.610069541667,0.3166004795883909,0.0035867559351802,0.5979866782234985,6.896045684814453,-6.620776653289795,7.529130458831787,-7.674274921417236,-0.1024255752563477,5.216510772705078,XArbitraryZVertical,0.290604772938629,0.0481264721860805,0.1511674080004148,0.9436000488111832,0.0029643424786627,-0.5629796385765076,-0.8264654278755188,0,0,0,-1,-1,3818.072656041667,unknown,2,2022-06-02T11:05:33.935+02:00,2022-06-02T10:17:13.754+02:00,731,1.513853,0.0,0.0,586.7537,0,0,2022-06-02T11:05:33.935+02:00,675853533.934871,0,5.570312,101.3156,1,0.75
1025,2022-06-02T11:05:34.494+02:00,1654160727.135313,53.22900154167154,10.39889660664871,37.52536,-1,-1,-1,-1,29.18292999267578,178.6873636504573,-9999,3818.630058541667,-7.475357055664062,-2.525360107421875,1.728469848632812,3818.620063541667,0.4167181829236968,-0.1190973150146786,0.6556388938179212,5.601853847503662,-6.180853366851807,7.846530437469482,-8.624478340148926,-1.327895283699036,4.34345531463623,XArbitraryZVertical,0.3261121900843754,0.0113593641690872,0.1767442730326879,0.9285920699676128,-0.0941804945468902,-0.6096658110618591,-0.7870436310768127,0,0,0,-1,-1,3818.072656041667,unknown,2,2022-06-02T11:05:33.935+02:00,2022-06-02T10:17:13.754+02:00,731,1.513853,0.0,0.0,586.7537,0,0,2022-06-02T11:05:33.935+02:00,675853533.934871,0,5.570312,101.3156,1,0.75
1026,2022-06-02T11:05:34.504+02:00,1654160727.135313,53.22900154167154,10.39889660664871,37.52536,-1,-1,-1,-1,29.18292999267578,178.6873636504573,-9999,3818.640053541667,-6.751556396484375,-2.729476928710938,0.9858856201171876,3818.630058541667,0.5254326757977427,-0.2443067001217157,0.6920762909139089,4.667410850524902,-5.240297794342041,7.611738204956055,-7.448564529418945,-1.888413071632385,2.960545778274536,XArbitraryZVertical,0.3548643622037125,-0.0232653572220046,0.2025797253830816,0.912409625253736,-0.186231717467308,-0.63813716173172,-0.7470600008964539,0,0,0,-1,-1,3818.072656041667,unknown,2,2022-06-02T11:05:33.935+02:00,2022-06-02T10:17:13.754+02:00,731,1.513853,0.0,0.0,586.7537,0,0,2022-06-02T11:05:33.935+02:00,675853533.934871,0,5.570312,101.3156,1,0.75
1027,2022-06-02T11:05:34.514+02:00,1654160727.135313,53.22900154167154,10.39889660664871,37.52536,-1,-1,-1,-1,29.18292999267578,178.6873636504573,-9999,3818.650047541667,-5.6165771484375,-2.624252319335938,0.541534423828125,3818.640053541667,0.6333212931682628,-0.3606738919130661,0.7091541674277109,3.487728834152222,-4.149296283721924,7.052085399627686,-6.971113204956055,-1.974769115447998,2.040955543518066,XArbitraryZVertical,0.3769588753858738,-0.0534794934218381,0.2281116268383936,0.8961066091791307,-0.2678240537643433,-0.6511920690536499,-0.7100839018821716,0,0,0,-1,-1,3818.072656041667,unknown,2,2022-06-02T11:05:33.935+02:00,2022-06-02T10:17:13.754+02:00,731,1.513853,0.0,0.0,586.7537,0,0,2022-06-02T11:05:33.935+02:00,675853533.934871,0,5.570312,101.3156,1,0.75
1028,2022-06-02T11:05:34.524+02:00,1654160727.135313,53.22900154167154,10.39889660664871,37.52536,-1,-1,-1,-1,29.18292999267578,178.6873636504573,-9999,3818.660042541667,-4.8446044921875,-2.3448486328125,0.266143798828125,3818.650047541667,0.7291283534171834,-0.4599652890756923,0.7082651158207961,2.13582968711853,-3.215792655944824,6.377277374267578,-5.822272777557373,-2.057536363601685,1.404509305953979,XArbitraryZVertical,0.3916901042477313,-0.0793778755192536,0.2517566136055943,0.8814173800826823,-0.3371512293815613,-0.6505171060562134,-0.680556058883667,0,0,0,-1,-1,3818.072656041667,unknown,2,2022-06-02T11:05:33.935+02:00,2022-06-02T10:17:13.754+02:00,731,1.513853,0.0,0.0,586.7537,0,0,2022-06-02T11:05:33.935+02:00,675853533.934871,0,5.570312,101.3156,1,0.75
1029,2022-06-02T11:05:34.534+02:00,1654160727.135313,53.22900154167154,10.39889660664871,37.52536,-1,-1,-1,-1,29.18292999267578,178.6873636504573,-9999,3818.670036541667,-4.164138793945312,-2.01104736328125,0.0034637451171875,3818.660042541667,0.8071618314968511,-0.5382838957536714,0.6918265219646847,0.7162824273109436,-2.363167524337769,5.670145511627197,-4.813352108001709,-1.869608283042908,1.064810037612915,XArbitraryZVertical,0.3988298195876143,-0.1016981235780792,0.2732382835439824,0.8694440897031988,-0.3947928249835968,-0.6379448175430298,-0.661184549331665,0,0,0,-1,-1,3818.072656041667,unknown,2,2022-06-02T11:05:33.935+02:00,2022-06-02T10:17:13.754+02:00,731,1.513853,0.0,0.0,586.7537,0,0,2022-06-02T11:05:33.935+02:00,675853533.934871,0,5.570312,101.3156,1,0.75
1030,2022-06-02T11:05:34.544+02:00,1654160727.135313,53.22900154167154,10.39889660664871,37.52536,-1,-1,-1,-1,29.18292999267578,178.6873636504573,-9999,3818.680031541667,-3.620147705078125,-1.711288452148438,-0.220611572265625,3818.670036541667,0.8656828130383375,-0.5958446940929187,0.6639442025256717,-0.5020391941070557,-1.819437503814697,5.019773483276367,-4.05802583694458,-1.544080853462219,0.7809240818023682,XArbitraryZVertical,0.3992206212440921,-0.1212348887049331,0.2922388750875635,0.8605355317813715,-0.4419894218444824,-0.6162279844284058,-0.6518499851226807,0,0,0,-1,-1,3818.072656041667,unknown,2,2022-06-02T11:05:33.935+02:00,2022-06-02T10:17:13.754+02:00,731,1.513853,0.0,0.0,586.7537,0,0,2022-06-02T11:05:33.935+02:00,675853533.934871,0,5.570312,101.3156,1,0.75
1031,2022-06-02T11:05:34.554+02:00,1654160727.135313,53.22900154167154,10.39889660664871,37.52536,-1,-1,-1,-1,29.18292999267578,178.6873636504573,-9999,3818.690025541667,-3.241607666015625,-1.359725952148438,-0.4112548828125,3818.680031541667,0.9056455299397728,-0.6356347042995468,0.628850718285638,-1.497875094413757,-1.378628849983215,4.249270439147949,-3.386413097381592,-1.288722038269043,0.5409731864929199,XArbitraryZVertical,0.3941882998949324,-0.1386921369943677,0.3083155707225655,0.8545885414979973,-0.4801182150840759,-0.588215708732605,-0.6507601737976074,0,0,0,-1,-1,3818.072656041667,unknown,2,2022-06-02T11:05:33.935+02:00,2022-06-02T10:17:13.754+02:00,731,1.513853,0.0,0.0,586.7537,0,0,2022-06-02T11:05:33.935+02:00,675853533.934871,0,5.570312,101.3156,1,0.75
1032,2022-06-02T11:05:34.564+02:00,1654160727.135313,53.22900154167154,10.39889660664871,37.52536,-1,-1,-1,-1,29.18292999267578,178.6873636504573,-9999,3818.700020541667,-3.0228271484375,-1.075088500976562,-0.48974609375,3818.690025541667,0.9297648000139028,-0.6616827148066627,0.5904746585964464,-2.212151527404785,-1.06328272819519,3.549792528152466,-2.893052339553833,-0.9702068567276,0.3279164433479309,XArbitraryZVertical,0.3853131660683693,-0.1544304419046582,0.3211731065487869,0.8511948729883401,-0.5104052424430847,-0.5567553639411926,-0.6553699970245361,0,0,0,-1,-1,3818.072656041667,unknown,2,2022-06-02T11:05:33.935+02:00,2022-06-02T10:17:13.754+02:00,731,1.513853,0.0,0.0,586.7537,0,0,2022-06-02T11:05:33.935+02:00,675853533.934871,0,5.570312,101.3156,1,0.75
1033,2022-06-02T11:05:34.574+02:00,1654160727.135313,53.22900154167154,10.39889660664871,37.52536,-1,-1,-1,-1,29.18292999267578,178.6873636504573,-9999,3818.710014541667,-2.87457275390625,-0.759368896484375,-0.4954833984375,3818.700020541667,0.9406039198950146,-0.676939550343978,0.5508279555376934,-2.877240180969238,-0.8341752290725708,2.799154281616211,-2.590783357620239,-0.6910693645477295,0.1987456083297729,XArbitraryZVertical,0.3734635372962669,-0.1685975712977328,0.3308416006980839,0.8500844385184563,-0.5337588787078857,-0.523392915725708,-0.664199709892273,0,0,0,-1,-1,3818.072656041667,unknown,2,2022-06-02T11:05:33.935+02:00,2022-06-02T10:17:13.754+02:00,731,1.513853,0.0,0.0,586.7537,0,0,2022-06-02T11:05:33.935+02:00,675853533.934871,0,5.570312,101.3156,1,0.75
1034,2022-06-02T11:05:34.584+02:00,1654160727.135313,53.22900154167154,10.39889660664871,37.52536,-1,-1,-1,-1,29.18292999267578,178.6873636504573,-9999,3818.720009541667,-2.794998168945312,-0.35943603515625,-0.4896087646484375,3818.710014541667,0.93958149306561,-0.6836786331514015,0.5112317697934221,-3.350186586380005,-0.6281844973564148,2.056623220443726,-2.386306762695312,-0.4367277324199677,0.1815033555030823,XArbitraryZVertical,0.3592281259601174,-0.1813532804865412,0.337072986079587,0.8511450468018438,-0.5508880615234375,-0.4892518818378448,-0.6761322617530823,0,0,0,-1,-1,3818.072656041667,unknown,2,2022-06-02T11:05:33.935+02:00,2022-06-02T10:17:13.754+02:00,731,1.513853,0.0,0.0,586.7537,0,0,2022-06-02T11:05:33.935+02:00,675853533.934871,0,5.570312,101.3156,1,0.75
1035,2022-06-02T11:05:34.594+02:00,1654160727.135313,53.22900154167154,10.39889660664871,37.52536,-1,-1,-1,-1,29.18292999267578,178.6873636504573,-9999,3818.730003541667,-2.73297119140625,-0.0831146240234375,-0.4422760009765625,3818.720009541667,0.9295494766650694,-0.6846043004802636,0.4736391702725677,-3.577996015548706,-0.4892029166221619,1.352770686149597,-2.263984441757202,-0.1088745892047882,0.1934939026832581,XArbitraryZVertical,0.3438071107014616,-0.1926188759084671,0.3400375187359627,0.8538554309872894,-0.5627520084381104,-0.4561278522014618,-0.6893892884254456,0,0,0,-1,-1,3818.072656041667,unknown,2,2022-06-02T11:05:33.935+02:00,2022-06-02T10:17:13.754+02:00,731,1.513853,0.0,0.0,586.7537,0,0,2022-06-02T11:05:33.935+02:00,675853533.934871,0,5.570312,101.3156,1,0.75
1036,2022-06-02T11:05:34.604+02:00,1654160727.135313,53.22900154167154,10.39889660664871,37.52536,-1,-1,-1,-1,29.18292999267578,178.6873636504573,-9999,3818.739998541667,-2.625213623046875,0.089111328125,-0.3447113037109375,3818.730003541667,0.9138859172817904,-0.681536164314198,0.4391039896682328,-3.53050971031189,-0.2647306025028229,0.8456706404685974,-2.198027610778809,0.2283360362052917,0.2278491258621216,XArbitraryZVertical,0.3281260190567791,-0.2021572135354303,0.3405335729846356,0.8576145004206286,-0.5702217817306519,-0.4251286387443542,-0.7029315829277039,0,0,0,-1,-1,3818.072656041667,unknown,2,2022-06-02T11:05:33.935+02:00,2022-06-02T10:17:13.754+02:00,731,1.513853,0.0,0.0,586.7537,0,0,2022-06-02T11:05:33.935+02:00,675853533.934871,0,5.570312,101.3156,1,0.75
1037,2022-06-02T11:05:34.614+02:00,1654160727.135313,53.22900154167154,10.39889660664871,37.52536,-1,-1,-1,-1,29.18292999267578,178.6873636504573,-9999,3818.749992541667,-2.46722412109375,0.2027587890625,-0.2353668212890625,3818.739998541667,0.8956694749947376,-0.6753808915655898,0.4081498848277229,-3.36577844619751,-0.0067187561653554,0.4616532623767853,-2.111356735229492,0.4063875675201416,0.3199200034141541,XArbitraryZVertical,0.3128438318435008,-0.2096412085985734,0.3395588181223503,0.8619043349256096,-0.5738390684127808,-0.3969118595123291,-0.7163586020469666,0,0,0,-1,-1,3818.072656041667,unknown,2,2022-06-02T11:05:33.935+02:00,2022-06-02T10:17:13.754+02:00,731,1.513853,0.0,0.0,586.7537,0,0,2022-06-02T11:05:33.935+02:00,675853533.934871,0,5.570312,101.3156,1,0.75
1038,2022-06-02T11:05:34.624+02:00,1654160727.135313,53.22900154167154,10.39889660664871,37.52536,-1,-1,-1,-1,29.18292999267578,178.6873636504573,-9999,3818.759987541667,-2.375991821289062,0.2632293701171875,-0.1713409423828125,3818.749992541667,0.8764248589665725,-0.6673878697732372,0.3800288791723889,-3.265415906906128,0.1285611689090729,0.2801371216773987,-1.969945669174194,0.5255340933799744,0.441423773765564,XArbitraryZVertical,0.2980716381544989,-0.2155268790603724,0.3376822418573901,0.8664133409766958,-0.5747777223587036,-0.3709473013877869,-0.7294028997421265,0,0,0,-1,-1,3818.072656041667,unknown,2,2022-06-02T11:05:33.935+02:00,2022-06-02T10:17:13.754+02:00,731,1.513853,0.0,0.0,586.7537,0,0,2022-06-02T11:05:33.935+02:00,675853533.934871,0,5.570312,101.3156,1,0.75
1039,2022-06-02T11:05:34.637+02:00,1654160727.135313,53.22900154167154,10.39889660664871,37.52536,-1,-1,-1,-1,29.18292999267578,178.6873636504573,-9999,3818.769981541667,-2.276351928710938,0.3285980224609375,-0.103424072265625,3818.759987541667,0.8568263771530172,-0.6581220116274494,0.3528537200801632,-3.316049575805664,0.3229221105575562,0.1922192424535751,-1.842248916625977,0.5763968229293823,0.5416556596755981,XArbitraryZVertical,0.2832489004544824,-0.2203859121612571,0.335443969479582,0.8710207947030391,-0.5739496946334839,-0.3455771207809448,-0.7424002289772034,0,0,0,-1,-1,3818.072656041667,unknown,2,2022-06-02T11:05:33.935+02:00,2022-06-02T10:17:13.754+02:00,731,1.513853,0.0,0.0,586.7537,0,0,2022-06-02T11:05:33.935+02:00,675853533.934871,0,5.570312,101.3156,1,0.75
1040,2022-06-02T11:05:34.644+02:00,1654160727.135313,53.22900154167154,10.39889660664871,37.52536,-1,-1,-1,-1,29.18292999267578,178.6873636504573,-9999,3818.779976541667,-2.232955932617188,0.3772430419921875,-0.0800933837890625,3818.769981541667,0.8363934460116836,-0.6474675196501954,0.3239300227607867,-3.62801194190979,0.4305706322193146,0.2498824596405029,-1.751901149749756,0.6207391023635864,0.6222050189971924,XArbitraryZVertical,0.2672036294363239,-0.2248032717952903,0.3331015974526589,0.8758475651033356,-0.5717986822128296,-0.3182946443557739,-0.7561314105987549,0,0,0,-1,-1,3818.072656041667,unknown,2,2022-06-02T11:05:33.935+02:00,2022-06-02T10:17:13.754+02:00,731,1.513853,0.0,0.0,586.7537,0,0,2022-06-02T11:05:33.935+02:00,675853533.934871,0,5.570312,101.3156,1,0.75
1041,2022-06-02T11:05:34.654+02:00,1654160727.135313,53.22900154167154,10.39889660664871,37.52536,-1,-1,-1,-1,29.18292999267578,178.6873636504573,-9999,3818.789970541667,-2.196075439453125,0.4844207763671875,-0.1087799072265625,3818.779976541667,0.814466975066612,-0.6362872761086703,0.2922085291096753,-3.964459180831909,0.467556893825531,0.2097739279270172,-1.67915952205658,0.6315431594848633,0.6802317500114441,XArbitraryZVertical,0.2495432178275568,-0.2293943339512287,0.3303714478996183,0.8808865170124782,-0.5690246820449829,-0.2880678474903107,-0.7702128291130066,0,0,0,-1,-1,3818.072656041667,unknown,2,2022-06-02T11:05:33.935+02:00,2022-06-02T10:17:13.754+02:00,731,1.513853,0.0,0.0,586.7537,0,0,2022-06-02T11:05:33.935+02:00,675853533.934871,0,5.570312,101.3156,1,0.75
1042,2022-06-02T11:05:34.664+02:00,1654160727.135313,53.22900154167154,10.39889660664871,37.52536,-1,-1,-1,-1,29.18292999267578,178.6873636504573,-9999,3818.799965541667,-2.112060546875,0.5496826171875,-0.1660614013671875,3818.789970541667,0.7911273131035298,-0.625368971250512,0.2579835186001505,-4.190807342529297,0.4342964589595795,0.1957347393035889,-1.653016328811646,0.6896101236343384,0.7020074725151062,XArbitraryZVertical,0.230493152472964,-0.2343386271849375,0.3270840942182076,0.8859877049950546,-0.566023588180542,-0.255131334066391,-0.7839166522026062,0,0,0,-1,-1,3818.072656041667,unknown,2,2022-06-02T11:05:33.935+02:00,2022-06-02T10:17:13.754+02:00,731,1.513853,0.0,0.0,586.7537,0,0,2022-06-02T11:05:33.935+02:00,675853533.934871,0,5.570312,101.3156,1,0.75
1043,2022-06-02T11:05:34.674+02:00,1654160727.135313,53.22900154167154,10.39889660664871,37.52536,-1,-1,-1,-1,29.18292999267578,178.6873636504573,-9999,3818.809959541667,-2.004592895507812,0.514556884765625,-0.1989898681640625,3818.799965541667,0.767637310364637,-0.6157389103052366,0.2227798229783909,-4.166064262390137,0.3815283179283142,0.1957344710826874,-1.596638679504395,0.7437077164649963,0.6541894674301147,XArbitraryZVertical,0.2109957977545375,-0.2395715050826684,0.323411851927378,0.8907810743680882,-0.5632886290550232,-0.2209416031837463,-0.796172559261322,0,0,0,-1,-1,3818.072656041667,unknown,2,2022-06-02T11:05:33.935+02:00,2022-06-02T10:17:13.754+02:00,731,1.513853,0.0,0.0,586.7537,0,0,2022-06-02T11:05:33.935+02:00,675853533.934871,0,5.570312,101.3156,1,0.75
1044,2022-06-02T11:05:34.684+02:00,1654160727.135313,53.22900154167154,10.39889660664871,37.52536,-1,-1,-1,-1,29.18292999267578,178.6873636504573,-9999,3818.819954541667,-1.93524169921875,0.48358154296875,-0.2964019775390625,3818.809959541667,0.7457724884314041,-0.6072626279483602,0.1882389256274245,-3.930023431777954,0.4287932217121124,0.2556335628032684,-1.495702028274536,0.7349655032157898,0.6277362704277039,XArbitraryZVertical,0.191959138809616,-0.2445370724241934,0.3199337961894297,0.8949836158532933,-0.5605417490005493,-0.1871292144060135,-0.8067066073417664,0,0,0,-1,-1,3818.072656041667,unknown,2,2022-06-02T11:05:33.935+02:00,2022-06-02T10:17:13.754+02:00,731,1.513853,0.0,0.0,586.7537,0,0,2022-06-02T11:05:33.935+02:00,675853533.934871,0,5.570312,101.3156,1,0.75
1045,2022-06-02T11:05:34.694+02:00,1654160727.135313,53.22900154167154,10.39889660664871,37.52536,-1,-1,-1,-1,29.18292999267578,178.6873636504573,-9999,3818.829949541667,-1.9176025390625,0.5499725341796875,-0.408966064453125,3818.819954541667,0.7256601368304986,-0.5989815752403382,0.1561643678163087,-3.575322866439819,0.5262396335601807,0.1290588527917862,-1.406468629837036,0.6394934058189392,0.5779905915260315,XArbitraryZVertical,0.1740732246708878,-0.2485329069950679,0.3165743310105775,0.8987271917691805,-0.5569407939910889,-0.1555304080247879,-0.8158597946166992,0,0,0,-1,-1,3818.072656041667,unknown,2,2022-06-02T11:05:33.935+02:00,2022-06-02T10:17:13.754+02:00,731,1.513853,0.0,0.0,586.7537,0,0,2022-06-02T11:05:33.935+02:00,675853533.934871,0,5.570312,101.3156,1,0.75
1046,2022-06-02T11:05:34.704+02:00,1654160727.135313,53.22900154167154,10.39889660664871,37.52536,-1,-1,-1,-1,29.18292999267578,178.6873636504573,-9999,3818.839943541667,-1.9210205078125,0.6283416748046875,-0.45867919921875,3818.829949541667,0.7075922822034516,-0.5908093230091749,0.1286026681407616,-2.979557752609253,0.5972880721092224,-0.0214353837072849,-1.367747783660889,0.6356489658355713,0.4646537303924561,XArbitraryZVertical,0.1583220944574343,-0.251233200435677,0.3132208331210974,0.9020579886956316,-0.5524333715438843,-0.12824846804142,-0.823632001876831,0,0,0,-1,-1,3818.072656041667,unknown,2,2022-06-02T11:05:33.935+02:00,2022-06-02T10:17:13.754+02:00,731,1.513853,0.0,0.0,586.7537,0,0,2022-06-02T11:05:33.935+02:00,675853533.934871,0,5.570312,101.3156,1,0.75
1047,2022-06-02T11:05:34.714+02:00,1654160727.135313,53.22900154167154,10.39889660664871,37.52536,-1,-1,-1,-1,29.18292999267578,178.6873636504573,-9999,3818.849938541667,-1.861328125,0.597747802734375,-0.4762725830078125,3818.839943541667,0.6917445720997065,-0.5826057508454341,0.1073860077759348,-2.289070606231689,0.675769567489624,-0.255754679441452,-1.374247550964355,0.7046375870704651,0.3899751305580139,XArbitraryZVertical,0.1455876242699383,-0.2523754850681368,0.309766351467146,0.9050721274221468,-0.547032356262207,-0.1071797385811806,-0.8302217125892639,0,0,0,-1,-1,3818.072656041667,unknown,2,2022-06-02T11:05:33.935+02:00,2022-06-02T10:17:13.754+02:00,731,1.513853,0.0,0.0,586.7537,0,0,2022-06-02T11:05:33.935+02:00,675853533.934871,0,5.570312,101.3156,1,0.75
1048,2022-06-02T11:05:34.724+02:00,1654160727.135313,53.22900154167154,10.39889660664871,37.52536,-1,-1,-1,-1,29.18292999267578,178.6873636504573,-9999,3818.859932541667,-1.79718017578125,0.476654052734375,-0.47265625,3818.849938541667,0.6777450694953132,-0.5738040560237128,0.0926182730326362,-1.738712906837463,0.8150239586830139,-0.4510103464126587,-1.358238458633423,0.7188591957092285,0.3646543622016907,XArbitraryZVertical,0.1358445833277918,-0.251843194280958,0.3061393871193406,0.9079646408359948,-0.5405041575431824,-0.0924859121441841,-0.8362424969673157,0,0,0,-1,-1,3818.072656041667,unknown,2,2022-06-02T11:05:33.935+02:00,2022-06-02T10:17:13.754+02:00,731,1.513853,0.0,0.0,586.7537,0,0,2022-06-02T11:05:33.935+02:00,675853533.934871,0,5.570312,101.3156,1,0.75
1049,2022-06-02T11:05:34.734+02:00,1654160727.135313,53.22900154167154,10.39889660664871,37.52536,-1,-1,-1,-1,29.18292999267578,178.6873636504573,-9999,3818.869927541667,-1.740127563476562,0.430908203125,-0.4451751708984375,3818.859932541667,0.6646447767657994,-0.5636275877799386,0.0830397563862627,-1.27571165561676,0.991054117679596,-0.7313557267189026,-1.294198989868164,0.6259283423423767,0.3666560053825378,XArbitraryZVertical,0.128337572435084,-0.2496489334221696,0.3021881652990061,0.9109813140760222,-0.5324152112007141,-0.082944355905056,-0.8424097299575806,0,0,0,-1,-1,3818.072656041667,unknown,2,2022-06-02T11:05:33.935+02:00,2022-06-02T10:17:13.754+02:00,731,1.513853,0.0,0.0,586.7537,0,0,2022-06-02T11:05:33.935+02:00,675853533.934871,0,5.570312,101.3156,1,0.75
1050,2022-06-02T11:05:34.744+02:00,1654160727.135313,53.22900154167154,10.39889660664871,37.52536,-1,-1,-1,-1,29.18292999267578,178.6873636504573,-9999,3818.879921541667,-1.718246459960938,0.434722900390625,-0.4023590087890625,3818.869927541667,0.6514875619792279,-0.5519721864147041,0.0786404699665387,-0.8764296174049377,1.124624013900757,-1.029292225837708,-1.244129180908203,0.514411449432373,0.3867632746696472,XArbitraryZVertical,0.1229684769113025,-0.2458628425617983,0.2975167300976841,0.9142833279975248,-0.5227469801902771,-0.078559435904026,-0.8488604426383972,0,0,0,-1,-1,3818.072656041667,unknown,2,2022-06-02T11:05:33.935+02:00,2022-06-02T10:17:13.754+02:00,731,1.513853,0.0,0.0,586.7537,0,0,2022-06-02T11:05:33.935+02:00,675853533.934871,0,5.570312,101.3156,1,0.75
