,loggingTime(txt),locationTimestamp_since1970(s),locationLatitude(WGS84),locationLongitude(WGS84),locationAltitude(m),locationSpeed(m/s),locationSpeedAccuracy(m/s),locationCourse(°),locationCourseAccuracy(°),locationVerticalAccuracy(m),locationHorizontalAccuracy(m),locationFloor(Z),accelerometerTimestamp_sinceReboot(s),accelerometerAccelerationX(G),accelerometerAccelerationY(G),accelerometerAccelerationZ(G),motionTimestamp_sinceReboot(s),motionYaw(rad),motionRoll(rad),motionPitch(rad),motionRotationRateX(rad/s),motionRotationRateY(rad/s),motionRotationRateZ(rad/s),motionUserAccelerationX(G),motionUserAccelerationY(G),motionUserAccelerationZ(G),motionAttitudeReferenceFrame(txt),motionQuaternionX(R),motionQuaternionY(R),motionQuaternionZ(R),motionQuaternionW(R),motionGravityX(G),motionGravityY(G),motionGravityZ(G),motionMagneticFieldX(µT),motionMagneticFieldY(µT),motionMagneticFieldZ(µT),motionHeading(°),motionMagneticFieldCalibrationAccuracy(Z),activityTimestamp_sinceReboot(s),activity(txt),activityActivityConfidence(Z),activityActivityStartDate(txt),pedometerStartDate(txt),pedometerNumberofSteps(N),pedometerAverageActivePace(s/m),pedometerCurrentPace(s/m),pedometerCurrentCadence(steps/s),pedometerDistance(m),pedometerFloorAscended(N),pedometerFloorDescended(N),pedometerEndDate(txt),altimeterTimestamp_sinceReboot(s),altimeterReset(bool),altimeterRelativeAltitude(m),altimeterPressure(kPa),batteryState(N),batteryLevel(R)
448,2022-06-02T11:06:08.713+02:00,1654160768.48912,53.22902769501223,10.39846321744277,37.3933,0.2641875,0.7927575,216.3806251324359,46.26193373641607,2.400000095367432,7.999579855010836,-9999,3852.848795375,1.152084350585938,-0.053466796875,0.5430908203125,3852.848795375,-2.311476852121104,0.2828845717492201,0.6953962435276452,-10.80828762054443,11.62132835388184,-7.942453384399414,0.8818016648292542,0.2218665480613708,1.084206819534302,XArbitraryZVertical,0.2573088873840159,-0.2552461549862605,-0.8323725046207523,0.4192819865463929,0.2143134623765945,-0.6406897306442261,-0.7372830510139465,0,0,0,-1,-1,3851.321616,unknown,2,2022-06-02T11:06:07.184+02:00,2022-06-02T10:17:13.754+02:00,739,1.523163,0.0,0,592.3977,0,0,2022-06-02T11:06:07.184+02:00,675853567.1838299,0,4.363281,101.3304,1,0.75
449,2022-06-02T11:06:08.722+02:00,1654160768.48912,53.22902769501223,10.39846321744277,37.3933,0.2641875,0.7927575,216.3806251324359,46.26193373641607,2.400000095367432,7.999579855010836,-9999,3852.858789375,0.9730224609375,0.5713043212890625,0.958953857421875,3852.848795375,-2.311476852121104,0.2828845717492201,0.6953962435276452,-10.80828762054443,11.62132835388184,-7.942453384399414,0.8818016648292542,0.2218665480613708,1.084206819534302,XArbitraryZVertical,0.2573088873840159,-0.2552461549862605,-0.8323725046207523,0.4192819865463929,0.2143134623765945,-0.6406897306442261,-0.7372830510139465,0,0,0,-1,-1,3851.321616,unknown,2,2022-06-02T11:06:07.184+02:00,2022-06-02T10:17:13.754+02:00,739,1.523163,0.0,0,592.3977,0,0,2022-06-02T11:06:07.184+02:00,675853567.1838299,0,4.363281,101.3304,1,0.75
450,2022-06-02T11:06:08.732+02:00,1654160768.48912,53.22902769501223,10.39846321744277,37.3933,0.2641875,0.7927575,216.3806251324359,46.26193373641607,2.400000095367432,7.999579855010836,-9999,3852.868784375,0.8286895751953125,1.03594970703125,1.24871826171875,3852.858789375,-2.347808761727149,0.4348968117173337,0.5547213586858674,-13.58944892883301,14.42593574523926,-7.421389102935791,0.7330625653266907,0.8117865324020386,1.504989147186279,XArbitraryZVertical,0.294717381634313,-0.1663791252392536,-0.8432958612176592,0.4175064354796159,0.3581391870975494,-0.5267064571380615,-0.7709193229675293,0,0,0,-1,-1,3851.321616,unknown,2,2022-06-02T11:06:07.184+02:00,2022-06-02T10:17:13.754+02:00,739,1.523163,0.0,0,592.3977,0,0,2022-06-02T11:06:07.184+02:00,675853567.1838299,0,4.363281,101.3304,1,0.75
451,2022-06-02T11:06:08.742+02:00,1654160768.48912,53.22902769501223,10.39846321744277,37.3933,0.2641875,0.7927575,216.3806251324359,46.26193373641607,2.400000095367432,7.999579855010836,-9999,3852.878779375,0.5071258544921875,1.371719360351562,1.273147583007812,3852.868784375,-2.333046102497656,0.5871143183624395,0.3910942785440052,-16.35559844970703,17.27023124694824,-6.268409729003906,0.3465098738670349,1.200643181800842,1.944713115692139,XArbitraryZVertical,0.3341229019255885,-0.0593477196192992,-0.8411695726118418,0.4210386386510633,0.5121326446533203,-0.3812002837657928,-0.7696794867515564,0,0,0,-1,-1,3851.321616,unknown,2,2022-06-02T11:06:07.184+02:00,2022-06-02T10:17:13.754+02:00,739,1.523163,0.0,0,592.3977,0,0,2022-06-02T11:06:07.184+02:00,675853567.1838299,0,4.363281,101.3304,1,0.75
452,2022-06-02T11:06:08.752+02:00,1654160768.48912,53.22902769501223,10.39846321744277,37.3933,0.2641875,0.7927575,216.3806251324359,46.26193373641607,2.400000095367432,7.999579855010836,-9999,3852.888773375,0.386138916015625,1.847885131835938,1.529815673828125,3852.878779375,-2.265259858789556,0.7529732018338844,0.2189641536365252,-18.65544128417969,19.79916191101074,-4.870050430297852,0.0690426230430603,1.414484262466431,1.956942081451416,XArbitraryZVertical,0.3740416481573278,0.063042965877097,-0.8200238178161138,0.4285780675351494,0.6674838066101074,-0.2172186225652695,-0.7122368812561035,0,0,0,-1,-1,3851.321616,unknown,2,2022-06-02T11:06:07.184+02:00,2022-06-02T10:17:13.754+02:00,739,1.523163,0.0,0,592.3977,0,0,2022-06-02T11:06:07.184+02:00,675853567.1838299,0,4.363281,101.3304,1,0.75
453,2022-06-02T11:06:08.762+02:00,1654160768.48912,53.22902769501223,10.39846321744277,37.3933,0.2641875,0.7927575,216.3806251324359,46.26193373641607,2.400000095367432,7.999579855010836,-9999,3852.898768375,0.3110504150390625,1.53466796875,1.673965454101562,3852.888773375,-2.144108451306169,0.9438059807095246,0.0635887844302825,-19.98609924316406,21.60890007019043,-2.470453977584839,-0.4117980003356934,1.721245527267456,1.993483304977417,XArbitraryZVertical,0.4125489224438086,0.1924608807487529,-0.7748961135336337,0.4385180720536143,0.8081602454185486,-0.0635459423065185,-0.5855243802070618,0,0,0,-1,-1,3851.321616,unknown,2,2022-06-02T11:06:07.184+02:00,2022-06-02T10:17:13.754+02:00,739,1.523163,0.0,0,592.3977,0,0,2022-06-02T11:06:07.184+02:00,675853567.1838299,0,4.363281,101.3304,1,0.75
454,2022-06-02T11:06:08.772+02:00,1654160768.48912,53.22902769501223,10.39846321744277,37.3933,0.2641875,0.7927575,216.3806251324359,46.26193373641607,2.400000095367432,7.999579855010836,-9999,3852.908763375,-0.0207977294921875,0.9557342529296876,1.922958374023438,3852.898768375,-1.972889332359641,1.166094986847592,-0.0474719328385997,-20.94812202453613,22.91399765014648,0.1334289014339447,-0.5602591037750244,1.733612775802612,1.998769402503967,XArbitraryZVertical,0.4481551214467245,0.3201666113987696,-0.7032845652503676,0.44948986234606,0.918184459209442,0.0474541038274765,-0.3933006525039673,0,0,0,-1,-1,3851.321616,unknown,2,2022-06-02T11:06:07.184+02:00,2022-06-02T10:17:13.754+02:00,739,1.523163,0.0,0,592.3977,0,0,2022-06-02T11:06:07.184+02:00,675853567.1838299,0,4.363281,101.3304,1,0.75
455,2022-06-02T11:06:08.782+02:00,1654160768.48912,53.22902769501223,10.39846321744277,37.3933,0.2641875,0.7927575,216.3806251324359,46.26193373641607,2.400000095367432,7.999579855010836,-9999,3852.918757375,-1.227645874023438,0.1735076904296875,2.027084350585938,3852.908763375,-1.765021836860404,1.415649201326148,-0.0916692847482493,-21.33440017700195,23.82317161560059,2.925520420074463,-0.7524715662002563,1.161617636680603,1.947333693504333,XArbitraryZVertical,0.4795191315489233,0.4394577134426566,-0.6051111761443865,0.4591063909822113,0.9838404655456544,0.0915409550070762,-0.1538766473531723,0,0,0,-1,-1,3851.321616,unknown,2,2022-06-02T11:06:07.184+02:00,2022-06-02T10:17:13.754+02:00,739,1.523163,0.0,0,592.3977,0,0,2022-06-02T11:06:07.184+02:00,675853567.1838299,0,4.363281,101.3304,1,0.75
456,2022-06-02T11:06:08.792+02:00,1654160768.48912,53.22902769501223,10.39846321744277,37.3933,0.2641875,0.7927575,216.3806251324359,46.26193373641607,2.400000095367432,7.999579855010836,-9999,3852.928752375,-3.02984619140625,-1.192886352539062,2.217025756835938,3852.918757375,-1.559004016765658,1.674075996783409,-0.0533831130123751,-19.40108680725098,24.55134582519531,5.870983600616455,-1.525114774703979,0.5708182454109192,1.886079549789429,XArbitraryZVertical,0.5091386711792747,0.5406037847243721,-0.4846547174595686,0.4622066775892234,0.99325430393219,0.0533577613532543,0.1029492765665054,0,0,0,-1,-1,3851.321616,unknown,2,2022-06-02T11:06:07.184+02:00,2022-06-02T10:17:13.754+02:00,739,1.523163,0.0,0,592.3977,0,0,2022-06-02T11:06:07.184+02:00,675853567.1838299,0,4.363281,101.3304,1,0.75
457,2022-06-02T11:06:08.802+02:00,1654160768.48912,53.22902769501223,10.39846321744277,37.3933,0.2641875,0.7927575,216.3806251324359,46.26193373641607,2.400000095367432,7.999579855010836,-9999,3852.938746375,-5.39599609375,-2.87908935546875,2.904129028320312,3852.928752375,-1.40924548669106,1.922740375535634,0.0541675954447028,-14.4437952041626,24.96190643310547,8.398110389709473,-2.995173692703247,-0.379849374294281,1.744374752044678,XArbitraryZVertical,0.5427515621631683,0.6144343598112917,-0.3537148370052483,0.4503075100615072,0.9373273849487304,-0.0541411116719245,0.3442176878452301,0,0,0,-1,-1,3851.321616,unknown,2,2022-06-02T11:06:07.184+02:00,2022-06-02T10:17:13.754+02:00,739,1.523163,0.0,0,592.3977,0,0,2022-06-02T11:06:07.184+02:00,675853567.1838299,0,4.363281,101.3304,1,0.75
458,2022-06-02T11:06:08.812+02:00,1654160768.48912,53.22902769501223,10.39846321744277,37.3933,0.2641875,0.7927575,216.3806251324359,46.26193373641607,2.400000095367432,7.999579855010836,-9999,3852.948741375,-8.128616333007812,-4.180572509765625,5.580764770507812,3852.938746375,-1.351931476587908,2.169608906298119,0.1840210770158408,-7.466401100158691,25.70251274108887,9.524945259094238,-4.93930196762085,-1.844664692878723,1.877098798751831,XArbitraryZVertical,0.5843471730684021,0.6600082405102992,-0.2276192062502322,0.413662761270418,0.8120589256286621,-0.1829842329025269,0.5541449785232544,0,0,0,-1,-1,3851.321616,unknown,2,2022-06-02T11:06:07.184+02:00,2022-06-02T10:17:13.754+02:00,739,1.523163,0.0,0,592.3977,0,0,2022-06-02T11:06:07.184+02:00,675853567.1838299,0,4.363281,101.3304,1,0.75
459,2022-06-02T11:06:08.823+02:00,1654160768.48912,53.22902769501223,10.39846321744277,37.3933,0.2641875,0.7927575,216.3806251324359,46.26193373641607,2.400000095367432,7.999579855010836,-9999,3852.958736375,-10.58956909179688,-3.707977294921875,9.919754028320312,3852.948741375,-1.388678299893479,2.440055426810771,0.2744945133397794,0.6473132371902466,26.53425598144531,8.786391258239746,-7.414077281951904,-3.391659259796143,3.149877786636353,XArbitraryZVertical,0.6313924470992478,0.6848142532132347,-0.1190685691005942,0.3437957783939999,0.6212304830551147,-0.2710604071617126,0.7352539896965027,0,0,0,-1,-1,3851.321616,unknown,2,2022-06-02T11:06:07.184+02:00,2022-06-02T10:17:13.754+02:00,739,1.523163,0.0,0,592.3977,0,0,2022-06-02T11:06:07.184+02:00,675853567.1838299,0,4.363281,101.3304,1,0.75
460,2022-06-02T11:06:08.833+02:00,1654160768.48912,53.22902769501223,10.39846321744277,37.3933,0.2641875,0.7927575,216.3806251324359,46.26193373641607,2.400000095367432,7.999579855010836,-9999,3852.968730375,-12.553955078125,-1.907745361328125,14.28233337402344,3852.958736375,-1.471032738228097,2.733427306005046,0.2816299214405784,5.709487915039062,26.98374938964844,5.180892944335938,-9.73997688293457,-3.93345832824707,6.832145690917969,XArbitraryZVertical,0.6716334384802316,0.6998242203618552,-0.0327311436376597,0.2410048407758883,0.3812887072563171,-0.277921736240387,0.8816908597946167,0,0,0,-1,-1,3851.321616,unknown,2,2022-06-02T11:06:07.184+02:00,2022-06-02T10:17:13.754+02:00,739,1.523163,0.0,0,592.3977,0,0,2022-06-02T11:06:07.184+02:00,675853567.1838299,0,4.363281,101.3304,1,0.75
461,2022-06-02T11:06:08.842+02:00,1654160768.48912,53.22902769501223,10.39846321744277,37.3933,0.2641875,0.7927575,216.3806251324359,46.26193373641607,2.400000095367432,7.999579855010836,-9999,3852.978725375,-12.22164916992188,-0.86376953125,17.86239624023438,3852.968730375,-1.503554500906637,3.006152008468334,0.2388165045517466,3.38780689239502,25.4199275970459,-1.924390912055969,-11.86323547363281,-2.612079858779907,11.14067268371582,XArbitraryZVertical,0.6824092044937156,0.718107104385747,0.0409339365266713,0.1302466201525181,0.1311946511268616,-0.2365528792142868,0.962720274925232,0,0,0,-1,-1,3851.321616,unknown,2,2022-06-02T11:06:07.184+02:00,2022-06-02T10:17:13.754+02:00,739,1.523163,0.0,0,592.3977,0,0,2022-06-02T11:06:07.184+02:00,675853567.1838299,0,4.363281,101.3304,1,0.75
462,2022-06-02T11:06:08.852+02:00,1654160768.48912,53.22902769501223,10.39846321744277,37.3933,0.2641875,0.7927575,216.3806251324359,46.26193373641607,2.400000095367432,7.999579855010836,-9999,3852.988720375,-11.125732421875,-1.163436889648438,18.85868835449219,3852.978725375,-1.443235209728452,-3.055094323997172,0.2386396402229626,-3.268615007400513,21.62680625915527,-9.840834617614746,-12.69968795776367,-0.9614949226379396,15.30814075469971,XArbitraryZVertical,0.6514258471219704,0.7481030279386662,0.1176403769445874,0.0463343553580415,-0.0839422196149826,-0.2363810390233994,0.9680275321006776,0,0,0,-1,-1,3851.321616,unknown,2,2022-06-02T11:06:07.184+02:00,2022-06-02T10:17:13.754+02:00,739,1.523163,0.0,0,592.3977,0,0,2022-06-02T11:06:07.184+02:00,675853567.1838299,0,4.363281,101.3304,1,0.75
463,2022-06-02T11:06:08.862+02:00,1654160768.48912,53.22902769501223,10.39846321744277,37.3933,0.2641875,0.7927575,216.3806251324359,46.26193373641607,2.400000095367432,7.999579855010836,-9999,3852.998714375,-13.75772094726562,-0.8358917236328125,16.99848937988281,3852.988720375,-1.312703879834823,-2.896859458879085,0.3135530543766837,-6.300236701965332,16.74036979675293,-17.69993209838867,-11.06526184082031,-0.5884255170822144,17.85636711120605,XArbitraryZVertical,0.5831415171784319,0.7882862964292285,0.1963411407489039,-0.0009480242771392,-0.2304839640855789,-0.3084403872489929,0.9228986501693726,0,0,0,-1,-1,3851.321616,unknown,2,2022-06-02T11:06:07.184+02:00,2022-06-02T10:17:13.754+02:00,739,1.523163,0.0,0,592.3977,0,0,2022-06-02T11:06:07.184+02:00,675853567.1838299,0,4.363281,101.3304,1,0.75
464,2022-06-02T11:06:08.872+02:00,1654160768.48912,53.22902769501223,10.39846321744277,37.3933,0.2641875,0.7927575,216.3806251324359,46.26193373641607,2.400000095367432,7.999579855010836,-9999,3853.008709375,-16.9769287109375,1.254837036132812,14.4931640625,3852.998714375,-1.103201823963039,-2.847114826098465,0.4250886599159799,-3.909549951553345,7.973136425018311,-25.92285919189453,-11.88065624237061,-0.8564735651016235,17.31613922119141,XArbitraryZVertical,0.4803585022447935,0.8397316109831781,0.2528695577314793,-0.0127858353367515,-0.2644094228744507,-0.412401556968689,0.8717869520187378,0,0,0,-1,-1,3851.321616,unknown,2,2022-06-02T11:06:07.184+02:00,2022-06-02T10:17:13.754+02:00,739,1.523163,0.0,0,592.3977,0,0,2022-06-02T11:06:07.184+02:00,675853567.1838299,0,4.363281,101.3304,1,0.75
465,2022-06-02T11:06:08.882+02:00,1654160768.48912,53.22902769501223,10.39846321744277,37.3933,0.2641875,0.7927575,216.3806251324359,46.26193373641607,2.400000095367432,7.999579855010836,-9999,3853.018704375,-20.80914306640625,4.499069213867188,12.76402282714844,3853.008709375,-0.788186864052679,-2.965291145008988,0.5122740312652055,0.5440961718559265,-2.761184930801392,-32.42222595214844,-15.33053874969482,0.4983699321746826,14.73489665985107,XArbitraryZVertical,0.3494083318946257,0.8983174374093499,0.2657177642757371,0.0182634870331898,-0.1528751850128174,-0.4901606440544128,0.8581207990646362,0,0,0,-1,-1,3851.321616,unknown,2,2022-06-02T11:06:07.184+02:00,2022-06-02T10:17:13.754+02:00,739,1.523163,0.0,0,592.3977,0,0,2022-06-02T11:06:07.184+02:00,675853567.1838299,0,4.363281,101.3304,1,0.75
466,2022-06-02T11:06:08.892+02:00,1654160768.48912,53.22902769501223,10.39846321744277,37.3933,0.2641875,0.7927575,216.3806251324359,46.26193373641607,2.400000095367432,7.999579855010836,-9999,3853.028698375,-25.9232177734375,8.150344848632812,10.40498352050781,3853.018704375,-0.3970928007629426,3.045438031782801,0.5084368671742974,3.032141208648682,-13.04087448120117,-34.76279067993164,-18.6405029296875,3.262676000595093,12.72101306915283,XArbitraryZVertical,0.2025333246481879,0.9453654941936712,0.2370888285808739,0.0951478980473181,0.0838623046875,-0.4868124425411224,0.8694713115692139,0,0,0,-1,-1,3851.321616,unknown,2,2022-06-02T11:06:07.184+02:00,2022-06-02T10:17:13.754+02:00,739,1.523163,0.0,0,592.3977,0,0,2022-06-02T11:06:07.184+02:00,675853567.1838299,0,4.363281,101.3304,1,0.75
467,2022-06-02T11:06:08.902+02:00,1654160768.48912,53.22902769501223,10.39846321744277,37.3933,0.2641875,0.7927575,216.3806251324359,46.26193373641607,2.400000095367432,7.999579855010836,-9999,3853.038693375,-31.92739868164062,9.551895141601562,7.429168701171875,3853.028698375,-0.0396883425840005,2.708558763010364,0.3728287540433269,6.647572040557861,-23.64179420471191,-34.7913932800293,-23.83914756774902,6.836831092834473,11.12467765808105,XArbitraryZVertical,0.0588516928300836,0.9587521572849986,0.1767846863149888,0.214657441674636,0.390798419713974,-0.3642513155937195,0.8453384637832642,0,0,0,-1,-1,3851.321616,unknown,2,2022-06-02T11:06:07.184+02:00,2022-06-02T10:17:13.754+02:00,739,1.523163,0.0,0,592.3977,0,0,2022-06-02T11:06:07.184+02:00,675853567.1838299,0,4.363281,101.3304,1,0.75
468,2022-06-02T11:06:08.912+02:00,1654160768.48912,53.22902769501223,10.39846321744277,37.3933,0.2641875,0.7927575,216.3806251324359,46.26193373641607,2.400000095367432,7.999579855010836,-9999,3853.048688375,-32.00419616699219,8.5966796875,9.099807739257812,3853.038693375,0.1947089343340049,2.352611019712623,0.0974638018188799,12.69165802001953,-34.63883209228516,-34.19046783447266,-30.041015625,8.883365631103516,7.983726978302002,XArbitraryZVertical,-0.0709950082619775,0.9195498562166492,0.0820717788029917,0.3776928518602184,0.7062681913375854,-0.0973095670342445,0.7012244462966919,0,0,0,-1,-1,3851.321616,unknown,2,2022-06-02T11:06:07.184+02:00,2022-06-02T10:17:13.754+02:00,739,1.523163,0.0,0,592.3977,0,0,2022-06-02T11:06:07.184+02:00,675853567.1838299,0,4.363281,101.3304,1,0.75
469,2022-06-02T11:06:08.922+02:00,1654160768.48912,53.22902769501223,10.39846321744277,37.3933,0.2641875,0.7927575,216.3806251324359,46.26193373641607,2.400000095367432,7.999579855010836,-9999,3853.058682375,-31.89537048339844,14.21189880371094,3.87908935546875,3853.048688375,0.2458201118262654,2.000693035679542,-0.249116783497798,20.28077507019043,-35.16514587402344,-27.5414867401123,-32.86556625366211,10.27827835083008,7.744190692901611,XArbitraryZVertical,-0.1689715033716704,0.8206121180491389,-0.0380830491782532,0.5446044938378488,0.8809481859207153,0.2465481013059616,0.4039112329483032,0,0,0,-1,-1,3851.321616,unknown,2,2022-06-02T11:06:07.184+02:00,2022-06-02T10:17:13.754+02:00,739,1.523163,0.0,0,592.3977,0,0,2022-06-02T11:06:07.184+02:00,675853567.1838299,0,4.363281,101.3304,1,0.75
470,2022-06-02T11:06:08.933+02:00,1654160768.48912,53.22902769501223,10.39846321744277,37.3933,0.2641875,0.7927575,216.3806251324359,46.26193373641607,2.400000095367432,7.999579855010836,-9999,3853.068677375,-32.055419921875,29.118896484375,25.7359619140625,3853.058682375,-0.0210261431141757,1.543697644691471,-0.489702649549405,35.18221282958984,-35.1483039855957,-12.67284393310547,-32.79607391357422,6.044254302978516,6.632278919219971,XArbitraryZVertical,-0.1665947068621371,0.6784473034200207,-0.1763727840484485,0.6934320729010407,0.8821486830711365,0.4703634977340698,-0.0239109210669994,0,0,0,-1,-1,3851.321616,unknown,2,2022-06-02T11:06:07.184+02:00,2022-06-02T10:17:13.754+02:00,739,1.523163,0.0,0,592.3977,0,0,2022-06-02T11:06:07.184+02:00,675853567.1838299,0,4.363281,101.3304,1,0.75
471,2022-06-02T11:06:08.942+02:00,1654160768.48912,53.22902769501223,10.39846321744277,37.3933,0.2641875,0.7927575,216.3806251324359,46.26193373641607,2.400000095367432,7.999579855010836,-9999,3853.078672375,-32.21893310546875,9.38427734375,31.43177795410156,3853.068677375,-0.4212019694655822,1.00082272216555,-0.4610552078404956,35.25021743774414,-35.12609100341797,-0.3340349197387695,-32.67453765869141,27.31052398681641,11.79707813262939,XArbitraryZVertical,-0.0984004586513605,0.498682795840425,-0.2857681119860756,0.8123849286255947,0.7540053725242615,0.4448933899402618,-0.4832656383514404,0,0,0,-1,-1,3851.321616,unknown,2,2022-06-02T11:06:07.184+02:00,2022-06-02T10:17:13.754+02:00,739,1.523163,0.0,0,592.3977,0,0,2022-06-02T11:06:07.184+02:00,675853567.1838299,0,4.363281,101.3304,1,0.75
472,2022-06-02T11:06:08.952+02:00,1654160768.48912,53.22902769501223,10.39846321744277,37.3933,0.2641875,0.7927575,216.3806251324359,46.26193373641607,2.400000095367432,7.999579855010836,-9999,3853.088666375,-32.33290100097656,-12.48432922363281,30.44564819335938,3853.078672375,-0.6181935321568772,0.6148374840962613,-0.1565885294089266,35.0447998046875,-22.70098686218262,16.29264640808105,-32.73443984985352,19.2075309753418,32.26712417602539,XArbitraryZVertical,0.0207537166354002,0.3100529979953988,-0.3115946353777094,0.8979671725873719,0.5697683095932007,0.1559493839740753,-0.8068728446960449,0,0,0,-1,-1,3851.321616,unknown,2,2022-06-02T11:06:07.184+02:00,2022-06-02T10:17:13.754+02:00,739,1.523163,0.0,0,592.3977,0,0,2022-06-02T11:06:07.184+02:00,675853567.1838299,0,4.363281,101.3304,1,0.75
473,2022-06-02T11:06:08.965+02:00,1654160768.48912,53.22902769501223,10.39846321744277,37.3933,0.2641875,0.7927575,216.3806251324359,46.26193373641607,2.400000095367432,7.999579855010836,-9999,3853.098661375,-27.23338317871094,-19.76217651367188,12.20170593261719,3853.098661375,-0.4424445512431903,0.4778977912386834,0.5557600613768331,4.545614719390869,-0.5079254508018494,27.42122459411621,-32.48667526245117,-19.37519645690918,24.88297271728516,XArbitraryZVertical,0.3099693436057721,0.1635743472099115,-0.1416661573871865,0.9257932029509786,0.3906963765621185,-0.5275891423225403,-0.7543248534202576,0,0,0,-1,-1,3851.321616,unknown,2,2022-06-02T11:06:07.184+02:00,2022-06-02T10:17:13.754+02:00,739,1.523163,0.0,0,592.3977,0,0,2022-06-02T11:06:07.184+02:00,675853567.1838299,0,4.363281,101.3304,1,0.75
474,2022-06-02T11:06:08.983+02:00,1654160768.48912,53.22902769501223,10.39846321744277,37.3933,0.2641875,0.7927575,216.3806251324359,46.26193373641607,2.400000095367432,7.999579855010836,-9999,3853.108655375,-8.978790283203125,-8.432266235351562,0.4189910888671875,3853.098661375,-0.4424445512431903,0.4778977912386834,0.5557600613768331,4.545614719390869,-0.5079254508018494,27.42122459411621,-32.48667526245117,-19.37519645690918,24.88297271728516,XArbitraryZVertical,0.3099693436057721,0.1635743472099115,-0.1416661573871865,0.9257932029509786,0.3906963765621185,-0.5275891423225403,-0.7543248534202576,0,0,0,-1,-1,3851.321616,unknown,2,2022-06-02T11:06:07.184+02:00,2022-06-02T10:17:13.754+02:00,739,1.523163,0.0,0,592.3977,0,0,2022-06-02T11:06:07.184+02:00,675853567.1838299,0,4.363281,101.3304,1,0.75
475,2022-06-02T11:06:08.990+02:00,1654160768.48912,53.22902769501223,10.39846321744277,37.3933,0.2641875,0.7927575,216.3806251324359,46.26193373641607,2.400000095367432,7.999579855010836,-9999,3853.118650375,-11.07240295410156,0.2881927490234375,-0.7398223876953125,3853.108655375,-0.1343969619666419,0.2636107358259722,0.6436033126059338,-4.121843814849854,-6.084299087524414,24.36737632751465,-17.18994522094727,-14.41114902496338,3.51774263381958,XArbitraryZVertical,0.3211971600095134,0.1033432139103271,-0.0216759993582804,0.9411071610583216,0.2084386199712753,-0.600081741809845,-0.7723051309585571,0,0,0,-1,-1,3851.321616,unknown,2,2022-06-02T11:06:07.184+02:00,2022-06-02T10:17:13.754+02:00,739,1.523163,0.0,0,592.3977,0,0,2022-06-02T11:06:07.184+02:00,675853567.1838299,0,4.363281,101.3304,1,0.75
476,2022-06-02T11:06:08.993+02:00,1654160768.48912,53.22902769501223,10.39846321744277,37.3933,0.2641875,0.7927575,216.3806251324359,46.26193373641607,2.400000095367432,7.999579855010836,-9999,3853.128645375,-16.88075256347656,-1.917739868164062,2.482803344726562,3853.118650375,0.0719542285197123,0.085383490192456,0.6635288985151333,4.640149116516113,-3.89617133140564,9.29383659362793,-7.708634376525879,-2.096409797668457,1.348079323768616,XArbitraryZVertical,0.3237530117756173,0.0520303247590883,0.0478689142469373,0.9434963358870336,0.0671854317188262,-0.6159008145332336,-0.7849536538124084,0,0,0,-1,-1,3851.321616,unknown,2,2022-06-02T11:06:07.184+02:00,2022-06-02T10:17:13.754+02:00,739,1.523163,0.0,0,592.3977,0,0,2022-06-02T11:06:07.184+02:00,675853567.1838299,0,4.363281,101.3304,1,0.75
477,2022-06-02T11:06:09.002+02:00,1654160768.48912,53.22902769501223,10.39846321744277,37.3933,0.2641875,0.7927575,216.3806251324359,46.26193373641607,2.400000095367432,7.999579855010836,-9999,3853.138639375,-8.629714965820312,-7.597915649414062,6.569290161132812,3853.128645375,0.1838430695877119,0.0212423928385187,0.7516809471130154,8.991377830505371,5.61765718460083,8.819890975952148,-15.50967311859131,1.316611051559448,0.055633544921875,XArbitraryZVertical,0.364577373455338,0.0435287594494762,0.0892622159881803,0.9258621472705616,0.0155172925442457,-0.682867705821991,-0.730377197265625,0,0,0,-1,-1,3851.321616,unknown,2,2022-06-02T11:06:07.184+02:00,2022-06-02T10:17:13.754+02:00,739,1.523163,0.0,0,592.3977,0,0,2022-06-02T11:06:07.184+02:00,675853567.1838299,0,4.363281,101.3304,1,0.75
478,2022-06-02T11:06:09.012+02:00,1654160768.48912,53.22902769501223,10.39846321744277,37.3933,0.2641875,0.7927575,216.3806251324359,46.26193373641607,2.400000095367432,7.999579855010836,-9999,3853.148634375,-5.368804931640625,-3.848251342773438,6.206924438476562,3853.138639375,0.3072227779082985,0.0072628894641897,0.7829950202228353,-2.778050422668457,7.766037464141846,9.044981956481934,-13.6834774017334,-5.016243934631348,6.106307506561279,XArbitraryZVertical,0.3765639133632198,0.0617004868202061,0.1427996077787968,0.913236541182096,0.0051479199901223,-0.7054054737091064,-0.708785355091095,0,0,0,-1,-1,3851.321616,unknown,2,2022-06-02T11:06:07.184+02:00,2022-06-02T10:17:13.754+02:00,739,1.523163,0.0,0,592.3977,0,0,2022-06-02T11:06:07.184+02:00,675853567.1838299,0,4.363281,101.3304,1,0.75
479,2022-06-02T11:06:09.022+02:00,1654160768.48912,53.22902769501223,10.39846321744277,37.3933,0.2641875,0.7927575,216.3806251324359,46.26193373641607,2.400000095367432,7.999579855010836,-9999,3853.158629375,-8.501861572265625,2.242523193359375,4.50738525390625,3853.148634375,0.4294783396461808,-0.0112811125836157,0.7224846397606692,-8.602669715881348,5.347285747528076,8.895709037780762,-5.561621189117432,-6.057865619659424,7.415186882019043,XArbitraryZVertical,0.346437780468739,0.0701582330252571,0.1973883106040914,0.9143831975867353,-0.0084625175222754,-0.6612505912780762,-0.7501173615455627,0,0,0,-1,-1,3851.321616,unknown,2,2022-06-02T11:06:07.184+02:00,2022-06-02T10:17:13.754+02:00,739,1.523163,0.0,0,592.3977,0,0,2022-06-02T11:06:07.184+02:00,675853567.1838299,0,4.363281,101.3304,1,0.75
480,2022-06-02T11:06:09.032+02:00,1654160768.48912,53.22902769501223,10.39846321744277,37.3933,0.2641875,0.7927575,216.3806251324359,46.26193373641607,2.400000095367432,7.999579855010836,-9999,3853.168623375,-8.252700805664062,2.943344116210938,2.896652221679688,3853.158629375,0.5476624223106881,-0.0412432657986283,0.6401824167306276,-6.462904453277588,3.482100486755371,9.702290534973145,-6.778090000152588,0.1692259311676025,6.257283210754395,XArbitraryZVertical,0.3081582599435954,0.0662274308775788,0.250385217319982,0.9154014042474464,-0.0330671779811382,-0.597341775894165,-0.801304817199707,0,0,0,-1,-1,3851.321616,unknown,2,2022-06-02T11:06:07.184+02:00,2022-06-02T10:17:13.754+02:00,739,1.523163,0.0,0,592.3977,0,0,2022-06-02T11:06:07.184+02:00,675853567.1838299,0,4.363281,101.3304,1,0.75
481,2022-06-02T11:06:09.042+02:00,1654160768.48912,53.22902769501223,10.39846321744277,37.3933,0.2641875,0.7927575,216.3806251324359,46.26193373641607,2.400000095367432,7.999579855010836,-9999,3853.178618375,-6.301406860351562,0.762359619140625,3.069427490234375,3853.168623375,0.6556489697384176,-0.0817871141942833,0.5928476333410118,-2.222646474838257,0.809227705001831,8.540950775146484,-9.051645278930664,3.928948879241943,4.342007160186768,XArbitraryZVertical,0.2889041209707525,0.056956590693853,0.2963782686763853,0.90854291916191,-0.067754790186882,-0.5587249994277954,-0.8265807032585144,0,0,0,-1,-1,3851.321616,unknown,2,2022-06-02T11:06:07.184+02:00,2022-06-02T10:17:13.754+02:00,739,1.523163,0.0,0,592.3977,0,0,2022-06-02T11:06:07.184+02:00,675853567.1838299,0,4.363281,101.3304,1,0.75
482,2022-06-02T11:06:09.052+02:00,1654160768.48912,53.22902769501223,10.39846321744277,37.3933,0.2641875,0.7927575,216.3806251324359,46.26193373641607,2.400000095367432,7.999579855010836,-9999,3853.188613375,-6.966903686523438,0.2989654541015625,3.029937744140625,3853.178618375,0.754473835216235,-0.1403291277269756,0.570779909355559,-0.7439560890197754,-1.420190334320068,8.47421932220459,-6.763879776000977,2.29071569442749,3.682146072387695,XArbitraryZVertical,0.2858716325542248,0.0409067033694457,0.3342347125890141,0.8971572413920444,-0.1176969558000565,-0.540288507938385,-0.8332080841064453,0,0,0,-1,-1,3851.321616,unknown,2,2022-06-02T11:06:07.184+02:00,2022-06-02T10:17:13.754+02:00,739,1.523163,0.0,0,592.3977,0,0,2022-06-02T11:06:07.184+02:00,675853567.1838299,0,4.363281,101.3304,1,0.75
483,2022-06-02T11:06:09.062+02:00,1654160769.000247,53.22902747455232,10.39846172593873,37.35124,0.41323,0.8602017,216.2201976492107,90.88529741810665,2.400000095367432,7.999579855010836,-9999,3853.198607375,-6.685699462890625,-0.0307769775390625,2.13885498046875,3853.188613375,0.8542198070612264,-0.2113457162300163,0.5499926238715267,-0.3639506697654724,-2.057372093200684,8.989127159118652,-6.388802528381348,0.8841769695281982,4.03874397277832,XArbitraryZVertical,0.2878221506798192,0.0194633534764804,0.3703850919878766,0.8829464088326653,-0.1788398772478104,-0.522680938243866,-0.8335591554641724,0,0,0,-1,-1,3851.321616,unknown,2,2022-06-02T11:06:07.184+02:00,2022-06-02T10:17:13.754+02:00,739,1.523163,0.0,0,592.3977,0,0,2022-06-02T11:06:07.184+02:00,675853567.1838299,0,4.363281,101.3304,1,0.75
484,2022-06-02T11:06:09.072+02:00,1654160769.000247,53.22902747455232,10.39846172593873,37.35124,0.41323,0.8602017,216.2201976492107,90.88529741810665,2.400000095367432,7.999579855010836,-9999,3853.208602375,-6.097579956054688,-0.1438446044921875,1.16790771484375,3853.198607375,0.9576064965621526,-0.2860478914651288,0.5260201136473063,0.0993258208036422,-2.272147178649902,9.321307182312012,-6.746780872344971,0.7031453251838684,3.455190658569336,XArbitraryZVertical,0.2918066351517704,-0.0035996629888922,0.4074410613009812,0.865348338032434,-0.2440179288387299,-0.5020954608917236,-0.8296718597412109,0,0,0,-1,-1,3851.321616,unknown,2,2022-06-02T11:06:07.184+02:00,2022-06-02T10:17:13.754+02:00,739,1.523163,0.0,0,592.3977,0,0,2022-06-02T11:06:07.184+02:00,675853567.1838299,0,4.363281,101.3304,1,0.75
485,2022-06-02T11:06:09.082+02:00,1654160769.000247,53.22902747455232,10.39846172593873,37.35124,0.41323,0.8602017,216.2201976492107,90.88529741810665,2.400000095367432,7.999579855010836,-9999,3853.218596375,-5.845184326171875,-0.1466827392578125,0.3585357666015625,3853.208602375,1.059992880301812,-0.3601517377772002,0.500628355346067,0.7719686627388,-2.520420074462891,9.17917823791504,-6.012166500091553,0.299907922744751,2.462141513824463,XArbitraryZVertical,0.2979898650287908,-0.0265174294482769,0.4435765821016143,0.8448305767199962,-0.3091681301593781,-0.4799768924713135,-0.8209977149963379,0,0,0,-1,-1,3851.321616,unknown,2,2022-06-02T11:06:07.184+02:00,2022-06-02T10:17:13.754+02:00,739,1.523163,0.0,0,592.3977,0,0,2022-06-02T11:06:07.184+02:00,675853567.1838299,0,4.363281,101.3304,1,0.75
486,2022-06-02T11:06:09.092+02:00,1654160769.000247,53.22902747455232,10.39846172593873,37.35124,0.41323,0.8602017,216.2201976492107,90.88529741810665,2.400000095367432,7.999579855010836,-9999,3853.228591375,-5.430587768554688,0.0917816162109375,-0.291595458984375,3853.218596375,1.160175889702459,-0.433560116050499,0.4769561697384774,1.568207144737244,-2.847597122192383,8.896413803100586,-5.600657939910889,0.3877881169319153,1.554519891738892,XArbitraryZVertical,0.3075086223509108,-0.0483662394192638,0.4776234653869914,0.821568638385258,-0.3732190430164337,-0.4590771794319153,-0.8061982989311218,0,0,0,-1,-1,3851.321616,unknown,2,2022-06-02T11:06:07.184+02:00,2022-06-02T10:17:13.754+02:00,739,1.523163,0.0,0,592.3977,0,0,2022-06-02T11:06:07.184+02:00,675853567.1838299,0,4.363281,101.3304,1,0.75
487,2022-06-02T11:06:09.102+02:00,1654160769.000247,53.22902747455232,10.39846172593873,37.35124,0.41323,0.8602017,216.2201976492107,90.88529741810665,2.400000095367432,7.999579855010836,-9999,3853.238586375,-5.075103759765625,-0.091796875,-0.5531158447265625,3853.228591375,1.255367577054929,-0.5071452457807873,0.4565195273728671,2.577441215515137,-3.279170036315918,8.116046905517578,-5.229123592376709,0.3905185163021088,0.8200625777244568,XArbitraryZVertical,0.3207981856993245,-0.0691400601023318,0.5078003347470614,0.7965216953526646,-0.4359459578990936,-0.4408267438411713,-0.7846163511276245,0,0,0,-1,-1,3851.321616,unknown,2,2022-06-02T11:06:07.184+02:00,2022-06-02T10:17:13.754+02:00,739,1.523163,0.0,0,592.3977,0,0,2022-06-02T11:06:07.184+02:00,675853567.1838299,0,4.363281,101.3304,1,0.75
488,2022-06-02T11:06:09.112+02:00,1654160769.000247,53.22902747455232,10.39846172593873,37.35124,0.41323,0.8602017,216.2201976492107,90.88529741810665,2.400000095367432,7.999579855010836,-9999,3853.248580375,-4.688034057617188,-0.472625732421875,-0.467620849609375,3853.238586375,1.346697343881243,-0.5804338597295334,0.4427470072390478,3.425294399261475,-3.390046119689941,7.394143581390381,-4.73103666305542,0.4705680012702942,0.2386114597320557,XArbitraryZVertical,0.33856482563746,-0.0870437402593031,0.5338292702314144,0.7699503424930555,-0.4955103397369385,-0.4284232258796692,-0.7555944919586182,0,0,0,-1,-1,3851.321616,unknown,2,2022-06-02T11:06:07.184+02:00,2022-06-02T10:17:13.754+02:00,739,1.523163,0.0,0,592.3977,0,0,2022-06-02T11:06:07.184+02:00,675853567.1838299,0,4.363281,101.3304,1,0.75
489,2022-06-02T11:06:09.122+02:00,1654160769.000247,53.22902747455232,10.39846172593873,37.35124,0.41323,0.8602017,216.2201976492107,90.88529741810665,2.400000095367432,7.999579855010836,-9999,3853.258575375,-4.316970825195312,-0.6952362060546875,-0.2377166748046875,3853.248580375,1.433147766333138,-0.6498204187639874,0.4302388827448637,3.594725847244263,-3.151572942733765,6.902867794036865,-4.347801685333252,0.1627544760704041,0.2153773903846741,XArbitraryZVertical,0.3573781357951022,-0.1022969955467058,0.5567101131445131,0.7428930557195462,-0.5499035120010376,-0.4170879125595093,-0.7236323952674866,0,0,0,-1,-1,3851.321616,unknown,2,2022-06-02T11:06:07.184+02:00,2022-06-02T10:17:13.754+02:00,739,1.523163,0.0,0,592.3977,0,0,2022-06-02T11:06:07.184+02:00,675853567.1838299,0,4.363281,101.3304,1,0.75
490,2022-06-02T11:06:09.132+02:00,1654160769.000247,53.22902747455232,10.39846172593873,37.35124,0.41323,0.8602017,216.2201976492107,90.88529741810665,2.400000095367432,7.999579855010836,-9999,3853.268570375,-4.009857177734375,-1.018096923828125,-0.1917266845703125,3853.258575375,1.514673809893371,-0.712721418857222,0.4140597545104696,3.18414044380188,-2.738939046859741,6.71138334274292,-3.885248899459839,-0.2279807329177856,0.3260270357131958,XArbitraryZVertical,0.3745341456845435,-0.1157549268864425,0.5779686109203902,0.7157354717510572,-0.5986377596855164,-0.4023293256759644,-0.6926499605178833,0,0,0,-1,-1,3851.321616,unknown,2,2022-06-02T11:06:07.184+02:00,2022-06-02T10:17:13.754+02:00,739,1.523163,0.0,0,592.3977,0,0,2022-06-02T11:06:07.184+02:00,675853567.1838299,0,4.363281,101.3304,1,0.75
491,2022-06-02T11:06:09.142+02:00,1654160769.000247,53.22902747455232,10.39846172593873,37.35124,0.41323,0.8602017,216.2201976492107,90.88529741810665,2.400000095367432,7.999579855010836,-9999,3853.278564375,-3.581802368164062,-1.379913330078125,-0.2072601318359375,3853.268570375,1.587095198944664,-0.7657256378599412,0.3911912603840283,2.390769958496094,-2.150819301605225,6.168222904205322,-3.533933401107788,-0.4271817207336426,0.4868252277374268,XArbitraryZVertical,0.387659181231241,-0.128490397755479,0.5977071330965522,0.6898962194940997,-0.6407033801078796,-0.3812899589538574,-0.6664211750030518,0,0,0,-1,-1,3851.321616,unknown,2,2022-06-02T11:06:07.184+02:00,2022-06-02T10:17:13.754+02:00,739,1.523163,0.0,0,592.3977,0,0,2022-06-02T11:06:07.184+02:00,675853567.1838299,0,4.363281,101.3304,1,0.75
492,2022-06-02T11:06:09.152+02:00,1654160769.000247,53.22902747455232,10.39846172593873,37.35124,0.41323,0.8602017,216.2201976492107,90.88529741810665,2.400000095367432,7.999579855010836,-9999,3853.288559375,-3.280593872070312,-1.429367065429688,-0.2670440673828125,3853.278564375,1.646418897437292,-0.8065366868552513,0.3631176583883138,1.427599906921387,-1.657997488975525,5.604763984680176,-3.123944044113159,-0.8775213956832886,0.4376972913742065,XArbitraryZVertical,0.3959609569122833,-0.1406233676601593,0.6152454797153816,0.6670179174051256,-0.674822986125946,-0.3551903367042542,-0.6468799710273743,0,0,0,-1,-1,3851.321616,unknown,2,2022-06-02T11:06:07.184+02:00,2022-06-02T10:17:13.754+02:00,739,1.523163,0.0,0,592.3977,0,0,2022-06-02T11:06:07.184+02:00,675853567.1838299,0,4.363281,101.3304,1,0.75
493,2022-06-02T11:06:09.162+02:00,1654160769.000247,53.22902747455232,10.39846172593873,37.35124,0.41323,0.8602017,216.2201976492107,90.88529741810665,2.400000095367432,7.999579855010836,-9999,3853.298554375,-3.104339599609375,-1.256622314453125,-0.446380615234375,3853.288559375,1.690920713075384,-0.8368748880579379,0.3309664723957371,0.3325261473655701,-1.401707410812378,4.767090797424316,-2.704056739807129,-1.117730736732483,0.4161055088043213,XArbitraryZVertical,0.3997469619149583,-0.1532453309379732,0.6299749161186001,0.647958182406578,-0.7022542357444763,-0.3249571919441223,-0.6334364414215088,0,0,0,-1,-1,3851.321616,unknown,2,2022-06-02T11:06:07.184+02:00,2022-06-02T10:17:13.754+02:00,739,1.523163,0.0,0,592.3977,0,0,2022-06-02T11:06:07.184+02:00,675853567.1838299,0,4.363281,101.3304,1,0.75
494,2022-06-02T11:06:09.172+02:00,1654160769.000247,53.22902747455232,10.39846172593873,37.35124,0.41323,0.8602017,216.2201976492107,90.88529741810665,2.400000095367432,7.999579855010836,-9999,3853.308548375,-2.987686157226562,-0.9924163818359376,-0.6056976318359375,3853.298554375,1.719923720441584,-0.8589689092015774,0.2982866425356335,-0.4847021400928497,-1.204784631729126,3.790732860565186,-2.461385726928711,-1.064820647239685,0.274992823600769,XArbitraryZVertical,0.4001994764894614,-0.1662941060587132,0.640973921644293,0.6335132117807091,-0.7237339019775391,-0.2938829362392426,-0.6243733167648315,0,0,0,-1,-1,3851.321616,unknown,2,2022-06-02T11:06:07.184+02:00,2022-06-02T10:17:13.754+02:00,739,1.523163,0.0,0,592.3977,0,0,2022-06-02T11:06:07.184+02:00,675853567.1838299,0,4.363281,101.3304,1,0.75
495,2022-06-02T11:06:09.182+02:00,1654160769.000247,53.22902747455232,10.39846172593873,37.35124,0.41323,0.8602017,216.2201976492107,90.88529741810665,2.400000095367432,7.999579855010836,-9999,3853.318543375,-2.96710205078125,-0.6500244140625,-0.657745361328125,3853.308548375,1.736081830504992,-0.8743617961822181,0.2682852728026011,-0.9802690148353576,-0.9650819897651672,2.77869439125061,-2.298745393753052,-0.8672609329223633,0.0840232372283935,XArbitraryZVertical,0.3984791874239716,-0.1787318360442679,0.6484892795909173,0.6234827515105079,-0.7396913766860962,-0.2650784552097321,-0.6185385584831238,0,0,0,-1,-1,3851.321616,unknown,2,2022-06-02T11:06:07.184+02:00,2022-06-02T10:17:13.754+02:00,739,1.523163,0.0,0,592.3977,0,0,2022-06-02T11:06:07.184+02:00,675853567.1838299,0,4.363281,101.3304,1,0.75
496,2022-06-02T11:06:09.192+02:00,1654160769.000247,53.22902747455232,10.39846172593873,37.35124,0.41323,0.8602017,216.2201976492107,90.88529741810665,2.400000095367432,7.999579855010836,-9999,3853.328537375,-3.049560546875,-0.2382049560546875,-0.5424041748046875,3853.318543375,1.74184320871755,-0.8845226867275758,0.243693763788187,-1.23566746711731,-0.7354870438575745,1.751051545143127,-2.211006641387939,-0.5948622226715088,-0.0375753045082092,XArbitraryZVertical,0.3957054183062058,-0.1896024293773276,0.6526941088407654,0.6176231666963737,-0.7507548928260803,-0.241288885474205,-0.6149362921714783,0,0,0,-1,-1,3851.321616,unknown,2,2022-06-02T11:06:07.184+02:00,2022-06-02T10:17:13.754+02:00,739,1.523163,0.0,0,592.3977,0,0,2022-06-02T11:06:07.184+02:00,675853567.1838299,0,4.363281,101.3304,1,0.75
497,2022-06-02T11:06:09.202+02:00,1654160769.000247,53.22902747455232,10.39846172593873,37.35124,0.41323,0.8602017,216.2201976492107,90.88529741810665,2.400000095367432,7.999579855010836,-9999,3853.338532375,-3.017349243164062,-0.196929931640625,-0.4779510498046875,3853.328537375,1.738029432592824,-0.8889303116152901,0.225432018388672,-1.604828000068665,-0.3020488023757935,0.6304234862327576,-2.260397434234619,-0.208494633436203,0.0102923512458801,XArbitraryZVertical,0.3918434138893771,-0.1982690533956187,0.6538961953130406,0.6160907807698017,-0.7567533254623413,-0.2235274761915207,-0.6142962574958801,0,0,0,-1,-1,3851.321616,unknown,2,2022-06-02T11:06:07.184+02:00,2022-06-02T10:17:13.754+02:00,739,1.523163,0.0,0,592.3977,0,0,2022-06-02T11:06:07.184+02:00,675853567.1838299,0,4.363281,101.3304,1,0.75
498,2022-06-02T11:06:09.212+02:00,1654160769.000247,53.22902747455232,10.39846172593873,37.35124,0.41323,0.8602017,216.2201976492107,90.88529741810665,2.400000095367432,7.999579855010836,-9999,3853.348527375,-2.946945190429688,-0.3733978271484375,-0.3120574951171875,3853.338532375,1.72560525913761,-0.8871449287623142,0.2131507613363309,-1.861613631248474,0.1166917309165001,-0.2291817963123322,-2.284677505493164,0.0485307574272155,0.1036619544029236,XArbitraryZVertical,0.3866576089371082,-0.2045213302737012,0.6525693988527067,0.6187245693061353,-0.7577266097068787,-0.2115404009819031,-0.6173338294029236,0,0,0,-1,-1,3851.321616,unknown,2,2022-06-02T11:06:07.184+02:00,2022-06-02T10:17:13.754+02:00,739,1.523163,0.0,0,592.3977,0,0,2022-06-02T11:06:07.184+02:00,675853567.1838299,0,4.363281,101.3304,1,0.75
499,2022-06-02T11:06:09.222+02:00,1654160769.000247,53.22902747455232,10.39846172593873,37.35124,0.41323,0.8602017,216.2201976492107,90.88529741810665,2.400000095367432,7.999579855010836,-9999,3853.358521375,-2.888626098632812,-0.4513702392578125,-0.0504913330078125,3853.348527375,1.705364588522887,-0.8798118527696606,0.2045566848283621,-2.273718357086182,0.5112877488136292,-0.9517197608947754,-2.22893762588501,-0.078254222869873,0.215272068977356,XArbitraryZVertical,0.3797953220112855,-0.209167160847557,0.6491827045567667,0.624953081544392,-0.75455242395401,-0.2031331062316895,-0.6240092515945435,0,0,0,-1,-1,3851.321616,unknown,2,2022-06-02T11:06:07.184+02:00,2022-06-02T10:17:13.754+02:00,739,1.523163,0.0,0,592.3977,0,0,2022-06-02T11:06:07.184+02:00,675853567.1838299,0,4.363281,101.3304,1,0.75
500,2022-06-02T11:06:09.232+02:00,1654160769.000247,53.22902747455232,10.39846172593873,37.35124,0.41323,0.8602017,216.2201976492107,90.88529741810665,2.400000095367432,7.999579855010836,-9999,3853.368516375,-2.905838012695312,-0.257354736328125,0.1344146728515625,3853.358521375,1.678309090491751,-0.8669612044044265,0.1986709093276277,-2.532226800918579,1.000520706176758,-1.512665033340454,-2.164464712142944,-0.2452603727579117,0.4495564699172974,XArbitraryZVertical,0.3711242151047735,-0.2122698743362613,0.6440996191070915,0.6343057521073533,-0.7473699450492859,-0.1973665654659271,-0.6344166398048401,0,0,0,-1,-1,3851.321616,unknown,2,2022-06-02T11:06:07.184+02:00,2022-06-02T10:17:13.754+02:00,739,1.523163,0.0,0,592.3977,0,0,2022-06-02T11:06:07.184+02:00,675853567.1838299,0,4.363281,101.3304,1,0.75
501,2022-06-02T11:06:09.242+02:00,1654160769.000247,53.22902747455232,10.39846172593873,37.35124,0.41323,0.8602017,216.2201976492107,90.88529741810665,2.400000095367432,7.999579855010836,-9999,3853.378511375,-2.912322998046875,0.0551300048828125,0.17840576171875,3853.368516375,1.647110333340932,-0.8480281649732999,0.194682918826565,-2.612757444381714,1.568650722503662,-1.874176859855652,-2.156569957733154,-0.1891586780548096,0.7093618512153625,XArbitraryZVertical,0.3605784435098355,-0.2133058930857848,0.6382656460648465,0.6458332565125453,-0.7358097434043884,-0.1934554576873779,-0.6489675641059875,0,0,0,-1,-1,3851.321616,unknown,2,2022-06-02T11:06:07.184+02:00,2022-06-02T10:17:13.754+02:00,739,1.523163,0.0,0,592.3977,0,0,2022-06-02T11:06:07.184+02:00,675853567.1838299,0,4.363281,101.3304,1,0.75
502,2022-06-02T11:06:09.252+02:00,1654160769.000247,53.22902747455232,10.39846172593873,37.35124,0.41323,0.8602017,216.2201976492107,90.88529741810665,2.400000095367432,7.999579855010836,-9999,3853.388505375,-2.923965454101562,0.256439208984375,0.0699310302734375,3853.378511375,1.613227355668331,-0.8235042661898365,0.191464412899332,-2.778828859329224,2.020259141921997,-2.104972124099731,-2.191645622253418,0.0916944742202758,0.842833399772644,XArbitraryZVertical,0.3482245114613706,-0.2124195125813248,0.632108593431617,0.6588294837891389,-0.7201278805732727,-0.1902967542409897,-0.667235255241394,0,0,0,-1,-1,3851.321616,unknown,2,2022-06-02T11:06:07.184+02:00,2022-06-02T10:17:13.754+02:00,739,1.523163,0.0,0,592.3977,0,0,2022-06-02T11:06:07.184+02:00,675853567.1838299,0,4.363281,101.3304,1,0.75
503,2022-06-02T11:06:09.262+02:00,1654160769.000247,53.22902747455232,10.39846172593873,37.35124,0.41323,0.8602017,216.2201976492107,90.88529741810665,2.400000095367432,7.999579855010836,-9999,3853.398500375,-2.89971923828125,0.3664093017578125,-0.0608673095703125,3853.388505375,1.576129463495971,-0.7947771747321384,0.1881002763313178,-2.936212539672852,2.2988600730896,-2.46487832069397,-2.215110540390015,0.362392783164978,0.8258146643638611,XArbitraryZVertical,0.3342420723142938,-0.2103278515023833,0.6252213673263166,0.6731587518438835,-0.7011186480522156,-0.1869930177927017,-0.6880888342857361,0,0,0,-1,-1,3851.321616,unknown,2,2022-06-02T11:06:07.184+02:00,2022-06-02T10:17:13.754+02:00,739,1.523163,0.0,0,592.3977,0,0,2022-06-02T11:06:07.184+02:00,675853567.1838299,0,4.363281,101.3304,1,0.75
504,2022-06-02T11:06:09.272+02:00,1654160769.000247,53.22902747455232,10.39846172593873,37.35124,0.41323,0.8602017,216.2201976492107,90.88529741810665,2.400000095367432,7.999579855010836,-9999,3853.408494375,-2.85736083984375,0.3699951171875,-0.2100372314453125,3853.398500375,1.535788717010822,-0.7640760943766537,0.186014570285142,-2.941735982894897,2.304817199707031,-2.88178825378418,-2.239559650421143,0.5012125968933105,0.7039206027984619,XArbitraryZVertical,0.319838547453983,-0.2071717519908547,0.6168508499117563,0.6886784640084825,-0.6799347996711731,-0.1849436908960342,-0.7095663547515869,0,0,0,-1,-1,3851.321616,unknown,2,2022-06-02T11:06:07.184+02:00,2022-06-02T10:17:13.754+02:00,739,1.523163,0.0,0,592.3977,0,0,2022-06-02T11:06:07.184+02:00,675853567.1838299,0,4.363281,101.3304,1,0.75
505,2022-06-02T11:06:09.282+02:00,1654160769.000247,53.22902747455232,10.39846172593873,37.35124,0.41323,0.8602017,216.2201976492107,90.88529741810665,2.400000095367432,7.999579855010836,-9999,3853.418489375,-2.807540893554688,0.365570068359375,-0.3580780029296875,3853.408494375,1.492521117351996,-0.734036544835557,0.1858081985177961,-2.852702856063843,2.087888717651367,-3.338691234588623,-2.217161655426025,0.5701168775558472,0.6058255434036255,XArbitraryZVertical,0.3061397943659071,-0.203544146054559,0.6065094865778499,0.7049782484499668,-0.6583417654037476,-0.184740886092186,-0.7296963930130005,0,0,0,-1,-1,3851.321616,unknown,2,2022-06-02T11:06:07.184+02:00,2022-06-02T10:17:13.754+02:00,739,1.523163,0.0,0,592.3977,0,0,2022-06-02T11:06:07.184+02:00,675853567.1838299,0,4.363281,101.3304,1,0.75
506,2022-06-02T11:06:09.292+02:00,1654160769.000247,53.22902747455232,10.39846172593873,37.35124,0.41323,0.8602017,216.2201976492107,90.88529741810665,2.400000095367432,7.999579855010836,-9999,3853.428484375,-2.806838989257812,0.424163818359375,-0.4159088134765625,3853.418489375,1.446545668668043,-0.7061534389936054,0.1886700978542139,-2.685938358306885,1.773573279380798,-3.836854934692383,-2.196313142776489,0.5397256016731262,0.4529585838317871,XArbitraryZVertical,0.2940952467532766,-0.1995673940998159,0.5938366753401796,0.721830153895051,-0.6373966336250305,-0.1875527650117874,-0.7473616600036621,0,0,0,-1,-1,3851.321616,unknown,2,2022-06-02T11:06:07.184+02:00,2022-06-02T10:17:13.754+02:00,739,1.523163,0.0,0,592.3977,0,0,2022-06-02T11:06:07.184+02:00,675853567.1838299,0,4.363281,101.3304,1,0.75
507,2022-06-02T11:06:09.302+02:00,1654160769.000247,53.22902747455232,10.39846172593873,37.35124,0.41323,0.8602017,216.2201976492107,90.88529741810665,2.400000095367432,7.999579855010836,-9999,3853.438478375,-2.884658813476562,0.5016937255859375,-0.3880157470703125,3853.428484375,1.397699910521396,-0.6806432312733947,0.1951196532328691,-2.447007894515991,1.489864349365234,-4.363775253295898,-2.179751873016357,0.5886898040771484,0.3626406788825989,XArbitraryZVertical,0.2840135226151442,-0.1952584314888536,0.5786655084471496,0.7391594497094685,-0.6173518896102905,-0.1938839256763458,-0.7624209523200989,0,0,0,-1,-1,3851.321616,unknown,2,2022-06-02T11:06:07.184+02:00,2022-06-02T10:17:13.754+02:00,739,1.523163,0.0,0,592.3977,0,0,2022-06-02T11:06:07.184+02:00,675853567.1838299,0,4.363281,101.3304,1,0.75
