,loggingTime(txt),locationTimestamp_since1970(s),locationLatitude(WGS84),locationLongitude(WGS84),locationAltitude(m),locationSpeed(m/s),locationSpeedAccuracy(m/s),locationCourse(°),locationCourseAccuracy(°),locationVerticalAccuracy(m),locationHorizontalAccuracy(m),locationFloor(Z),accelerometerTimestamp_sinceReboot(s),accelerometerAccelerationX(G),accelerometerAccelerationY(G),accelerometerAccelerationZ(G),motionTimestamp_sinceReboot(s),motionYaw(rad),motionRoll(rad),motionPitch(rad),motionRotationRateX(rad/s),motionRotationRateY(rad/s),motionRotationRateZ(rad/s),motionUserAccelerationX(G),motionUserAccelerationY(G),motionUserAccelerationZ(G),motionAttitudeReferenceFrame(txt),motionQuaternionX(R),motionQuaternionY(R),motionQuaternionZ(R),motionQuaternionW(R),motionGravityX(G),motionGravityY(G),motionGravityZ(G),motionMagneticFieldX(µT),motionMagneticFieldY(µT),motionMagneticFieldZ(µT),motionHeading(°),motionMagneticFieldCalibrationAccuracy(Z),activityTimestamp_sinceReboot(s),activity(txt),activityActivityConfidence(Z),activityActivityStartDate(txt),pedometerStartDate(txt),pedometerNumberofSteps(N),pedometerAverageActivePace(s/m),pedometerCurrentPace(s/m),pedometerCurrentCadence(steps/s),pedometerDistance(m),pedometerFloorAscended(N),pedometerFloorDescended(N),pedometerEndDate(txt),altimeterTimestamp_sinceReboot(s),altimeterReset(bool),altimeterRelativeAltitude(m),altimeterPressure(kPa),batteryState(N),batteryLevel(R)
669,2022-06-02T11:09:21.470+02:00,1654160961.000233,53.22911309230512,10.39856964076882,36.8978,0.3376155,0.7153285,72.22261835920084,58.59442225995284,2.400000095367432,7.999579855010836,-9999,4045.606879291667,0.2555389404296875,-0.6175689697265625,2.83343505859375,4045.596885291667,-1.98449404567584,2.430540690976975,0.0991763974041809,-3.21553373336792,0.7772969603538513,1.772260308265686,-0.7598673105239868,-0.5899966955184937,2.421737194061279,XArbitraryZVertical,0.7933673959728483,0.4975383481131704,-0.2656677984545007,0.2290072240747871,0.6494240760803223,-0.0990138947963714,0.7539524435997009,0,0,0,-1,-1,4040.621557416667,unknown,2,2022-06-02T11:09:16.484+02:00,2022-06-02T10:17:13.754+02:00,757,1.564864,0,0,607.4087,0,0,2022-06-02T11:09:19.043+02:00,675853759.0430942,0,5.851562,101.3112,1,0.73
670,2022-06-02T11:09:21.480+02:00,1654160961.000233,53.22911309230512,10.39856964076882,36.8978,0.3376155,0.7153285,72.22261835920084,58.59442225995284,2.400000095367432,7.999579855010836,-9999,4045.616873291667,0.570526123046875,-0.6566009521484375,2.62835693359375,4045.606879291667,-1.975186072045396,2.437478379639889,0.1342799023032204,-3.363419055938721,0.8445010185241699,1.402806401252747,-0.5155549645423889,-0.4751015305519104,2.187455654144287,XArbitraryZVertical,0.7944815433969122,0.4964484899128699,-0.2525015358069614,0.2420350390187501,0.6415314674377441,-0.1338767260313034,0.7553240656852722,0,0,0,-1,-1,4040.621557416667,unknown,2,2022-06-02T11:09:16.484+02:00,2022-06-02T10:17:13.754+02:00,757,1.564864,0,0,607.4087,0,0,2022-06-02T11:09:19.043+02:00,675853759.0430942,0,5.851562,101.3112,1,0.73
671,2022-06-02T11:09:21.490+02:00,1654160961.000233,53.22911309230512,10.39856964076882,36.8978,0.3376155,0.7153285,72.22261835920084,58.59442225995284,2.400000095367432,7.999579855010836,-9999,4045.626867291667,0.9141387939453124,-0.5951690673828125,2.410049438476562,4045.616873291667,-1.96205015009023,2.445458421099699,0.1682073629459957,-3.520087957382202,1.165669202804565,1.00333571434021,-0.2283514142036438,-0.5057872533798218,1.975756883621216,XArbitraryZVertical,0.7944061553443166,0.4971593807579505,-0.238540718151557,0.2546561296914696,0.6322057843208313,-0.1674152761697769,0.7564972043037415,0,0,0,-1,-1,4040.621557416667,unknown,2,2022-06-02T11:09:16.484+02:00,2022-06-02T10:17:13.754+02:00,757,1.564864,0,0,607.4087,0,0,2022-06-02T11:09:19.043+02:00,675853759.0430942,0,5.851562,101.3112,1,0.73
672,2022-06-02T11:09:21.506+02:00,1654160961.000233,53.22911309230512,10.39856964076882,36.8978,0.3376155,0.7153285,72.22261835920084,58.59442225995284,2.400000095367432,7.999579855010836,-9999,4045.636861291667,1.286575317382812,-0.55255126953125,2.269073486328125,4045.626867291667,-1.94490494071546,2.456843284267276,0.2013812670949142,-3.744172096252441,1.767334580421448,0.6367387771606445,0.1231006383895874,-0.4177901446819305,1.758684396743774,XArbitraryZVertical,0.7933797875491507,0.5000105498718918,-0.2226597427215394,0.266383970185157,0.619697093963623,-0.2000228762626648,0.7589240670204163,0,0,0,-1,-1,4040.621557416667,unknown,2,2022-06-02T11:09:16.484+02:00,2022-06-02T10:17:13.754+02:00,757,1.564864,0,0,607.4087,0,0,2022-06-02T11:09:19.043+02:00,675853759.0430942,0,5.851562,101.3112,1,0.73
673,2022-06-02T11:09:21.511+02:00,1654160961.000233,53.22911309230512,10.39856964076882,36.8978,0.3376155,0.7153285,72.22261835920084,58.59442225995284,2.400000095367432,7.999579855010836,-9999,4045.646856291667,1.642425537109375,-0.6761322021484375,2.313827514648438,4045.636861291667,-1.924347462665798,2.474260974475553,0.2340740627756788,-3.873579263687134,2.635836601257324,0.3392530381679535,0.4932763576507568,-0.3283450901508331,1.555387258529663,XArbitraryZVertical,0.7917497149850405,0.5051338161762746,-0.2037821878525817,0.276486962197323,0.6020147800445557,-0.2319424003362656,0.7640555500984192,0,0,0,-1,-1,4040.621557416667,unknown,2,2022-06-02T11:09:16.484+02:00,2022-06-02T10:17:13.754+02:00,757,1.564864,0,0,607.4087,0,0,2022-06-02T11:09:19.043+02:00,675853759.0430942,0,5.851562,101.3112,1,0.73
674,2022-06-02T11:09:21.520+02:00,1654160961.000233,53.22911309230512,10.39856964076882,36.8978,0.3376155,0.7153285,72.22261835920084,58.59442225995284,2.400000095367432,7.999579855010836,-9999,4045.656850291667,1.845962524414062,-0.7476806640625,2.437179565429688,4045.646856291667,-1.901708777608425,2.500451653075258,0.2662489056133252,-3.914018630981445,3.740281581878662,0.1122220158576965,0.8937896490097046,-0.3425222337245941,1.501726627349854,XArbitraryZVertical,0.7899131791532517,0.5124695278827713,-0.1810141646324314,0.2839823868231553,0.5770356059074402,-0.2631143629550934,0.7731757164001465,0,0,0,-1,-1,4040.621557416667,unknown,2,2022-06-02T11:09:16.484+02:00,2022-06-02T10:17:13.754+02:00,757,1.564864,0,0,607.4087,0,0,2022-06-02T11:09:19.043+02:00,675853759.0430942,0,5.851562,101.3112,1,0.73
675,2022-06-02T11:09:21.530+02:00,1654160961.000233,53.22911309230512,10.39856964076882,36.8978,0.3376155,0.7153285,72.22261835920084,58.59442225995284,2.400000095367432,7.999579855010836,-9999,4045.666844291667,1.832809448242188,-0.7434539794921875,2.677352905273438,4045.656850291667,-1.877647929792714,2.537193074639944,0.2989410730960104,-4.144501686096191,4.944440364837646,-0.0298790708184242,1.230586290359497,-0.4268355369567871,1.577511668205261,XArbitraryZVertical,0.7878929059333041,0.5219190082465645,-0.1534791243068448,0.2885644425262134,0.5430647730827332,-0.2945083975791931,0.786349356174469,0,0,0,-1,-1,4040.621557416667,unknown,2,2022-06-02T11:09:16.484+02:00,2022-06-02T10:17:13.754+02:00,757,1.564864,0,0,607.4087,0,0,2022-06-02T11:09:19.043+02:00,675853759.0430942,0,5.851562,101.3112,1,0.73
676,2022-06-02T11:09:21.540+02:00,1654160961.000233,53.22911309230512,10.39856964076882,36.8978,0.3376155,0.7153285,72.22261835920084,58.59442225995284,2.400000095367432,7.999579855010836,-9999,4045.676838291667,1.608154296875,-0.909942626953125,3.116439819335938,4045.666844291667,-1.851962743365754,2.584788939114855,0.3350700095660182,-4.61279296875,6.179010391235352,-0.072979137301445,1.362441062927246,-0.4051276743412018,1.734793305397034,XArbitraryZVertical,0.7852232398122597,0.5331909578314217,-0.1201960078025149,0.291006501532484,0.4990854561328888,-0.3288352787494659,0.8017362952232361,0,0,0,-1,-1,4040.621557416667,unknown,2,2022-06-02T11:09:16.484+02:00,2022-06-02T10:17:13.754+02:00,757,1.564864,0,0,607.4087,0,0,2022-06-02T11:09:19.043+02:00,675853759.0430942,0,5.851562,101.3112,1,0.73
677,2022-06-02T11:09:21.550+02:00,1654160961.000233,53.22911309230512,10.39856964076882,36.8978,0.3376155,0.7153285,72.22261835920084,58.59442225995284,2.400000095367432,7.999579855010836,-9999,4045.686832291667,1.12921142578125,-1.242401123046875,3.760711669921875,4045.676838291667,-1.825542052141929,2.643580577806083,0.3770795356230416,-5.115358352661133,7.40955924987793,0.022313829511404,1.307192206382751,-0.436053454875946,2.056647300720215,XArbitraryZVertical,0.7814577829193493,0.5456458558549054,-0.080443425254085,0.2917585650051392,0.4441199898719788,-0.3682067692279816,0.8168113231658936,0,0,0,-1,-1,4040.621557416667,unknown,2,2022-06-02T11:09:16.484+02:00,2022-06-02T10:17:13.754+02:00,757,1.564864,0,0,607.4087,0,0,2022-06-02T11:09:19.043+02:00,675853759.0430942,0,5.851562,101.3112,1,0.73
678,2022-06-02T11:09:21.560+02:00,1654160961.000233,53.22911309230512,10.39856964076882,36.8978,0.3376155,0.7153285,72.22261835920084,58.59442225995284,2.400000095367432,7.999579855010836,-9999,4045.696827291667,0.4807586669921875,-1.646514892578125,4.573623657226562,4045.686832291667,-1.800959512504603,2.714140177767491,0.424972499248766,-5.469374656677246,8.603354454040527,0.2094949036836624,1.026785373687744,-0.6429257392883301,2.583214282989502,XArbitraryZVertical,0.7763605940171833,0.558393431088683,-0.0344392362251742,0.2903013222021363,0.3776792287826538,-0.4122957289218903,0.8290780186653137,0,0,0,-1,-1,4040.621557416667,unknown,2,2022-06-02T11:09:16.484+02:00,2022-06-02T10:17:13.754+02:00,757,1.564864,0,0,607.4087,0,0,2022-06-02T11:09:19.043+02:00,675853759.0430942,0,5.851562,101.3112,1,0.73
679,2022-06-02T11:09:21.570+02:00,1654160961.000233,53.22911309230512,10.39856964076882,36.8978,0.3376155,0.7153285,72.22261835920084,58.59442225995284,2.400000095367432,7.999579855010836,-9999,4045.706821291667,-0.130279541015625,-2.067855834960938,5.46331787109375,4045.696827291667,-1.781496714277321,2.796330694221322,0.476916758323266,-5.439099788665771,9.518362998962402,0.4561283886432648,0.4992489218711853,-0.976046860218048,3.308773756027222,XArbitraryZVertical,0.7698246542467119,0.5704060581126899,0.016542214370401,0.2858901726699536,0.3006777763366699,-0.4590421617031097,0.8359861373901367,0,0,0,-1,-1,4040.621557416667,unknown,2,2022-06-02T11:09:16.484+02:00,2022-06-02T10:17:13.754+02:00,757,1.564864,0,0,607.4087,0,0,2022-06-02T11:09:19.043+02:00,675853759.0430942,0,5.851562,101.3112,1,0.73
680,2022-06-02T11:09:21.580+02:00,1654160961.000233,53.22911309230512,10.39856964076882,36.8978,0.3376155,0.7153285,72.22261835920084,58.59442225995284,2.400000095367432,7.999579855010836,-9999,4045.716815291667,-0.57806396484375,-2.191513061523438,6.314056396484375,4045.706821291667,-1.769734646326934,2.888995414165415,0.5286345618444958,-5.009856700897217,10.11339950561523,0.595191240310669,-0.0505825728178024,-1.371652126312256,4.192103385925293,XArbitraryZVertical,0.7618506801979941,0.5810600933690584,0.0700669235444732,0.2775665792074387,0.2158046513795853,-0.5043547749519348,0.8360945582389832,0,0,0,-1,-1,4040.621557416667,unknown,2,2022-06-02T11:09:16.484+02:00,2022-06-02T10:17:13.754+02:00,757,1.564864,0,0,607.4087,0,0,2022-06-02T11:09:19.043+02:00,675853759.0430942,0,5.851562,101.3112,1,0.73
681,2022-06-02T11:09:21.590+02:00,1654160961.000233,53.22911309230512,10.39856964076882,36.8978,0.3376155,0.7153285,72.22261835920084,58.59442225995284,2.400000095367432,7.999579855010836,-9999,4045.726809291667,-0.830810546875,-1.93499755859375,7.06658935546875,4045.716815291667,-1.763909076889005,2.988341606973624,0.5754815638489071,-4.365028858184814,10.31887531280518,0.247297927737236,-0.5051699876785278,-1.624355435371399,5.069705486297607,XArbitraryZVertical,0.7518811983964436,0.59095145683451,0.123191671116607,0.2650939125105154,0.1280642598867416,-0.5442388653755188,0.8290979266166687,0,0,0,-1,-1,4040.621557416667,unknown,2,2022-06-02T11:09:16.484+02:00,2022-06-02T10:17:13.754+02:00,757,1.564864,0,0,607.4087,0,0,2022-06-02T11:09:19.043+02:00,675853759.0430942,0,5.851562,101.3112,1,0.73
682,2022-06-02T11:09:21.600+02:00,1654160961.000233,53.22911309230512,10.39856964076882,36.8978,0.3376155,0.7153285,72.22261835920084,58.59442225995284,2.400000095367432,7.999579855010836,-9999,4045.736803291667,-0.6697235107421875,-1.2862548828125,7.8099365234375,4045.726809291667,-1.755626002897296,3.085973146096795,0.6163933065067851,-3.994244813919067,10.09830951690674,-0.8615025281906128,-0.7827719449996948,-1.531187415122986,5.882696151733398,XArbitraryZVertical,0.7381987177199318,0.6020100686774208,0.1733252989179355,0.2502096106184693,0.0453603826463222,-0.5780959725379944,0.8147069215774536,0,0,0,-1,-1,4040.621557416667,unknown,2,2022-06-02T11:09:16.484+02:00,2022-06-02T10:17:13.754+02:00,757,1.564864,0,0,607.4087,0,0,2022-06-02T11:09:19.043+02:00,675853759.0430942,0,5.851562,101.3112,1,0.73
683,2022-06-02T11:09:21.610+02:00,1654160961.000233,53.22911309230512,10.39856964076882,36.8978,0.3376155,0.7153285,72.22261835920084,58.59442225995284,2.400000095367432,7.999579855010836,-9999,4045.746798291667,-0.1920013427734375,-0.4521026611328125,8.445449829101562,4045.736803291667,-1.733216753654783,-3.111472916874105,0.6580917312544828,-4.4688720703125,9.701531410217283,-2.776387929916382,-0.779717206954956,-1.061090707778931,6.663528442382812,XArbitraryZVertical,0.7180174057342518,0.6163212810552373,0.2200436695511162,0.237022824060282,-0.0238259490579366,-0.6116082072257996,0.7908018231391907,0,0,0,-1,-1,4045.736498291667,unknown,2,2022-06-02T11:09:21.599+02:00,2022-06-02T10:17:13.754+02:00,757,1.564864,0,0,607.4087,0,0,2022-06-02T11:09:21.599+02:00,675853761.5987283,0,5.800781,101.3124,1,0.73
684,2022-06-02T11:09:21.620+02:00,1654160961.000233,53.22911309230512,10.39856964076882,36.8978,0.3376155,0.7153285,72.22261835920084,58.59442225995284,2.400000095367432,7.999579855010836,-9999,4045.756792291667,0.1488800048828125,-0.1180419921875,8.8416748046875,4045.746798291667,-1.685953021250184,-3.047655342242432,0.7102149574720069,-5.391416549682617,9.024831771850586,-5.290657520294189,-0.386307418346405,-0.1793476939201355,7.395816802978516,XArbitraryZVertical,0.688411996750379,0.6352387345896643,0.26391219104787,0.2300237942099885,-0.0711205899715423,-0.6519967913627625,0.7548786401748657,0,0,0,-1,-1,4045.736498291667,unknown,2,2022-06-02T11:09:21.599+02:00,2022-06-02T10:17:13.754+02:00,757,1.564864,0,0,607.4087,0,0,2022-06-02T11:09:21.599+02:00,675853761.5987283,0,5.800781,101.3124,1,0.73
685,2022-06-02T11:09:21.630+02:00,1654160961.000233,53.22911309230512,10.39856964076882,36.8978,0.3376155,0.7153285,72.22261835920084,58.59442225995284,2.400000095367432,7.999579855010836,-9999,4045.766786291667,0.0569000244140625,0.069976806640625,8.86126708984375,4045.756792291667,-1.602901119423968,-3.018906425399454,0.7726918863982427,-5.578351974487305,7.905871391296387,-8.301177978515625,0.1096914410591125,0.4470276832580566,7.966823101043701,XArbitraryZVertical,0.6480952811130289,0.6597714930613611,0.3024311391197845,0.2306716067672187,-0.0876272842288017,-0.6980652213096619,0.7106518149375916,0,0,0,-1,-1,4045.736498291667,unknown,2,2022-06-02T11:09:21.599+02:00,2022-06-02T10:17:13.754+02:00,757,1.564864,0,0,607.4087,0,0,2022-06-02T11:09:21.599+02:00,675853761.5987283,0,5.800781,101.3124,1,0.73
686,2022-06-02T11:09:21.640+02:00,1654160961.000233,53.22911309230512,10.39856964076882,36.8978,0.3376155,0.7153285,72.22261835920084,58.59442225995284,2.400000095367432,7.999579855010836,-9999,4045.776780291667,-0.580291748046875,0.457000732421875,8.328414916992188,4045.766786291667,-1.469607518875399,-3.04394027765872,0.8362632330905804,-4.819733619689941,6.298574447631836,-11.48187923431396,0.2243278920650482,0.7235891819000244,8.247213363647461,XArbitraryZVertical,0.5972479783647296,0.6905204824860511,0.3308205971237,0.2388178675734683,-0.0653466060757637,-0.7421437501907349,0.667047381401062,0,0,0,-1,-1,4045.736498291667,unknown,2,2022-06-02T11:09:21.599+02:00,2022-06-02T10:17:13.754+02:00,757,1.564864,0,0,607.4087,0,0,2022-06-02T11:09:21.599+02:00,675853761.5987283,0,5.800781,101.3124,1,0.73
687,2022-06-02T11:09:21.651+02:00,1654160961.000233,53.22911309230512,10.39856964076882,36.8978,0.3376155,0.7153285,72.22261835920084,58.59442225995284,2.400000095367432,7.999579855010836,-9999,4045.786774291667,-1.886703491210938,1.320510864257812,7.587188720703125,4045.776780291667,-1.274205240770488,-3.139433090210876,0.8817316748032153,-2.726273059844971,4.206186771392822,-14.43300533294678,-0.174331933259964,0.987279772758484,8.024815559387207,XArbitraryZVertical,0.5376184045796764,0.7272368978105946,0.3435900758241127,0.2530589515575814,-0.0013730829814448,-0.7718410491943359,0.6358141303062439,0,0,0,-1,-1,4045.736498291667,unknown,2,2022-06-02T11:09:21.599+02:00,2022-06-02T10:17:13.754+02:00,757,1.564864,0,0,607.4087,0,0,2022-06-02T11:09:21.599+02:00,675853761.5987283,0,5.800781,101.3124,1,0.73
688,2022-06-02T11:09:21.660+02:00,1654160961.000233,53.22911309230512,10.39856964076882,36.8978,0.3376155,0.7153285,72.22261835920084,58.59442225995284,2.400000095367432,7.999579855010836,-9999,4045.796769291667,-3.38763427734375,2.454132080078125,7.0322265625,4045.786774291667,-1.023163772204969,2.978451676761349,0.8831814031779343,-0.0515592619776725,1.569393992424011,-17.26441192626953,-1.266538381576538,1.593715667724609,7.31275749206543,XArbitraryZVertical,0.4714883094678288,0.7686564531074259,0.3353596201996474,0.2727632182886429,0.1030861362814903,-0.7727620005607605,0.6262679100036621,0,0,0,-1,-1,4045.736498291667,unknown,2,2022-06-02T11:09:21.599+02:00,2022-06-02T10:17:13.754+02:00,757,1.564864,0,0,607.4087,0,0,2022-06-02T11:09:21.599+02:00,675853761.5987283,0,5.800781,101.3124,1,0.73
689,2022-06-02T11:09:21.670+02:00,1654160961.000233,53.22911309230512,10.39856964076882,36.8978,0.3376155,0.7153285,72.22261835920084,58.59442225995284,2.400000095367432,7.999579855010836,-9999,4045.806763291667,-5.146392822265625,3.64520263671875,6.53265380859375,4045.796769291667,-0.755005524079034,2.776151433193548,0.8238841316188542,2.15805196762085,-1.503361940383911,-19.77724266052246,-2.893173456192017,2.622065305709839,6.659904003143311,XArbitraryZVertical,0.3997725251238413,0.810826193529191,0.3046277053109113,0.2999079279767842,0.2427828311920166,-0.7337901592254639,0.6345143914222717,0,0,0,-1,-1,4045.736498291667,unknown,2,2022-06-02T11:09:21.599+02:00,2022-06-02T10:17:13.754+02:00,757,1.564864,0,0,607.4087,0,0,2022-06-02T11:09:21.599+02:00,675853761.5987283,0,5.800781,101.3124,1,0.73
690,2022-06-02T11:09:21.680+02:00,1654160961.000233,53.22911309230512,10.39856964076882,36.8978,0.3376155,0.7153285,72.22261835920084,58.59442225995284,2.400000095367432,7.999579855010836,-9999,4045.816757291667,-7.457046508789062,5.276687622070312,5.746200561523438,4045.806763291667,-0.5139115317695339,2.575231879507652,0.7038926559257168,3.495970249176025,-5.326289176940918,-21.93846130371094,-4.563869476318359,3.662220001220703,6.112195014953613,XArbitraryZVertical,0.3222159522384634,0.8472459695163334,0.2534723285285607,0.3377909246647046,0.4090383350849152,-0.6471900939941406,0.6432977318763733,0,0,0,-1,-1,4045.736498291667,unknown,2,2022-06-02T11:09:21.599+02:00,2022-06-02T10:17:13.754+02:00,757,1.564864,0,0,607.4087,0,0,2022-06-02T11:09:21.599+02:00,675853761.5987283,0,5.800781,101.3124,1,0.73
691,2022-06-02T11:09:21.690+02:00,1654160961.000233,53.22911309230512,10.39856964076882,36.8978,0.3376155,0.7153285,72.22261835920084,58.59442225995284,2.400000095367432,7.999579855010836,-9999,4045.826751291667,-10.55079650878906,6.743270874023438,4.452438354492188,4045.816757291667,-0.3171593233165701,2.38188978995217,0.5362339957756437,3.023493528366089,-10.20438003540039,-23.64591026306152,-6.923459053039551,4.940650939941406,5.571200370788574,XArbitraryZVertical,0.2384134385099692,0.8687896506763785,0.1864854074713221,0.3919012199481397,0.5920382142066956,-0.5109022259712219,0.6232728362083435,0,0,0,-1,-1,4045.736498291667,unknown,2,2022-06-02T11:09:21.599+02:00,2022-06-02T10:17:13.754+02:00,757,1.564864,0,0,607.4087,0,0,2022-06-02T11:09:21.599+02:00,675853761.5987283,0,5.800781,101.3124,1,0.73
692,2022-06-02T11:09:21.700+02:00,1654160961.000233,53.22911309230512,10.39856964076882,36.8978,0.3376155,0.7153285,72.22261835920084,58.59442225995284,2.400000095367432,7.999579855010836,-9999,4045.836744875,-17.33995056152344,8.673828125,4.783615112304688,4045.826751291667,-0.1571293005366609,2.185458054186881,0.3416343670583109,-0.0710328966379165,-15.47625827789307,-24.72883415222168,-9.555383682250977,6.375188827514648,4.576807975769043,XArbitraryZVertical,0.1466345091437436,0.8661268151967897,0.1148820137323503,0.4638153346913239,0.7697544693946838,-0.3350274562835693,0.5433546900749207,0,0,0,-1,-1,4045.736498291667,unknown,2,2022-06-02T11:09:21.599+02:00,2022-06-02T10:17:13.754+02:00,757,1.564864,0,0,607.4087,0,0,2022-06-02T11:09:21.599+02:00,675853761.5987283,0,5.800781,101.3124,1,0.73
693,2022-06-02T11:09:21.710+02:00,1654160961.000233,53.22911309230512,10.39856964076882,36.8978,0.3376155,0.7153285,72.22261835920084,58.59442225995284,2.400000095367432,7.999579855010836,-9999,4045.846739875,-26.80258178710938,9.401779174804688,6.071273803710938,4045.836744875,-0.0085433078993461,1.966280713605541,0.1385858860310158,-5.330125331878662,-20.65387344360352,-24.2795524597168,-13.99204158782959,7.73351001739502,3.781997203826904,XArbitraryZVertical,0.0419322455115483,0.8300737661471764,0.0552593043689817,0.553322377139195,0.9139624834060668,-0.1381426900625229,0.3815615475177765,0,0,0,-1,-1,4045.736498291667,unknown,2,2022-06-02T11:09:21.599+02:00,2022-06-02T10:17:13.754+02:00,757,1.564864,0,0,607.4087,0,0,2022-06-02T11:09:21.599+02:00,675853761.5987283,0,5.800781,101.3124,1,0.73
694,2022-06-02T11:09:21.720+02:00,1654160961.000233,53.22911309230512,10.39856964076882,36.8978,0.3376155,0.7153285,72.22261835920084,58.59442225995284,2.400000095367432,7.999579855010836,-9999,4045.856733875,-25.57064819335938,7.469482421875,9.190505981445312,4045.846739875,0.1264799018089537,1.713235228983046,-0.0873798944116088,-7.135432243347168,-30.81194305419922,-26.92223167419434,-23.98627853393555,9.292705535888672,5.494219303131104,XArbitraryZVertical,-0.0762591872860695,0.7515933654030451,0.0084178443495243,0.6551494832332183,0.9860959053039552,0.0872687399387359,0.1414161026477814,0,0,0,-1,-1,4045.736498291667,unknown,2,2022-06-02T11:09:21.599+02:00,2022-06-02T10:17:13.754+02:00,757,1.564864,0,0,607.4087,0,0,2022-06-02T11:09:21.599+02:00,675853761.5987283,0,5.800781,101.3124,1,0.73
695,2022-06-02T11:09:21.730+02:00,1654160961.000233,53.22911309230512,10.39856964076882,36.8978,0.3376155,0.7153285,72.22261835920084,58.59442225995284,2.400000095367432,7.999579855010836,-9999,4045.866727875,-31.96603393554688,23.95780944824219,13.77420043945312,4045.856733875,0.0760890288445433,1.357025451295786,-0.3213946753332493,23.33207702636719,-35.14149475097656,-17.69559288024902,-27.34110832214355,7.725110054016113,7.667149543762207,XArbitraryZVertical,-0.1480409056721445,0.6143631539212144,-0.0711239635929841,0.7717402269768634,0.9271990060806274,0.3158901333808899,-0.2012836039066315,0,0,0,-1,-1,4045.736498291667,unknown,2,2022-06-02T11:09:21.599+02:00,2022-06-02T10:17:13.754+02:00,757,1.564864,0,0,607.4087,0,0,2022-06-02T11:09:21.599+02:00,675853761.5987283,0,5.800781,101.3124,1,0.73
696,2022-06-02T11:09:21.740+02:00,1654160961.000233,53.22911309230512,10.39856964076882,36.8978,0.3376155,0.7153285,72.22261835920084,58.59442225995284,2.400000095367432,7.999579855010836,-9999,4045.876721875,-30.92063903808594,30.87753295898438,2.365020751953125,4045.866727875,-0.2638305777742849,0.899676284838461,-0.2697412154590508,35.27131271362305,-35.136474609375,-6.20037317276001,-30.33334541320801,12.87595844268799,13.70417404174805,XArbitraryZVertical,-0.063359669065673,0.4430543315894682,-0.1753309624466872,0.8768964204066803,0.754807710647583,0.266482025384903,-0.5993767976760864,0,0,0,-1,-1,4045.736498291667,unknown,2,2022-06-02T11:09:21.599+02:00,2022-06-02T10:17:13.754+02:00,757,1.564864,0,0,607.4087,0,0,2022-06-02T11:09:21.599+02:00,675853761.5987283,0,5.800781,101.3124,1,0.73
697,2022-06-02T11:09:21.750+02:00,1654160961.000233,53.22911309230512,10.39856964076882,36.8978,0.3376155,0.7153285,72.22261835920084,58.59442225995284,2.400000095367432,7.999579855010836,-9999,4045.886715875,-31.48422241210938,-1.535614013671875,29.81759643554688,4045.876721875,-0.5124717559932714,0.5072372033240984,-0.0197287951926635,35.24798965454102,-35.12619400024414,-0.0771169513463974,-32.30613327026367,29.77246284484863,3.262057781219482,XArbitraryZVertical,0.0543505016821654,0.2451247148325474,-0.2477160435359231,0.9357331627240004,0.4856696426868439,0.0197275150567293,-0.8739197850227356,0,0,0,-1,-1,4045.736498291667,unknown,2,2022-06-02T11:09:21.599+02:00,2022-06-02T10:17:13.754+02:00,757,1.564864,0,0,607.4087,0,0,2022-06-02T11:09:21.599+02:00,675853761.5987283,0,5.800781,101.3124,1,0.73
698,2022-06-02T11:09:21.760+02:00,1654160961.000233,53.22911309230512,10.39856964076882,36.8978,0.3376155,0.7153285,72.22261835920084,58.59442225995284,2.400000095367432,7.999579855010836,-9999,4045.896710875,-12.79164123535156,-10.56565856933594,21.78718566894531,4045.886715875,-0.6160823367648323,0.3798673238755005,0.25811893115108,21.00967597961426,11.28509330749512,6.657505989074707,-30.64289093017578,23.17156791687012,21.91717338562012,XArbitraryZVertical,0.1772027207964079,0.1400912716104372,-0.2721097115961831,0.9353768429494518,0.3585134148597717,-0.2552622556686401,-0.8979472517967224,0,0,0,-1,-1,4045.736498291667,unknown,2,2022-06-02T11:09:21.599+02:00,2022-06-02T10:17:13.754+02:00,757,1.564864,0,0,607.4087,0,0,2022-06-02T11:09:21.599+02:00,675853761.5987283,0,5.800781,101.3124,1,0.73
699,2022-06-02T11:09:21.770+02:00,1654160961.000233,53.22911309230512,10.39856964076882,36.8978,0.3376155,0.7153285,72.22261835920084,58.59442225995284,2.400000095367432,7.999579855010836,-9999,4045.906704875,-3.114456176757812,-21.6363525390625,7.361526489257812,4045.896710875,-0.5867618709167723,0.5197720125215527,0.4549256672694281,16.29941558837891,13.74982261657715,13.14302635192871,-27.0943603515625,-12.61895370483398,27.60181617736816,XArbitraryZVertical,0.2810209880242537,0.1766298143395389,-0.2168077799838173,0.918054167192874,0.4461665451526642,-0.439395546913147,-0.7796581983566284,0,0,0,-1,-1,4045.736498291667,unknown,2,2022-06-02T11:09:21.599+02:00,2022-06-02T10:17:13.754+02:00,757,1.564864,0,0,607.4087,0,0,2022-06-02T11:09:21.599+02:00,675853761.5987283,0,5.800781,101.3124,1,0.73
700,2022-06-02T11:09:21.780+02:00,1654160961.000233,53.22911309230512,10.39856964076882,36.8978,0.3376155,0.7153285,72.22261835920084,58.59442225995284,2.400000095367432,7.999579855010836,-9999,4045.916698875,-12.66941833496094,-16.67234802246094,-6.82891845703125,4045.906704875,-0.5347769917147576,0.5998152176362158,0.6442472834387577,5.284626483917236,7.099256992340088,15.90292453765869,-3.282195568084717,-11.89273548126221,16.63250160217285,XArbitraryZVertical,0.3657451737365705,0.190366443698376,-0.1492322346149862,0.898732832875535,0.4513390958309174,-0.6005967855453491,-0.6599821448326111,0,0,0,-1,-1,4045.736498291667,unknown,2,2022-06-02T11:09:21.599+02:00,2022-06-02T10:17:13.754+02:00,757,1.564864,0,0,607.4087,0,0,2022-06-02T11:09:21.599+02:00,675853761.5987283,0,5.800781,101.3124,1,0.73
701,2022-06-02T11:09:21.790+02:00,1654160961.000233,53.22911309230512,10.39856964076882,36.8978,0.3376155,0.7153285,72.22261835920084,58.59442225995284,2.400000095367432,7.999579855010836,-9999,4045.926692875,-13.04615783691406,1.785751342773438,-4.4998779296875,4045.916698875,-0.2428990528707062,0.4690099342940287,0.6181485086943718,-30.11456108093262,1.92634129524231,18.68156814575195,-8.042296409606934,-23.71481513977051,-0.1432271003723145,XArbitraryZVertical,0.3204891652622403,0.1838780090167723,-0.0420932635245396,0.9282799421706608,0.3683614134788513,-0.5795272588729858,-0.7269511222839355,0,0,0,-1,-1,4045.736498291667,unknown,2,2022-06-02T11:09:21.599+02:00,2022-06-02T10:17:13.754+02:00,757,1.564864,0,0,607.4087,0,0,2022-06-02T11:09:21.599+02:00,675853761.5987283,0,5.800781,101.3124,1,0.73
702,2022-06-02T11:09:21.800+02:00,1654160961.000233,53.22911309230512,10.39856964076882,36.8978,0.3376155,0.7153285,72.22261835920084,58.59442225995284,2.400000095367432,7.999579855010836,-9999,4045.936686875,-7.259017944335938,7.867828369140625,4.467636108398438,4045.926692875,0.0647004047431316,0.2666580421928472,0.4001746703963479,-24.64768981933594,-10.35696029663086,16.82048034667969,-15.454176902771,-5.695763111114502,-7.537537574768066,XArbitraryZVertical,0.1926739591024637,0.136585628987005,0.0578254610262645,0.9699882803724889,0.2426899969577789,-0.3895792067050934,-0.8884422183036804,0,0,0,-1,-1,4045.736498291667,unknown,2,2022-06-02T11:09:21.599+02:00,2022-06-02T10:17:13.754+02:00,757,1.564864,0,0,607.4087,0,0,2022-06-02T11:09:21.599+02:00,675853761.5987283,0,5.800781,101.3124,1,0.73
703,2022-06-02T11:09:21.810+02:00,1654160961.000233,53.22911309230512,10.39856964076882,36.8978,0.3376155,0.7153285,72.22261835920084,58.59442225995284,2.400000095367432,7.999579855010836,-9999,4045.946681875,-7.624313354492188,3.75848388671875,3.5360107421875,4045.936686875,0.2440708015585609,0.1137696688335468,0.2914093345340166,-4.898382186889648,-8.75439453125,11.80056476593018,-9.648426055908203,6.71123743057251,2.135226249694824,XArbitraryZVertical,0.1370291125349648,0.0734791281897442,0.1284412608603423,0.9794521695136784,0.1087381988763809,-0.2873024344444275,-0.951647698879242,0,0,0,-1,-1,4045.736498291667,unknown,2,2022-06-02T11:09:21.599+02:00,2022-06-02T10:17:13.754+02:00,757,1.564864,0,0,607.4087,0,0,2022-06-02T11:09:21.599+02:00,675853761.5987283,0,5.800781,101.3124,1,0.73
704,2022-06-02T11:09:21.820+02:00,1654160961.000233,53.22911309230512,10.39856964076882,36.8978,0.3376155,0.7153285,72.22261835920084,58.59442225995284,2.400000095367432,7.999579855010836,-9999,4045.956675875,-13.18276977539062,3.750289916992188,0.08447265625,4045.946681875,0.3485728771859317,-0.0033762272218034,0.302709191619372,5.586496829986572,-8.345447540283203,8.605048179626465,-6.375805377960205,6.142574310302734,5.64747428894043,XArbitraryZVertical,0.1487823656845858,0.0245020544949859,0.1711721133367488,0.9736341076349472,-0.0032227120827883,-0.2981072962284088,-0.9545269012451172,0,0,0,-1,-1,4045.736498291667,unknown,2,2022-06-02T11:09:21.599+02:00,2022-06-02T10:17:13.754+02:00,757,1.564864,0,0,607.4087,0,0,2022-06-02T11:09:21.599+02:00,675853761.5987283,0,5.800781,101.3124,1,0.73
705,2022-06-02T11:09:21.830+02:00,1654160961.000233,53.22911309230512,10.39856964076882,36.8978,0.3376155,0.7153285,72.22261835920084,58.59442225995284,2.400000095367432,7.999579855010836,-9999,4045.966669875,-12.99696350097656,0.3740081787109375,-1.386123657226562,4045.956675875,0.4350486933827406,-0.1020591791553966,0.3943732096433303,13.05758190155029,-5.746815204620361,7.112751007080078,-10.50466251373291,4.156309127807617,2.732673168182373,XArbitraryZVertical,0.2018402605433122,-0.0066151466397613,0.2015979340013283,0.958423227014341,-0.0940613821148872,-0.3842296004295349,-0.9184334874153136,0,0,0,-1,-1,4045.736498291667,unknown,2,2022-06-02T11:09:21.599+02:00,2022-06-02T10:17:13.754+02:00,757,1.564864,0,0,607.4087,0,0,2022-06-02T11:09:21.599+02:00,675853761.5987283,0,5.800781,101.3124,1,0.73
706,2022-06-02T11:09:21.840+02:00,1654160961.000233,53.22911309230512,10.39856964076882,36.8978,0.3376155,0.7153285,72.22261835920084,58.59442225995284,2.400000095367432,7.999579855010836,-9999,4045.976663875,-11.75460815429688,-3.245452880859375,-0.3615570068359375,4045.966669875,0.5401425458919864,-0.199106183794183,0.5238885325700448,14.6578950881958,-4.51215124130249,7.900152683258057,-13.67875576019287,2.855490684509277,-0.2480278015136719,XArbitraryZVertical,0.2739488769044373,-0.0237704550202971,0.231618505507576,0.9331344523408776,-0.1712653189897537,-0.5002509355545044,-0.8487739562988281,0,0,0,-1,-1,4045.736498291667,unknown,2,2022-06-02T11:09:21.599+02:00,2022-06-02T10:17:13.754+02:00,757,1.564864,0,0,607.4087,0,0,2022-06-02T11:09:21.599+02:00,675853761.5987283,0,5.800781,101.3124,1,0.73
707,2022-06-02T11:09:21.850+02:00,1654160961.000233,53.22911309230512,10.39856964076882,36.8978,0.3376155,0.7153285,72.22261835920084,58.59442225995284,2.400000095367432,7.999579855010836,-9999,4045.986657875,-11.04350280761719,-4.36016845703125,-0.2559356689453125,4045.976663875,0.6808951719174039,-0.3126520826571055,0.6335574196494439,12.22902011871338,-2.504845380783081,9.329500198364258,-11.83170032501221,-1.128336668014526,-0.1929216384887695,XArbitraryZVertical,0.3394475034869607,-0.036705683660151,0.2677108499864804,0.9009766314330856,-0.2478894889354706,-0.5920155048370361,-0.7668561935424805,0,0,0,-1,-1,4045.736498291667,unknown,2,2022-06-02T11:09:21.599+02:00,2022-06-02T10:17:13.754+02:00,757,1.564864,0,0,607.4087,0,0,2022-06-02T11:09:21.599+02:00,675853761.5987283,0,5.800781,101.3124,1,0.73
708,2022-06-02T11:09:21.860+02:00,1654160961.000233,53.22911309230512,10.39856964076882,36.8978,0.3376155,0.7153285,72.22261835920084,58.59442225995284,2.400000095367432,7.999579855010836,-9999,4045.996652875,-9.978225708007812,-4.346420288085938,-0.6360015869140625,4045.986657875,0.8485834002082113,-0.4285248443141281,0.6963361677479817,9.13709545135498,0.1103071346879005,10.69400596618652,-11.1889123916626,-3.411536693572998,0.570233166217804,XArbitraryZVertical,0.3860958468708449,-0.0449045209146208,0.3120149520505762,0.8669257717510235,-0.3187931180000305,-0.6414111256599426,-0.697827160358429,0,0,0,-1,-1,4045.736498291667,unknown,2,2022-06-02T11:09:21.599+02:00,2022-06-02T10:17:13.754+02:00,757,1.564864,0,0,607.4087,0,0,2022-06-02T11:09:21.599+02:00,675853761.5987283,0,5.800781,101.3124,1,0.73
709,2022-06-02T11:09:21.870+02:00,1654160961.000233,53.22911309230512,10.39856964076882,36.8978,0.3376155,0.7153285,72.22261835920084,58.59442225995284,2.400000095367432,7.999579855010836,-9999,4046.006646875,-8.736053466796875,-4.1112060546875,-1.011520385742188,4045.996652875,1.02601508528952,-0.5312316720643345,0.7170163321931098,7.173976421356201,2.31035041809082,11.19816875457764,-10.15824317932129,-3.727398157119751,0.1797037124633789,XArbitraryZVertical,0.4156344920872925,-0.0479994331102787,0.36322794309721,0.8324719021526675,-0.3818564713001251,-0.6571385860443115,-0.6498880386352539,0,0,0,-1,-1,4045.736498291667,unknown,2,2022-06-02T11:09:21.599+02:00,2022-06-02T10:17:13.754+02:00,757,1.564864,0,0,607.4087,0,0,2022-06-02T11:09:21.599+02:00,675853761.5987283,0,5.800781,101.3124,1,0.73
710,2022-06-02T11:09:21.880+02:00,1654160961.000233,53.22911309230512,10.39856964076882,36.8978,0.3376155,0.7153285,72.22261835920084,58.59442225995284,2.400000095367432,7.999579855010836,-9999,4046.016640875,-7.968734741210938,-3.965164184570312,-0.998077392578125,4046.006646875,1.197458845464498,-0.6140258771332247,0.7116687719494452,6.013876914978027,3.548677444458008,11.15469074249268,-8.883770942687988,-3.599556684494019,-0.1923487186431885,XArbitraryZVertical,0.433973082229089,-0.0468450712038356,0.4166163182533651,0.7974356778981273,-0.4363124072551727,-0.6530984044075012,-0.6189457774162292,0,0,0,-1,-1,4045.736498291667,unknown,2,2022-06-02T11:09:21.599+02:00,2022-06-02T10:17:13.754+02:00,757,1.564864,0,0,607.4087,0,0,2022-06-02T11:09:21.599+02:00,675853761.5987283,0,5.800781,101.3124,1,0.73
711,2022-06-02T11:09:21.890+02:00,1654160961.000233,53.22911309230512,10.39856964076882,36.8978,0.3376155,0.7153285,72.22261835920084,58.59442225995284,2.400000095367432,7.999579855010836,-9999,4046.026634875,-7.202774047851562,-3.5179443359375,-0.592437744140625,4046.016640875,1.356943450793043,-0.6766572365247304,0.6896218449109243,5.238399982452393,4.490128993988037,10.87856006622314,-7.837291240692139,-3.421325922012329,-0.4920464158058167,XArbitraryZVertical,0.4442878349218762,-0.0430780088190702,0.4698333080500629,0.7615833697145327,-0.4830974340438843,-0.6362454891204834,-0.6015052199363708,0,0,0,-1,-1,4045.736498291667,unknown,2,2022-06-02T11:09:21.599+02:00,2022-06-02T10:17:13.754+02:00,757,1.564864,0,0,607.4087,0,0,2022-06-02T11:09:21.599+02:00,675853761.5987283,0,5.800781,101.3124,1,0.73
712,2022-06-02T11:09:21.900+02:00,1654160961.000233,53.22911309230512,10.39856964076882,36.8978,0.3376155,0.7153285,72.22261835920084,58.59442225995284,2.400000095367432,7.999579855010836,-9999,4046.036628875,-6.569122314453125,-3.08648681640625,-0.1239013671875,4046.026634875,1.501977344493219,-0.7181208617790251,0.6611392929758537,5.030350208282471,5.357091426849365,10.11224269866943,-7.069474220275879,-3.137005805969238,-0.214328408241272,XArbitraryZVertical,0.4489386730981549,-0.0356091011185706,0.52088033229687,0.7251688107233955,-0.5193318724632263,-0.6140164732933044,-0.5943720936775208,0,0,0,-1,-1,4045.736498291667,unknown,2,2022-06-02T11:09:21.599+02:00,2022-06-02T10:17:13.754+02:00,757,1.564864,0,0,607.4087,0,0,2022-06-02T11:09:21.599+02:00,675853761.5987283,0,5.800781,101.3124,1,0.73
713,2022-06-02T11:09:21.910+02:00,1654160961.000233,53.22911309230512,10.39856964076882,36.8978,0.3376155,0.7153285,72.22261835920084,58.59442225995284,2.400000095367432,7.999579855010836,-9999,4046.046623875,-5.901718139648438,-3.173233032226562,0.1766815185546875,4046.036628875,1.634995570272777,-0.7408412663316659,0.6353795227873787,5.319122314453125,6.152352333068848,9.0993070602417,-6.320052623748779,-2.709358215332031,0.2400305271148682,XArbitraryZVertical,0.4500332614504514,-0.0228373947248611,0.5685838405431312,0.6882301986831819,-0.5431980490684509,-0.593483030796051,-0.5938970446586609,0,0,0,-1,-1,4045.736498291667,unknown,2,2022-06-02T11:09:21.599+02:00,2022-06-02T10:17:13.754+02:00,757,1.564864,0,0,607.4087,0,0,2022-06-02T11:09:21.599+02:00,675853761.5987283,0,5.800781,101.3124,1,0.73
714,2022-06-02T11:09:21.920+02:00,1654160961.000233,53.22911309230512,10.39856964076882,36.8978,0.3376155,0.7153285,72.22261835920084,58.59442225995284,2.400000095367432,7.999579855010836,-9999,4046.056617875,-4.930877685546875,-3.797805786132812,0.383544921875,4046.046623875,1.757402683750331,-0.747336325718123,0.6173227330766522,5.420063495635986,6.867487907409668,7.933178424835205,-5.715415000915527,-2.41981840133667,0.6471467614173889,XArbitraryZVertical,0.4482435971662221,-0.004190656541839,0.6121431031200875,0.6514144068106985,-0.5542381405830383,-0.5788540840148926,-0.5981202125549316,0,0,0,-1,-1,4045.736498291667,unknown,2,2022-06-02T11:09:21.599+02:00,2022-06-02T10:17:13.754+02:00,757,1.564864,0,0,607.4087,0,0,2022-06-02T11:09:21.599+02:00,675853761.5987283,0,5.800781,101.3124,1,0.73
715,2022-06-02T11:09:21.930+02:00,1654160961.000233,53.22911309230512,10.39856964076882,36.8978,0.3376155,0.7153285,72.22261835920084,58.59442225995284,2.400000095367432,7.999579855010836,-9999,4046.066611875,-4.146270751953125,-3.918502807617188,0.38787841796875,4046.056617875,1.866075452642197,-0.7386446628730958,0.6054943731095348,4.843239307403564,7.310532093048096,6.770861625671387,-4.880018711090088,-2.946547985076904,0.8883153200149536,XArbitraryZVertical,0.4423799619845684,0.0182331829627019,0.6511036112803336,0.6164669446901693,-0.5535900592803955,-0.5691686272621155,-0.6079350113868713,0,0,0,-1,-1,4045.736498291667,unknown,2,2022-06-02T11:09:21.599+02:00,2022-06-02T10:17:13.754+02:00,757,1.564864,0,0,607.4087,0,0,2022-06-02T11:09:21.599+02:00,675853761.5987283,0,5.800781,101.3124,1,0.73
716,2022-06-02T11:09:21.940+02:00,1654160961.000233,53.22911309230512,10.39856964076882,36.8978,0.3376155,0.7153285,72.22261835920084,58.59442225995284,2.400000095367432,7.999579855010836,-9999,4046.076605875,-3.479644775390625,-3.717910766601562,0.288360595703125,4046.066611875,1.9582203716657,-0.7167311988719353,0.5970129359171238,3.995341300964355,7.413341045379639,5.776379585266113,-3.961228609085083,-3.362141609191895,1.05203378200531,XArbitraryZVertical,0.4318568488247599,0.0416104238861153,0.6853651160141897,0.5848442175364899,-0.543287992477417,-0.5621746182441711,-0.6235364675521851,0,0,0,-1,-1,4045.736498291667,unknown,2,2022-06-02T11:09:21.599+02:00,2022-06-02T10:17:13.754+02:00,757,1.564864,0,0,607.4087,0,0,2022-06-02T11:09:21.599+02:00,675853761.5987283,0,5.800781,101.3124,1,0.73
717,2022-06-02T11:09:21.950+02:00,1654160961.000233,53.22911309230512,10.39856964076882,36.8978,0.3376155,0.7153285,72.22261835920084,58.59442225995284,2.400000095367432,7.999579855010836,-9999,4046.086599875,-3.15643310546875,-3.165817260742188,0.3909912109375,4046.076605875,2.034385240272214,-0.6866633799658917,0.5888969658286055,2.91551685333252,7.122635841369629,4.871732234954834,-3.262287139892578,-3.308630466461182,0.9661237001419068,XArbitraryZVertical,0.4176984177325219,0.0630909538039804,0.7151554194914852,0.5568664302526001,-0.5271720886230469,-0.5554441213607788,-0.6430951356887817,0,0,0,-1,-1,4045.736498291667,unknown,2,2022-06-02T11:09:21.599+02:00,2022-06-02T10:17:13.754+02:00,757,1.564864,0,0,607.4087,0,0,2022-06-02T11:09:21.599+02:00,675853761.5987283,0,5.800781,101.3124,1,0.73
718,2022-06-02T11:09:21.960+02:00,1654160961.000233,53.22911309230512,10.39856964076882,36.8978,0.3376155,0.7153285,72.22261835920084,58.59442225995284,2.400000095367432,7.999579855010836,-9999,4046.096593875,-2.914779663085938,-2.64532470703125,0.54168701171875,4046.086599875,2.092988866068108,-0.6496503276421626,0.5812386076090339,2.020488977432251,6.767959594726562,3.74103856086731,-2.766904354095459,-2.902920961380005,0.9850341081619264,XArbitraryZVertical,0.4006345895918684,0.0820170502527511,0.740221950481188,0.5337007018899331,-0.5055719017982483,-0.5490595698356628,-0.665530264377594,0,0,0,-1,-1,4045.736498291667,unknown,2,2022-06-02T11:09:21.599+02:00,2022-06-02T10:17:13.754+02:00,757,1.564864,0,0,607.4087,0,0,2022-06-02T11:09:21.599+02:00,675853761.5987283,0,5.800781,101.3124,1,0.73
719,2022-06-02T11:09:21.970+02:00,1654160961.000233,53.22911309230512,10.39856964076882,36.8978,0.3376155,0.7153285,72.22261835920084,58.59442225995284,2.400000095367432,7.999579855010836,-9999,4046.106588875,-2.500839233398438,-2.041168212890625,0.66802978515625,4046.096593875,2.136751983779489,-0.6076210537003299,0.5770056514533296,1.688432455062866,6.42828369140625,2.712355375289917,-2.589905261993408,-2.367080688476562,1.149848580360413,XArbitraryZVertical,0.3820865216038998,0.0998315015938503,0.7607325181519631,0.5151015038979416,-0.478484570980072,-0.545516848564148,-0.6880871057510376,0,0,0,-1,-1,4045.736498291667,unknown,2,2022-06-02T11:09:21.599+02:00,2022-06-02T10:17:13.754+02:00,757,1.564864,0,0,607.4087,0,0,2022-06-02T11:09:21.599+02:00,675853761.5987283,0,5.800781,101.3124,1,0.73
720,2022-06-02T11:09:21.980+02:00,1654160961.000233,53.22911309230512,10.39856964076882,36.8978,0.3376155,0.7153285,72.22261835920084,58.59442225995284,2.400000095367432,7.999579855010836,-9999,4046.116582875,-2.2139892578125,-1.551101684570312,0.8181610107421875,4046.106588875,2.170912593907687,-0.5642822312690325,0.5792211395050179,1.922047138214111,5.973328113555908,1.856405138969421,-2.256082773208618,-1.802267551422119,1.31775951385498,XArbitraryZVertical,0.3639628488635825,0.1181387518249165,0.7770732456371853,0.4997314388345353,-0.4475762844085693,-0.5473722815513611,-0.707148551940918,0,0,0,-1,-1,4045.736498291667,unknown,2,2022-06-02T11:09:21.599+02:00,2022-06-02T10:17:13.754+02:00,757,1.564864,0,0,607.4087,0,0,2022-06-02T11:09:21.599+02:00,675853761.5987283,0,5.800781,101.3124,1,0.73
721,2022-06-02T11:09:21.990+02:00,1654160961.000233,53.22911309230512,10.39856964076882,36.8978,0.3376155,0.7153285,72.22261835920084,58.59442225995284,2.400000095367432,7.999579855010836,-9999,4046.126576875,-1.864852905273438,-1.399658203125,0.9259033203125,4046.116582875,2.200043872854242,-0.5231671891325408,0.5901770181424046,2.481293201446533,5.481298923492432,1.21722412109375,-1.932744145393372,-1.205592036247253,1.457273721694946,XArbitraryZVertical,0.347939951615722,0.1381411506101514,0.7895747224544347,0.4862370401763774,-0.4151104986667633,-0.5565081238746643,-0.7197096347808838,0,0,0,-1,-1,4045.736498291667,unknown,2,2022-06-02T11:09:21.599+02:00,2022-06-02T10:17:13.754+02:00,757,1.564864,0,0,607.4087,0,0,2022-06-02T11:09:21.599+02:00,675853761.5987283,0,5.800781,101.3124,1,0.73
722,2022-06-02T11:09:22.000+02:00,1654160961.000233,53.22911309230512,10.39856964076882,36.8978,0.3376155,0.7153285,72.22261835920084,58.59442225995284,2.400000095367432,7.999579855010836,-9999,4046.136570875,-1.53619384765625,-1.500701904296875,0.927154541015625,4046.126576875,2.226541532690452,-0.4860179116360923,0.6096756423362492,3.035731315612793,4.925181865692139,0.7736834287643433,-1.673322916030884,-0.8567501306533813,1.611997127532959,XArbitraryZVertical,0.3346074379305622,0.1599667916083095,0.7987394475374016,0.4737760751937913,-0.3829514384269714,-0.5726015567779541,-0.7248969674110413,0,0,0,-1,-1,4045.736498291667,unknown,2,2022-06-02T11:09:21.599+02:00,2022-06-02T10:17:13.754+02:00,757,1.564864,0,0,607.4087,0,0,2022-06-02T11:09:21.599+02:00,675853761.5987283,0,5.800781,101.3124,1,0.73
723,2022-06-02T11:09:22.010+02:00,1654160961.000233,53.22911309230512,10.39856964076882,36.8978,0.3376155,0.7153285,72.22261835920084,58.59442225995284,2.400000095367432,7.999579855010836,-9999,4046.146564875,-1.405792236328125,-1.642822265625,0.9474334716796876,4046.136570875,2.250888903497079,-0.4544862830072757,0.6347008825973662,3.136906862258911,4.21711540222168,0.5017314553260803,-1.325785756111145,-0.8394973278045654,1.652170658111572,XArbitraryZVertical,0.324132451944082,0.1821685731265733,0.8050680453983072,0.4621883444119541,-0.3535049855709076,-0.5929366946220398,-0.7235055565834045,0,0,0,-1,-1,4045.736498291667,unknown,2,2022-06-02T11:09:21.599+02:00,2022-06-02T10:17:13.754+02:00,757,1.564864,0,0,607.4087,0,0,2022-06-02T11:09:21.599+02:00,675853761.5987283,0,5.800781,101.3124,1,0.73
724,2022-06-02T11:09:22.020+02:00,1654160961.000233,53.22911309230512,10.39856964076882,36.8978,0.3376155,0.7153285,72.22261835920084,58.59442225995284,2.400000095367432,7.999579855010836,-9999,4046.156559875,-1.330734252929688,-1.666290283203125,0.941070556640625,4046.146564875,2.270522391964208,-0.4277153530354636,0.6598305142631492,2.716411113739014,3.521929740905762,0.1926729083061218,-1.124971389770508,-0.9682242870330812,1.658953905105591,XArbitraryZVertical,0.3156060348825862,0.2023174556727564,0.8092014792375184,0.4523864412904793,-0.3277263939380646,-0.6129829287528992,-0.7189209461212158,0,0,0,-1,-1,4045.736498291667,unknown,2,2022-06-02T11:09:21.599+02:00,2022-06-02T10:17:13.754+02:00,757,1.564864,0,0,607.4087,0,0,2022-06-02T11:09:21.599+02:00,675853761.5987283,0,5.800781,101.3124,1,0.73
725,2022-06-02T11:09:22.030+02:00,1654160961.000233,53.22911309230512,10.39856964076882,36.8978,0.3376155,0.7153285,72.22261835920084,58.59442225995284,2.400000095367432,7.999579855010836,-9999,4046.166553875,-1.189651489257812,-1.594680786132812,0.920867919921875,4046.156559875,2.282666329675898,-0.4032652565115752,0.681430329436936,1.992785930633545,2.899508476257324,-0.1630318015813828,-1.075311660766602,-1.037392735481262,1.6571204662323,XArbitraryZVertical,0.3079358921851444,0.2190657094133636,0.8116997418792152,0.4453417301659068,-0.3047847747802734,-0.629904568195343,-0.714371383190155,0,0,0,-1,-1,4045.736498291667,unknown,2,2022-06-02T11:09:21.599+02:00,2022-06-02T10:17:13.754+02:00,757,1.564864,0,0,607.4087,0,0,2022-06-02T11:09:21.599+02:00,675853761.5987283,0,5.800781,101.3124,1,0.73
726,2022-06-02T11:09:22.040+02:00,1654160961.000233,53.22911309230512,10.39856964076882,36.8978,0.3376155,0.7153285,72.22261835920084,58.59442225995284,2.400000095367432,7.999579855010836,-9999,4046.176547875,-1.104660034179688,-1.33056640625,0.870025634765625,4046.166553875,2.286895895084573,-0.3797956506380959,0.6981291454213993,1.370994806289673,2.33815860748291,-0.5226906538009644,-0.9738156795501708,-1.006017923355103,1.648103475570679,XArbitraryZVertical,0.30062804246333,0.2321503634669935,0.8130542765275671,0.4412162590527852,-0.2839967906475067,-0.6427856683731079,-0.7114579677581787,0,0,0,-1,-1,4045.736498291667,unknown,2,2022-06-02T11:09:21.599+02:00,2022-06-02T10:17:13.754+02:00,757,1.564864,0,0,607.4087,0,0,2022-06-02T11:09:21.599+02:00,675853761.5987283,0,5.800781,101.3124,1,0.73
727,2022-06-02T11:09:22.050+02:00,1654160961.000233,53.22911309230512,10.39856964076882,36.8978,0.3376155,0.7153285,72.22261835920084,58.59442225995284,2.400000095367432,7.999579855010836,-9999,4046.186541875,-1.004425048828125,-1.077911376953125,0.8166046142578125,4046.176547875,2.283780208258994,-0.357032830206742,0.7113392864748787,0.957936942577362,1.820362210273743,-0.8637524247169495,-0.8755199313163757,-0.8254225254058838,1.607989072799683,XArbitraryZVertical,0.2938932046191554,0.2424192001746149,0.8132409778248392,0.4398849498345777,-0.2647388875484467,-0.6528488397598267,-0.7097194194793701,0,0,0,-1,-1,4045.736498291667,unknown,2,2022-06-02T11:09:21.599+02:00,2022-06-02T10:17:13.754+02:00,757,1.564864,0,0,607.4087,0,0,2022-06-02T11:09:21.599+02:00,675853761.5987283,0,5.800781,101.3124,1,0.73
728,2022-06-02T11:09:22.060+02:00,1654160961.000233,53.22911309230512,10.39856964076882,36.8978,0.3376155,0.7153285,72.22261835920084,58.59442225995284,2.400000095367432,7.999579855010836,-9999,4046.196535875,-0.860137939453125,-0.8906707763671875,0.8029632568359375,4046.186541875,2.274900709331644,-0.335504603953892,0.7230659809615736,0.8209689855575562,1.321316957473755,-1.209052085876465,-0.8150429129600525,-0.5294296741485596,1.54635488986969,XArbitraryZVertical,0.2881782190013615,0.2509289157306935,0.8121816704125917,0.4408502145697684,-0.2468620091676712,-0.6616865992546082,-0.7079759836196899,0,0,0,-1,-1,4045.736498291667,unknown,2,2022-06-02T11:09:21.599+02:00,2022-06-02T10:17:13.754+02:00,757,1.564864,0,0,607.4087,0,0,2022-06-02T11:09:21.599+02:00,675853761.5987283,0,5.800781,101.3124,1,0.73
