,loggingTime(txt),locationTimestamp_since1970(s),locationLatitude(WGS84),locationLongitude(WGS84),locationAltitude(m),locationSpeed(m/s),locationSpeedAccuracy(m/s),locationCourse(°),locationCourseAccuracy(°),locationVerticalAccuracy(m),locationHorizontalAccuracy(m),locationFloor(Z),accelerometerTimestamp_sinceReboot(s),accelerometerAccelerationX(G),accelerometerAccelerationY(G),accelerometerAccelerationZ(G),motionTimestamp_sinceReboot(s),motionYaw(rad),motionRoll(rad),motionPitch(rad),motionRotationRateX(rad/s),motionRotationRateY(rad/s),motionRotationRateZ(rad/s),motionUserAccelerationX(G),motionUserAccelerationY(G),motionUserAccelerationZ(G),motionAttitudeReferenceFrame(txt),motionQuaternionX(R),motionQuaternionY(R),motionQuaternionZ(R),motionQuaternionW(R),motionGravityX(G),motionGravityY(G),motionGravityZ(G),motionMagneticFieldX(µT),motionMagneticFieldY(µT),motionMagneticFieldZ(µT),motionHeading(°),motionMagneticFieldCalibrationAccuracy(Z),activityTimestamp_sinceReboot(s),activity(txt),activityActivityConfidence(Z),activityActivityStartDate(txt),pedometerStartDate(txt),pedometerNumberofSteps(N),pedometerAverageActivePace(s/m),pedometerCurrentPace(s/m),pedometerCurrentCadence(steps/s),pedometerDistance(m),pedometerFloorAscended(N),pedometerFloorDescended(N),pedometerEndDate(txt),altimeterTimestamp_sinceReboot(s),altimeterReset(bool),altimeterRelativeAltitude(m),altimeterPressure(kPa),batteryState(N),batteryLevel(R)
355,2022-06-02T11:09:43.667+02:00,1654160969.000232,53.22910746810508,10.3985854671715,37.04862,0.04253366,0.8458804,49.02649339061003,180,2.400000095367432,7.999579855010835,-9999,4067.8038555,0.5554656982421875,0.094818115234375,1.108688354492188,4067.8038555,-1.456456050502056,2.298526687361282,0.0044890887696631,-5.518092632293701,-1.627256751060486,5.428047180175781,-0.3369952440261841,0.2057830095291138,0.5003726482391357,XArbitraryZVertical,0.6079718509947069,0.6804080378068413,-0.2707861954323319,0.306740584190484,0.7466782927513123,-0.0044890735298395,0.6651697158813477,0,0,0,-1,-1,4066.206494916667,unknown,2,2022-06-02T11:09:42.069+02:00,2022-06-02T10:17:13.754+02:00,757,1.564864,0,0,607.4087,0,0,2022-06-02T11:09:42.069+02:00,675853782.0687119,0,5.683594,101.3143,1,0.73
356,2022-06-02T11:09:43.677+02:00,1654160969.000232,53.22910746810508,10.3985854671715,37.04862,0.04253366,0.8458804,49.02649339061003,180,2.400000095367432,7.999579855010835,-9999,4067.8138495,0.785400390625,-0.0630950927734375,1.056198120117188,4067.8038555,-1.456456050502056,2.298526687361282,0.0044890887696631,-5.518092632293701,-1.627256751060486,5.428047180175781,-0.3369952440261841,0.2057830095291138,0.5003726482391357,XArbitraryZVertical,0.6079718509947069,0.6804080378068413,-0.2707861954323319,0.306740584190484,0.7466782927513123,-0.0044890735298395,0.6651697158813477,0,0,0,-1,-1,4066.206494916667,unknown,2,2022-06-02T11:09:42.069+02:00,2022-06-02T10:17:13.754+02:00,757,1.564864,0,0,607.4087,0,0,2022-06-02T11:09:42.069+02:00,675853782.0687119,0,5.683594,101.3143,1,0.73
357,2022-06-02T11:09:43.687+02:00,1654160969.000232,53.22910746810508,10.3985854671715,37.04862,0.04253366,0.8458804,49.02649339061003,180,2.400000095367432,7.999579855010835,-9999,4067.8238435,1.04010009765625,-0.167877197265625,1.086807250976562,4067.8138495,-1.455915860606703,2.286661810165602,0.0802549213090151,-4.546102046966553,-0.7115017771720886,5.876704692840576,-0.0729130506515502,0.0880881249904632,0.421769380569458,XArbitraryZVertical,0.6174064956151174,0.6677487328402518,-0.2483540342709882,0.3335282213995111,0.7520968914031982,-0.0801687985658645,0.6541582942008972,0,0,0,-1,-1,4066.206494916667,unknown,2,2022-06-02T11:09:42.069+02:00,2022-06-02T10:17:13.754+02:00,757,1.564864,0,0,607.4087,0,0,2022-06-02T11:09:42.069+02:00,675853782.0687119,0,5.683594,101.3143,1,0.73
358,2022-06-02T11:09:43.697+02:00,1654160969.000232,53.22910746810508,10.3985854671715,37.04862,0.04253366,0.8458804,49.02649339061003,180,2.400000095367432,7.999579855010835,-9999,4067.8338375,1.30438232421875,-0.260498046875,1.26708984375,4067.8238435,-1.465447806455013,2.286924541821528,0.1523085481187088,-3.514361143112183,0.5628939270973206,6.24006986618042,0.1552739143371582,0.019289344549179,0.3987534046173096,XArbitraryZVertical,0.6304202781383906,0.6534560815208336,-0.2249490043924912,0.3535014364318407,0.7456201314926147,-0.1517203599214554,0.6488691568374634,0,0,0,-1,-1,4066.206494916667,unknown,2,2022-06-02T11:09:42.069+02:00,2022-06-02T10:17:13.754+02:00,757,1.564864,0,0,607.4087,0,0,2022-06-02T11:09:42.069+02:00,675853782.0687119,0,5.683594,101.3143,1,0.73
359,2022-06-02T11:09:43.707+02:00,1654160969.000232,53.22910746810508,10.3985854671715,37.04862,0.04253366,0.8458804,49.02649339061003,180,2.400000095367432,7.999579855010835,-9999,4067.8438315,1.320144653320312,-0.3429718017578125,1.4903564453125,4067.8338375,-1.484057475173508,2.303618561946447,0.2205243915029627,-2.840933084487915,2.095081090927124,6.383327484130859,0.462333083152771,0.0181341171264648,0.5164046883583069,XArbitraryZVertical,0.6465797142296799,0.6389987004165363,-0.1991697312596927,0.3659871581502341,0.7252888679504395,-0.2187413424253464,0.6527693271636963,0,0,0,-1,-1,4066.206494916667,unknown,2,2022-06-02T11:09:42.069+02:00,2022-06-02T10:17:13.754+02:00,757,1.564864,0,0,607.4087,0,0,2022-06-02T11:09:42.069+02:00,675853782.0687119,0,5.683594,101.3143,1,0.73
360,2022-06-02T11:09:43.717+02:00,1654160969.000232,53.22910746810508,10.3985854671715,37.04862,0.04253366,0.8458804,49.02649339061003,180,2.400000095367432,7.999579855010835,-9999,4067.8538265,1.130081176757812,-0.41943359375,1.821853637695312,4067.8438315,-1.50772041419275,2.338218575689265,0.2856867117602462,-2.769975662231445,3.623262405395508,6.248639583587646,0.6590620875358582,-0.0257396697998046,0.7058521509170532,XArbitraryZVertical,0.6641385418895769,0.6260917386567347,-0.1693528627403424,0.3718179425689832,0.6905317902565002,-0.2818163931369781,0.6661417484283447,0,0,0,-1,-1,4066.206494916667,unknown,2,2022-06-02T11:09:42.069+02:00,2022-06-02T10:17:13.754+02:00,757,1.564864,0,0,607.4087,0,0,2022-06-02T11:09:42.069+02:00,675853782.0687119,0,5.683594,101.3143,1,0.73
361,2022-06-02T11:09:43.727+02:00,1654160969.000232,53.22910746810508,10.3985854671715,37.04862,0.04253366,0.8458804,49.02649339061003,180,2.400000095367432,7.999579855010835,-9999,4067.863820625,0.82373046875,-0.6963043212890625,2.32904052734375,4067.8538265,-1.531014803894042,2.388926744262003,0.3495647357176201,-3.261283874511719,5.047473907470703,5.864286422729492,0.5969824194908142,-0.0333654880523681,0.9529591798782348,XArbitraryZVertical,0.6806743620342188,0.6160732674258782,-0.134162364567153,0.3730099299525065,0.6422446370124817,-0.3424888849258423,0.6857277154922485,0,0,0,-1,-1,4066.206494916667,unknown,2,2022-06-02T11:09:42.069+02:00,2022-06-02T10:17:13.754+02:00,757,1.564864,0,0,607.4087,0,0,2022-06-02T11:09:42.069+02:00,675853782.0687119,0,5.683594,101.3143,1,0.73
362,2022-06-02T11:09:43.737+02:00,1654160969.000232,53.22910746810508,10.3985854671715,37.04862,0.04253366,0.8458804,49.02649339061003,180,2.400000095367432,7.999579855010835,-9999,4067.873814625,0.444976806640625,-1.17529296875,3.008926391601562,4067.863820625,-1.550589317150417,2.453267650954622,0.4136329293486613,-3.971656322479248,6.350275039672852,5.313198089599609,0.4097676277160645,-0.1154260337352753,1.345722675323486,XArbitraryZVertical,0.6943252057600097,0.6095099093839638,-0.0930682280597566,0.3711449156538404,0.5816722512245178,-0.4019385278224945,0.7071796655654907,0,0,0,-1,-1,4066.206494916667,unknown,2,2022-06-02T11:09:42.069+02:00,2022-06-02T10:17:13.754+02:00,757,1.564864,0,0,607.4087,0,0,2022-06-02T11:09:42.069+02:00,675853782.0687119,0,5.683594,101.3143,1,0.73
363,2022-06-02T11:09:43.747+02:00,1654160969.000232,53.22910746810508,10.3985854671715,37.04862,0.04253366,0.8458804,49.02649339061003,180,2.400000095367432,7.999579855010835,-9999,4067.883808625,0.0630950927734375,-1.743911743164062,3.8270263671875,4067.873814625,-1.565909615002096,2.529488681461388,0.4778521719547452,-4.532814025878906,7.567237377166748,4.663170337677002,0.1265673041343689,-0.4595452845096588,1.924085378646851,XArbitraryZVertical,0.7040347698987359,0.6063963137913141,-0.0465337398880483,0.3666784639400784,0.5102276802062988,-0.4598729908466339,0.7267628908157349,0,0,0,-1,-1,4066.206494916667,unknown,2,2022-06-02T11:09:42.069+02:00,2022-06-02T10:17:13.754+02:00,757,1.564864,0,0,607.4087,0,0,2022-06-02T11:09:42.069+02:00,675853782.0687119,0,5.683594,101.3143,1,0.73
364,2022-06-02T11:09:43.757+02:00,1654160969.000232,53.22910746810508,10.3985854671715,37.04862,0.04253366,0.8458804,49.02649339061003,180,2.400000095367432,7.999579855010835,-9999,4067.893802625,-0.232818603515625,-2.272369384765625,4.681625366210938,4067.883808625,-1.578906835200394,2.616931018761635,0.5403835205751362,-4.688807487487793,8.633339881896973,3.966479539871216,-0.1786140203475952,-0.9415287971496582,2.661897420883179,XArbitraryZVertical,0.7095495457414969,0.6063206717347249,0.0041025668454026,0.3590235267198206,0.4295448362827301,-0.5144649147987366,0.7421706318855286,0,0,0,-1,-1,4066.206494916667,unknown,2,2022-06-02T11:09:42.069+02:00,2022-06-02T10:17:13.754+02:00,757,1.564864,0,0,607.4087,0,0,2022-06-02T11:09:42.069+02:00,675853782.0687119,0,5.683594,101.3143,1,0.73
365,2022-06-02T11:09:43.767+02:00,1654160969.000232,53.22910746810508,10.3985854671715,37.04862,0.04253366,0.8458804,49.02649339061003,180,2.400000095367432,7.999579855010835,-9999,4067.903796625,-0.39410400390625,-2.561264038085938,5.51922607421875,4067.893802625,-1.591403397431467,2.71442926080813,0.5971683748524425,-4.418147087097168,9.489702224731444,3.080942392349243,-0.4368129670619965,-1.466780066490173,3.499936580657959,XArbitraryZVertical,0.7108670708883388,0.6090824662111113,0.0564598856944859,0.3471293995224651,0.3425899147987366,-0.5623031854629517,0.752626895904541,0,0,0,-1,-1,4066.206494916667,unknown,2,2022-06-02T11:09:42.069+02:00,2022-06-02T10:17:13.754+02:00,757,1.564864,0,0,607.4087,0,0,2022-06-02T11:09:42.069+02:00,675853782.0687119,0,5.683594,101.3143,1,0.73
366,2022-06-02T11:09:43.777+02:00,1654160969.000232,53.22910746810508,10.3985854671715,37.04862,0.04253366,0.8458804,49.02649339061003,180,2.400000095367432,7.999579855010835,-9999,4067.913790625,-0.3419036865234375,-2.438186645507812,6.3583984375,4067.903796625,-1.600238612674345,2.817554447104115,0.6457588190128452,-4.111713886260986,10.08903980255127,1.785399675369263,-0.5920238494873047,-1.853181838989258,4.3472900390625,XArbitraryZVertical,0.7071114133141414,0.6152506281681867,0.108391386136365,0.33122708234403,0.2542857825756073,-0.6018046140670776,0.7570797801017761,0,0,0,-1,-1,4066.206494916667,unknown,2,2022-06-02T11:09:42.069+02:00,2022-06-02T10:17:13.754+02:00,757,1.564864,0,0,607.4087,0,0,2022-06-02T11:09:42.069+02:00,675853782.0687119,0,5.683594,101.3143,1,0.73
367,2022-06-02T11:09:43.787+02:00,1654160969.000232,53.22910746810508,10.3985854671715,37.04862,0.04253366,0.8458804,49.02649339061003,180,2.400000095367432,7.999579855010835,-9999,4067.923784625,-0.1240386962890625,-2.066696166992188,7.201431274414062,4067.913790625,-1.597522639617617,2.918941628245409,0.6875927820829066,-4.091347694396973,10.51304054260254,-0.0020206067711114,-0.569048285484314,-1.91987133026123,5.183540344238281,XArbitraryZVertical,0.6965113211370392,0.6258770191904391,0.158737125150743,0.3129733371451607,0.170641228556633,-0.6346787810325623,0.7537001371383667,0,0,0,-1,-1,4066.206494916667,unknown,2,2022-06-02T11:09:42.069+02:00,2022-06-02T10:17:13.754+02:00,757,1.564864,0,0,607.4087,0,0,2022-06-02T11:09:42.069+02:00,675853782.0687119,0,5.683594,101.3143,1,0.73
368,2022-06-02T11:09:43.797+02:00,1654160969.000232,53.22910746810508,10.3985854671715,37.04862,0.04253366,0.8458804,49.02649339061003,180,2.400000095367432,7.999579855010835,-9999,4067.933778625,0.1908721923828125,-1.827011108398438,7.986541748046875,4067.923784625,-1.573313681800678,3.009124151113215,0.7277713717421346,-4.501678466796875,10.65856838226318,-2.250855684280396,-0.3423941731452942,-1.586684703826904,6.042750358581543,XArbitraryZVertical,0.6768222280317902,0.6418490207556609,0.2070059735496952,0.2951100630110197,0.0986197218298912,-0.6652072668075562,0.7401170134544373,0,0,0,-1,-1,4066.206494916667,unknown,2,2022-06-02T11:09:42.069+02:00,2022-06-02T10:17:13.754+02:00,757,1.564864,0,0,607.4087,0,0,2022-06-02T11:09:42.069+02:00,675853782.0687119,0,5.683594,101.3143,1,0.73
369,2022-06-02T11:09:43.807+02:00,1654160969.000232,53.22910746810508,10.3985854671715,37.04862,0.04253366,0.8458804,49.02649339061003,180,2.400000095367432,7.999579855010835,-9999,4067.943772625,0.527069091796875,-1.611846923828125,8.606613159179688,4067.933778625,-1.519827969012173,3.078661545858939,0.7724401255399085,-5.121044635772705,10.51511383056641,-4.703422069549561,-0.0265485383570194,-1.221197605133057,6.889104843139648,XArbitraryZVertical,0.6463921312459621,0.6630031616929976,0.2528499474789234,0.2804832468008374,0.0450421273708343,-0.6978849768638611,0.7147919535636902,0,0,0,-1,-1,4066.206494916667,unknown,2,2022-06-02T11:09:42.069+02:00,2022-06-02T10:17:13.754+02:00,757,1.564864,0,0,607.4087,0,0,2022-06-02T11:09:42.069+02:00,675853782.0687119,0,5.683594,101.3143,1,0.73
370,2022-06-02T11:09:43.817+02:00,1654160969.000232,53.22910746810508,10.3985854671715,37.04862,0.04253366,0.8458804,49.02649339061003,180,2.400000095367432,7.999579855010835,-9999,4067.953767625,0.3736572265625,-1.325485229492188,8.9693603515625,4067.943772625,-1.432322681007504,3.11914390913757,0.821307913179534,-4.973537445068359,10.0939416885376,-7.113939762115479,0.3615693151950836,-1.015551328659058,7.651457786560059,XArbitraryZVertical,0.6052550475492622,0.688630828342137,0.2943609444011102,0.2698246380529695,0.0152922328561544,-0.7320374846458435,0.6810922026634216,0,0,0,-1,-1,4066.206494916667,unknown,2,2022-06-02T11:09:42.069+02:00,2022-06-02T10:17:13.754+02:00,757,1.564864,0,0,607.4087,0,0,2022-06-02T11:09:42.069+02:00,675853782.0687119,0,5.683594,101.3143,1,0.73
371,2022-06-02T11:09:43.827+02:00,1654160969.000232,53.22910746810508,10.3985854671715,37.04862,0.04253366,0.8458804,49.02649339061003,180,2.400000095367432,7.999579855010835,-9999,4067.963761625,-0.3831939697265625,-0.84014892578125,9.126174926757812,4067.953767625,-1.305296614098294,3.120892278586829,0.8633253626332454,-3.617958784103394,9.171696662902832,-9.642791748046877,0.5302486419677734,-0.7226579785346985,8.157857894897461,XArbitraryZVertical,0.5549971972184937,0.7189334095858241,0.3266683370970921,0.261535011907585,0.0134524926543235,-0.7600079774856567,0.6497742533683777,0,0,0,-1,-1,4066.206494916667,unknown,2,2022-06-02T11:09:42.069+02:00,2022-06-02T10:17:13.754+02:00,757,1.564864,0,0,607.4087,0,0,2022-06-02T11:09:42.069+02:00,675853782.0687119,0,5.683594,101.3143,1,0.73
372,2022-06-02T11:09:43.837+02:00,1654160969.000232,53.22910746810508,10.3985854671715,37.04862,0.04253366,0.8458804,49.02649339061003,180,2.400000095367432,7.999579855010835,-9999,4067.973755625,-1.74560546875,-0.2244415283203125,8.912155151367188,4067.963761625,-1.132484251207974,3.072977548843193,0.8843013255048054,-1.446916460990906,7.723575115203857,-12.36447048187256,0.0165565870702266,-0.3125717639923096,8.448166847229004,XArbitraryZVertical,0.4969753612929859,0.7544432238787456,0.3442572899594197,0.2555732089304751,0.043456170707941,-0.7734723091125488,0.6323381662368774,0,0,0,-1,-1,4066.206494916667,unknown,2,2022-06-02T11:09:42.069+02:00,2022-06-02T10:17:13.754+02:00,757,1.564864,0,0,607.4087,0,0,2022-06-02T11:09:42.069+02:00,675853782.0687119,0,5.683594,101.3143,1,0.73
373,2022-06-02T11:09:43.847+02:00,1654160969.000232,53.22910746810508,10.3985854671715,37.04862,0.04253366,0.8458804,49.02649339061003,180,2.400000095367432,7.999579855010835,-9999,4067.983749625,-3.723236083984375,0.9354248046875,8.310546875,4067.973755625,-0.9167731752580632,2.973805876673208,0.8695299602589204,1.233785510063171,5.590028762817383,-15.39414978027344,-1.091633200645447,0.1850768327713013,8.449155807495117,XArbitraryZVertical,0.4315747013190459,0.7948621689977333,0.3427577279755264,0.2538789410390292,0.1077463999390602,-0.7640257477760315,0.6361252069473267,0,0,0,-1,-1,4066.206494916667,unknown,2,2022-06-02T11:09:42.069+02:00,2022-06-02T10:17:13.754+02:00,757,1.564864,0,0,607.4087,0,0,2022-06-02T11:09:42.069+02:00,675853782.0687119,0,5.683594,101.3143,1,0.73
374,2022-06-02T11:09:43.857+02:00,1654160969.000232,53.22910746810508,10.3985854671715,37.04862,0.04253366,0.8458804,49.02649339061003,180,2.400000095367432,7.999579855010835,-9999,4067.993743625,-6.189712524414062,2.901275634765625,7.49688720703125,4067.983749625,-0.6780660701250876,2.836114519569854,0.8042461643470707,3.915823221206665,2.308207511901855,-18.72015571594238,-2.877378225326538,0.9855363965034484,7.97575855255127,XArbitraryZVertical,0.3586397917135883,0.8379424430979882,0.3182340582662289,0.2606853757931158,0.2086158841848373,-0.7203079462051392,0.6615400910377502,0,0,0,-1,-1,4066.206494916667,unknown,2,2022-06-02T11:09:42.069+02:00,2022-06-02T10:17:13.754+02:00,757,1.564864,0,0,607.4087,0,0,2022-06-02T11:09:42.069+02:00,675853782.0687119,0,5.683594,101.3143,1,0.73
375,2022-06-02T11:09:43.867+02:00,1654160969.000232,53.22910746810508,10.3985854671715,37.04862,0.04253366,0.8458804,49.02649339061003,180,2.400000095367432,7.999579855010835,-9999,4068.003737625,-8.630630493164062,4.944290161132812,6.552764892578125,4067.993743625,-0.4461822417239686,2.678824022335374,0.682877650673462,5.546696662902832,-2.513745069503784,-21.95196342468262,-5.276893138885498,2.449341535568237,7.256334781646729,XArbitraryZVertical,0.2778027440761604,0.8774442573676268,0.2700344848907844,0.2828402298858732,0.3463204205036163,-0.6310279965400696,0.6941655874252319,0,0,0,-1,-1,4066.206494916667,unknown,2,2022-06-02T11:09:42.069+02:00,2022-06-02T10:17:13.754+02:00,757,1.564864,0,0,607.4087,0,0,2022-06-02T11:09:42.069+02:00,675853782.0687119,0,5.683594,101.3143,1,0.73
376,2022-06-02T11:09:43.877+02:00,1654160969.000232,53.22910746810508,10.3985854671715,37.04862,0.04253366,0.8458804,49.02649339061003,180,2.400000095367432,7.999579855010835,-9999,4068.013731625,-11.84367370605469,6.645477294921875,5.7960205078125,4068.003737625,-0.2406395551631377,2.506642052021718,0.5127233322544138,5.46004581451416,-8.777803421020508,-24.76007652282715,-7.919882297515869,4.494946956634521,6.310663223266602,XArbitraryZVertical,0.1888869160128259,0.9028337880278344,0.2029048644841459,0.3286979180959877,0.5168670415878296,-0.4905522167682648,0.7015742063522339,0,0,0,-1,-1,4066.206494916667,unknown,2,2022-06-02T11:09:42.069+02:00,2022-06-02T10:17:13.754+02:00,757,1.564864,0,0,607.4087,0,0,2022-06-02T11:09:42.069+02:00,675853782.0687119,0,5.683594,101.3143,1,0.73
377,2022-06-02T11:09:43.887+02:00,1654160969.000232,53.22910746810508,10.3985854671715,37.04862,0.04253366,0.8458804,49.02649339061003,180,2.400000095367432,7.999579855010835,-9999,4068.023725625,-19.14822387695312,8.9029541015625,6.118667602539062,4068.013731625,-0.0556700161944323,2.305924651132044,0.3131110400695468,0.9456201791763306,-16.65693855285645,-26.76068115234375,-10.69457244873047,6.088110446929932,5.496050834655762,XArbitraryZVertical,0.0883696632690277,0.9006817280180337,0.1312927145453168,0.404629839155198,0.7056808471679688,-0.3080199062824249,0.6380735635757446,0,0,0,-1,-1,4066.206494916667,unknown,2,2022-06-02T11:09:42.069+02:00,2022-06-02T10:17:13.754+02:00,757,1.564864,0,0,607.4087,0,0,2022-06-02T11:09:42.069+02:00,675853782.0687119,0,5.683594,101.3143,1,0.73
378,2022-06-02T11:09:43.897+02:00,1654160969.000232,53.22910746810508,10.3985854671715,37.04862,0.04253366,0.8458804,49.02649339061003,180,2.400000095367432,7.999579855010835,-9999,4068.033719625,-29.22459411621094,8.450042724609375,8.77557373046875,4068.023725625,0.1366210637410048,2.055262585267517,0.1052326593967247,-8.728415489196777,-25.12749862670898,-29.65820693969727,-15.8054895401001,7.815655708312988,5.245626449584961,XArbitraryZVertical,-0.0312340482373184,0.8547539036870523,0.0801477483740293,0.5118558010163771,0.8800281882286072,-0.105038546025753,0.463159590959549,0,0,0,-1,-1,4066.206494916667,unknown,2,2022-06-02T11:09:42.069+02:00,2022-06-02T10:17:13.754+02:00,757,1.564864,0,0,607.4087,0,0,2022-06-02T11:09:42.069+02:00,675853782.0687119,0,5.683594,101.3143,1,0.73
379,2022-06-02T11:09:43.907+02:00,1654160969.000232,53.22910746810508,10.3985854671715,37.04862,0.04253366,0.8458804,49.02649339061003,180,2.400000095367432,7.999579855010835,-9999,4068.043714625,-32.02714538574219,7.736068725585938,10.87606811523438,4068.033719625,0.3287239738625704,1.772661397061768,-0.1515157618362425,-6.618795394897461,-31.4014949798584,-30.07374572753906,-24.94165992736816,9.362017631530762,6.964229583740234,XArbitraryZVertical,-0.1736123257715422,0.7542935003364588,0.0453078070495005,0.631543496304781,0.9684702754020692,0.1509367078542709,0.1981998533010483,0,0,0,-1,-1,4066.206494916667,unknown,2,2022-06-02T11:09:42.069+02:00,2022-06-02T10:17:13.754+02:00,757,1.564864,0,0,607.4087,0,0,2022-06-02T11:09:42.069+02:00,675853782.0687119,0,5.683594,101.3143,1,0.73
380,2022-06-02T11:09:43.917+02:00,1654160969.000232,53.22910746810508,10.3985854671715,37.04862,0.04253366,0.8458804,49.02649339061003,180,2.400000095367432,7.999579855010835,-9999,4068.053708625,-31.69996643066406,29.70187377929688,0.27764892578125,4068.043714625,0.2458102379929839,1.401234460341001,-0.3971767609817352,29.50173187255859,-35.14406204223633,-18.67714691162109,-32.94201278686523,6.282861232757568,11.05879783630371,XArbitraryZVertical,-0.2271592278458617,0.6087622495932414,-0.0343527583368076,0.7593596281456162,0.908931851387024,0.3868164122104645,-0.1556144207715988,0,0,0,-1,-1,4066.206494916667,unknown,2,2022-06-02T11:09:42.069+02:00,2022-06-02T10:17:13.754+02:00,757,1.564864,0,0,607.4087,0,0,2022-06-02T11:09:42.069+02:00,675853782.0687119,0,5.683594,101.3143,1,0.73
381,2022-06-02T11:09:43.927+02:00,1654160969.000232,53.22910746810508,10.3985854671715,37.04862,0.04253366,0.8458804,49.02649339061003,180,2.400000095367432,7.999579855010835,-9999,4068.063702625,-24.85981750488281,27.09735107421875,9.609268188476562,4068.053708625,-0.1118345166185251,0.9141143822009448,-0.3325836053224561,35.25729370117188,-35.13058090209961,-2.760839700698853,-32.69184112548828,16.84847068786621,8.8751802444458,XArbitraryZVertical,-0.1239801289747351,0.4428427493387433,-0.1223938672326092,0.8795105823913437,0.7486209273338318,0.3264861404895782,-0.5770384669303894,0,0,0,-1,-1,4066.206494916667,unknown,2,2022-06-02T11:09:42.069+02:00,2022-06-02T10:17:13.754+02:00,757,1.564864,0,0,607.4087,0,0,2022-06-02T11:09:42.069+02:00,675853782.0687119,0,5.683594,101.3143,1,0.73
382,2022-06-02T11:09:43.937+02:00,1654160969.000232,53.22910746810508,10.3985854671715,37.04862,0.04253366,0.8458804,49.02649339061003,180,2.400000095367432,7.999579855010835,-9999,4068.073696625,-29.76646423339844,-8.536788940429688,28.98915100097656,4068.063702625,-0.3739271840574071,0.5218396536253399,-0.0900632952886604,35.21490859985352,-27.74941444396973,-0.8928933143615723,-30.78574752807617,32.07489776611328,-3.384550094604492,XArbitraryZVertical,0.0051669457365449,0.2613010705451236,-0.1908133527625616,0.9461952057584848,0.4964554905891418,0.0899415910243988,-0.8633900880813599,0,0,0,-1,-1,4066.206494916667,unknown,2,2022-06-02T11:09:42.069+02:00,2022-06-02T10:17:13.754+02:00,757,1.564864,0,0,607.4087,0,0,2022-06-02T11:09:42.069+02:00,675853782.0687119,0,5.683594,101.3143,1,0.73
383,2022-06-02T11:09:43.947+02:00,1654160969.000232,53.22910746810508,10.3985854671715,37.04862,0.04253366,0.8458804,49.02649339061003,180,2.400000095367432,7.999579855010835,-9999,4068.083690625,-8.507720947265625,-5.588104248046875,20.96379089355469,4068.073696625,-0.4831762023259123,0.4949253892499532,0.147139566661263,16.37089347839355,17.1878604888916,6.254231929779053,-27.53903198242188,7.892611503601074,27.12308883666992,XArbitraryZVertical,0.1276380025765184,0.2201384007974864,-0.2138479315388261,0.9431418922401544,0.4698337316513062,-0.1466092169284821,-0.8704952597618103,0,0,0,-1,-1,4066.206494916667,unknown,2,2022-06-02T11:09:42.069+02:00,2022-06-02T10:17:13.754+02:00,757,1.564864,0,0,607.4087,0,0,2022-06-02T11:09:42.069+02:00,675853782.0687119,0,5.683594,101.3143,1,0.73
384,2022-06-02T11:09:43.957+02:00,1654160969.000232,53.22910746810508,10.3985854671715,37.04862,0.04253366,0.8458804,49.02649339061003,180,2.400000095367432,7.999579855010835,-9999,4068.093684625,-8.85198974609375,-22.70892333984375,3.10504150390625,4068.083690625,-0.5003410769253208,0.6949340127578794,0.3467404204898533,20.46360969543457,21.02178001403809,13.09160709381104,-21.50011444091797,-6.644693374633789,25.3681812286377,XArbitraryZVertical,0.240182711256186,0.2848170522118396,-0.1723728230682974,0.9118547034801928,0.6022254824638367,-0.3398340344429016,-0.7223830223083496,0,0,0,-1,-1,4066.206494916667,unknown,2,2022-06-02T11:09:42.069+02:00,2022-06-02T10:17:13.754+02:00,757,1.564864,0,0,607.4087,0,0,2022-06-02T11:09:42.069+02:00,675853782.0687119,0,5.683594,101.3143,1,0.73
385,2022-06-02T11:09:43.967+02:00,1654160969.000232,53.22910746810508,10.3985854671715,37.04862,0.04253366,0.8458804,49.02649339061003,180,2.400000095367432,7.999579855010835,-9999,4068.103678625,-11.09358215332031,-13.35516357421875,-7.702392578125,4068.093684625,-0.471647323693604,0.842968762277577,0.5667051886934746,-0.3018153607845306,9.09174633026123,22.67253112792969,-5.950751781463623,-13.32883644104004,14.17306995391846,XArbitraryZVertical,0.3398231855083005,0.3223249164636874,-0.0934813861742245,0.8785715708678808,0.6299052834510803,-0.5368552207946777,-0.5612537264823914,0,0,0,-1,-1,4066.206494916667,unknown,2,2022-06-02T11:09:42.069+02:00,2022-06-02T10:17:13.754+02:00,757,1.564864,0,0,607.4087,0,0,2022-06-02T11:09:42.069+02:00,675853782.0687119,0,5.683594,101.3143,1,0.73
386,2022-06-02T11:09:43.977+02:00,1654160969.000232,53.22910746810508,10.3985854671715,37.04862,0.04253366,0.8458804,49.02649339061003,180,2.400000095367432,7.999579855010835,-9999,4068.113672625,-9.380172729492188,3.030853271484375,-0.85595703125,4068.113672625,0.2658665966885755,0.401294075876887,0.4185592406791758,-24.80603408813477,-11.03238582611084,15.93850040435791,-10.17663860321045,-2.804828643798828,-4.959813594818115,XArbitraryZVertical,0.1759513809599858,0.2202186929106084,0.1680901544918333,0.944611229707246,0.3568907082080841,-0.4064444899559021,-0.84108966588974,0,0,0,-1,-1,4066.206494916667,unknown,2,2022-06-02T11:09:42.069+02:00,2022-06-02T10:17:13.754+02:00,757,1.564864,0,0,607.4087,0,0,2022-06-02T11:09:42.069+02:00,675853782.0687119,0,5.683594,101.3143,1,0.73
387,2022-06-02T11:09:43.987+02:00,1654160969.000232,53.22910746810508,10.3985854671715,37.04862,0.04253366,0.8458804,49.02649339061003,180,2.400000095367432,7.999579855010835,-9999,4068.123666625,-9.225357055664062,9.485931396484377,2.056716918945312,4068.113672625,0.2658665966885755,0.401294075876887,0.4185592406791758,-24.80603408813477,-11.03238582611084,15.93850040435791,-10.17663860321045,-2.804828643798828,-4.959813594818115,XArbitraryZVertical,0.1759513809599858,0.2202186929106084,0.1680901544918333,0.944611229707246,0.3568907082080841,-0.4064444899559021,-0.84108966588974,0,0,0,-1,-1,4066.206494916667,unknown,2,2022-06-02T11:09:42.069+02:00,2022-06-02T10:17:13.754+02:00,757,1.564864,0,0,607.4087,0,0,2022-06-02T11:09:42.069+02:00,675853782.0687119,0,5.683594,101.3143,1,0.73
388,2022-06-02T11:09:43.997+02:00,1654160969.000232,53.22910746810508,10.3985854671715,37.04862,0.04253366,0.8458804,49.02649339061003,180,2.400000095367432,7.999579855010835,-9999,4068.133660625,-8.37664794921875,2.744827270507812,3.807388305664062,4068.123666625,0.432771519084133,0.237828641239084,0.3873566430125985,4.903808116912842,-9.488075256347656,12.1050968170166,-10.8127269744873,7.367839336395264,2.217597007751465,XArbitraryZVertical,0.1616591120060354,0.154732936182147,0.2314999491853822,0.94674802851363,0.2181380540132523,-0.3777422308921814,-0.8998481035232544,0,0,0,-1,-1,4066.206494916667,unknown,2,2022-06-02T11:09:42.069+02:00,2022-06-02T10:17:13.754+02:00,757,1.564864,0,0,607.4087,0,0,2022-06-02T11:09:42.069+02:00,675853782.0687119,0,5.683594,101.3143,1,0.73
389,2022-06-02T11:09:44.007+02:00,1654160969.000232,53.22910746810508,10.3985854671715,37.04862,0.04253366,0.8458804,49.02649339061003,180,2.400000095367432,7.999579855010835,-9999,4068.143655625,-15.94950866699219,1.036880493164062,-0.036712646484375,4068.133660625,0.5301200923381586,0.109338144838982,0.4862310598133248,11.2748556137085,-6.168938159942627,6.87382698059082,-6.769416332244873,7.844692707061768,4.472738742828369,XArbitraryZVertical,0.2180802158657836,0.1141513902697041,0.2665780529040054,0.9318511112016596,0.0964734032750129,-0.4672971069812775,-0.8788209557533264,0,0,0,-1,-1,4066.206494916667,unknown,2,2022-06-02T11:09:42.069+02:00,2022-06-02T10:17:13.754+02:00,757,1.564864,0,0,607.4087,0,0,2022-06-02T11:09:42.069+02:00,675853782.0687119,0,5.683594,101.3143,1,0.73
390,2022-06-02T11:09:44.017+02:00,1654160969.000232,53.22910746810508,10.3985854671715,37.04862,0.04253366,0.8458804,49.02649339061003,180,2.400000095367432,7.999579855010835,-9999,4068.153649625,-11.74221801757812,-1.949539184570312,-1.246383666992188,4068.143655625,0.5898885593293607,0.0499874994700938,0.6283995196018475,15.70211982727051,-0.2987094521522522,5.992759704589844,-13.40260410308838,1.593908548355103,2.66475510597229,XArbitraryZVertical,0.2887086781626153,0.1125515741075077,0.2837594785785852,0.9074469515757032,0.0404215194284915,-0.5878507494926453,-0.8079589009284973,0,0,0,-1,-1,4066.206494916667,unknown,2,2022-06-02T11:09:42.069+02:00,2022-06-02T10:17:13.754+02:00,757,1.564864,0,0,607.4087,0,0,2022-06-02T11:09:42.069+02:00,675853782.0687119,0,5.683594,101.3143,1,0.73
391,2022-06-02T11:09:44.028+02:00,1654160969.000232,53.22910746810508,10.3985854671715,37.04862,0.04253366,0.8458804,49.02649339061003,180,2.400000095367432,7.999579855010835,-9999,4068.163643625,-12.03132629394531,-3.909042358398438,-0.8264617919921875,4068.153649625,0.6797707842039954,-0.0075403341750383,0.7799784873841031,13.67355155944824,0.4543978571891785,8.35955810546875,-14.41067028045654,0.3331774473190308,-0.2625717520713806,XArbitraryZVertical,0.3595895055993373,0.1234550315993685,0.3069931212268083,0.8724732294652142,-0.0053605893626809,-0.7032641172409058,-0.7109084725379944,0,0,0,-1,-1,4066.206494916667,unknown,2,2022-06-02T11:09:42.069+02:00,2022-06-02T10:17:13.754+02:00,757,1.564864,0,0,607.4087,0,0,2022-06-02T11:09:42.069+02:00,675853782.0687119,0,5.683594,101.3143,1,0.73
392,2022-06-02T11:09:44.037+02:00,1654160969.000232,53.22910746810508,10.3985854671715,37.04862,0.04253366,0.8458804,49.02649339061003,180,2.400000095367432,7.999579855010835,-9999,4068.173637625,-11.023193359375,-5.312820434570312,-0.5168304443359375,4068.163643625,0.8263633435114852,-0.1026832462326099,0.8852405902352292,8.18555736541748,2.428924083709717,10.25218391418457,-11.18614292144775,-2.126430034637451,-0.4862898588180542,XArbitraryZVertical,0.4103689637368581,0.1292790606591231,0.3422224931465641,0.8353250168536415,-0.0648949146270752,-0.7740673422813416,-0.6297684907913208,0,0,0,-1,-1,4066.206494916667,unknown,2,2022-06-02T11:09:42.069+02:00,2022-06-02T10:17:13.754+02:00,757,1.564864,0,0,607.4087,0,0,2022-06-02T11:09:42.069+02:00,675853782.0687119,0,5.683594,101.3143,1,0.73
393,2022-06-02T11:09:44.047+02:00,1654160969.000232,53.22910746810508,10.3985854671715,37.04862,0.04253366,0.8458804,49.02649339061003,180,2.400000095367432,7.999579855010835,-9999,4068.183631625,-9.742935180664062,-4.271926879882812,-0.6532745361328125,4068.173637625,1.02476388360856,-0.2272995292224713,0.9191626595129608,2.815904855728149,3.783298015594482,12.7650728225708,-11.86436748504639,-4.139796733856201,-0.0138347148895263,XArbitraryZVertical,0.433943462673942,0.127475163642372,0.3927069874138817,0.8007647864843596,-0.1366700083017349,-0.7950940728187561,-0.5908862948417664,0,0,0,-1,-1,4066.206494916667,unknown,2,2022-06-02T11:09:42.069+02:00,2022-06-02T10:17:13.754+02:00,757,1.564864,0,0,607.4087,0,0,2022-06-02T11:09:42.069+02:00,675853782.0687119,0,5.683594,101.3143,1,0.73
394,2022-06-02T11:09:44.057+02:00,1654160969.000232,53.22910746810508,10.3985854671715,37.04862,0.04253366,0.8458804,49.02649339061003,180,2.400000095367432,7.999579855010835,-9999,4068.193625625,-9.44830322265625,-2.604248046875,-0.890716552734375,4068.183631625,1.239515215644943,-0.3557411985280067,0.8914230486653395,-0.1470798999071121,4.37131929397583,14.064453125,-9.902066230773926,-4.212939262390137,0.038063108921051,XArbitraryZVertical,0.4381169588733748,0.1164917164402243,0.453733254124239,0.7672087322623583,-0.2188295423984528,-0.7779666185379028,-0.588966429233551,0,0,0,-1,-1,4066.206494916667,unknown,2,2022-06-02T11:09:42.069+02:00,2022-06-02T10:17:13.754+02:00,757,1.564864,0,0,607.4087,0,0,2022-06-02T11:09:42.069+02:00,675853782.0687119,0,5.683594,101.3143,1,0.73
395,2022-06-02T11:09:44.067+02:00,1654160969.000232,53.22910746810508,10.3985854671715,37.04862,0.04253366,0.8458804,49.02649339061003,180,2.400000095367432,7.999579855010835,-9999,4068.203619625,-8.750656127929688,-1.491867065429688,-0.9718017578125,4068.193625625,1.438750641266044,-0.4615835071985295,0.8287427442691326,-0.6921141743659973,4.676785469055176,14.62992286682129,-9.33184814453125,-2.649132966995239,-0.1851430535316467,XArbitraryZVertical,0.4327934515565543,0.1007484642194767,0.5178811989810901,0.7309847498025859,-0.3009800016880035,-0.737082302570343,-0.605079174041748,0,0,0,-1,-1,4066.206494916667,unknown,2,2022-06-02T11:09:42.069+02:00,2022-06-02T10:17:13.754+02:00,757,1.564864,0,0,607.4087,0,0,2022-06-02T11:09:42.069+02:00,675853782.0687119,0,5.683594,101.3143,1,0.73
396,2022-06-02T11:09:44.078+02:00,1654160969.000232,53.22910746810508,10.3985854671715,37.04862,0.04253366,0.8458804,49.02649339061003,180,2.400000095367432,7.999579855010835,-9999,4068.213613625,-8.345123291015625,-0.923553466796875,-0.8987274169921875,4068.203619625,1.620159580364713,-0.5447560775837886,0.7595960247330936,1.100438714027405,4.515592575073242,14.18855667114258,-8.74638557434082,-1.321289539337158,-0.3105074167251587,XArbitraryZVertical,0.4271536482049066,0.0863794564454516,0.5791627539276065,0.6889476980953017,-0.3757611215114594,-0.6886285543441772,-0.6201567053794861,0,0,0,-1,-1,4066.206494916667,unknown,2,2022-06-02T11:09:42.069+02:00,2022-06-02T10:17:13.754+02:00,757,1.564864,0,0,607.4087,0,0,2022-06-02T11:09:42.069+02:00,675853782.0687119,0,5.683594,101.3143,1,0.73
397,2022-06-02T11:09:44.087+02:00,1654160969.000232,53.22910746810508,10.3985854671715,37.04862,0.04253366,0.8458804,49.02649339061003,180,2.400000095367432,7.999579855010835,-9999,4068.223607625,-8.075103759765625,-0.96197509765625,-0.4974365234375,4068.213613625,1.791049099804756,-0.6144821331320275,0.7041789407692578,3.575879573822021,4.447400569915771,13.10894107818604,-8.033711433410645,-0.4478828310966492,-0.3729099035263062,XArbitraryZVertical,0.427056832045677,0.0791164817235024,0.6331489454722071,0.6406913646740611,-0.4394026696681976,-0.6474083065986633,-0.6227260828018188,0,0,0,-1,-1,4066.206494916667,unknown,2,2022-06-02T11:09:42.069+02:00,2022-06-02T10:17:13.754+02:00,757,1.564864,0,0,607.4087,0,0,2022-06-02T11:09:42.069+02:00,675853782.0687119,0,5.683594,101.3143,1,0.73
398,2022-06-02T11:09:44.097+02:00,1654160969.000232,53.22910746810508,10.3985854671715,37.04862,0.04253366,0.8458804,49.02649339061003,180,2.400000095367432,7.999579855010835,-9999,4068.233602625,-7.58221435546875,-1.236785888671875,-0.1786956787109375,4068.223607625,1.956068163520415,-0.6719175614841107,0.6662934899797955,5.602630138397217,5.037976264953613,11.89964962005615,-7.774155139923096,-0.298137366771698,-0.0900221467018127,XArbitraryZVertical,0.4308752519983231,0.0820183841154937,0.6797517027724875,0.5878409241924001,-0.4893488585948944,-0.618076503276825,-0.6152390241622925,0,0,0,-1,-1,4066.206494916667,unknown,2,2022-06-02T11:09:42.069+02:00,2022-06-02T10:17:13.754+02:00,757,1.564864,0,0,607.4087,0,0,2022-06-02T11:09:42.069+02:00,675853782.0687119,0,5.683594,101.3143,1,0.73
399,2022-06-02T11:09:44.107+02:00,1654160969.000232,53.22910746810508,10.3985854671715,37.04862,0.04253366,0.8458804,49.02649339061003,180,2.400000095367432,7.999579855010835,-9999,4068.243596625,-6.816268920898438,-1.504425048828125,-0.032562255859375,4068.233602625,2.114155963828166,-0.7131160530879981,0.6410750043073318,6.565762996673584,5.931266307830811,10.62647438049316,-7.29623556137085,-0.4775803685188293,0.2896477580070496,XArbitraryZVertical,0.4336089941781975,0.0943549655513322,0.7205308704487287,0.5328372194830312,-0.5243056416511536,-0.5980573296546936,-0.6061607599258423,0,0,0,-1,-1,4066.206494916667,unknown,2,2022-06-02T11:09:42.069+02:00,2022-06-02T10:17:13.754+02:00,757,1.564864,0,0,607.4087,0,0,2022-06-02T11:09:42.069+02:00,675853782.0687119,0,5.683594,101.3143,1,0.73
400,2022-06-02T11:09:44.117+02:00,1654160969.000232,53.22910746810508,10.3985854671715,37.04862,0.04253366,0.8458804,49.02649339061003,180,2.400000095367432,7.999579855010835,-9999,4068.253590625,-5.98748779296875,-2.077911376953125,0.0556793212890625,4068.243596625,2.264559313864247,-0.7394859758116662,0.6259697456337442,7.203569889068604,6.541442394256592,9.545573234558104,-6.719111442565918,-0.7718130350112915,0.5037004947662354,XArbitraryZVertical,0.433186795433149,0.1139433775764712,0.7559408701904599,0.4774089584587294,-0.5461320281028748,-0.5858834385871887,-0.5987322330474854,0,0,0,-1,-1,4066.206494916667,unknown,2,2022-06-02T11:09:42.069+02:00,2022-06-02T10:17:13.754+02:00,757,1.564864,0,0,607.4087,0,0,2022-06-02T11:09:42.069+02:00,675853782.0687119,0,5.683594,101.3143,1,0.73
401,2022-06-02T11:09:44.127+02:00,1654160969.000232,53.22910746810508,10.3985854671715,37.04862,0.04253366,0.8458804,49.02649339061003,180,2.400000095367432,7.999579855010835,-9999,4068.263584625,-5.2764892578125,-2.54669189453125,0.0455322265625,4068.253590625,2.406388066192646,-0.7549432531326716,0.6161724789930276,6.955252647399902,6.861116409301758,8.739327430725098,-5.803946495056152,-1.183406114578247,0.6133076548576355,XArbitraryZVertical,0.4290575847855357,0.1368350823895673,0.7864834681596267,0.4226457330361608,-0.5592278838157654,-0.5779157876968384,-0.594371497631073,0,0,0,-1,-1,4066.206494916667,unknown,2,2022-06-02T11:09:42.069+02:00,2022-06-02T10:17:13.754+02:00,757,1.564864,0,0,607.4087,0,0,2022-06-02T11:09:42.069+02:00,675853782.0687119,0,5.683594,101.3143,1,0.73
402,2022-06-02T11:09:44.137+02:00,1654160969.000232,53.22910746810508,10.3985854671715,37.04862,0.04253366,0.8458804,49.02649339061003,180,2.400000095367432,7.999579855010835,-9999,4068.273578625,-4.508819580078125,-2.594558715820312,0.025970458984375,4068.263584625,2.535417110319004,-0.7593836204480785,0.6051435512991866,5.877484321594238,7.041620254516602,8.16370677947998,-5.073966979980469,-1.796003103256226,0.6524993181228638,XArbitraryZVertical,0.4202736736739571,0.1585419061308154,0.8132133725118552,0.3700247776476852,-0.566215455532074,-0.5688801407814026,-0.596468985080719,0,0,0,-1,-1,4066.206494916667,unknown,2,2022-06-02T11:09:42.069+02:00,2022-06-02T10:17:13.754+02:00,757,1.564864,0,0,607.4087,0,0,2022-06-02T11:09:42.069+02:00,675853782.0687119,0,5.683594,101.3143,1,0.73
403,2022-06-02T11:09:44.147+02:00,1654160969.000232,53.22910746810508,10.3985854671715,37.04862,0.04253366,0.8458804,49.02649339061003,180,2.400000095367432,7.999579855010835,-9999,4068.283572625,-3.887969970703125,-2.432662963867188,0.0395965576171875,4068.273578625,2.647981775985639,-0.7526500216607728,0.5890356107845419,4.557775497436523,6.958842754364014,7.579039096832275,-4.327222347259521,-2.067792415618896,0.6420649886131287,XArbitraryZVertical,0.4069790107794609,0.1758663612422688,0.8369460695610156,0.3208741575725678,-0.5683770179748535,-0.5555593967437744,-0.6068782210350037,0,0,0,-1,-1,4066.206494916667,unknown,2,2022-06-02T11:09:42.069+02:00,2022-06-02T10:17:13.754+02:00,757,1.564864,0,0,607.4087,0,0,2022-06-02T11:09:42.069+02:00,675853782.0687119,0,5.683594,101.3143,1,0.73
404,2022-06-02T11:09:44.157+02:00,1654160969.000232,53.22910746810508,10.3985854671715,37.04862,0.04253366,0.8458804,49.02649339061003,180,2.400000095367432,7.999579855010835,-9999,4068.293566625,-3.505722045898438,-2.204727172851562,0.0601654052734375,4068.283572625,2.743427129169671,-0.7364299634863443,0.5685341329933429,3.3056800365448,6.728462696075439,6.952991962432861,-3.594760179519653,-1.967095613479614,0.6567808389663696,XArbitraryZVertical,0.3904283515420704,0.1881568696282859,0.8578757358376305,0.2760646450497198,-0.5659911036491394,-0.5383973717689514,-0.6243253946304321,0,0,0,-1,-1,4066.206494916667,unknown,2,2022-06-02T11:09:42.069+02:00,2022-06-02T10:17:13.754+02:00,757,1.564864,0,0,607.4087,0,0,2022-06-02T11:09:42.069+02:00,675853782.0687119,0,5.683594,101.3143,1,0.73
405,2022-06-02T11:09:44.167+02:00,1654160969.000232,53.22910746810508,10.3985854671715,37.04862,0.04253366,0.8458804,49.02649339061003,180,2.400000095367432,7.999579855010835,-9999,4068.303560625,-3.1630859375,-1.893722534179688,0.1059417724609375,4068.293566625,2.823955366583544,-0.7130992384471828,0.5452914661273256,2.335404396057129,6.457822322845459,6.36668872833252,-3.12425422668457,-1.823877096176147,0.6928393244743347,XArbitraryZVertical,0.3718281769653883,0.1960059497613951,0.8762688339679396,0.2355382268948615,-0.5593091249465942,-0.5186672806739807,-0.6466509699821472,0,0,0,-1,-1,4066.206494916667,unknown,2,2022-06-02T11:09:42.069+02:00,2022-06-02T10:17:13.754+02:00,757,1.564864,0,0,607.4087,0,0,2022-06-02T11:09:42.069+02:00,675853782.0687119,0,5.683594,101.3143,1,0.73
406,2022-06-02T11:09:44.177+02:00,1654160969.000232,53.22910746810508,10.3985854671715,37.04862,0.04253366,0.8458804,49.02649339061003,180,2.400000095367432,7.999579855010835,-9999,4068.313554625,-3.008026123046875,-1.644912719726562,0.13507080078125,4068.303560625,2.892654989316553,-0.6848738900767782,0.5217518172082166,1.720382332801819,6.195951461791992,5.703085899353027,-2.776053428649902,-1.55012321472168,0.7534199357032776,XArbitraryZVertical,0.3520741757213349,0.2007956925178058,0.8922754355338516,0.1989204504050832,-0.5484095215797424,-0.4983996450901031,-0.6714497208595276,0,0,0,-1,-1,4066.206494916667,unknown,2,2022-06-02T11:09:42.069+02:00,2022-06-02T10:17:13.754+02:00,757,1.564864,0,0,607.4087,0,0,2022-06-02T11:09:42.069+02:00,675853782.0687119,0,5.683594,101.3143,1,0.73
407,2022-06-02T11:09:44.187+02:00,1654160969.000232,53.22910746810508,10.3985854671715,37.04862,0.04253366,0.8458804,49.02649339061003,180,2.400000095367432,7.999579855010835,-9999,4068.323548625,-2.896255493164062,-1.557952880859375,0.2025604248046875,4068.313554625,2.951461678278862,-0.6524257027748164,0.5009297926475058,1.393490791320801,6.077973365783691,4.924930095672607,-2.528069496154785,-1.271559119224548,0.8237848877906799,XArbitraryZVertical,0.3313431146180069,0.2042536196065804,0.9060224751261488,0.1661790395331453,-0.5325232744216919,-0.4802412986755371,-0.6969844102859497,0,0,0,-1,-1,4066.206494916667,unknown,2,2022-06-02T11:09:42.069+02:00,2022-06-02T10:17:13.754+02:00,757,1.564864,0,0,607.4087,0,0,2022-06-02T11:09:42.069+02:00,675853782.0687119,0,5.683594,101.3143,1,0.73
408,2022-06-02T11:09:44.197+02:00,1654160969.000232,53.22910746810508,10.3985854671715,37.04862,0.04253366,0.8458804,49.02649339061003,180,2.400000095367432,7.999579855010835,-9999,4068.333542625,-2.708084106445312,-1.426986694335938,0.335601806640625,4068.323548625,3.000584752832567,-0.614649418821146,0.4841441941791498,1.036065340042114,6.15760326385498,4.027694225311279,-2.451684474945068,-1.119891285896301,0.875076413154602,XArbitraryZVertical,0.3090555933703441,0.2072265157864756,0.9179484096425258,0.1375231179491665,-0.5103973150253296,-0.4654510915279388,-0.7230836153030396,0,0,0,-1,-1,4066.206494916667,unknown,2,2022-06-02T11:09:42.069+02:00,2022-06-02T10:17:13.754+02:00,757,1.564864,0,0,607.4087,0,0,2022-06-02T11:09:42.069+02:00,675853782.0687119,0,5.683594,101.3143,1,0.73
409,2022-06-02T11:09:44.207+02:00,1654160969.000232,53.22910746810508,10.3985854671715,37.04862,0.04253366,0.8458804,49.02649339061003,180,2.400000095367432,7.999579855010835,-9999,4068.343536625,-2.464019775390625,-1.25250244140625,0.44586181640625,4068.333542625,3.039546225521511,-0.5699660163744801,0.4721082160166466,0.8776337504386902,6.368118286132812,3.047444105148315,-2.329359531402588,-1.057411551475525,1.023626685142517,XArbitraryZVertical,0.2844353696112344,0.2102023280247698,0.9284856084122288,0.113251075851228,-0.4805770218372345,-0.4547649025917053,-0.7498229742050171,0,0,0,-1,-1,4066.206494916667,unknown,2,2022-06-02T11:09:42.069+02:00,2022-06-02T10:17:13.754+02:00,757,1.564864,0,0,607.4087,0,0,2022-06-02T11:09:42.069+02:00,675853782.0687119,0,5.683594,101.3143,1,0.73
410,2022-06-02T11:09:44.217+02:00,1654160969.000232,53.22910746810508,10.3985854671715,37.04862,0.04253366,0.8458804,49.02649339061003,180,2.400000095367432,7.999579855010835,-9999,4068.353531625,-2.285171508789062,-1.213653564453125,0.5717620849609375,4068.343536625,3.069201704757005,-0.5186034217471936,0.466631535157117,0.949341118335724,6.591397762298584,2.058029651641846,-2.144238948822021,-0.8792972564697266,1.161538004875183,XArbitraryZVertical,0.2573820354778393,0.2143017107358904,0.9376189391853428,0.0932734481966809,-0.4426752328872681,-0.4498805105686188,-0.7756585478782654,0,0,0,-1,-1,4066.206494916667,unknown,2,2022-06-02T11:09:42.069+02:00,2022-06-02T10:17:13.754+02:00,757,1.564864,0,0,607.4087,0,0,2022-06-02T11:09:42.069+02:00,675853782.0687119,0,5.683594,101.3143,1,0.73
411,2022-06-02T11:09:44.227+02:00,1654160969.000232,53.22910746810508,10.3985854671715,37.04862,0.04253366,0.8458804,49.02649339061003,180,2.400000095367432,7.999579855010835,-9999,4068.363525625,-2.145416259765625,-1.171859741210938,0.58294677734375,4068.353531625,3.090710370127233,-0.4616136750703234,0.4682627231524857,1.170315384864807,6.73106575012207,1.214279770851135,-1.965924263000488,-0.7684203386306763,1.318700313568115,XArbitraryZVertical,0.228194675205033,0.2201123652407941,0.945265351384022,0.0771435994289282,-0.3974485099315643,-0.4513367116451263,-0.798955500125885,0,0,0,-1,-1,4066.206494916667,unknown,2,2022-06-02T11:09:42.069+02:00,2022-06-02T10:17:13.754+02:00,757,1.564864,0,0,607.4087,0,0,2022-06-02T11:09:42.069+02:00,675853782.0687119,0,5.683594,101.3143,1,0.73
412,2022-06-02T11:09:44.237+02:00,1654160969.000232,53.22910746810508,10.3985854671715,37.04862,0.04253366,0.8458804,49.02649339061003,180,2.400000095367432,7.999579855010835,-9999,4068.373519625,-1.962081909179688,-1.087326049804688,0.59271240234375,4068.363525625,3.106086576136213,-0.401463176816715,0.4762560662988082,1.39824652671814,6.663206577301025,0.6249505281448364,-1.868158578872681,-0.7411450147628784,1.407014608383179,XArbitraryZVertical,0.1978326815539148,0.2276715190049445,0.9512837966663796,0.0639293835283984,-0.3472802639007568,-0.4584550857543945,-0.8180558085441589,0,0,0,-1,-1,4066.206494916667,unknown,2,2022-06-02T11:09:42.069+02:00,2022-06-02T10:17:13.754+02:00,757,1.564864,0,0,607.4087,0,0,2022-06-02T11:09:42.069+02:00,675853782.0687119,0,5.683594,101.3143,1,0.73
413,2022-06-02T11:09:44.247+02:00,1654160969.000232,53.22910746810508,10.3985854671715,37.04862,0.04253366,0.8458804,49.02649339061003,180,2.400000095367432,7.999579855010835,-9999,4068.383513625,-1.722213745117188,-1.05029296875,0.606353759765625,4068.373519625,3.11624501621189,-0.3407233080757355,0.4880745183585073,1.451704621315002,6.420199394226074,0.2113302201032639,-1.766159296035767,-0.6643593311309814,1.412510514259338,XArbitraryZVertical,0.1675200578140363,0.2360202664469844,0.9557269165638004,0.0530809812225538,-0.295150488615036,-0.4689261019229889,-0.8324629068374634,0,0,0,-1,-1,4066.206494916667,unknown,2,2022-06-02T11:09:42.069+02:00,2022-06-02T10:17:13.754+02:00,757,1.564864,0,0,607.4087,0,0,2022-06-02T11:09:42.069+02:00,675853782.0687119,0,5.683594,101.3143,1,0.73
414,2022-06-02T11:09:44.257+02:00,1654160969.000232,53.22910746810508,10.3985854671715,37.04862,0.04253366,0.8458804,49.02649339061003,180,2.400000095367432,7.999579855010835,-9999,4068.393507625,-1.47564697265625,-1.111083984375,0.60992431640625,4068.383513625,3.121647533083543,-0.281156532638128,0.5003922467291375,1.174010634422302,5.985352039337158,-0.0463081747293472,-1.60933518409729,-0.5757874250411987,1.440706729888916,XArbitraryZVertical,0.13819105000202,0.2437855493418285,0.958912416331472,0.0442566657931336,-0.2434479594230652,-0.4797697365283966,-0.8429436683654785,0,0,0,-1,-1,4066.206494916667,unknown,2,2022-06-02T11:09:42.069+02:00,2022-06-02T10:17:13.754+02:00,757,1.564864,0,0,607.4087,0,0,2022-06-02T11:09:42.069+02:00,675853782.0687119,0,5.683594,101.3143,1,0.73
