,loggingTime(txt),locationTimestamp_since1970(s),locationLatitude(WGS84),locationLongitude(WGS84),locationAltitude(m),locationSpeed(m/s),locationSpeedAccuracy(m/s),locationCourse(°),locationCourseAccuracy(°),locationVerticalAccuracy(m),locationHorizontalAccuracy(m),locationFloor(Z),accelerometerTimestamp_sinceReboot(s),accelerometerAccelerationX(G),accelerometerAccelerationY(G),accelerometerAccelerationZ(G),motionTimestamp_sinceReboot(s),motionYaw(rad),motionRoll(rad),motionPitch(rad),motionRotationRateX(rad/s),motionRotationRateY(rad/s),motionRotationRateZ(rad/s),motionUserAccelerationX(G),motionUserAccelerationY(G),motionUserAccelerationZ(G),motionAttitudeReferenceFrame(txt),motionQuaternionX(R),motionQuaternionY(R),motionQuaternionZ(R),motionQuaternionW(R),motionGravityX(G),motionGravityY(G),motionGravityZ(G),motionMagneticFieldX(µT),motionMagneticFieldY(µT),motionMagneticFieldZ(µT),motionHeading(°),motionMagneticFieldCalibrationAccuracy(Z),activityTimestamp_sinceReboot(s),activity(txt),activityActivityConfidence(Z),activityActivityStartDate(txt),pedometerStartDate(txt),pedometerNumberofSteps(N),pedometerAverageActivePace(s/m),pedometerCurrentPace(s/m),pedometerCurrentCadence(steps/s),pedometerDistance(m),pedometerFloorAscended(N),pedometerFloorDescended(N),pedometerEndDate(txt),altimeterTimestamp_sinceReboot(s),altimeterReset(bool),altimeterRelativeAltitude(m),altimeterPressure(kPa),batteryState(N),batteryLevel(R)
385,2022-06-02T10:43:45.897+02:00,1654159425.000441,53.22911482681761,10.3985344289958,36.88118,0,20,-1,-1,2.400000095367432,7.999579855010837,-9999,2570.174943375,-0.4208831787109375,-0.312469482421875,-0.0175628662109375,2570.169946375,2.31552801550722,-1.013145229163034,0.7192738895853893,-2.982389211654663,-4.384031772613525,4.368817806243896,0.2394183278083801,0.2909340262413025,0.2069426476955414,XArbitraryZVertical,0.5394751799143586,0.0995698242023849,0.6811064789648297,0.4849187867732576,-0.6383135318756104,-0.6588386297225952,-0.3981047570705414,0,0,0,-1,-1,2568.952708625,unknown,2,2022-06-02T10:43:44.674+02:00,2022-06-02T10:17:13.754+02:00,441,1.292008,0,0,340.1827,0,0,2022-06-02T10:43:44.674+02:00,675852224.674142,0,6.3125,101.3062,1,0.82
386,2022-06-02T10:43:45.907+02:00,1654159425.000441,53.22911482681761,10.3985344289958,36.88118,0,20,-1,-1,2.400000095367432,7.999579855010837,-9999,2570.184938375,-0.5194244384765625,-0.2092742919921875,0.0212860107421875,2570.179940375,2.306726679028735,-1.055551629088537,0.6611919869017373,-4.064921855926514,-5.283219814300537,4.922639846801758,0.2659096717834473,0.3015885949134827,0.3713436126708984,XArbitraryZVertical,0.5491332604348919,0.0632406581594933,0.6807048118450132,0.4807226897253548,-0.6867928504943848,-0.6140580773353577,-0.3889065682888031,0,0,0,-1,-1,2568.952708625,unknown,2,2022-06-02T10:43:44.674+02:00,2022-06-02T10:17:13.754+02:00,441,1.292008,0,0,340.1827,0,0,2022-06-02T10:43:44.674+02:00,675852224.674142,0,6.3125,101.3062,1,0.82
387,2022-06-02T10:43:45.917+02:00,1654159425.000441,53.22911482681761,10.3985344289958,36.88118,0,20,-1,-1,2.400000095367432,7.999579855010837,-9999,2570.194933375,-0.6104888916015625,-0.171844482421875,-0.0284576416015625,2570.189935375,2.288500951848257,-1.10316969852171,0.5944504587995244,-4.696890830993652,-6.492759227752686,5.468956470489502,0.2200894355773926,0.3507793545722961,0.394728422164917,XArbitraryZVertical,0.5593634231334673,0.0197822656050123,0.6778884356668236,0.476642919382281,-0.7395138144493103,-0.5600535869598389,-0.3734424412250519,0,0,0,-1,-1,2568.952708625,unknown,2,2022-06-02T10:43:44.674+02:00,2022-06-02T10:17:13.754+02:00,441,1.292008,0,0,340.1827,0,0,2022-06-02T10:43:44.674+02:00,675852224.674142,0,6.3125,101.3062,1,0.82
388,2022-06-02T10:43:45.927+02:00,1654159425.000441,53.22911482681761,10.3985344289958,36.88118,0,20,-1,-1,2.400000095367432,7.999579855010837,-9999,2570.204927375,-0.7504119873046875,0.0258941650390625,0.110504150390625,2570.199930375,2.265582938018423,-1.16140560302873,0.5212227979119699,-4.858846187591553,-7.804614067077637,6.107726573944092,0.1850587725639343,0.3260965347290039,0.3167360424995422,XArbitraryZVertical,0.5714185889480445,-0.0297312159513246,0.6716281005369732,0.4706510990185709,-0.795547604560852,-0.4979409277439117,-0.3451937139034271,0,0,0,-1,-1,2568.952708625,unknown,2,2022-06-02T10:43:44.674+02:00,2022-06-02T10:17:13.754+02:00,441,1.292008,0,0,340.1827,0,0,2022-06-02T10:43:44.674+02:00,675852224.674142,0,6.3125,101.3062,1,0.82
389,2022-06-02T10:43:45.937+02:00,1654159425.000441,53.22911482681761,10.3985344289958,36.88118,0,20,-1,-1,2.400000095367432,7.999579855010837,-9999,2570.214922375,-0.891265869140625,0.2238311767578125,0.377655029296875,2570.209925375,2.240059765515693,-1.233557710633511,0.4436615332742877,-4.999171257019043,-9.088157653808594,6.664786338806152,0.1018993854522705,0.4551435708999634,0.4093526005744934,XArbitraryZVertical,0.586067785044258,-0.0842634104494622,0.660830295794948,0.4612239602982079,-0.8523113131523132,-0.4292493760585785,-0.2988484501838684,0,0,0,-1,-1,2568.952708625,unknown,2,2022-06-02T10:43:44.674+02:00,2022-06-02T10:17:13.754+02:00,441,1.292008,0,0,340.1827,0,0,2022-06-02T10:43:44.674+02:00,675852224.674142,0,6.3125,101.3062,1,0.82
390,2022-06-02T10:43:45.947+02:00,1654159425.000441,53.22911482681761,10.3985344289958,36.88118,0,20,-1,-1,2.400000095367432,7.999579855010837,-9999,2570.224917375,-0.891815185546875,0.3815460205078125,0.766143798828125,2570.219920375,2.207671949540244,-1.318640961726874,0.361679227849521,-5.537510871887207,-10.51066112518311,7.286082744598389,0.0144609808921814,0.57767653465271,0.6110056042671204,XArbitraryZVertical,0.602074173953357,-0.1443307881951068,0.6446805604792698,0.4483997571141333,-0.9057267904281616,-0.3538453280925751,-0.2333506196737289,0,0,0,-1,-1,2568.952708625,unknown,2,2022-06-02T10:43:44.674+02:00,2022-06-02T10:17:13.754+02:00,441,1.292008,0,0,340.1827,0,0,2022-06-02T10:43:44.674+02:00,675852224.674142,0,6.3125,101.3062,1,0.82
391,2022-06-02T10:43:45.957+02:00,1654159425.000441,53.22911482681761,10.3985344289958,36.88118,0,20,-1,-1,2.400000095367432,7.999579855010837,-9999,2570.234912375,-1.00244140625,0.4067230224609375,1.250839233398438,2570.229914375,2.160405169574859,-1.41665142497915,0.2754733960615814,-6.851260662078857,-12.09261608123779,7.767072677612305,0.0590715408325195,0.653548538684845,0.9138901829719543,XArbitraryZVertical,0.6175254363412268,-0.2116344724145271,0.6214483218418652,0.4332147785131959,-0.9508866667747498,-0.2720025181770325,-0.1477463692426682,0,0,0,-1,-1,2568.952708625,unknown,2,2022-06-02T10:43:44.674+02:00,2022-06-02T10:17:13.754+02:00,441,1.292008,0,0,340.1827,0,0,2022-06-02T10:43:44.674+02:00,675852224.674142,0,6.3125,101.3062,1,0.82
392,2022-06-02T10:43:45.967+02:00,1654159425.000441,53.22911482681761,10.3985344289958,36.88118,0,20,-1,-1,2.400000095367432,7.999579855010837,-9999,2570.244906375,-1.001007080078125,0.5391693115234375,1.869857788085938,2570.239909375,2.087997545406802,-1.530118559929617,0.1890193582318751,-8.979103088378906,-13.96794414520264,8.066096305847168,-0.0210648775100708,0.5946188569068909,1.290781497955322,XArbitraryZVertical,0.6302337080475926,-0.2878095833723331,0.5879003337102355,0.417545510063399,-0.9813764095306396,-0.187895804643631,-0.0399422347545623,0,0,0,-1,-1,2568.952708625,unknown,2,2022-06-02T10:43:44.674+02:00,2022-06-02T10:17:13.754+02:00,441,1.292008,0,0,340.1827,0,0,2022-06-02T10:43:44.674+02:00,675852224.674142,0,6.3125,101.3062,1,0.82
393,2022-06-02T10:43:45.977+02:00,1654159425.000441,53.22911482681761,10.3985344289958,36.88118,0,20,-1,-1,2.400000095367432,7.999579855010837,-9999,2570.254901375,-0.5191497802734375,0.89825439453125,2.839569091796875,2570.249904375,1.981860535375153,-1.666040714572558,0.1107746609856205,-11.69635581970215,-16.43566513061523,8.113595008850098,-0.0116408467292785,0.6497176289558411,1.77534019947052,XArbitraryZVertical,0.6384618674068023,-0.3736645724699096,0.5393833216219894,0.4022519978056885,-0.9893659949302672,-0.1105482503771782,0.0945175364613533,0,0,0,-1,-1,2568.952708625,unknown,2,2022-06-02T10:43:44.674+02:00,2022-06-02T10:17:13.754+02:00,441,1.292008,0,0,340.1827,0,0,2022-06-02T10:43:44.674+02:00,675852224.674142,0,6.3125,101.3062,1,0.82
394,2022-06-02T10:43:45.987+02:00,1654159425.000441,53.22911482681761,10.3985344289958,36.88118,0,20,-1,-1,2.400000095367432,7.999579855010837,-9999,2570.264896375,0.36700439453125,1.330245971679688,4.047607421875,2570.259899375,1.83925667052435,-1.833063129445632,0.0556920313665009,-14.29035568237305,-19.28486251831055,7.715336799621582,0.4451575875282288,0.953917682170868,2.580700397491455,XArbitraryZVertical,0.6411531871603277,-0.4672866629595347,0.470468449003394,0.3862965355132109,-0.9643071293830872,-0.0556632466614246,0.2588684558868408,0,0,0,-1,-1,2568.952708625,unknown,2,2022-06-02T10:43:44.674+02:00,2022-06-02T10:17:13.754+02:00,441,1.292008,0,0,340.1827,0,0,2022-06-02T10:43:44.674+02:00,675852224.674142,0,6.3125,101.3062,1,0.82
395,2022-06-02T10:43:45.997+02:00,1654159425.000441,53.22911482681761,10.3985344289958,36.88118,0,20,-1,-1,2.400000095367432,7.999579855010837,-9999,2570.274891375,1.679214477539062,1.551437377929688,5.014404296875,2570.269893375,1.674946646326214,-2.032985284534097,0.0389573709908891,-15.0090503692627,-22.18005561828613,7.010821342468262,1.261403799057007,1.369193434715271,3.602037191390991,XArbitraryZVertical,0.6384518817385293,-0.5613949000558954,0.3798957944842233,0.3645463770169105,-0.8943993449211121,-0.0389475189149379,0.4455700814723969,0,0,0,-1,-1,2568.952708625,unknown,2,2022-06-02T10:43:44.674+02:00,2022-06-02T10:17:13.754+02:00,441,1.292008,0,0,340.1827,0,0,2022-06-02T10:43:44.674+02:00,675852224.674142,0,6.3125,101.3062,1,0.82
396,2022-06-02T10:43:46.007+02:00,1654159425.000441,53.22911482681761,10.3985344289958,36.88118,0,20,-1,-1,2.400000095367432,7.999579855010837,-9999,2570.284885375,3.815841674804688,1.249191284179688,5.29937744140625,2570.279888375,1.519364150790834,-2.261446263633643,0.0598288088779491,-13.19492244720459,-24.91981887817383,6.418400764465332,2.448667526245117,1.611230492591858,4.378505706787109,XArbitraryZVertical,0.6320325671686929,-0.6469034758801335,0.2736349258208541,0.3273754496990386,-0.7694529891014099,-0.059793122112751,0.6358985304832458,0,0,0,-1,-1,2568.952708625,unknown,2,2022-06-02T10:43:44.674+02:00,2022-06-02T10:17:13.754+02:00,441,1.292008,0,0,340.1827,0,0,2022-06-02T10:43:44.674+02:00,675852224.674142,0,6.3125,101.3062,1,0.82
397,2022-06-02T10:43:46.019+02:00,1654159425.000441,53.22911482681761,10.3985344289958,36.88118,0,20,-1,-1,2.400000095367432,7.999579855010837,-9999,2570.294880375,6.800735473632812,0.4337158203125,6.102920532226562,2570.289883375,1.393013242288595,-2.510581600081053,0.0976898831692221,-9.4190034866333,-26.6177921295166,6.750060558319092,4.402990341186523,1.346725821495056,4.495795726776123,XArbitraryZVertical,0.6207694661056661,-0.7186348627378484,0.1632263805096492,0.2675187244824614,-0.5871484875679016,-0.0975345745682716,0.8035815954208374,0,0,0,-1,-1,2568.952708625,unknown,2,2022-06-02T10:43:44.674+02:00,2022-06-02T10:17:13.754+02:00,441,1.292008,0,0,340.1827,0,0,2022-06-02T10:43:44.674+02:00,675852224.674142,0,6.3125,101.3062,1,0.82
398,2022-06-02T10:43:46.028+02:00,1654159425.000441,53.22911482681761,10.3985344289958,36.88118,0,20,-1,-1,2.400000095367432,7.999579855010837,-9999,2570.304875375,9.774307250976562,0.385498046875,8.65460205078125,2570.299878375,1.296633673588144,-2.767423354717793,0.1231623692078963,-4.267768859863281,-26.56581878662109,7.495890617370605,7.163466453552246,0.5565670132637024,5.179159641265869,XArbitraryZVertical,0.6013083342248381,-0.7747959292923761,0.0639000696069662,0.1844895920426932,-0.362730860710144,-0.1228512302041054,0.9237608909606934,0,0,0,-1,-1,2568.952708625,unknown,2,2022-06-02T10:43:44.674+02:00,2022-06-02T10:17:13.754+02:00,441,1.292008,0,0,340.1827,0,0,2022-06-02T10:43:44.674+02:00,675852224.674142,0,6.3125,101.3062,1,0.82
399,2022-06-02T10:43:46.037+02:00,1654159425.000441,53.22911482681761,10.3985344289958,36.88118,0,20,-1,-1,2.400000095367432,7.999579855010837,-9999,2570.314870375,11.60939025878906,1.837142944335938,12.40927124023438,2570.309872375,1.205782568539096,-3.014058416206116,0.1266443487765581,-1.46403694152832,-24.48494529724121,10.13791942596436,9.900477409362791,0.5118041038513184,7.670667171478271,XArbitraryZVertical,0.568061349324004,-0.8180915507687105,-0.0159569398908506,0.0881925938412078,-0.1261701881885529,-0.1263060867786407,0.9839349389076232,0,0,0,-1,-1,2568.952708625,unknown,2,2022-06-02T10:43:44.674+02:00,2022-06-02T10:17:13.754+02:00,441,1.292008,0,0,340.1827,0,0,2022-06-02T10:43:44.674+02:00,675852224.674142,0,6.3125,101.3062,1,0.82
400,2022-06-02T10:43:46.047+02:00,1654159425.000441,53.22911482681761,10.3985344289958,36.88118,0,20,-1,-1,2.400000095367432,7.999579855010837,-9999,2570.324864375,12.27320861816406,2.177703857421875,16.2928466796875,2570.319867375,1.080529516389966,3.059800746176034,0.1472507741896039,-3.584990978240967,-20.4463939666748,14.8052864074707,11.52857398986816,1.983862161636353,11.42339992523193,XArbitraryZVertical,0.5099615947410645,-0.8560810832815862,-0.0840018708030733,0.0028378520125064,0.0808165967464447,-0.146719217300415,0.9858713150024414,0,0,0,-1,-1,2568.952708625,unknown,2,2022-06-02T10:43:44.674+02:00,2022-06-02T10:17:13.754+02:00,441,1.292008,0,0,340.1827,0,0,2022-06-02T10:43:44.674+02:00,675852224.674142,0,6.3125,101.3062,1,0.82
401,2022-06-02T10:43:46.057+02:00,1654159425.000441,53.22911482681761,10.3985344289958,36.88118,0,20,-1,-1,2.400000095367432,7.999579855010837,-9999,2570.334859375,12.39024353027344,0.0116729736328125,19.26988220214844,2570.329862375,0.9171154813215936,2.908019906111445,0.2297025794945461,-7.094619750976562,-15.57072257995605,19.8322868347168,12.04783344268799,2.405391693115234,15.34555339813232,XArbitraryZVertical,0.4247699086857306,-0.890627358002971,-0.1532988398996533,-0.0534128659973939,0.2253753840923309,-0.2276879251003265,0.9472931027412416,0,0,0,-1,-1,2568.952708625,unknown,2,2022-06-02T10:43:44.674+02:00,2022-06-02T10:17:13.754+02:00,441,1.292008,0,0,340.1827,0,0,2022-06-02T10:43:44.674+02:00,675852224.674142,0,6.3125,101.3062,1,0.82
402,2022-06-02T10:43:46.067+02:00,1654159425.000441,53.22911482681761,10.3985344289958,36.88118,0,20,-1,-1,2.400000095367432,7.999579855010837,-9999,2570.344854375,13.40484619140625,-1.854217529296875,19.97093200683594,2570.339857375,0.7111920065785481,2.849508457413107,0.3512793511751808,-4.617186069488525,-7.44627571105957,24.37730979919434,12.1198787689209,0.3557722866535187,18.3707160949707,XArbitraryZVertical,0.3153061117352219,-0.9220437663625234,-0.2119469238095181,-0.0741333008813164,0.2703646123409271,-0.3440993130207062,0.8991652727127075,0,0,0,-1,-1,2568.952708625,unknown,2,2022-06-02T10:43:44.674+02:00,2022-06-02T10:17:13.754+02:00,441,1.292008,0,0,340.1827,0,0,2022-06-02T10:43:44.674+02:00,675852224.674142,0,6.3125,101.3062,1,0.82
403,2022-06-02T10:43:46.077+02:00,1654159425.000441,53.22911482681761,10.3985344289958,36.88118,0,20,-1,-1,2.400000095367432,7.999579855010837,-9999,2570.354848875,17.49626159667969,2.042282104492188,19.87745666503906,2570.349851375,0.4418515705313315,2.938681791207709,0.4256063611439404,2.758613586425781,5.128466606140137,27.66255378723145,13.22130298614502,-1.441344380378723,19.07882881164551,XArbitraryZVertical,0.1922177458223055,-0.9534693165111294,-0.2267012833965424,-0.050547651007407,0.1835432946681976,-0.4128731191158295,0.8921027779579163,0,0,0,-1,-1,2568.952708625,unknown,2,2022-06-02T10:43:44.674+02:00,2022-06-02T10:17:13.754+02:00,441,1.292008,0,0,340.1827,0,0,2022-06-02T10:43:44.674+02:00,675852224.674142,0,6.3125,101.3062,1,0.82
404,2022-06-02T10:43:46.087+02:00,1654159425.000441,53.22911482681761,10.3985344289958,36.88118,0,20,-1,-1,2.400000095367432,7.999579855010837,-9999,2570.364842875,22.97296142578125,7.99859619140625,17.10720825195312,2570.359845875,0.1190973577720492,-3.08258891576035,0.4070174828397441,5.233304023742676,20.94097137451172,30.96364974975586,17.55041313171387,2.438154220581055,18.96074867248535,XArbitraryZVertical,0.0642110794152576,-0.9768472666110516,-0.1999416129409127,0.0408605059598608,-0.0541520118713378,-0.3958722352981567,0.9167072772979736,0,0,0,-1,-1,2568.952708625,unknown,2,2022-06-02T10:43:44.674+02:00,2022-06-02T10:17:13.754+02:00,441,1.292008,0,0,340.1827,0,0,2022-06-02T10:43:44.674+02:00,675852224.674142,0,6.3125,101.3062,1,0.82
405,2022-06-02T10:43:46.097+02:00,1654159425.000441,53.22911482681761,10.3985344289958,36.88118,0,20,-1,-1,2.400000095367432,7.999579855010837,-9999,2570.374837875,30.49720764160156,12.68495178222656,9.320144653320312,2570.369840875,-0.1854189059594434,-2.690649849942043,0.2508551479130349,11.73798751831055,34.86449813842773,32.8099479675293,23.39513397216797,8.24682903289795,16.23534202575684,XArbitraryZVertical,-0.0616768817948456,-0.965468215084309,-0.14194332893205,0.2095689014559625,-0.4221734702587128,-0.248232439160347,0.8718658089637756,0,0,0,-1,-1,2568.952708625,unknown,2,2022-06-02T10:43:44.674+02:00,2022-06-02T10:17:13.754+02:00,441,1.292008,0,0,340.1827,0,0,2022-06-02T10:43:44.674+02:00,675852224.674142,0,6.3125,101.3062,1,0.82
406,2022-06-02T10:43:46.107+02:00,1654159426.000441,53.22911632425093,10.39853843355685,36.783,0,20,-1,-1,2.400000095367432,7.999579855010836,-9999,2570.384832875,32.03334045410156,17.76237487792969,1.110748291015625,2570.379835875,-0.3211368709492737,-2.321233649908734,-0.1096368130565254,32.82206344604492,35.14048385620117,30.29616928100586,31.22420692443848,12.57553482055664,8.642280578613281,XArbitraryZVertical,-0.1679651514086499,-0.9003997901226584,-0.0140602831908827,0.4010863344750312,-0.7269994020462036,0.1094173043966293,0.677864134311676,0,0,0,-1,-1,2568.952708625,unknown,2,2022-06-02T10:43:44.674+02:00,2022-06-02T10:17:13.754+02:00,441,1.292008,0,0,340.1827,0,0,2022-06-02T10:43:44.674+02:00,675852224.674142,0,6.3125,101.3062,1,0.82
407,2022-06-02T10:43:46.117+02:00,1654159426.000441,53.22911632425093,10.39853843355685,36.783,0,20,-1,-1,2.400000095367432,7.999579855010836,-9999,2570.394827875,32.0404052734375,31.79313659667969,1.435012817382812,2570.389829875,-0.1037485580965199,-1.90406991890575,-0.4100757602229698,34.81663513183594,35.09626388549805,5.35285472869873,32.89997100830078,17.36369514465332,0.8107327222824097,XArbitraryZVertical,-0.1592899933178653,-0.7903381475266232,0.1361874252449671,0.5757127912718224,-0.8666289448738098,0.3986788094043732,0.300015389919281,0,0,0,-1,-1,2568.952708625,unknown,2,2022-06-02T10:43:44.674+02:00,2022-06-02T10:17:13.754+02:00,441,1.292008,0,0,340.1827,0,0,2022-06-02T10:43:44.674+02:00,675852224.674142,0,6.3125,101.3062,1,0.82
408,2022-06-02T10:43:46.127+02:00,1654159426.000441,53.22911632425093,10.39853843355685,36.783,0,20,-1,-1,2.400000095367432,7.999579855010836,-9999,2570.404822875,31.82456970214844,30.14649963378906,29.06007385253906,2570.399824875,0.2717610897990534,-1.401817640029068,-0.3788466590387137,34.99274063110352,34.21213531494141,-14.81214427947998,32.95626449584961,31.42328643798828,1.591263294219971,XArbitraryZVertical,-0.0567783458232506,-0.6470323800189234,0.2219894210449397,0.7272179905541842,-0.915858805179596,0.3698491454124451,-0.1562506407499313,0,0,0,-1,-1,2568.952708625,unknown,2,2022-06-02T10:43:44.674+02:00,2022-06-02T10:17:13.754+02:00,441,1.292008,0,0,340.1827,0,0,2022-06-02T10:43:44.674+02:00,675852224.674142,0,6.3125,101.3062,1,0.82
409,2022-06-02T10:43:46.137+02:00,1654159426.000441,53.22911632425093,10.39853843355685,36.783,0,20,-1,-1,2.400000095367432,7.999579855010836,-9999,2570.414816875,31.48326110839844,-24.12234497070312,32.10488891601562,2570.409819875,0.5926861005129389,-1.231713139358715,-0.1841825413221715,35.26343154907227,-19.58256912231445,-12.19491672515869,32.75167846679688,29.96335601806641,29.38706970214844,XArbitraryZVertical,0.0961816365254008,-0.572058320062207,0.2881700056833971,0.7618769111856828,-0.9271093606948853,0.1831429600715637,-0.3269967436790466,0,0,0,-1,-1,2568.952708625,unknown,2,2022-06-02T10:43:44.674+02:00,2022-06-02T10:17:13.754+02:00,441,1.292008,0,0,340.1827,0,0,2022-06-02T10:43:44.674+02:00,675852224.674142,0,6.3125,101.3062,1,0.82
410,2022-06-02T10:43:46.147+02:00,1654159426.000441,53.22911632425093,10.39853843355685,36.783,0,20,-1,-1,2.400000095367432,7.999579855010836,-9999,2570.424811875,16.61593627929688,-32.05561828613281,9.423782348632812,2570.419814875,0.8254726399846887,-1.47341559473174,0.0861539087948227,11.57987689971924,-25.61612510681152,-28.53238296508789,32.47483062744141,-24.03629684448242,32.20175552368164,XArbitraryZVertical,0.29846006198604,-0.6020701396678174,0.2703228973845738,0.6894625285268746,-0.991570770740509,-0.0860473662614822,-0.0968662798404693,0,0,0,-1,-1,2568.952708625,unknown,2,2022-06-02T10:43:44.674+02:00,2022-06-02T10:17:13.754+02:00,441,1.292008,0,0,340.1827,0,0,2022-06-02T10:43:44.674+02:00,675852224.674142,0,6.3125,101.3062,1,0.82
411,2022-06-02T10:43:46.158+02:00,1654159426.000441,53.22911632425093,10.39853843355685,36.783,0,20,-1,-1,2.400000095367432,7.999579855010836,-9999,2570.434806875,7.3057861328125,0.6759490966796875,-6.720657348632812,2570.429808875,0.8617040479100428,-1.663764095494513,0.3642381888338817,1.093876600265503,-13.43217945098877,-21.63474273681641,17.54629707336426,-31.69938087463379,9.337038993835447,XArbitraryZVertical,0.4144479228505025,-0.609593887097065,0.1549819711374821,0.657730030032101,-0.9303603172302246,-0.3562375605106354,0.0867435783147811,0,0,0,-1,-1,2568.952708625,unknown,2,2022-06-02T10:43:44.674+02:00,2022-06-02T10:17:13.754+02:00,441,1.292008,0,0,340.1827,0,0,2022-06-02T10:43:44.674+02:00,675852224.674142,0,6.3125,101.3062,1,0.82
412,2022-06-02T10:43:46.167+02:00,1654159426.000441,53.22911632425093,10.39853843355685,36.783,0,20,-1,-1,2.400000095367432,7.999579855010836,-9999,2570.444801875,17.33638000488281,-0.8869476318359375,0.4759063720703125,2570.439803875,0.8533865737106362,-1.726662286338833,0.5227262651579196,-5.315224647521973,-1.748595237731934,-9.614310264587402,8.161744117736816,1.175193309783936,-6.855163097381592,XArbitraryZVertical,0.4567362343804122,-0.5988696404213014,0.0810614669561482,0.6528217511753752,-0.8559576869010925,-0.4992441833019257,0.1345056742429733,0,0,0,-1,-1,2568.952708625,unknown,2,2022-06-02T10:43:44.674+02:00,2022-06-02T10:17:13.754+02:00,441,1.292008,0,0,340.1827,0,0,2022-06-02T10:43:44.674+02:00,675852224.674142,0,6.3125,101.3062,1,0.82
413,2022-06-02T10:43:46.177+02:00,1654159426.000441,53.22911632425093,10.39853843355685,36.783,0,20,-1,-1,2.400000095367432,7.999579855010836,-9999,2570.454795875,11.8193359375,-14.36103820800781,3.428070068359375,2570.449798875,0.7656819421621747,-1.7100303952569,0.5953575889739368,-13.65583896636963,-5.260194301605225,-6.248307704925537,18.15631484985352,-0.3261428475379944,0.3609998524188995,XArbitraryZVertical,0.4480156182892993,-0.5972731755145946,0.0290520515272846,0.6646072740098069,-0.8199357390403748,-0.5608048439025879,0.11490648239851,0,0,0,-1,-1,2568.952708625,unknown,2,2022-06-02T10:43:44.674+02:00,2022-06-02T10:17:13.754+02:00,441,1.292008,0,0,340.1827,0,0,2022-06-02T10:43:44.674+02:00,675852224.674142,0,6.3125,101.3062,1,0.82
414,2022-06-02T10:43:46.187+02:00,1654159426.000441,53.22911632425093,10.39853843355685,36.783,0,20,-1,-1,2.400000095367432,7.999579855010836,-9999,2570.464790875,10.11610412597656,-1.68328857421875,2.49090576171875,2570.459793875,0.5960348682081876,-1.678271792453911,0.6837144312930352,-14.54880619049072,-7.800914287567139,-8.483983993530273,12.59009456634521,-13.72936153411865,3.344912052154541,XArbitraryZVertical,0.4199358624759911,-0.6043450328743444,-0.0536224057400183,0.6749412251083593,-0.7707588076591492,-0.6316769123077393,0.0831580981612205,0,0,0,-1,-1,2568.952708625,unknown,2,2022-06-02T10:43:44.674+02:00,2022-06-02T10:17:13.754+02:00,441,1.292008,0,0,340.1827,0,0,2022-06-02T10:43:44.674+02:00,675852224.674142,0,6.3125,101.3062,1,0.82
415,2022-06-02T10:43:46.197+02:00,1654159426.000441,53.22911632425093,10.39853843355685,36.783,0,20,-1,-1,2.400000095367432,7.999579855010836,-9999,2570.474785875,10.76777648925781,2.31591796875,3.949066162109375,2570.469787875,0.4066488005055585,-1.629579321296546,0.7932970911707323,-14.61214923858643,-8.697498321533203,-10.45069599151611,10.81639194488525,-0.9706184267997742,2.449693202972412,XArbitraryZVertical,0.3950820320209902,-0.6037519589193004,-0.1475250334622968,0.6764835529411953,-0.7002875804901123,-0.7126700282096863,0.0412124805152416,0,0,0,-1,-1,2568.952708625,unknown,2,2022-06-02T10:43:44.674+02:00,2022-06-02T10:17:13.754+02:00,441,1.292008,0,0,340.1827,0,0,2022-06-02T10:43:44.674+02:00,675852224.674142,0,6.3125,101.3062,1,0.82
416,2022-06-02T10:43:46.209+02:00,1654159426.000441,53.22911632425093,10.39853843355685,36.783,0,20,-1,-1,2.400000095367432,7.999579855010836,-9999,2570.484780875,8.176956176757812,1.29339599609375,-0.2842864990234375,2570.479782875,0.2198382053284926,-1.582368525764177,0.9097950543614334,-10.08103847503662,-9.216582298278809,-12.32212066650391,11.38164329528809,3.105295896530151,3.941962003707886,XArbitraryZVertical,0.3770966953247404,-0.6011240582258537,-0.2413127438618067,0.661978947312229,-0.6138664484024048,-0.7893779277801514,0.0071041020564734,0,0,0,-1,-1,2568.952708625,unknown,2,2022-06-02T10:43:44.674+02:00,2022-06-02T10:17:13.754+02:00,441,1.292008,0,0,340.1827,0,0,2022-06-02T10:43:44.674+02:00,675852224.674142,0,6.3125,101.3062,1,0.82
417,2022-06-02T10:43:46.217+02:00,1654159426.000441,53.22911632425093,10.39853843355685,36.783,0,20,-1,-1,2.400000095367432,7.999579855010836,-9999,2570.494774875,5.426284790039062,2.2138671875,-0.8326263427734375,2570.489777875,0.0905201066275763,-1.538717203352722,1.042902697583652,-4.747684955596924,-3.217483043670654,-13.91179656982422,8.680412292480469,2.157266139984131,-0.2681306600570679,XArbitraryZVertical,0.3847676227370518,-0.586409326997187,-0.3180057090438491,0.6379265557806062,-0.5034555792808533,-0.8638700246810913,-0.016155956313014,0,0,0,-1,-1,2568.952708625,unknown,2,2022-06-02T10:43:44.674+02:00,2022-06-02T10:17:13.754+02:00,441,1.292008,0,0,340.1827,0,0,2022-06-02T10:43:44.674+02:00,675852224.674142,0,6.3125,101.3062,1,0.82
418,2022-06-02T10:43:46.227+02:00,1654159426.000441,53.22911632425093,10.39853843355685,36.783,0,20,-1,-1,2.400000095367432,7.999579855010836,-9999,2570.504769875,7.366424560546875,1.61871337890625,-0.5164947509765625,2570.499772875,0.0196349510359421,-1.487478331555068,1.177590169658274,0.1213023588061333,0.0820129066705703,-13.29109382629395,5.808107376098633,3.137552738189697,-0.8007398843765259,XArbitraryZVertical,0.4142202056015361,-0.5589976435909613,-0.3699765707646285,0.6156789251151799,-0.3818225860595703,-0.9236853718757628,-0.0318865105509758,0,0,0,-1,-1,2568.952708625,unknown,2,2022-06-02T10:43:44.674+02:00,2022-06-02T10:17:13.754+02:00,441,1.292008,0,0,340.1827,0,0,2022-06-02T10:43:44.674+02:00,675852224.674142,0,6.3125,101.3062,1,0.82
419,2022-06-02T10:43:46.237+02:00,1654159426.000441,53.22911632425093,10.39853843355685,36.783,0,20,-1,-1,2.400000095367432,7.999579855010836,-9999,2570.514764875,9.213516235351562,0.802459716796875,-0.918548583984375,2570.509766875,0.0666202626095852,-1.533527304312306,1.313047770254095,4.107048511505127,-0.6011353135108948,-13.69627380371094,7.621150970458984,2.58568000793457,-0.5069970488548279,XArbitraryZVertical,0.4576211611896644,-0.5346344267409727,-0.4042446945934639,0.5842387927987516,-0.2547264993190765,-0.9669663310050964,-0.0094978054985404,0,0,0,-1,-1,2568.952708625,unknown,2,2022-06-02T10:43:44.674+02:00,2022-06-02T10:17:13.754+02:00,441,1.292008,0,0,340.1827,0,0,2022-06-02T10:43:44.674+02:00,675852224.674142,0,6.3125,101.3062,1,0.82
420,2022-06-02T10:43:46.247+02:00,1654159426.000441,53.22911632425093,10.39853843355685,36.783,0,20,-1,-1,2.400000095367432,7.999579855010836,-9999,2570.524759875,8.734359741210938,-1.376113891601562,-1.566604614257812,2570.519761875,0.3633175124281983,-1.837523606848903,1.445398420062344,3.646610736846924,-1.77351450920105,-13.46126651763916,9.334162712097168,1.794607877731323,-0.9515137672424316,XArbitraryZVertical,0.5024461115492417,-0.5138389351198784,-0.4348511819282564,0.5426064912425177,-0.1206461116671562,-0.992147982120514,0.0329650938510894,0,0,0,-1,-1,2568.952708625,unknown,2,2022-06-02T10:43:44.674+02:00,2022-06-02T10:17:13.754+02:00,441,1.292008,0,0,340.1827,0,0,2022-06-02T10:43:44.674+02:00,675852224.674142,0,6.3125,101.3062,1,0.82
421,2022-06-02T10:43:46.257+02:00,1654159426.000441,53.22911632425093,10.39853843355685,36.783,0,20,-1,-1,2.400000095367432,7.999579855010836,-9999,2570.534753875,8.018524169921875,-2.290374755859375,-1.936813354492188,2570.529756875,1.852703676959601,2.937156420182599,1.510772456652879,1.19859778881073,-2.811025857925415,-13.00790309906006,8.72218132019043,-0.3779146671295166,-1.625342845916748,XArbitraryZVertical,0.5369290704574609,-0.4909951902055351,-0.4690960144360223,0.5005794659042554,0.0121783539652824,-0.9981991052627563,0.0587382055819034,0,0,0,-1,-1,2568.952708625,unknown,2,2022-06-02T10:43:44.674+02:00,2022-06-02T10:17:13.754+02:00,441,1.292008,0,0,340.1827,0,0,2022-06-02T10:43:44.674+02:00,675852224.674142,0,6.3125,101.3062,1,0.82
422,2022-06-02T10:43:46.267+02:00,1654159426.000441,53.22911632425093,10.39853843355685,36.783,0,20,-1,-1,2.400000095367432,7.999579855010836,-9999,2570.544748875,7.105361938476562,-2.5303955078125,-2.14263916015625,2570.539751875,2.816342190343797,1.945480232735353,1.42017530041745,-1.338971138000488,-3.536218643188477,-12.14066028594971,7.878883361816406,-1.301696538925171,-1.991728782653809,XArbitraryZVertical,0.5589903627828479,-0.4636673872902507,-0.5085485085878589,0.4625154565273972,0.1396407634019852,-0.9886780977249146,0.0549153424799442,0,0,0,-1,-1,2568.952708625,unknown,2,2022-06-02T10:43:44.674+02:00,2022-06-02T10:17:13.754+02:00,441,1.292008,0,0,340.1827,0,0,2022-06-02T10:43:44.674+02:00,675852224.674142,0,6.3125,101.3062,1,0.82
423,2022-06-02T10:43:46.277+02:00,1654159426.000441,53.22911632425093,10.39853843355685,36.783,0,20,-1,-1,2.400000095367432,7.999579855010836,-9999,2570.554743875,5.89984130859375,-3.084014892578125,-2.1016845703125,2570.549745875,3.053673251354714,1.675419891583937,1.312629821664379,-2.882586002349854,-3.872661113739014,-10.92642784118652,6.851450443267822,-1.563535690307617,-2.169301748275757,XArbitraryZVertical,0.5702153235522438,-0.4338037885283172,-0.5495590435696079,0.4297132143798564,0.2539115250110626,-0.9668596982955932,0.0266624838113784,0,0,0,-1,-1,2568.952708625,unknown,2,2022-06-02T10:43:44.674+02:00,2022-06-02T10:17:13.754+02:00,441,1.292008,0,0,340.1827,0,0,2022-06-02T10:43:44.674+02:00,675852224.674142,0,6.3125,101.3062,1,0.82
424,2022-06-02T10:43:46.288+02:00,1654159426.000441,53.22911632425093,10.39853843355685,36.783,0,20,-1,-1,2.400000095367432,7.999579855010836,-9999,2570.564738875,4.596511840820312,-3.125869750976562,-2.048965454101562,2570.559740875,-3.108910724296079,1.522600568161757,1.210389003358367,-3.67378044128418,-3.638613700866699,-9.701735496520996,5.547595977783203,-2.148261547088623,-2.084694862365723,XArbitraryZVertical,0.5739919633335918,-0.4025397884189749,-0.5888687416923889,0.4021546368316085,0.3522453606128693,-0.9357532858848572,-0.0169898886233568,0,0,0,-1,-1,2568.952708625,unknown,2,2022-06-02T10:43:44.674+02:00,2022-06-02T10:17:13.754+02:00,441,1.292008,0,0,340.1827,0,0,2022-06-02T10:43:44.674+02:00,675852224.674142,0,6.3125,101.3062,1,0.82
425,2022-06-02T10:43:46.297+02:00,1654159426.000441,53.22911632425093,10.39853843355685,36.783,0,20,-1,-1,2.400000095367432,7.999579855010836,-9999,2570.574732875,3.7738037109375,-2.661178588867188,-2.309616088867188,2570.569735875,-3.045592683291904,1.429803007004568,1.116453143289062,-2.845167398452759,-3.262233018875122,-8.525579452514648,4.161994934082031,-2.227319955825806,-1.987292408943176,XArbitraryZVertical,0.5745807812536702,-0.3728543111961616,-0.623123020996658,0.3775633340716603,0.4345167875289917,-0.898549497127533,-0.0616731755435466,0,0,0,-1,-1,2568.952708625,unknown,2,2022-06-02T10:43:44.674+02:00,2022-06-02T10:17:13.754+02:00,441,1.292008,0,0,340.1827,0,0,2022-06-02T10:43:44.674+02:00,675852224.674142,0,6.3125,101.3062,1,0.82
426,2022-06-02T10:43:46.307+02:00,1654159426.000441,53.22911632425093,10.39853843355685,36.783,0,20,-1,-1,2.400000095367432,7.999579855010836,-9999,2570.584727875,3.248794555664062,-2.666427612304688,-2.223724365234375,2570.579730875,-3.029872440572555,1.384754654278028,1.034653846594194,-1.351125359535217,-3.012017488479614,-7.357450008392334,3.27179479598999,-1.801492929458618,-2.215128898620605,XArbitraryZVertical,0.5752228422459352,-0.3491061136459294,-0.6503369810953942,0.3525697545549073,0.502008855342865,-0.8596855998039246,-0.0944872051477432,0,0,0,-1,-1,2568.952708625,unknown,2,2022-06-02T10:43:44.674+02:00,2022-06-02T10:17:13.754+02:00,441,1.292008,0,0,340.1827,0,0,2022-06-02T10:43:44.674+02:00,675852224.674142,0,6.3125,101.3062,1,0.82
427,2022-06-02T10:43:46.334+02:00,1654159426.000441,53.22911632425093,10.39853843355685,36.783,0,20,-1,-1,2.400000095367432,7.999579855010836,-9999,2570.594722875,2.9923095703125,-2.437225341796875,-2.0450439453125,2570.589725875,-3.038512814449131,1.361997300917128,0.96713488444837,-0.4500346779823303,-3.012085676193237,-6.090539932250977,2.693463325500488,-1.843164801597595,-2.106056690216064,XArbitraryZVertical,0.5752535646159834,-0.3320384559953,-0.671868276881676,0.3277602208840492,0.5553312301635742,-0.8232626914978027,-0.1176676005125046,0,0,0,-1,-1,2568.952708625,unknown,2,2022-06-02T10:43:44.674+02:00,2022-06-02T10:17:13.754+02:00,441,1.292008,0,0,340.1827,0,0,2022-06-02T10:43:44.674+02:00,675852224.674142,0,6.3125,101.3062,1,0.82
428,2022-06-02T10:43:46.341+02:00,1654159426.000441,53.22911632425093,10.39853843355685,36.783,0,20,-1,-1,2.400000095367432,7.999579855010836,-9999,2570.604717875,3.226043701171875,-2.098251342773438,-2.153900146484375,2570.599719875,-3.060066976198762,1.348390351053971,0.9136954341525552,0.6944056153297424,-3.195974111557007,-4.904218196868896,2.396530389785767,-1.645458817481995,-1.9103102684021,XArbitraryZVertical,0.573826383808741,-0.3214909524460987,-0.6892900965140291,0.3037202116085269,0.5957790613174438,-0.7917664051055908,-0.1347336918115616,0,0,0,-1,-1,2568.952708625,unknown,2,2022-06-02T10:43:44.674+02:00,2022-06-02T10:17:13.754+02:00,441,1.292008,0,0,340.1827,0,0,2022-06-02T10:43:44.674+02:00,675852224.674142,0,6.3125,101.3062,1,0.82
429,2022-06-02T10:43:46.345+02:00,1654159426.000441,53.22911632425093,10.39853843355685,36.783,0,20,-1,-1,2.400000095367432,7.999579855010836,-9999,2570.614711875,3.682220458984375,-2.137802124023438,-1.916732788085938,2570.609714875,-3.088851034566496,1.337950417129874,0.8741550825443662,0.7441372275352478,-3.379986524581909,-3.594253063201904,2.601714134216309,-1.331249594688416,-2.005842208862305,XArbitraryZVertical,0.570440876830438,-0.317124879612309,-0.70354359342644,0.2811678626052699,0.6243293881416321,-0.7670016288757324,-0.1480580270290375,0,0,0,-1,-1,2568.952708625,unknown,2,2022-06-02T10:43:44.674+02:00,2022-06-02T10:17:13.754+02:00,441,1.292008,0,0,340.1827,0,0,2022-06-02T10:43:44.674+02:00,675852224.674142,0,6.3125,101.3062,1,0.82
430,2022-06-02T10:43:46.347+02:00,1654159426.000441,53.22911632425093,10.39853843355685,36.783,0,20,-1,-1,2.400000095367432,7.999579855010836,-9999,2570.624706875,3.711502075195312,-2.195663452148438,-1.779144287109375,2570.619709875,-3.098132411576684,1.310867624421509,0.8452404123516026,-1.106072902679443,-3.431884527206421,-2.351606130599976,3.040958881378174,-1.389671325683594,-1.746192455291748,XArbitraryZVertical,0.5628115484955204,-0.313006309168673,-0.7174297827477727,0.2656400386456507,0.6412615180015564,-0.7481306791305542,-0.1705404222011566,0,0,0,-1,-1,2568.952708625,unknown,2,2022-06-02T10:43:44.674+02:00,2022-06-02T10:17:13.754+02:00,441,1.292008,0,0,340.1827,0,0,2022-06-02T10:43:44.674+02:00,675852224.674142,0,6.3125,101.3062,1,0.82
431,2022-06-02T10:43:46.360+02:00,1654159426.000441,53.22911632425093,10.39853843355685,36.783,0,20,-1,-1,2.400000095367432,7.999579855010836,-9999,2570.634701875,3.509567260742188,-1.777603149414062,-1.76361083984375,2570.629704875,-3.077919432665904,1.261826366251546,0.8213341192873101,-2.706243753433228,-3.38451075553894,-1.506919264793396,3.062515735626221,-1.463608026504517,-1.571993112564087,XArbitraryZVertical,0.550823736332126,-0.30498781513519,-0.7324788902202268,0.2589404302288377,0.6489861607551575,-0.7320553660392761,-0.2071512937545776,0,0,0,-1,-1,2568.952708625,unknown,2,2022-06-02T10:43:44.674+02:00,2022-06-02T10:17:13.754+02:00,441,1.292008,0,0,340.1827,0,0,2022-06-02T10:43:44.674+02:00,675852224.674142,0,6.3125,101.3062,1,0.82
432,2022-06-02T10:43:46.367+02:00,1654159426.000441,53.22911632425093,10.39853843355685,36.783,0,20,-1,-1,2.400000095367432,7.999579855010836,-9999,2570.644696875,3.095596313476562,-1.522796630859375,-1.570205688476562,2570.639698875,-3.041188287887755,1.20250801898619,0.7999408241295526,-3.435922145843506,-3.129105091094971,-0.8776800632476807,2.859538555145264,-1.060288190841675,-1.512767910957336,XArbitraryZVertical,0.5364863762313894,-0.2945519756657026,-0.7475309676554586,0.2581066611369978,0.6500287055969238,-0.7173148393630981,-0.2508430182933807,0,0,0,-1,-1,2568.952708625,unknown,2,2022-06-02T10:43:44.674+02:00,2022-06-02T10:17:13.754+02:00,441,1.292008,0,0,340.1827,0,0,2022-06-02T10:43:44.674+02:00,675852224.674142,0,6.3125,101.3062,1,0.82
433,2022-06-02T10:43:46.377+02:00,1654159426.000441,53.22911632425093,10.39853843355685,36.783,0,20,-1,-1,2.400000095367432,7.999579855010836,-9999,2570.654690875,2.586883544921875,-1.222732543945312,-1.457107543945312,2570.649693875,-2.998559795710845,1.143141344894248,0.7792664993282814,-3.602511167526245,-2.659034729003906,-0.6553095579147339,2.448237895965576,-0.8200388550758362,-1.275148987770081,XArbitraryZVertical,0.5219573437831725,-0.2828994705786204,-0.761342730690304,0.2605489383916302,0.6473585367202759,-0.7027577757835388,-0.2950568497180939,0,0,0,-1,-1,2568.952708625,unknown,2,2022-06-02T10:43:44.674+02:00,2022-06-02T10:17:13.754+02:00,441,1.292008,0,0,340.1827,0,0,2022-06-02T10:43:44.674+02:00,675852224.674142,0,6.3125,101.3062,1,0.82
434,2022-06-02T10:43:46.387+02:00,1654159426.000441,53.22911632425093,10.39853843355685,36.783,0,20,-1,-1,2.400000095367432,7.999579855010836,-9999,2570.664685875,2.35809326171875,-0.7415771484375,-1.377029418945312,2570.659688875,-2.963504095956392,1.095497924960249,0.7596364610665626,-2.453021287918091,-1.980073213577271,-0.6886819005012512,1.942168474197388,-0.5340744853019714,-1.125305414199829,XArbitraryZVertical,0.5098829174072402,-0.2722467258924169,-0.7725468161669304,0.2628164248419008,0.6447150111198425,-0.6886578798294067,-0.3318022489547729,0,0,0,-1,-1,2568.952708625,unknown,2,2022-06-02T10:43:44.674+02:00,2022-06-02T10:17:13.754+02:00,441,1.292008,0,0,340.1827,0,0,2022-06-02T10:43:44.674+02:00,675852224.674142,0,6.3125,101.3062,1,0.82
435,2022-06-02T10:43:46.397+02:00,1654159426.000441,53.22911632425093,10.39853843355685,36.783,0,20,-1,-1,2.400000095367432,7.999579855010836,-9999,2570.674680875,2.305755615234375,-0.318267822265625,-1.445541381835938,2570.669683875,-2.95261708047922,1.072005299864361,0.7476419911755232,0.0249996930360794,-1.227390646934509,-0.668226420879364,1.714142560958862,-0.0616655349731445,-1.02624785900116,XArbitraryZVertical,0.502934258281422,-0.2677056171471088,-0.7792155243466056,0.2611780643197248,0.6439507007598877,-0.6799115538597107,-0.3507816791534424,0,0,0,-1,-1,2568.952708625,unknown,2,2022-06-02T10:43:44.674+02:00,2022-06-02T10:17:13.754+02:00,441,1.292008,0,0,340.1827,0,0,2022-06-02T10:43:44.674+02:00,675852224.674142,0,6.3125,101.3062,1,0.82
436,2022-06-02T10:43:46.407+02:00,1654159426.000441,53.22911632425093,10.39853843355685,36.783,0,20,-1,-1,2.400000095367432,7.999579855010836,-9999,2570.684675875,2.2100830078125,-0.6573944091796875,-1.16455078125,2570.679677875,-2.97478488519872,1.077911377864045,0.750621433143391,3.050842046737671,-0.6404201984405518,-0.2736259400844574,1.661531925201416,0.3638255596160889,-1.099529147148132,XArbitraryZVertical,0.502063839952662,-0.273725689195789,-0.7800573217910651,0.2540014314470334,0.644223690032959,-0.6820933222770691,-0.34601229429245,0,0,0,-1,-1,2568.952708625,unknown,2,2022-06-02T10:43:44.674+02:00,2022-06-02T10:17:13.754+02:00,441,1.292008,0,0,340.1827,0,0,2022-06-02T10:43:44.674+02:00,675852224.674142,0,6.3125,101.3062,1,0.82
437,2022-06-02T10:43:46.417+02:00,1654159426.000441,53.22911632425093,10.39853843355685,36.783,0,20,-1,-1,2.400000095367432,7.999579855010836,-9999,2570.694669875,2.243545532226562,-1.2392578125,-0.7719268798828125,2570.689672875,-3.019470927695921,1.103886921847432,0.7684842541798264,4.072264194488525,-0.3425363302230835,0.4464227855205536,1.568073272705078,0.0376519560813903,-0.8409241437911987,XArbitraryZVertical,0.5046816251200873,-0.2889344051297437,-0.7759520852500226,0.2443597593697871,0.6420096158981323,-0.6950462460517883,-0.3236267268657684,0,0,0,-1,-1,2568.952708625,unknown,2,2022-06-02T10:43:44.674+02:00,2022-06-02T10:17:13.754+02:00,441,1.292008,0,0,340.1827,0,0,2022-06-02T10:43:44.674+02:00,675852224.674142,0,6.3125,101.3062,1,0.82
438,2022-06-02T10:43:46.427+02:00,1654159426.000441,53.22911632425093,10.39853843355685,36.783,0,20,-1,-1,2.400000095367432,7.999579855010836,-9999,2570.704664875,2.27532958984375,-1.377899169921875,-0.9570770263671876,2570.699667875,-3.063028024390738,1.132548726673946,0.7910880011001341,3.405458450317383,-0.0426683016121387,0.8642728924751282,1.606916189193726,-0.528139054775238,-0.4735760688781738,XArbitraryZVertical,0.5074556698923635,-0.3054722332925918,-0.7700261643252583,0.2371393467098104,0.6366293430328369,-0.7111186385154724,-0.2983509302139282,0,0,0,-1,-1,2568.952708625,unknown,2,2022-06-02T10:43:44.674+02:00,2022-06-02T10:17:13.754+02:00,441,1.292008,0,0,340.1827,0,0,2022-06-02T10:43:44.674+02:00,675852224.674142,0,6.3125,101.3062,1,0.82
439,2022-06-02T10:43:46.437+02:00,1654159426.000441,53.22911632425093,10.39853843355685,36.783,0,20,-1,-1,2.400000095367432,7.999579855010836,-9999,2570.714659875,2.297134399414062,-1.110443115234375,-1.074874877929688,2570.709662875,-3.097591874002978,1.158555407571652,0.8131531971790369,2.820128917694092,0.2741035223007202,1.201203584671021,1.645689368247986,-0.6514413952827454,-0.6817366480827332,XArbitraryZVertical,0.5099527689978476,-0.3198092421063679,-0.7636891860709587,0.2333431539940479,0.6296402215957642,-0.7264577150344849,-0.2753404378890991,0,0,0,-1,-1,2568.952708625,unknown,2,2022-06-02T10:43:44.674+02:00,2022-06-02T10:17:13.754+02:00,441,1.292008,0,0,340.1827,0,0,2022-06-02T10:43:44.674+02:00,675852224.674142,0,6.3125,101.3062,1,0.82
440,2022-06-02T10:43:46.447+02:00,1654159426.000441,53.22911632425093,10.39853843355685,36.783,0,20,-1,-1,2.400000095367432,7.999579855010836,-9999,2570.724654875,2.301986694335938,-1.1341552734375,-1.042755126953125,2570.719656875,-3.121857228605197,1.179975222803298,0.8366411589151675,1.985429406166077,0.4381380677223206,1.868156552314758,1.677691459655762,-0.3680459856987,-0.819655179977417,XArbitraryZVertical,0.5116840373021888,-0.3325199735827051,-0.7570299440118106,0.2334857556407275,0.6194429397583008,-0.7423970103263855,-0.2552198171615601,0,0,0,-1,-1,2568.952708625,unknown,2,2022-06-02T10:43:44.674+02:00,2022-06-02T10:17:13.754+02:00,441,1.292008,0,0,340.1827,0,0,2022-06-02T10:43:44.674+02:00,675852224.674142,0,6.3125,101.3062,1,0.82
441,2022-06-02T10:43:46.457+02:00,1654159426.000441,53.22911632425093,10.39853843355685,36.783,0,20,-1,-1,2.400000095367432,7.999579855010836,-9999,2570.734648875,2.34259033203125,-1.055145263671875,-1.06829833984375,2570.729651875,-3.129803785494037,1.190627344402579,0.8620758531956496,0.9009758234024048,0.4907072782516479,2.399884223937988,1.697594165802002,-0.3749598264694214,-0.801234781742096,XArbitraryZVertical,0.5115067162584597,-0.3429295230715317,-0.7508458761475492,0.2387269309608779,0.604392409324646,-0.7591952681541443,-0.2415204495191574,0,0,0,-1,-1,2568.952708625,unknown,2,2022-06-02T10:43:44.674+02:00,2022-06-02T10:17:13.754+02:00,441,1.292008,0,0,340.1827,0,0,2022-06-02T10:43:44.674+02:00,675852224.674142,0,6.3125,101.3062,1,0.82
442,2022-06-02T10:43:46.468+02:00,1654159426.000441,53.22911632425093,10.39853843355685,36.783,0,20,-1,-1,2.400000095367432,7.999579855010836,-9999,2570.744643875,2.43304443359375,-0.631378173828125,-1.033493041992188,2570.739646875,-3.121874149574713,1.189622079321504,0.8880592698020194,0.1503648310899734,0.540224552154541,2.815626621246338,1.756953477859497,-0.279296338558197,-0.8335899114608765,XArbitraryZVertical,0.5094970737277511,-0.3507969198370628,-0.7455270827667876,0.2480794988120027,0.5856366753578186,-0.7758487462997437,-0.2347085028886795,0,0,0,-1,-1,2568.952708625,unknown,2,2022-06-02T10:43:44.674+02:00,2022-06-02T10:17:13.754+02:00,441,1.292008,0,0,340.1827,0,0,2022-06-02T10:43:44.674+02:00,675852224.674142,0,6.3125,101.3062,1,0.82
443,2022-06-02T10:43:46.477+02:00,1654159426.000441,53.22911632425093,10.39853843355685,36.783,0,20,-1,-1,2.400000095367432,7.999579855010836,-9999,2570.754638875,2.3328857421875,-0.2928619384765625,-1.112136840820312,2570.749641875,-3.105840548713668,1.182883779471599,0.9173086205692847,0.3622970581054688,0.6280345320701599,3.378104209899902,1.870256304740906,0.1625902652740479,-0.8035284280776978,XArbitraryZVertical,0.5064243004525317,-0.3585416239775136,-0.7398104576578943,0.2601203798227728,0.5627880096435547,-0.7939682602882385,-0.2299646586179733,0,0,0,-1,-1,2568.952708625,unknown,2,2022-06-02T10:43:44.674+02:00,2022-06-02T10:17:13.754+02:00,441,1.292008,0,0,340.1827,0,0,2022-06-02T10:43:44.674+02:00,675852224.674142,0,6.3125,101.3062,1,0.82
444,2022-06-02T10:43:46.487+02:00,1654159426.000441,53.22911632425093,10.39853843355685,36.783,0,20,-1,-1,2.400000095367432,7.999579855010836,-9999,2570.764633875,2.073577880859375,-0.4349517822265625,-1.10150146484375,2570.759635875,-3.096815816499084,1.183054022148686,0.9542887540500704,1.459197163581848,0.8616234660148621,3.846427202224731,1.797618627548218,0.5230409502983093,-0.8935241103172302,XArbitraryZVertical,0.5037575672233119,-0.3700295959936324,-0.7314594157318568,0.2725313382898515,0.5352671146392822,-0.8159027099609375,-0.2186128199100494,0,0,0,-1,-1,2568.952708625,unknown,2,2022-06-02T10:43:44.674+02:00,2022-06-02T10:17:13.754+02:00,441,1.292008,0,0,340.1827,0,0,2022-06-02T10:43:44.674+02:00,675852224.674142,0,6.3125,101.3062,1,0.82
